Line_number,Fiducial,Easting,Northing,Height,Elevation,tx_pitch,tx_roll,tx_yaw,txrx_dx,txrx_dy,txrx_dz,rx_pitch,rx_roll,rx_yaw,SZ_time_5.811e-05,SZ_time_8.588e-05,SZ_time_1.137e-04,SZ_time_1.414e-04,SZ_time_1.692e-04,SZ_time_1.970e-04,SZ_time_2.248e-04,SZ_time_2.525e-04,SZ_time_2.803e-04,SZ_time_3.081e-04,SZ_time_3.359e-04,SZ_time_3.637e-04,SZ_time_3.914e-04,SZ_time_4.192e-04,SZ_time_4.470e-04,SZ_time_4.748e-04,SZ_time_5.026e-04,SZ_time_5.442e-04,SZ_time_5.998e-04,SZ_time_6.692e-04,SZ_time_7.526e-04,SZ_time_8.359e-04,SZ_time_9.331e-04,SZ_time_1.044e-03,SZ_time_1.169e-03,SZ_time_1.308e-03,SZ_time_1.461e-03,SZ_time_1.628e-03,SZ_time_1.822e-03,SZ_time_2.044e-03,SZ_time_2.280e-03,SZ_time_2.544e-03,SZ_time_2.850e-03,SZ_time_3.197e-03
0.0,0,0.0,0.0,30.0,0.0,0.0,0.0,0.0,2.0,2.0,-12.0,0.0,0.0,0.0,1.286508051903492e-05,8.883658487108151e-06,7.392416142583723e-06,6.396295165824498e-06,5.245678160841976e-06,4.485484062629885e-06,3.4759149013838345e-06,3.361784867456873e-06,2.8968008214970045e-06,3.0612119275888973e-06,2.4084764100422264e-06,2.5142602082828928e-06,2.170911514952914e-06,1.936709547808986e-06,1.6987477147751783e-06,1.7121982219291652e-06,1.5658072062139237e-06,1.535625992021058e-06,1.2447352292736672e-06,1.0567993879775423e-06,9.342093130335564e-07,7.766331528095773e-07,6.775302518455954e-07,4.817291769138282e-07,4.0083541362936646e-07,3.172872018850314e-07,2.8098704785628865e-07,2.140636355131113e-07,1.9674215240516148e-07,1.6714089370111576e-07,9.700419189193214e-08,7.437208941886562e-08,6.712046695454845e-08,5.0118851030607644e-08
0.0,1,1.0,0.0,30.0,0.0,0.0,0.0,0.0,2.0,2.0,-12.0,0.0,0.0,0.0,1.410399020828313e-05,9.201804899626124e-06,7.811862590978587e-06,5.953564893658408e-06,5.2974416845633086e-06,4.394487168824213e-06,3.872225828600656e-06,3.4519404239592205e-06,3.1534128833362805e-06,2.4757850916329364e-06,2.493789166129191e-06,2.3524219516558663e-06,2.2041250693321047e-06,1.8113337928379164e-06,1.7920505441195982e-06,1.6257041472070609e-06,1.587580881203407e-06,1.4321894510850662e-06,1.1685670897994128e-06,9.86667315662942e-07,8.60243875238125e-07,7.490917740776888e-07,6.326797950047082e-07,5.206298466319431e-07,4.111379348669576e-07,3.2732645375105925e-07,2.8493281165918394e-07,2.3370696434466739e-07,1.9255433399961406e-07,1.1163901117442049e-07,1.059340868504951e-07,8.900769423060694e-08,5.756924335913224e-08,5.0651936712021926e-08
0.0,2,2.0,0.0,30.0,0.0,0.0,0.0,0.0,2.0,2.0,-12.0,0.0,0.0,0.0,1.4755813823984543e-05,8.903897051037306e-06,6.717279769687589e-06,5.617773928208101e-06,5.101967797254977e-06,4.329907487102198e-06,3.493834452321551e-06,3.152959296954883e-06,3.1052800119964324e-06,2.894865741465842e-06,2.435006507652517e-06,2.260855884810335e-06,2.0862386071810596e-06,1.789855234760823e-06,1.7372127183737474e-06,1.7151276298835198e-06,1.529711580907884e-06,1.331946025867472e-06,1.2464213219866708e-06,1.0208757157788018e-06,7.709410646467809e-07,7.388279897959521e-07,6.297633083816175e-07,4.959610922141344e-07,4.303723373104264e-07,2.845431765724196e-07,2.6870810977193125e-07,1.9745528979732745e-07,1.7568069429302086e-07,1.356345508342483e-07,1.2494207555391973e-07,9.142571803020043e-08,5.1903377015751546e-08,3.893914684247968e-08
0.0,3,3.0,0.0,30.0,0.0,0.0,0.0,0.0,2.0,2.0,-12.0,0.0,0.0,0.0,1.4205901092351065e-05,8.266088556797398e-06,6.428109491877364e-06,5.621931600732452e-06,5.289434527776108e-06,4.044501979013067e-06,3.343594996390361e-06,3.1700474937360326e-06,2.777876518390863e-06,2.377706989754767e-06,2.19128975110911e-06,2.2625494900432305e-06,1.8679334686488334e-06,1.7976218951486118e-06,1.6700756043999153e-06,1.6853488300324414e-06,1.429803909834661e-06,1.507604706923712e-06,1.1699474636823972e-06,9.085199424353447e-07,8.847922500994923e-07,7.207882579976867e-07,5.507388863987506e-07,4.891902450518354e-07,4.0644478855219204e-07,2.993104438189071e-07,2.624448185562996e-07,2.1889761754439116e-07,1.7700258844251802e-07,1.2893724750129523e-07,9.940989013875165e-08,6.861695034413194e-08,6.043545889889608e-08,3.301075079739496e-08
0.0,4,4.0,0.0,30.0,0.0,0.0,0.0,0.0,2.0,2.0,-12.0,0.0,0.0,0.0,1.3265965845686448e-05,9.900924164322675e-06,7.111485770657849e-06,5.658546075117707e-06,4.944588674047193e-06,3.917440371669279e-06,3.558819260606188e-06,3.188057815559626e-06,2.7621313564101706e-06,2.7228966012769574e-06,2.4970942089566055e-06,2.0217739028085644e-06,1.7169387879737743e-06,1.8026710052363576e-06,1.605010179837848e-06,1.5759197482040666e-06,1.3743361527249403e-06,1.3596909302589746e-06,1.051266113229167e-06,8.929865111773863e-07,7.944033592903765e-07,6.553308747277988e-07,5.314652864664394e-07,4.7145462052032676e-07,4.113850838285032e-07,3.003313687364218e-07,2.5327233353064315e-07,2.1012239079144193e-07,1.4841780982571654e-07,1.315825547989729e-07,1.0501396384145287e-07,5.922559100894169e-08,6.788100904136921e-08,5.9203959154767374e-08
0.0,5,5.0,0.0,30.0,0.0,0.0,0.0,0.0,2.0,2.0,-12.0,0.0,0.0,0.0,1.4134789662059985e-05,9.935968804666121e-06,7.248147127406764e-06,5.351726822900654e-06,4.489407064763439e-06,3.996834512105098e-06,3.581417480496452e-06,3.0262042617309497e-06,2.6666146653042248e-06,2.4219339049447443e-06,2.153007128689095e-06,1.993705866765834e-06,1.8338437283993495e-06,1.7428294984954259e-06,1.622160946075138e-06,1.4984919045814803e-06,1.379507669127352e-06,1.330782798574484e-06,1.1054024579811773e-06,9.216044120079147e-07,7.528295826597666e-07,7.00304929592733e-07,5.739026052240203e-07,4.907714035886766e-07,3.739885329796735e-07,2.901945967150818e-07,2.104990426780492e-07,1.9422368880539856e-07,1.6835575192217589e-07,1.264404944287584e-07,9.203063295690712e-08,8.191068859474071e-08,6.308127783148588e-08,4.150784251618941e-08
0.0,6,6.0,0.0,30.0,0.0,0.0,0.0,0.0,2.0,2.0,-12.0,0.0,0.0,0.0,1.335317534285822e-05,9.163237017790726e-06,6.557199511468983e-06,5.574951381637396e-06,4.75601600377702e-06,3.8610738914727185e-06,3.152231879446677e-06,3.109188604127259e-06,2.477989979716302e-06,2.1287721210314286e-06,2.2194520205490164e-06,2.0314891892906013e-06,1.759360799339253e-06,1.742787529789937e-06,1.6669802371442807e-06,1.423318527677708e-06,1.3001642988830773e-06,1.121749364138917e-06,1.0867116172466873e-06,8.984044997074373e-07,6.946631375503399e-07,6.752432767246877e-07,5.459000744773034e-07,4.5544941123150686e-07,3.9641301100897315e-07,2.821799966756985e-07,2.1565154078832298e-07,1.9507217672186482e-07,1.5308536123466813e-07,1.3029884360059187e-07,1.0991919015412262e-07,6.688719138058978e-08,6.440078815550661e-08,5.715931526106256e-08
0.0,7,7.0,0.0,30.0,0.0,0.0,0.0,0.0,2.0,2.0,-12.0,0.0,0.0,0.0,1.3445256703817255e-05,9.571821242313396e-06,6.993084380901337e-06,5.496370312583391e-06,4.253099493757714e-06,3.854609037840924e-06,3.548880400473867e-06,2.9292092941721322e-06,2.801310023422958e-06,2.343793661219056e-06,2.0761857611655306e-06,1.8085501084366927e-06,1.8821322513361716e-06,1.691611794592811e-06,1.3363911426367213e-06,1.4380958448665427e-06,1.2889509916759434e-06,1.110666903017016e-06,9.062950675862179e-07,8.508440563727311e-07,6.604380076474137e-07,5.930840218198501e-07,4.946346980592931e-07,4.214027568544115e-07,3.823425320453562e-07,2.820832943769505e-07,2.2082954313096446e-07,1.6995464158788969e-07,1.2866568286062042e-07,1.1616673510295297e-07,1.0266965851249119e-07,7.545313072104101e-08,4.908583529289768e-08,2.587801084037943e-08
0.0,8,8.0,0.0,30.0,0.0,0.0,0.0,0.0,2.0,2.0,-12.0,0.0,0.0,0.0,1.464128237092426e-05,9.262082108957788e-06,6.525851711680193e-06,5.122411171871875e-06,4.7453287035301e-06,3.7131645601940176e-06,3.2271478080758643e-06,3.0795524580276267e-06,2.747512654417785e-06,2.4879130951337568e-06,2.1381149197613042e-06,1.967393470118584e-06,1.8739581369334101e-06,1.5776479581477755e-06,1.376658575879427e-06,1.3823335549345607e-06,1.2221128145179569e-06,1.220293957683387e-06,1.1248763035204185e-06,9.395325412529952e-07,6.566717425017026e-07,6.175257163174008e-07,5.146317380984873e-07,4.5461786802876775e-07,3.088460048410952e-07,3.289813832549274e-07,2.521316967829735e-07,1.8756143048720493e-07,1.3374916084202713e-07,1.1165531469595209e-07,9.40250549920451e-08,5.572046083750905e-08,3.7314796365131037e-08,4.624206370040508e-08
0.0,9,9.0,0.0,30.0,0.0,0.0,0.0,0.0,2.0,2.0,-12.0,0.0,0.0,0.0,1.3462432104983697e-05,9.691986025158635e-06,6.655590547032606e-06,5.1783519439556184e-06,4.267746949818796e-06,3.7495588877098256e-06,2.842895632539005e-06,3.1540308544086092e-06,2.6217692677582288e-06,2.5028865725901086e-06,2.1955941399647576e-06,1.8496863082791066e-06,1.8042306357286786e-06,1.6047262138026749e-06,1.4143264663115284e-06,1.228926699108013e-06,1.151709637445734e-06,1.084657851878612e-06,8.973020978658433e-07,9.001080182432278e-07,7.312558665003006e-07,5.678584984696586e-07,5.152416346897964e-07,3.6890848721388075e-07,3.2802194967781834e-07,3.16182183139621e-07,2.1670121489680808e-07,1.747553411937082e-07,1.381383647506357e-07,1.0696164608317043e-07,9.665385510174473e-08,7.766064819528133e-08,5.758225075340896e-08,5.5456168054849874e-08
0.0,10,10.0,0.0,30.0,0.0,0.0,0.0,0.0,2.0,2.0,-12.0,0.0,0.0,0.0,1.4197910321090916e-05,9.451137604101832e-06,6.3564675015410345e-06,5.332314515715291e-06,4.485943214616189e-06,3.711138107869542e-06,3.414290641520951e-06,2.7269990658477353e-06,2.5328234930333326e-06,2.4527317127148103e-06,2.0338951701428836e-06,1.9648049070796176e-06,1.6905892435031473e-06,1.5067652683721477e-06,1.4568839682565926e-06,1.242345714541584e-06,1.2817595133605806e-06,1.1110434487473237e-06,1.0555445159145136e-06,8.235421532939078e-07,6.944978636359933e-07,5.682390099575473e-07,4.68784582503797e-07,3.8792273329731074e-07,3.260156656152194e-07,2.903769067416488e-07,2.1928114736576846e-07,1.9674850061179225e-07,1.3699843841170978e-07,9.392898962654565e-08,9.871299050101394e-08,7.430615300115898e-08,5.8952968242442497e-08,4.886587672932773e-08
0.0,11,11.0,0.0,30.0,0.0,0.0,0.0,0.0,2.0,2.0,-12.0,0.0,0.0,0.0,1.3141863772414136e-05,8.955816037938145e-06,7.033384552352994e-06,5.221094347835695e-06,4.327770324399208e-06,3.8139230100979524e-06,3.1010721935613563e-06,2.6506941610742892e-06,2.5377977152059886e-06,2.218496043529495e-06,2.0565915787330275e-06,1.7022715445223583e-06,1.5719796647265593e-06,1.4270946295547773e-06,1.3666141138011591e-06,1.4606660318808937e-06,1.109157896317158e-06,1.1618381511397006e-06,9.477406787715155e-07,8.135428551202152e-07,6.784508516936127e-07,5.730643181865232e-07,4.890302634577572e-07,3.8661822591071296e-07,3.2445816418822453e-07,2.4776217461279656e-07,2.245757102642432e-07,1.668239442585052e-07,1.4621633227483546e-07,1.018042726890556e-07,9.739478464010172e-08,7.716947798438185e-08,5.450709760232197e-08,3.8492242625247874e-08
0.0,12,12.0,0.0,30.0,0.0,0.0,0.0,0.0,2.0,2.0,-12.0,0.0,0.0,0.0,1.4741809920120814e-05,9.438075726654717e-06,6.663699847419017e-06,5.3473855702275315e-06,4.395831809133356e-06,3.884662062802034e-06,3.07762828231266e-06,2.6973766797085714e-06,2.426220627399367e-06,2.212214872226378e-06,1.8585655878023002e-06,1.87228186078684e-06,1.604502753394178e-06,1.4013274192006033e-06,1.3718311970913846e-06,1.1366971040637328e-06,1.0857259477988662e-06,1.0313483078894286e-06,8.676206995323121e-07,7.593369789688749e-07,7.292531816318437e-07,4.716449804942258e-07,5.011912539576133e-07,4.257506583269939e-07,2.937774238696049e-07,2.6740745414597396e-07,2.300189896925722e-07,1.6765829931735675e-07,1.3183375621931584e-07,1.2209717505475717e-07,7.142385652435463e-08,6.252591072652011e-08,5.183318608729615e-08,4.557365953218077e-08
0.0,13,13.0,0.0,30.0,0.0,0.0,0.0,0.0,2.0,2.0,-12.0,0.0,0.0,0.0,1.3871580318075322e-05,9.498930875130338e-06,6.652335948225865e-06,5.098601623074923e-06,4.06154843887283e-06,3.6845212184501626e-06,2.854194869036467e-06,2.806974385214118e-06,2.3879804086234738e-06,2.0299735904112906e-06,1.9887849485369197e-06,1.6705090271777289e-06,1.3980193686636441e-06,1.5492783148363707e-06,1.3937577375404748e-06,1.0908481216687346e-06,1.1457892539690861e-06,1.0265316498454678e-06,9.027102258814642e-07,7.422832759831991e-07,6.624698964990428e-07,5.623764255378492e-07,4.3814655059123e-07,3.622750488262607e-07,3.2627784374917813e-07,2.8165131803248853e-07,2.1028928301297758e-07,1.8127095171650685e-07,1.530973493068348e-07,1.0786224905877373e-07,7.167050987059157e-08,6.716857087286626e-08,6.315031451025587e-08,3.802170439276807e-08
0.0,14,14.0,0.0,30.0,0.0,0.0,0.0,0.0,2.0,2.0,-12.0,0.0,0.0,0.0,1.4800228786316954e-05,9.335286058418999e-06,6.7575669746494635e-06,5.299485741047945e-06,4.415064528181454e-06,3.6798715952725867e-06,2.996037980002403e-06,2.7643756499242665e-06,2.330010175581025e-06,1.963269316906527e-06,2.049408501154391e-06,1.6621623278915117e-06,1.443733010987066e-06,1.3938055737302674e-06,1.2568637926130225e-06,1.2179396416975305e-06,1.1078256184050613e-06,9.76571924978319e-07,9.139917675803413e-07,7.333839625064295e-07,6.222617843250876e-07,5.154189298853777e-07,4.562823125976865e-07,3.9465773646996994e-07,3.161710150263601e-07,2.487425067530319e-07,1.958130966477813e-07,1.6983762281008028e-07,1.553198642206454e-07,1.0356913377139742e-07,8.580343103337897e-08,5.9469715558821855e-08,5.205375380798445e-08,4.088109020753762e-08
0.0,15,15.0,0.0,30.0,0.0,0.0,0.0,0.0,2.0,2.0,-12.0,0.0,0.0,0.0,1.5096116196175217e-05,9.177524586992966e-06,6.867827058404145e-06,5.130491033895327e-06,3.943878117686754e-06,3.5686436345035557e-06,2.8815568399859873e-06,2.6873513242876485e-06,2.2785948135152283e-06,2.0793102128813072e-06,2.0004664513040477e-06,1.5870609345931638e-06,1.5817734091722205e-06,1.3333213092065828e-06,1.2940052386011687e-06,1.1720033361358543e-06,1.1037635058566942e-06,1.0537898127852492e-06,8.10344233961653e-07,7.074783993278534e-07,5.870196240279829e-07,4.931231019043141e-07,4.2234082666439866e-07,3.556359037640595e-07,3.194678373197156e-07,2.422988658295054e-07,1.9094215967900452e-07,1.6935558898371962e-07,1.4076745286642334e-07,1.0629631581705327e-07,8.329564288251724e-08,6.256065799547194e-08,3.643574116819702e-08,4.140112699110959e-08
0.0,16,16.0,0.0,30.0,0.0,0.0,0.0,0.0,2.0,2.0,-12.0,0.0,0.0,0.0,1.4612896848115074e-05,9.179280426233639e-06,7.033950488993825e-06,4.980371620957165e-06,4.468934943716907e-06,3.6832190559872427e-06,3.144574596706008e-06,2.695595677173524e-06,2.3586644220229163e-06,2.031197812347318e-06,1.693428880438629e-06,1.637322821306863e-06,1.4498348795995147e-06,1.3780055003784647e-06,1.3337160911728613e-06,1.1546991377503914e-06,1.0536800796460176e-06,8.056349944892645e-07,8.675627020056315e-07,7.352809138983885e-07,5.569647590529885e-07,5.00474860517712e-07,4.697721222238129e-07,3.426705768223542e-07,2.810445602288338e-07,2.2253187505936348e-07,2.026096101035864e-07,1.5819351122485712e-07,1.266462526633434e-07,1.014141137024491e-07,8.016187732485686e-08,5.6508856900661224e-08,4.0724857083020405e-08,2.0254166974159272e-08
0.0,17,17.0,0.0,30.0,0.0,0.0,0.0,0.0,2.0,2.0,-12.0,0.0,0.0,0.0,1.5237405630304241e-05,1.0084256397385926e-05,6.789923014993448e-06,5.550883821191896e-06,3.898869468412442e-06,3.7408916626006367e-06,2.9160018600736797e-06,2.5449544579796576e-06,2.326511685472473e-06,1.9450664519121916e-06,1.8359591271726712e-06,1.6486863505630012e-06,1.4761690878986818e-06,1.363875865355817e-06,1.2652622730545235e-06,1.0764469912724662e-06,1.0933444655192776e-06,1.035063088831052e-06,8.578481081522083e-07,7.217406608449572e-07,5.471478184181201e-07,5.18984830830794e-07,4.103289093255474e-07,3.1746029853482704e-07,2.625276114526349e-07,2.3736250005414745e-07,2.1508155296259319e-07,1.5719824399077842e-07,1.393917824074048e-07,8.846528147399652e-08,6.565484064797853e-08,4.629398916397043e-08,5.190440813822237e-08,2.640017668900141e-08
0.0,18,18.0,0.0,30.0,0.0,0.0,0.0,0.0,2.0,2.0,-12.0,0.0,0.0,0.0,1.4573114596706044e-05,8.68342707252548e-06,6.80299556492949e-06,5.181571964358742e-06,3.8763472136656244e-06,3.764741163810665e-06,2.712288327059598e-06,2.510183059769069e-06,2.3251415858560085e-06,1.9357500075586146e-06,1.770024621025068e-06,1.7927011427809304e-06,1.4139299213640085e-06,1.2558168355030644e-06,1.1782785636159756e-06,1.1262066420191644e-06,1.088005985939705e-06,8.942701319974731e-07,8.040306650337248e-07,6.369010054957553e-07,5.913624379106673e-07,4.793877544906203e-07,4.1829208956476534e-07,3.3981106908560304e-07,2.965468558012035e-07,2.3564316111903125e-07,2.0986259352340353e-07,1.6959540398228826e-07,1.2371748625066504e-07,9.17600527978962e-08,6.901099152467276e-08,6.338502787796596e-08,4.296031805480785e-08,3.163025161415017e-08
0.0,19,19.0,0.0,30.0,0.0,0.0,0.0,0.0,2.0,2.0,-12.0,0.0,0.0,0.0,1.5050118517394871e-05,9.586444188608463e-06,6.936299765616092e-06,5.2402757198876865e-06,4.193563014424755e-06,3.5599129412107086e-06,3.000241659266509e-06,2.4882106264885796e-06,2.2012974721868e-06,2.004849279213747e-06,1.6913695589694594e-06,1.5160245114876765e-06,1.3110977215985231e-06,1.1926658592050863e-06,1.2266704874262672e-06,1.1220194583400048e-06,1.038031676293904e-06,9.180240621179299e-07,8.302366164470222e-07,6.249014133008765e-07,5.433707390801585e-07,5.01875171866003e-07,4.140783290946332e-07,3.50893282527862e-07,2.1961577654998753e-07,2.475168204191065e-07,1.6705838823089138e-07,1.6727005460699342e-07,1.1196210116264785e-07,9.886016182052206e-08,5.253501152272646e-08,3.9095534149546855e-08,6.025362391852999e-08,2.1943516075995365e-08
0.0,20,20.0,0.0,30.0,0.0,0.0,0.0,0.0,2.0,2.0,-12.0,0.0,0.0,0.0,1.4879125503808146e-05,9.049727505240884e-06,6.869082468580299e-06,5.344635627654037e-06,4.042818193535282e-06,3.398324343869619e-06,3.1933191670319574e-06,2.3596338391934486e-06,2.1161405530136093e-06,1.9395637938846504e-06,1.8155948835483564e-06,1.4414367110924756e-06,1.4847330051221107e-06,1.259886072798769e-06,1.17691204220496e-06,1.0906319416959425e-06,1.0945871701588978e-06,9.035627445346545e-07,7.857411615354613e-07,6.494917838861233e-07,5.004855195455638e-07,4.594672367599114e-07,3.959313143704399e-07,3.286714618178436e-07,2.736554332962606e-07,2.0896544473858185e-07,1.7710969500824516e-07,1.4806873398920027e-07,1.1506953245994696e-07,8.92348627949723e-08,7.020203099605545e-08,4.7981327124568854e-08,4.512171392102763e-08,3.4990052909791466e-08
0.0,21,21.0,0.0,30.0,0.0,0.0,0.0,0.0,2.0,2.0,-12.0,0.0,0.0,0.0,1.532878290761991e-05,9.501514034712183e-06,7.023333176000166e-06,4.4277576070990345e-06,4.214027415847107e-06,3.242828167739121e-06,3.0358553185714837e-06,2.372617708474306e-06,2.1634361236172293e-06,1.9905299881049052e-06,1.7921793781351203e-06,1.3129407135242193e-06,1.4753194123339412e-06,1.2301861250242017e-06,1.0554519483749333e-06,1.0420863085343154e-06,9.713993185337256e-07,7.938685681536792e-07,7.924407050143743e-07,6.613887555238825e-07,5.34857308236379e-07,4.557727772933285e-07,3.9508092072854973e-07,3.229382178291538e-07,2.6528577473157985e-07,2.322663061688182e-07,1.8985088988655565e-07,1.357124772472961e-07,1.1247846171851489e-07,9.713759756004132e-08,7.096494082597388e-08,6.536644812971714e-08,4.0141740026189305e-08,2.6949235874876496e-08
0.0,22,22.0,0.0,30.0,0.0,0.0,0.0,0.0,2.0,2.0,-12.0,0.0,0.0,0.0,1.3578982867221958e-05,9.896783923883723e-06,7.522960989206056e-06,5.295958424564925e-06,4.084766694820499e-06,3.299019151071208e-06,3.1227175190969843e-06,2.4741420541468404e-06,2.211613124539425e-06,2.046475213284639e-06,1.737585635355694e-06,1.521067115509571e-06,1.3344090364415443e-06,1.3191992902497089e-06,1.1629919204525136e-06,9.404550291681796e-07,9.671630890266158e-07,9.213533000011801e-07,8.083464847995896e-07,5.86282675545384e-07,5.9444215013786e-07,4.497258138823154e-07,3.8106270597596266e-07,3.097578767633191e-07,2.7349442201680677e-07,2.0390440477063003e-07,1.6933447331579722e-07,1.4220274635098062e-07,1.119868977311369e-07,9.939233447021394e-08,7.886631171596154e-08,7.672462953646493e-08,3.3146731232653285e-08,2.5828630997760932e-08
0.0,23,23.0,0.0,30.0,0.0,0.0,0.0,0.0,2.0,2.0,-12.0,0.0,0.0,0.0,1.4478601546368179e-05,9.052897211526829e-06,7.497860912788437e-06,4.877683109394379e-06,4.499491494451431e-06,3.4683681034491643e-06,2.8450697636245498e-06,2.559791982980127e-06,2.1403795993838077e-06,1.8073279742324073e-06,1.6112637449542738e-06,1.5106650188188496e-06,1.2897782141337057e-06,1.4037757397883126e-06,1.1011195209560514e-06,1.136961586175809e-06,9.164981527318429e-07,8.423842446346694e-07,8.343884290284456e-07,6.34561471930651e-07,5.110523434045625e-07,4.618101201188875e-07,3.539233210583552e-07,2.9960340803592334e-07,2.524698891288821e-07,2.0885124069522362e-07,1.5292981068385873e-07,1.336371990597964e-07,1.0774551199631197e-07,1.0990320365888545e-07,5.770846247947946e-08,6.060741418679804e-08,4.122684300741016e-08,5.532484971265867e-08
0.0,24,24.0,0.0,30.0,0.0,0.0,0.0,0.0,2.0,2.0,-12.0,0.0,0.0,0.0,1.5631516150517522e-05,1.03771976779331e-05,7.199056363954384e-06,5.146718931699606e-06,4.259278835325668e-06,3.3641687313222013e-06,2.7928689670168167e-06,2.266569484792012e-06,2.2158938873137183e-06,1.9095594181782647e-06,1.6338784613450387e-06,1.4205805980207632e-06,1.3623221068968736e-06,1.3360334111252372e-06,1.0791659072096323e-06,9.862956342415863e-07,9.862143695894484e-07,8.851720610691909e-07,7.437371033141024e-07,6.871200762270953e-07,5.49358626297933e-07,4.6055461517615516e-07,3.5691919717041434e-07,3.0305872073868905e-07,2.560801873533017e-07,1.6953693354722501e-07,1.685643786119854e-07,1.5173008000984636e-07,1.1182865246227306e-07,7.528840035359838e-08,6.730151145112808e-08,4.817667318086071e-08,4.890321388699976e-08,1.860331497205319e-08
0.0,25,25.0,0.0,30.0,0.0,0.0,0.0,0.0,2.0,2.0,-12.0,0.0,0.0,0.0,1.4990629995658242e-05,9.471423366851987e-06,7.072006894248371e-06,5.721286992139643e-06,3.787281341707475e-06,3.5076323314503346e-06,2.780920224983841e-06,2.4542542191745066e-06,1.993637027370516e-06,1.9062267613558416e-06,1.6071000772891044e-06,1.4786182351206394e-06,1.3013017610353218e-06,1.2720543588150163e-06,1.1216842075426178e-06,1.0343876630969152e-06,8.441169985630915e-07,8.062139796010099e-07,6.805535862948027e-07,5.94315238613019e-07,5.288262552538103e-07,4.442441959179908e-07,3.401474317046255e-07,3.467431297498498e-07,2.7535486314258153e-07,1.6557136011466426e-07,1.66470613319005e-07,1.332119983025849e-07,1.2461627569879215e-07,8.368861148801034e-08,7.962500555725885e-08,5.929140311834295e-08,3.760147939248535e-08,4.550990133274334e-08
0.0,26,26.0,0.0,30.0,0.0,0.0,0.0,0.0,2.0,2.0,-12.0,0.0,0.0,0.0,1.4874519782303494e-05,1.1066069140543013e-05,7.182094836064601e-06,4.973916124911342e-06,4.354433160721551e-06,3.4980805899691334e-06,2.621777770838986e-06,2.411303303665914e-06,2.030317904091727e-06,1.9000426171347275e-06,1.5299129843702045e-06,1.4347392892292053e-06,1.2263389322203414e-06,1.2719376847854979e-06,1.1551627651722989e-06,1.0001444801178186e-06,9.647409716965249e-07,7.013541294780216e-07,6.515125229780799e-07,5.779529129211591e-07,5.1758341598308e-07,4.4057947960184593e-07,3.719315812118368e-07,3.1745583135663745e-07,2.1356270589049408e-07,1.969522130399498e-07,1.5701505945725357e-07,1.1697500831661712e-07,9.936865242894528e-08,1.044184949675457e-07,6.875065216095646e-08,5.1903374429476375e-08,4.6959727148141126e-08,4.129380121343461e-08
0.0,27,27.0,0.0,30.0,0.0,0.0,0.0,0.0,2.0,2.0,-12.0,0.0,0.0,0.0,1.5353391852341265e-05,1.0054416697060264e-05,7.08117311021992e-06,5.373945012087071e-06,4.554402363946539e-06,3.3149547121032665e-06,2.977338030941309e-06,2.433926188409503e-06,2.117335110391041e-06,1.9702867617814855e-06,1.5849769901146409e-06,1.468367737055817e-06,1.2734808924059332e-06,1.1850890666843072e-06,1.1066585635632232e-06,1.0610618119469449e-06,9.003876415498252e-07,8.464143260118729e-07,7.751800816378294e-07,5.559092913174807e-07,4.848058680597795e-07,4.1224760459418037e-07,3.7551169635493536e-07,2.9831915496019675e-07,2.2909901923970632e-07,1.7385099083032467e-07,1.6500878543571068e-07,1.1115385047310517e-07,9.491899943776812e-08,8.856193962856985e-08,5.6047271513294676e-08,4.896860014099801e-08,4.107020887644604e-08,2.5711018902007047e-08
0.0,28,28.0,0.0,30.0,0.0,0.0,0.0,0.0,2.0,2.0,-12.0,0.0,0.0,0.0,1.4886380176816145e-05,1.0859399318649846e-05,7.038154340914513e-06,5.5100744875783866e-06,4.4906256108466876e-06,3.5285393648417414e-06,2.869923471097283e-06,2.3455384027382002e-06,2.136816879771329e-06,1.970741278016023e-06,1.673684472798021e-06,1.4926938833812005e-06,1.327535380655368e-06,1.3622819870645012e-06,9.705929589652044e-07,1.0691555660807053e-06,9.811451032730157e-07,7.607938591568694e-07,6.885226547926656e-07,5.501422857231996e-07,4.7121640796971063e-07,4.144734023386685e-07,3.2376212823174014e-07,2.97394904736312e-07,2.3472512352751926e-07,1.9093065009264185e-07,1.6818549055218242e-07,1.3232114042616524e-07,1.1524226673833049e-07,1.0268407578745138e-07,5.1254140091444785e-08,5.7579372553575645e-08,3.216124606672544e-08,9.644594421143978e-09
0.0,29,29.0,0.0,30.0,0.0,0.0,0.0,0.0,2.0,2.0,-12.0,0.0,0.0,0.0,1.566889932114723e-05,9.953466126047582e-06,7.378539565030231e-06,5.5730409083783565e-06,4.081788080164847e-06,3.638288300105163e-06,2.9119819117792262e-06,2.351809550787418e-06,2.0941639219596702e-06,1.8048257641191809e-06,1.7408199663450172e-06,1.4925628533412913e-06,1.1296225330348548e-06,1.1652084106032491e-06,9.758543244943875e-07,9.590112876383505e-07,8.992879425262029e-07,7.478316356566381e-07,6.503080519397021e-07,5.372416852091654e-07,4.6114967470183525e-07,3.851288382512472e-07,3.5374320247848516e-07,3.0232923213899456e-07,2.204086665083373e-07,1.9382758510060143e-07,1.5581728623466768e-07,1.2134349565115713e-07,8.549829951376113e-08,8.645890993216967e-08,6.550040215982857e-08,7.502340509065601e-08,3.864168631102907e-08,3.4368619105040625e-08
0.0,30,30.0,0.0,30.0,0.0,0.0,0.0,0.0,2.0,2.0,-12.0,0.0,0.0,0.0,1.5612769645957872e-05,9.87104391207522e-06,7.3036507808061795e-06,6.26986541048599e-06,4.4515004668038074e-06,3.597518415301825e-06,2.7152468959775533e-06,2.3626913539372586e-06,2.059194575384455e-06,1.8171260140271653e-06,1.6249818381422557e-06,1.3596207238952856e-06,1.2199964043656646e-06,1.1929729286383216e-06,1.014833756747927e-06,1.0096482518410752e-06,8.500155383491224e-07,7.630128029843518e-07,6.79086373854925e-07,6.09752859486935e-07,4.877568279371357e-07,3.687992963554269e-07,3.2078826506532134e-07,2.7402400182754253e-07,2.3776786448988246e-07,1.9503766723510123e-07,1.424747406562428e-07,1.07647143514642e-07,9.904622579802187e-08,8.955329366734956e-08,5.641465007013868e-08,3.912735774503592e-08,4.3881301922334415e-08,3.616053318501705e-08
0.0,31,31.0,0.0,30.0,0.0,0.0,0.0,0.0,2.0,2.0,-12.0,0.0,0.0,0.0,1.5183495786974231e-05,9.561705016611167e-06,6.983885944082351e-06,5.288216444615702e-06,3.991236878535986e-06,3.3966698625322714e-06,2.956206866673688e-06,2.4797339022898014e-06,2.09966634999056e-06,1.9168141178590963e-06,1.5025948202694103e-06,1.4337708282245878e-06,1.2404948430436229e-06,1.1898543057962645e-06,1.040898362856096e-06,9.868455695381188e-07,8.076474333038708e-07,8.141833928996218e-07,7.087377224877916e-07,5.596876446754041e-07,4.792811983728704e-07,3.7988031490292305e-07,3.37416568106763e-07,2.6977227415979584e-07,2.2277382949924174e-07,2.0193636535846944e-07,1.3818270984781528e-07,1.468293964777004e-07,9.956020927751334e-08,9.926930809890914e-08,6.33036222623673e-08,5.713988062490619e-08,5.936135040908495e-08,1.876800979005459e-08
0.0,32,32.0,0.0,30.0,0.0,0.0,0.0,0.0,2.0,2.0,-12.0,0.0,0.0,0.0,1.6335181173217974e-05,1.041546233860959e-05,7.082441859243311e-06,5.773008615439107e-06,4.219439362207909e-06,3.5601479332123462e-06,2.9323434749776677e-06,2.599081277987678e-06,2.1291504645596344e-06,1.7555886561067189e-06,1.6606981794287724e-06,1.4354517489551334e-06,1.252095062118801e-06,1.1129144576176488e-06,1.164152592972285e-06,9.668035067091244e-07,9.058079205272848e-07,7.947625137277709e-07,6.181393292510135e-07,5.44007295968565e-07,4.4337718649084066e-07,3.792486703100613e-07,3.665779778227201e-07,2.8780627585765307e-07,1.897365367457244e-07,1.8551877215422932e-07,1.5554280784818093e-07,1.1433093265793618e-07,9.101924831223068e-08,6.540153126022134e-08,6.368786804308841e-08,5.5688186428364277e-08,3.485233404920351e-08,4.022776471987684e-08
0.0,33,33.0,0.0,30.0,0.0,0.0,0.0,0.0,2.0,2.0,-12.0,0.0,0.0,0.0,1.641208084381306e-05,1.0210609095868842e-05,7.177769209950312e-06,5.494905584581257e-06,4.157210704081228e-06,3.48181684613451e-06,2.8761811261777524e-06,2.549781201553735e-06,2.083814326475034e-06,1.7623866987549326e-06,1.5944683252141055e-06,1.3927432402101471e-06,1.2892350219399365e-06,1.1504965043207081e-06,1.0159319226663914e-06,9.38200407430019e-07,8.070508474814787e-07,7.646401769991823e-07,6.758583970092069e-07,5.81873121618597e-07,4.597934049970666e-07,3.8570643181774345e-07,3.1614464080706085e-07,2.5642135839692596e-07,2.3275091425981264e-07,1.8710776660390708e-07,1.5799246713430827e-07,1.0298525572862925e-07,8.178842942678227e-08,8.757516772079536e-08,5.432205675044041e-08,4.46948997029358e-08,4.5219826026314106e-08,2.6762477326470418e-08
0.0,34,34.0,0.0,30.0,0.0,0.0,0.0,0.0,2.0,2.0,-12.0,0.0,0.0,0.0,1.5009958928468394e-05,1.0560758041918287e-05,7.3304680519692545e-06,5.500277990265202e-06,4.389783164255059e-06,3.7149995739652542e-06,2.9760926819492688e-06,2.4756971794318995e-06,1.969069266931716e-06,1.8423306953514877e-06,1.6041272452384106e-06,1.3958623079342219e-06,1.2675883155963159e-06,1.0101042274305236e-06,9.907169062941858e-07,8.881464331668254e-07,8.431473413332395e-07,7.696306881752544e-07,6.358265720623947e-07,5.410774591548561e-07,4.325226027861923e-07,3.7069494666662783e-07,3.1268326955626927e-07,2.683443277113698e-07,2.064427303617558e-07,1.5664332534489675e-07,1.688145780076379e-07,1.2295883177768912e-07,9.507152648255799e-08,8.182000225602198e-08,4.873918935224175e-08,4.810900352242122e-08,3.320251120618492e-08,2.1713158142976774e-08
0.0,35,35.0,0.0,30.0,0.0,0.0,0.0,0.0,2.0,2.0,-12.0,0.0,0.0,0.0,1.594110192855228e-05,1.0417830272428436e-05,7.964947334220186e-06,5.392000764966792e-06,4.639928179084648e-06,3.6633050621000563e-06,2.7643963039228026e-06,2.563929759617287e-06,2.048329736456475e-06,1.7276742141483846e-06,1.6646599114583535e-06,1.446713395202734e-06,1.2142019127129535e-06,1.2005754812584923e-06,1.131809875155095e-06,9.068658569959702e-07,8.096579724214574e-07,7.624962221367059e-07,6.554759162425638e-07,5.473007794112226e-07,4.324145981186675e-07,3.3914291130726896e-07,3.2852579198253945e-07,2.4298135208005213e-07,1.996202878897866e-07,1.6458527197167082e-07,1.4644491634210247e-07,1.0589059611384075e-07,1.0643291117644359e-07,7.641422445235018e-08,4.8252096363926056e-08,4.925697221708368e-08,3.3308130067634116e-08,3.180477146816213e-08
0.0,36,36.0,0.0,30.0,0.0,0.0,0.0,0.0,2.0,2.0,-12.0,0.0,0.0,0.0,1.5448076694031946e-05,1.068348002845412e-05,7.781486903329074e-06,5.612077542735348e-06,4.658957499771335e-06,3.4741212957636953e-06,3.106563509705893e-06,2.329970131305702e-06,2.2946357043360298e-06,1.8325446304554343e-06,1.73108817095724e-06,1.3825318139611907e-06,1.2742204623991735e-06,1.0827903357322318e-06,9.994236736621472e-07,9.295013326268122e-07,8.096510660542688e-07,7.212574865889635e-07,5.978116478299248e-07,5.677677212978023e-07,4.947695004459201e-07,3.5916690789372676e-07,3.300484963154055e-07,2.824042950700072e-07,2.0952632229909273e-07,1.4788797613126348e-07,1.326862009136269e-07,1.0825741757540743e-07,8.641730881993154e-08,7.652899474185057e-08,7.39545012832135e-08,5.190568709673339e-08,4.25082462629467e-08,3.356361993424826e-08
0.0,37,37.0,0.0,30.0,0.0,0.0,0.0,0.0,2.0,2.0,-12.0,0.0,0.0,0.0,1.693319634253632e-05,1.1587740292250008e-05,7.839908395750823e-06,5.613400834965104e-06,4.215658803640963e-06,3.5904031604620747e-06,2.8575261126472035e-06,2.7105847330832836e-06,1.907117108809549e-06,1.8106942842349685e-06,1.7265234888678538e-06,1.5566389166831848e-06,1.2478102113125804e-06,1.1220169437927224e-06,1.045205911286709e-06,9.185040922065982e-07,8.572788978979922e-07,7.343612996821214e-07,6.366399699989582e-07,4.945614020562244e-07,4.5421604345053766e-07,3.6674521403863744e-07,3.289982154004897e-07,2.46592580871311e-07,1.7759984267331052e-07,1.5366686093858984e-07,1.4450217620451487e-07,1.257086782471676e-07,1.00441645974514e-07,6.959271271441249e-08,4.661378646394945e-08,4.374082567772678e-08,3.371542297434994e-08,1.0772669901010671e-08
0.0,38,38.0,0.0,30.0,0.0,0.0,0.0,0.0,2.0,2.0,-12.0,0.0,0.0,0.0,1.561180763846478e-05,1.0497466193618499e-05,7.0307913669425544e-06,5.760222318848522e-06,4.577572206367641e-06,3.466884331122907e-06,2.9375339025011007e-06,2.6462014681393733e-06,1.9999301411916866e-06,1.9077664446058738e-06,1.6123566125792233e-06,1.396133126185334e-06,1.2582926225524484e-06,1.166147163710875e-06,1.1426898307337862e-06,9.187100775006297e-07,9.212041714374926e-07,7.059044576714157e-07,6.276287240003215e-07,5.665731313568425e-07,4.1577505628258496e-07,3.372978351144512e-07,3.209394147642138e-07,2.469058111872657e-07,2.016430227011874e-07,1.5793990285074908e-07,1.304173450780356e-07,9.674791653910655e-08,8.785563992066007e-08,6.07861822635882e-08,5.3840793283215176e-08,3.3852865957606175e-08,3.034010531303551e-08,2.6088415866256477e-08
0.0,39,39.0,0.0,30.0,0.0,0.0,0.0,0.0,2.0,2.0,-12.0,0.0,0.0,0.0,1.5677258880502002e-05,1.0650812664295161e-05,7.0092974554173905e-06,5.575239579723345e-06,4.771962598500057e-06,3.923787849328978e-06,2.9267762052704026e-06,2.5642627467775884e-06,2.152297837865918e-06,1.8956233359060952e-06,1.6093115372449226e-06,1.3411053985324691e-06,1.2573729302781367e-06,9.717347565781654e-07,8.930151714522904e-07,1.0005062517455697e-06,7.972254746413271e-07,7.856026986477356e-07,6.22191495164275e-07,5.14646190394331e-07,4.304894705126772e-07,3.8267677344515846e-07,3.039346579270307e-07,2.6255013904147344e-07,2.2643201502328105e-07,1.6173166964730557e-07,1.40309862895263e-07,9.951987999495963e-08,8.88653980040141e-08,8.682779201511263e-08,4.956137111172924e-08,4.7481113914752106e-08,2.9006573611300613e-08,3.960541145834264e-08
0.0,40,40.0,0.0,30.0,0.0,0.0,0.0,0.0,2.0,2.0,-12.0,0.0,0.0,0.0,1.771995546361148e-05,1.0561488239392113e-05,7.996475324606848e-06,5.731951143514445e-06,4.554950790130886e-06,3.748067899092373e-06,3.027729616724084e-06,2.2815460435552283e-06,2.2104377270604665e-06,1.9253256090629253e-06,1.6104418888097019e-06,1.433003868339862e-06,1.1540927326601612e-06,1.0593150926231313e-06,1.1518063658063256e-06,8.829050494804603e-07,8.285010614645745e-07,7.419305843064297e-07,6.030038896224339e-07,5.226200694747164e-07,4.2775254767972385e-07,3.7605489131260735e-07,3.0309728124995507e-07,2.677358281465614e-07,2.1068063767872235e-07,1.615382051527634e-07,1.2996199128372944e-07,9.153899576228307e-08,6.739381214324089e-08,4.389642212822735e-08,6.612688134640386e-08,3.087480606545151e-08,4.744738696265071e-08,1.992873659604681e-08
0.0,41,41.0,0.0,30.0,0.0,0.0,0.0,0.0,2.0,2.0,-12.0,0.0,0.0,0.0,1.6423360793274663e-05,1.0534282201921082e-05,7.271842799788604e-06,5.716376297807961e-06,4.386408165278596e-06,3.613071137406504e-06,2.8483237369885807e-06,2.757714021703214e-06,2.1113418489846514e-06,1.888837943642314e-06,1.5187852630532392e-06,1.39320178469327e-06,1.1900692865103651e-06,1.1793128328892824e-06,1.0374372272686823e-06,8.73989360724495e-07,9.35597145006363e-07,7.734957178235835e-07,6.526958442546025e-07,5.538245258148256e-07,4.228493076680026e-07,3.8781921962919255e-07,2.9762975205659773e-07,2.3484076849243593e-07,2.1705558167598274e-07,1.9998485426052272e-07,1.2263355777145267e-07,1.076115074669331e-07,8.256777945208844e-08,7.541118685841747e-08,4.0099209042775526e-08,5.237767885235302e-08,3.8383813676509126e-08,2.636965891755449e-08
0.0,42,42.0,0.0,30.0,0.0,0.0,0.0,0.0,2.0,2.0,-12.0,0.0,0.0,0.0,1.6117115885109904e-05,1.1809011892309665e-05,8.126673358949633e-06,5.610211576013987e-06,4.591645423605058e-06,3.7422388744751056e-06,3.028638525136787e-06,2.5818048709898674e-06,2.2988037874378934e-06,1.9490541891740113e-06,1.617583362535652e-06,1.4463421667432512e-06,1.3834959079008429e-06,1.1216043524068226e-06,1.012945178726117e-06,9.135138256007549e-07,7.936805140366005e-07,6.75638108524161e-07,6.327228301168236e-07,5.427761427958392e-07,4.3296487875853367e-07,3.402998152906674e-07,3.156891271825225e-07,2.3603603549975394e-07,1.9513556821927145e-07,1.4588986815307102e-07,1.070882476769174e-07,1.0035817312805804e-07,5.654838607390352e-08,7.63484269583888e-08,5.8508908668276764e-08,4.720227839903951e-08,4.3551454432732605e-08,2.7860969612868215e-08
0.0,43,43.0,0.0,30.0,0.0,0.0,0.0,0.0,2.0,2.0,-12.0,0.0,0.0,0.0,1.74394511987347e-05,1.0165367590812178e-05,7.064042787906723e-06,5.487870380319248e-06,4.696541002067242e-06,3.541154797884018e-06,2.7866718812939762e-06,2.5455784568800283e-06,2.2308546011604743e-06,1.8626614569805532e-06,1.6351278343775528e-06,1.3465635477606402e-06,1.262524285563564e-06,1.1063244477250375e-06,1.0172802449203605e-06,9.600139140073431e-07,7.988619190254174e-07,7.543929395633042e-07,6.001709526512556e-07,5.187888732782553e-07,3.8070623661700133e-07,3.42228610249202e-07,3.008935831142925e-07,2.323538342263332e-07,2.0498790997015318e-07,1.5665997869014273e-07,1.0935619783867557e-07,9.874923404237794e-08,8.816248876558688e-08,6.828357002863462e-08,4.4783039278361106e-08,4.1570007249123845e-08,4.1593784017843496e-08,1.7263391704739395e-08
0.0,44,44.0,0.0,30.0,0.0,0.0,0.0,0.0,2.0,2.0,-12.0,0.0,0.0,0.0,1.7828125684851865e-05,1.1661344195844409e-05,7.705909644732887e-06,5.282116933485746e-06,4.9382303715312885e-06,3.749427802664454e-06,3.0471742537644315e-06,2.506802871068754e-06,2.1101115479072134e-06,1.916812506663044e-06,1.7037956189707835e-06,1.3382875753363736e-06,1.2648437866858919e-06,1.1472314471164226e-06,1.0623879700209712e-06,9.641113372691303e-07,8.775551122747737e-07,7.704118088293133e-07,5.657121177614899e-07,4.899884297669518e-07,4.0510492136039654e-07,3.2184572275243576e-07,2.8632822048816727e-07,2.262659835242147e-07,1.8832105301210862e-07,1.6081521782123277e-07,1.201567139239282e-07,8.76878934419577e-08,8.299210404942814e-08,6.26676174183817e-08,4.4264257671489814e-08,4.517048003817286e-08,1.7865312405205807e-08,1.8681768123056302e-08
0.0,45,45.0,0.0,30.0,0.0,0.0,0.0,0.0,2.0,2.0,-12.0,0.0,0.0,0.0,1.65592113697018e-05,1.0481439881516917e-05,7.763575579480157e-06,5.816516937216851e-06,4.617810537293734e-06,3.5691614257485897e-06,3.2357304535457662e-06,2.3940469845179213e-06,2.0701305885853424e-06,2.0858656118814984e-06,1.8147341649631226e-06,1.5376567173589214e-06,1.2690359641772754e-06,1.1525944581434876e-06,1.0714033390158016e-06,9.560710540895768e-07,8.486443540825975e-07,7.656839514058394e-07,6.334761869705445e-07,5.407904585680079e-07,4.0593311657890987e-07,3.3590296157079536e-07,2.820495836487659e-07,2.3300559271883212e-07,1.925242169434847e-07,1.6196673690394224e-07,1.236670945194891e-07,9.431015723153418e-08,7.632014711970717e-08,5.2731948076128074e-08,4.980679787716203e-08,2.3291745860527455e-08,2.784865493099822e-08,2.1522233275768355e-08
0.0,46,46.0,0.0,30.0,0.0,0.0,0.0,0.0,2.0,2.0,-12.0,0.0,0.0,0.0,1.5664077830925808e-05,1.0797252451483927e-05,8.142106396048702e-06,6.543051488012472e-06,4.747754673860446e-06,3.4933932873845053e-06,3.2359201763701934e-06,2.7275154166651357e-06,2.2805304146521718e-06,1.7581421678099345e-06,1.6449985255308785e-06,1.472126211698628e-06,1.2256417869778126e-06,1.158195157850139e-06,9.445880474160796e-07,9.889330552085667e-07,8.21395443484999e-07,7.38746388680917e-07,5.98574298441975e-07,4.923117205637563e-07,4.1794292447447314e-07,3.5135252043986216e-07,2.924141864854153e-07,2.418865213782402e-07,1.8906846214435418e-07,1.4358155595775127e-07,1.1796780803765954e-07,9.56679088589894e-08,6.873066528442863e-08,5.595060947908495e-08,5.6152960687046165e-08,3.475729391779093e-08,3.4688411817868387e-08,2.9585813253761857e-08
0.0,47,47.0,0.0,30.0,0.0,0.0,0.0,0.0,2.0,2.0,-12.0,0.0,0.0,0.0,1.6620378350648395e-05,1.126853698793542e-05,7.394337023443041e-06,6.2059543822970285e-06,4.430042695145859e-06,3.7495237562151405e-06,2.9881033354810247e-06,2.659537935022945e-06,2.3182657473515994e-06,2.012854762310979e-06,1.636232076421522e-06,1.468773647686228e-06,1.2622208082569068e-06,1.1593599146803588e-06,1.0630260411852812e-06,9.367528567812661e-07,8.55943604740609e-07,8.173661906571887e-07,6.308690969250157e-07,4.578358374842389e-07,3.865862164247453e-07,3.824818627548096e-07,2.9308225954070255e-07,2.2752041183193215e-07,1.623541639390268e-07,1.2990193730487268e-07,1.285564189558083e-07,9.549287417720608e-08,8.122953602418923e-08,5.423842989911673e-08,4.695779890209715e-08,4.880052824777569e-08,2.40282518588446e-08,6.723723864391818e-09
0.0,48,48.0,0.0,30.0,0.0,0.0,0.0,0.0,2.0,2.0,-12.0,0.0,0.0,0.0,1.629433963749149e-05,1.1576951648280578e-05,8.270583321873342e-06,6.292066663011873e-06,4.939956510263649e-06,3.593528187918063e-06,3.189493428638463e-06,2.3640756179134944e-06,2.133639048787997e-06,1.9403725442019996e-06,1.5649127446686096e-06,1.4567991952739676e-06,1.3419767089883748e-06,1.2530970104143985e-06,1.0137783291324645e-06,9.034663007836062e-07,8.983669074040421e-07,7.531719460161642e-07,5.955177251576287e-07,5.011960256622011e-07,4.0542000036832946e-07,3.3456032563269996e-07,2.7057845010921317e-07,2.204314044775578e-07,1.5376013943241304e-07,1.499218213833899e-07,1.3734936178077497e-07,9.879173470273275e-08,8.728039978742941e-08,6.57443693373907e-08,4.933718001818426e-08,4.452098504702362e-08,4.1139497165291265e-08,1.618290135295577e-08
0.0,49,49.0,0.0,30.0,0.0,0.0,0.0,0.0,2.0,2.0,-12.0,0.0,0.0,0.0,1.7719640539298984e-05,1.0530644254121476e-05,7.848433462856097e-06,5.901829025138236e-06,4.901498859632755e-06,3.708668254207219e-06,3.4277115231398238e-06,2.735411123049247e-06,2.267521867823933e-06,1.853271060601429e-06,1.5824186527623985e-06,1.3810065766806546e-06,1.2938264970392156e-06,1.1650734406767855e-06,1.1036224543203945e-06,8.810772568609123e-07,8.607875887243766e-07,6.675088782207571e-07,6.232719328437835e-07,4.935956751058234e-07,4.5752573516839474e-07,3.3318532844215763e-07,2.747731639011963e-07,2.1374033910412906e-07,1.906810250937273e-07,1.378132081949998e-07,9.01326516625363e-08,9.393786918522856e-08,9.638444002266618e-08,7.304464918617633e-08,4.9312671203572124e-08,5.3621317213586596e-08,2.7506115388568528e-08,2.52988984726666e-08
0.0,50,50.0,0.0,30.0,0.0,0.0,0.0,0.0,2.0,2.0,-12.0,0.0,0.0,0.0,1.8864697310385335e-05,1.1337012553766976e-05,8.295235629621271e-06,5.684999616147131e-06,4.032739402870033e-06,3.7310889362680443e-06,2.98096820371602e-06,2.6806746272698147e-06,2.4228759000657043e-06,2.0216145886252224e-06,1.6729612592304174e-06,1.3890304735222624e-06,1.3150364862776507e-06,1.1645181472503134e-06,9.91344973076916e-07,9.879584902425274e-07,8.193407062464022e-07,7.423370093725598e-07,6.176148564237962e-07,5.255715424976957e-07,4.1899895645832006e-07,3.277377028070174e-07,2.5888140536539166e-07,2.3772753049985896e-07,1.7257437392734207e-07,1.4198324264897538e-07,1.2639731954926093e-07,8.045445468830807e-08,7.806207130482093e-08,4.345629729958374e-08,5.098233073060332e-08,4.7220288692246836e-08,2.6958549368357495e-08,2.6338441876588844e-08
0.0,51,51.0,0.0,30.0,0.0,0.0,0.0,0.0,2.0,2.0,-12.0,0.0,0.0,0.0,1.804622261669421e-05,1.204500547733315e-05,8.108391741474128e-06,6.169604432436132e-06,5.256066296411313e-06,3.7798314382578852e-06,2.8843224115527243e-06,2.6984675181076268e-06,2.263998987892334e-06,1.9126440999338175e-06,1.6919992281895844e-06,1.5304901351433717e-06,1.3436438395624123e-06,1.2483928858969144e-06,1.068352432544687e-06,9.381733101265262e-07,8.814687513378056e-07,7.9052171082007e-07,6.090191098150984e-07,5.170500747585921e-07,4.3850244108697586e-07,3.090131503629476e-07,2.9690167594087685e-07,2.2983341993995095e-07,1.9096244557390872e-07,1.5545751170126884e-07,1.3251342271884657e-07,9.735637852393392e-08,9.688063361346697e-08,5.6693731768955126e-08,5.907542590128645e-08,3.1768365816163444e-08,3.144919450556098e-08,2.989638167127155e-08
0.0,52,52.0,0.0,30.0,0.0,0.0,0.0,0.0,2.0,2.0,-12.0,0.0,0.0,0.0,1.931354707320315e-05,1.1202556363301836e-05,8.408367448825747e-06,6.521124861284162e-06,4.621458678567341e-06,3.815591206516861e-06,3.2450446945355006e-06,3.052707713666298e-06,2.258008925167805e-06,2.034836517720262e-06,1.7629978648497102e-06,1.3539436917244375e-06,1.457102411308844e-06,1.1289189198287155e-06,1.0904407108679134e-06,9.008563369406306e-07,8.142333633579907e-07,7.453964161036901e-07,6.419141495887506e-07,5.481607717659064e-07,4.0110455021973803e-07,3.11404289751112e-07,2.688342870508109e-07,2.103151141528232e-07,1.6507207215434717e-07,1.276501486114171e-07,1.0628008759166212e-07,1.2384804090830347e-07,6.563823262148238e-08,5.619109860470155e-08,3.7796305611399027e-08,3.7472977402810757e-08,1.505862865560358e-08,2.2380561627176708e-08
0.0,53,53.0,0.0,30.0,0.0,0.0,0.0,0.0,2.0,2.0,-12.0,0.0,0.0,0.0,1.790711261786866e-05,1.2067779463441826e-05,8.266068472332932e-06,5.988997638992032e-06,4.417964368559555e-06,3.7659308907827413e-06,2.891227106542789e-06,2.928705342736699e-06,2.3846709161480522e-06,1.995269588017694e-06,1.7832906932173048e-06,1.6211315530819524e-06,1.3398799430504614e-06,1.1813540869592482e-06,1.0426833694181796e-06,9.053588601911484e-07,8.271972291533706e-07,7.671456192035226e-07,6.315271544706072e-07,4.917784286688393e-07,4.197448847601947e-07,3.573561432460545e-07,2.6619038764363795e-07,2.2527974709688177e-07,1.7531545339455484e-07,1.375913927246133e-07,1.1915373172727957e-07,8.24007956332024e-08,6.386731304031724e-08,5.736885586288778e-08,3.7192283684005205e-08,3.8338806801466884e-08,4.3116040413820454e-08,3.0791107773086056e-08
0.0,54,54.0,0.0,30.0,0.0,0.0,0.0,0.0,2.0,2.0,-12.0,0.0,0.0,0.0,1.655664256393632e-05,1.1296263107513913e-05,7.27329692856582e-06,5.761954935907747e-06,4.775742328742217e-06,3.899010610813115e-06,3.6679264380590306e-06,2.781128001256812e-06,2.205810686780787e-06,1.954303484116318e-06,1.586451050148355e-06,1.3227494480621966e-06,1.3870501475388135e-06,1.2478292162456656e-06,9.903781184672752e-07,9.31262976229188e-07,9.126678474858661e-07,7.544429013936163e-07,6.219665629487781e-07,4.803948054635072e-07,4.0179007220905583e-07,3.442197388183899e-07,2.7709793440646727e-07,2.2374836929874809e-07,1.986271112690326e-07,1.2542994104270812e-07,1.1747079978135731e-07,8.436846037698389e-08,9.113868642205645e-08,6.527556481238812e-08,5.241086425874329e-08,2.160975911962784e-08,3.3120506774309707e-08,2.4987248392638652e-08
0.0,55,55.0,0.0,30.0,0.0,0.0,0.0,0.0,2.0,2.0,-12.0,0.0,0.0,0.0,1.546638491092035e-05,1.1572034060215137e-05,7.48462979845294e-06,6.475172459446794e-06,4.574536792935787e-06,3.6827729357907496e-06,3.4851002918401976e-06,2.462045507763334e-06,2.0355615499229434e-06,1.8939096763269521e-06,1.622407959990914e-06,1.4117958936485935e-06,1.3163141160648795e-06,1.1696963296211042e-06,1.0355306113064172e-06,9.394834833827391e-07,8.503204943210457e-07,7.369185065440185e-07,6.245511726837707e-07,4.814366006518445e-07,4.0835293934711526e-07,3.5965338142543427e-07,2.6792774420310554e-07,2.1770167826846288e-07,1.7006125153667138e-07,1.5606711346028612e-07,9.248763688668e-08,9.152224514106401e-08,7.730432935927117e-08,6.086662377993411e-08,4.88262203040466e-08,3.78548263747621e-08,1.107058527683295e-08,2.9944781604408076e-08
0.0,56,56.0,0.0,30.0,0.0,0.0,0.0,0.0,2.0,2.0,-12.0,0.0,0.0,0.0,1.687089264679217e-05,1.2022088121158548e-05,7.781970382259016e-06,6.449966462270979e-06,5.3953489989906515e-06,4.065417328032441e-06,3.322485566407911e-06,2.687050292982426e-06,2.5995060847251177e-06,1.8799336590356756e-06,1.7257764727795603e-06,1.5680566755360115e-06,1.4392953509814226e-06,1.2435447617068283e-06,1.0721867124831594e-06,8.902024461663463e-07,9.12517955632873e-07,7.328367804686297e-07,6.396389733711534e-07,4.918654510323481e-07,4.0228667602681e-07,3.3542977647526994e-07,2.6182516374843285e-07,2.417058948966685e-07,1.851224644090127e-07,1.270651426993138e-07,1.1755838392310412e-07,8.147892461128909e-08,7.027804369959122e-08,5.830683125588971e-08,4.8595241855079264e-08,2.9046541315019922e-08,3.0101928761740545e-08,1.702439671537062e-08
0.0,57,57.0,0.0,30.0,0.0,0.0,0.0,0.0,2.0,2.0,-12.0,0.0,0.0,0.0,1.6928629521729034e-05,1.0512164851111639e-05,8.053961525799007e-06,5.746734025012771e-06,5.2145939829151475e-06,4.052031753471772e-06,3.2528742461614214e-06,2.958185873510731e-06,2.2974801518208958e-06,2.1691862238642786e-06,1.609129067010189e-06,1.5450167541090475e-06,1.2554663594026106e-06,1.2536177252977617e-06,1.128494862718703e-06,9.657616658866952e-07,7.765165476940259e-07,6.758528595394817e-07,6.185214374806676e-07,5.044192238572188e-07,3.9521584197898264e-07,3.441180053335784e-07,2.5720270557303385e-07,1.9495731295013902e-07,1.9363967897236415e-07,1.4486357772268117e-07,1.2030552229327174e-07,9.05558603409002e-08,6.767886405122163e-08,5.287369133533561e-08,6.021154386886629e-08,3.1922128160872184e-08,1.5036276818656197e-08,5.739975360826016e-09
0.0,58,58.0,0.0,30.0,0.0,0.0,0.0,0.0,2.0,2.0,-12.0,0.0,0.0,0.0,1.7832453202378503e-05,1.1549464134580925e-05,7.930013247474724e-06,6.371702228755917e-06,4.6186823386363195e-06,3.65669864787131e-06,3.1534339034746527e-06,2.9632042412248596e-06,2.2750804684606626e-06,2.0099533628851175e-06,1.8033979912475415e-06,1.5993928676239723e-06,1.3668164701921634e-06,1.1730541530976617e-06,1.074905171677125e-06,9.485795056543888e-07,8.241090497447088e-07,8.02333716977237e-07,6.286822608804036e-07,5.008120492744949e-07,3.532737176643767e-07,3.2866280837594345e-07,2.712691513146296e-07,2.0384049670079123e-07,1.7648996242509887e-07,1.5065337523629864e-07,1.0884958630997763e-07,7.977085515038491e-08,8.443988002147801e-08,5.9344744543042376e-08,4.7035075930231824e-08,2.841507683347679e-08,2.689542189765612e-08,1.9161335109551598e-08
0.0,59,59.0,0.0,30.0,0.0,0.0,0.0,0.0,2.0,2.0,-12.0,0.0,0.0,0.0,1.8620497802206216e-05,1.1114071167747435e-05,8.400472691077638e-06,6.204879897154489e-06,4.758762906741435e-06,4.064664561886566e-06,3.2057953072582035e-06,2.8113979353493877e-06,2.3303435982699997e-06,2.128380288581538e-06,1.5444878787156347e-06,1.5981495381710154e-06,1.3885176420521384e-06,1.347243669550769e-06,1.0938300393504663e-06,1.029082886588625e-06,9.032036460203675e-07,7.33626857065833e-07,5.903543721476254e-07,5.763325450218385e-07,4.296563331467982e-07,3.6567079051914297e-07,2.7170277542606915e-07,2.3854169715132506e-07,1.7433970748269237e-07,1.311080820452457e-07,9.909133207038241e-08,8.608993230973054e-08,6.639337461116679e-08,5.6763448569722064e-08,4.9247352242288015e-08,3.302892292351475e-08,2.141247847641636e-08,1.221189087366732e-08
0.0,60,60.0,0.0,30.0,0.0,0.0,0.0,0.0,2.0,2.0,-12.0,0.0,0.0,0.0,1.831868383193922e-05,1.1526181552036869e-05,7.793970818492341e-06,6.085214212860532e-06,4.502241659076339e-06,4.26298271668807e-06,3.374040778720737e-06,2.9613068898523725e-06,2.5450564455733213e-06,2.1364229361898554e-06,1.8617649833300056e-06,1.3751800581748541e-06,1.4894439157329883e-06,1.1339553680188147e-06,1.0255458375239605e-06,1.0341960035822055e-06,9.175181465560242e-07,7.928220515159646e-07,6.330610975345151e-07,5.436227735255509e-07,4.559403698730492e-07,3.341262991103456e-07,2.810924353814323e-07,2.345501107281198e-07,1.9158747472810963e-07,1.2403271054509468e-07,1.0083385748271606e-07,7.748909961853591e-08,3.65968331313573e-08,7.800729268341894e-08,4.549099680075735e-08,2.542857212852991e-08,2.1483614972956037e-08,1.8594360653698008e-08
0.0,61,61.0,0.0,30.0,0.0,0.0,0.0,0.0,2.0,2.0,-12.0,0.0,0.0,0.0,1.774258997528652e-05,1.1895687472667215e-05,8.480122159974761e-06,5.906076584418205e-06,5.190508379303893e-06,3.5746719701381405e-06,3.3168979601034098e-06,2.9046882939352973e-06,2.233722124406621e-06,1.9530886946563936e-06,1.956227072677639e-06,1.610513834959013e-06,1.3405379480658269e-06,1.1984672815491588e-06,1.1065429703618594e-06,9.54396781659752e-07,9.036179114220665e-07,7.924812454548864e-07,6.620652038356921e-07,5.0173061840922e-07,4.0075127284114034e-07,3.5286929068042784e-07,2.839602386863695e-07,2.1784541226423364e-07,1.6425596852171094e-07,1.4046910851224781e-07,9.835085337910161e-08,9.032126485893306e-08,7.179300319415856e-08,5.222256267398884e-08,4.302385615702999e-08,3.5992335402647984e-08,2.057898679671856e-08,2.5168936041708258e-08
0.0,62,62.0,0.0,30.0,0.0,0.0,0.0,0.0,2.0,2.0,-12.0,0.0,0.0,0.0,1.880825896414991e-05,1.0963249302008758e-05,8.03852045641181e-06,6.480327972899151e-06,5.193598658951202e-06,4.237567290831789e-06,3.3379910904110546e-06,2.439212782569191e-06,2.411043919494549e-06,2.163688403926398e-06,1.7208760594944102e-06,1.4449210955875655e-06,1.2523886909214252e-06,1.248371582389012e-06,1.1404195456105593e-06,9.079162171873865e-07,8.714242146832159e-07,7.420704574983105e-07,6.48943467170053e-07,5.31598052093868e-07,3.839047201262028e-07,3.4347082156514256e-07,2.8238987818510726e-07,2.1811180697018873e-07,1.9046230466298576e-07,1.5525816398705595e-07,1.1404170580307362e-07,7.241770005264817e-08,7.244479598464536e-08,3.861302190115541e-08,5.0852791840531806e-08,3.129566631905336e-08,6.446687441948365e-09,2.882209109027483e-08
0.0,63,63.0,0.0,30.0,0.0,0.0,0.0,0.0,2.0,2.0,-12.0,0.0,0.0,0.0,1.781517503092603e-05,1.168623745223953e-05,8.175558945306428e-06,6.71663123368724e-06,4.835167501100189e-06,4.088286281639894e-06,3.104220176390434e-06,2.886759713444194e-06,2.389534377936228e-06,1.8901567516874338e-06,1.7257154586070251e-06,1.5655419865737735e-06,1.4334924236885608e-06,1.1538690026408965e-06,1.121901196501136e-06,8.763757115416436e-07,8.594307694021132e-07,8.410096843384643e-07,6.677809719785498e-07,4.81674997456785e-07,4.4751676932054507e-07,3.623221381476178e-07,2.6378988738679396e-07,2.0628983798931523e-07,1.7480662523818228e-07,1.3259315158525328e-07,9.738067899098908e-08,7.094532051688002e-08,5.347035521397851e-08,4.616171328746552e-08,5.5207151953506886e-08,1.805389095534525e-08,2.616982606400716e-08,1.6464588184625336e-08
0.0,64,64.0,0.0,30.0,0.0,0.0,0.0,0.0,2.0,2.0,-12.0,0.0,0.0,0.0,1.7170436188238303e-05,1.105800688745992e-05,8.046905037179635e-06,6.15311195163349e-06,5.072660725982741e-06,3.906426841780543e-06,3.626372124326504e-06,2.7183689538699312e-06,2.1828360750408357e-06,2.08492898953463e-06,1.7058877741556418e-06,1.6746835061243967e-06,1.3074278223084128e-06,1.2598245527052393e-06,1.1666415935237253e-06,1.0165637198622803e-06,8.64864351683547e-07,8.199758439353501e-07,6.050400310462245e-07,5.390712145378945e-07,4.5648626291313934e-07,3.590192933881275e-07,2.6743624028586635e-07,2.187099545900134e-07,1.443146516158932e-07,1.2839338478615253e-07,1.023231118301529e-07,7.327482211619097e-08,5.929758021962485e-08,5.836051163117367e-08,3.6572261355468936e-08,4.0388765827241354e-08,1.8466083577233543e-08,1.5558462063798764e-08
0.0,65,65.0,0.0,30.0,0.0,0.0,0.0,0.0,2.0,2.0,-12.0,0.0,0.0,0.0,1.737011379618316e-05,1.2657353015862247e-05,7.85201602230404e-06,7.06888158553234e-06,5.06722193482597e-06,4.19243618301966e-06,3.3259034882975383e-06,3.0365215286202105e-06,2.4395534984414617e-06,2.000835493632126e-06,1.8827658400332424e-06,1.6188682537307669e-06,1.2199105084422136e-06,1.0962287616055373e-06,1.1076343666084747e-06,9.661137597989191e-07,9.572931144863857e-07,8.105546617278725e-07,5.840056404164061e-07,4.747624888788995e-07,3.84729707649745e-07,3.240217432837961e-07,2.547243594831599e-07,2.336168480928387e-07,1.8128552440863142e-07,1.0988117658013208e-07,9.988791121786649e-08,1.0514957459734917e-07,5.5964760187030144e-08,3.354585829383813e-08,3.4953700924415694e-08,2.5683243144283374e-08,3.3930653963645535e-08,2.1567745663063257e-08
0.0,66,66.0,0.0,30.0,0.0,0.0,0.0,0.0,2.0,2.0,-12.0,0.0,0.0,0.0,1.8443631650381024e-05,1.149841228395211e-05,8.63965192108331e-06,6.596052372148067e-06,5.210153251671478e-06,4.194338112923644e-06,3.5843709099049655e-06,2.6718303628974066e-06,2.332392285738055e-06,2.123106367033501e-06,1.7985875432041293e-06,1.7183837440043474e-06,1.4027566318447795e-06,1.3212141088450705e-06,1.1399601414836095e-06,1.0316073287237612e-06,8.421535782714108e-07,7.955064974838518e-07,6.337772260916104e-07,5.114627827182557e-07,4.131571612280886e-07,3.545305427460125e-07,2.8977616523386644e-07,2.3706594476359345e-07,1.7824179024913695e-07,1.196506069870798e-07,1.1553888051781186e-07,7.97024147479649e-08,7.215284369859605e-08,6.251252494776346e-08,3.725879061019999e-08,3.0499749463847714e-08,8.708109664335318e-09,1.5408209059401883e-08
0.0,67,67.0,0.0,30.0,0.0,0.0,0.0,0.0,2.0,2.0,-12.0,0.0,0.0,0.0,1.787601451058896e-05,1.2031048195271715e-05,8.361392585997892e-06,6.7995871832740455e-06,5.083958414369165e-06,4.346068489933008e-06,3.3336320668126695e-06,2.8045826476387023e-06,2.3681407760810817e-06,2.1938281848757743e-06,1.9229147078826866e-06,1.612542110294722e-06,1.4372317163705395e-06,1.2574800487686801e-06,1.0577381856076928e-06,9.428591295589743e-07,9.158391599037157e-07,7.894774334298522e-07,6.621678775662781e-07,5.28272900550124e-07,3.8007093050644383e-07,3.4526544874413335e-07,2.6378304406810185e-07,1.9760232506974531e-07,1.7500485227895642e-07,1.2061412310344842e-07,9.163355352673033e-08,7.326484411627977e-08,7.018521608082172e-08,3.6136461790871213e-08,3.538562548898241e-08,4.338943279278652e-08,3.2115227069053815e-08,2.9349932652435568e-08
0.0,68,68.0,0.0,30.0,0.0,0.0,0.0,0.0,2.0,2.0,-12.0,0.0,0.0,0.0,1.87499999895735e-05,1.1898934467035112e-05,7.915612483431299e-06,6.654677594763002e-06,5.042791620604649e-06,4.350946665337265e-06,3.510856039471124e-06,2.837671457303365e-06,2.5049682193575756e-06,2.093760126295463e-06,1.8802215945553917e-06,1.676895898399453e-06,1.3211042483026327e-06,1.1754773092513583e-06,1.1049664306105591e-06,9.528233892799678e-07,9.956949679843496e-07,7.501432585549904e-07,6.537381978183887e-07,5.354311435235386e-07,4.5933406705327176e-07,3.0549415710680594e-07,2.243427993606072e-07,2.1586162991299027e-07,1.6393662393646242e-07,1.449695435424631e-07,1.0312812658819472e-07,8.034682254918259e-08,6.179328942786274e-08,4.973628884064463e-08,4.910585896612321e-08,1.8850823001149084e-08,1.7511979020358352e-08,2.1913393298810177e-08
0.0,69,69.0,0.0,30.0,0.0,0.0,0.0,0.0,2.0,2.0,-12.0,0.0,0.0,0.0,1.8421186930938646e-05,1.1852506833238664e-05,9.355809279634162e-06,6.3501266486095415e-06,5.431062822499181e-06,4.080375481522302e-06,3.517235137532118e-06,2.7122661910138093e-06,2.269253042618041e-06,1.9875224221963162e-06,1.7852252770081076e-06,1.6763236129693973e-06,1.3293041963747554e-06,1.2487740432885212e-06,1.0879091645839445e-06,9.589498232624782e-07,8.806406340471117e-07,8.342535767877899e-07,6.448972294783217e-07,5.568038651829045e-07,4.5572764816127625e-07,3.3943021852459494e-07,2.745632308423552e-07,2.021282690450641e-07,1.5925367603992778e-07,1.2970392497797339e-07,1.2237166648634065e-07,7.357196444840795e-08,5.218742185218997e-08,4.649638964297569e-08,3.701841106421414e-08,3.122122890609219e-08,2.7260345097045896e-08,1.432998821412829e-08
0.0,70,70.0,0.0,30.0,0.0,0.0,0.0,0.0,2.0,2.0,-12.0,0.0,0.0,0.0,1.9938826423222547e-05,1.1636798850052848e-05,8.829363587057576e-06,6.13735951827641e-06,5.2035018980912425e-06,4.053319994939827e-06,3.732502098744957e-06,2.8329219618233685e-06,2.514474785544342e-06,2.1502134294693897e-06,1.8440612184774479e-06,1.4953079108533336e-06,1.4058276968093483e-06,1.2651487910073307e-06,1.156351935956508e-06,1.0404654824078184e-06,9.498385632232386e-07,7.761079048786659e-07,6.505856425783531e-07,4.919870625809761e-07,4.4274575470836986e-07,3.514401813187954e-07,2.777735272072591e-07,2.0448090183916248e-07,1.7917933895756233e-07,1.433241517431411e-07,8.397931382296413e-08,8.639747315589419e-08,6.155123699542304e-08,6.332047786059336e-08,4.4148820669786574e-08,3.5073162784022535e-08,2.549742254713276e-08,3.7165938621382202e-09
