Line_number,Fiducial,Easting,Northing,Height,Elevation,tx_pitch,tx_roll,tx_yaw,txrx_dx,txrx_dy,txrx_dz,rx_pitch,rx_roll,rx_yaw,S0Z_time_5.811e-05,S0Z_time_8.588e-05,S0Z_time_1.137e-04,S0Z_time_1.414e-04,S0Z_time_1.692e-04,S0Z_time_1.970e-04,S0Z_time_2.248e-04,S0Z_time_2.525e-04,S0Z_time_2.803e-04,S0Z_time_3.081e-04,S0Z_time_3.359e-04,S0Z_time_3.637e-04,S0Z_time_3.914e-04,S0Z_time_4.192e-04,S0Z_time_4.470e-04,S0Z_time_4.748e-04,S0Z_time_5.026e-04,S0Z_time_5.442e-04,S0Z_time_5.998e-04,S0Z_time_6.692e-04,S0Z_time_7.526e-04,S0Z_time_8.359e-04,S0Z_time_9.331e-04,S0Z_time_1.044e-03,S0Z_time_1.169e-03,S0Z_time_1.308e-03,S0Z_time_1.461e-03,S0Z_time_1.628e-03,S0Z_time_1.822e-03,S0Z_time_2.044e-03,S0Z_time_2.280e-03,S0Z_time_2.544e-03,S0Z_time_2.850e-03,S0Z_time_3.197e-03
0.0,0,0.0,0.0,30.0,0.0,0.0,0.0,0.0,2.0,2.0,-12.0,0.0,0.0,0.0,1.801734459138945e-06,1.696545728903718e-06,1.4985996107735664e-06,1.3879719087063825e-06,1.1467518378446164e-06,1.1235027548685215e-06,1.077893078996714e-06,1.013245097776535e-06,1.0190017483912893e-06,8.690919587818483e-07,7.897683613612462e-07,8.344387351638581e-07,7.476904756607428e-07,6.729340814493584e-07,6.723177131488349e-07,6.599221981889069e-07,6.195875758785954e-07,5.374355496382085e-07,5.128049925095353e-07,4.689311427330277e-07,4.3750289487547563e-07,3.7669578966314347e-07,3.4803915814627486e-07,2.881846523757497e-07,2.350337152451519e-07,2.2216755393633854e-07,1.87617883090444e-07,1.6330758586828503e-07,1.3880611467524513e-07,1.1806214778511923e-07,9.216038665618791e-08,8.001762604341986e-08,6.756347972608396e-08,5.638331049053779e-08
0.0,1,1.0,0.0,30.0,0.0,0.0,0.0,0.0,2.0,2.0,-12.0,0.0,0.0,0.0,1.5913703584026187e-06,1.388552815953894e-06,1.2759461112892906e-06,1.1693277130158878e-06,1.0152936338817297e-06,9.339446272880761e-07,9.522901572506439e-07,8.904178821909033e-07,8.355191676906992e-07,7.540908474351448e-07,7.980448245566381e-07,6.710032988155246e-07,6.866935390512256e-07,6.343656268528796e-07,5.89978659765221e-07,5.594616916540928e-07,5.448365153635057e-07,5.027565868607098e-07,4.5062409890743866e-07,4.255187848887986e-07,3.6527810922040684e-07,3.2201296585525204e-07,3.0005186337942505e-07,2.4740237718951536e-07,2.229326218093127e-07,2.0233386845842012e-07,1.6696728424579847e-07,1.4717437524825826e-07,1.1855577380361012e-07,9.973164490327255e-08,8.645495843843279e-08,7.586154720738288e-08,6.023950666031377e-08,4.682943464859062e-08
0.0,2,2.0,0.0,30.0,0.0,0.0,0.0,0.0,2.0,2.0,-12.0,0.0,0.0,0.0,1.388835441012042e-06,1.2638068934338645e-06,1.131025381263685e-06,1.045313416118779e-06,9.165959930669968e-07,8.804249820061584e-07,8.352859854791429e-07,7.379671147506544e-07,7.264719036749788e-07,6.587088842706401e-07,6.222751104561564e-07,5.934048981578381e-07,5.682265658976644e-07,5.506735737170693e-07,5.286931645550476e-07,5.128371561904921e-07,4.567088216152956e-07,4.434034278271649e-07,4.034494951411885e-07,3.551579232023144e-07,3.3325093247363477e-07,2.925157391111941e-07,2.526395659838617e-07,2.2751694452551218e-07,1.9526672847932836e-07,1.6403622345946303e-07,1.4517806048074407e-07,1.2469927190032763e-07,1.1230381268250706e-07,9.359210144649949e-08,7.713329028834678e-08,6.685449623219955e-08,5.278029276091937e-08,4.560803523414588e-08
0.0,3,3.0,0.0,30.0,0.0,0.0,0.0,0.0,2.0,2.0,-12.0,0.0,0.0,0.0,1.2425025216646114e-06,1.1204194890476238e-06,9.828240670546526e-07,9.215987915181172e-07,8.224097920021555e-07,7.4568970686076e-07,7.086970130065098e-07,6.843026496522447e-07,6.437131954654864e-07,5.84998533496865e-07,5.47171178342862e-07,5.2235192358312e-07,5.004222377045617e-07,4.793193431578619e-07,4.449809035182622e-07,4.343874732662432e-07,4.0994330343401004e-07,3.9605319162640557e-07,3.479374183906534e-07,3.0873241591527396e-07,2.8865559093779537e-07,2.4397806206803565e-07,2.3646910738224992e-07,2.0705266934061692e-07,1.6844954362431237e-07,1.5172711397746724e-07,1.2928649847819196e-07,1.1602026121186165e-07,9.33261545898774e-08,8.045197027585247e-08,7.115640691020444e-08,5.5969348125778035e-08,4.696295300865663e-08,3.944037242539039e-08
0.0,4,4.0,0.0,30.0,0.0,0.0,0.0,0.0,2.0,2.0,-12.0,0.0,0.0,0.0,1.084204623418033e-06,9.822119716672051e-07,8.423120203246805e-07,7.895816612329781e-07,7.003386011940929e-07,6.869444149345166e-07,5.967699294826467e-07,6.043889243128015e-07,5.559248218358197e-07,5.202510218680346e-07,4.706653531627272e-07,4.7039885048974427e-07,4.3008682497675215e-07,4.292877694769004e-07,4.091539303137992e-07,3.7859349211653137e-07,3.7177678521725897e-07,3.3223784436853994e-07,3.0771806442762694e-07,2.855179974388909e-07,2.510849682317506e-07,2.2042436337876588e-07,2.0192086508308407e-07,1.8516187137449045e-07,1.5801684182160251e-07,1.4082402918714996e-07,1.1708869173703476e-07,1.0067622486642369e-07,8.550025235426473e-08,6.739177003770134e-08,5.8513233929001835e-08,5.220293287363245e-08,4.4519116965647637e-08,3.514473226840962e-08
0.0,5,5.0,0.0,30.0,0.0,0.0,0.0,0.0,2.0,2.0,-12.0,0.0,0.0,0.0,9.930745612801466e-07,8.503650951221467e-07,7.661167833074592e-07,6.886733554086134e-07,6.210652728161565e-07,6.090733916921665e-07,5.440090496056582e-07,5.414817314621111e-07,4.7258247893437645e-07,4.455996769624923e-07,4.327462243514157e-07,4.119479828270947e-07,3.9138735248232437e-07,3.6924148036964005e-07,3.598126759995335e-07,3.114930354281506e-07,3.1912836136549e-07,2.9768875628577584e-07,2.816073099606344e-07,2.47226782062686e-07,2.2270694055736314e-07,1.8874398113934795e-07,1.7969539760014291e-07,1.6515858964206696e-07,1.4182758019972217e-07,1.2194714720041708e-07,1.0906050658926943e-07,9.069425648749783e-08,7.79119669395661e-08,6.4325790258247e-08,5.662168709546949e-08,4.47989813900658e-08,3.4274401599997434e-08,2.846733698974459e-08
0.0,6,6.0,0.0,30.0,0.0,0.0,0.0,0.0,2.0,2.0,-12.0,0.0,0.0,0.0,8.915357989763087e-07,7.219500552848019e-07,7.202391624480735e-07,6.323077910441263e-07,5.779652795755573e-07,5.475134588725347e-07,4.874073390673001e-07,4.424178788381667e-07,4.31903491288331e-07,4.079710445134725e-07,3.671987148000558e-07,3.3910070966958493e-07,3.380433266804634e-07,3.40817223060691e-07,3.283272269612196e-07,3.0939834151226257e-07,2.82578526261371e-07,2.587926227293802e-07,2.477141677047024e-07,2.2410130348730143e-07,1.9712788932094466e-07,1.7802840518023625e-07,1.5921427655314852e-07,1.4404710581618078e-07,1.1844308358584189e-07,1.0639506853948253e-07,9.046862004404557e-08,8.58192536474294e-08,6.95087241346014e-08,5.59770280274182e-08,4.6953232451054585e-08,4.030324800054488e-08,3.6386606820666036e-08,2.781725667599532e-08
0.0,7,7.0,0.0,30.0,0.0,0.0,0.0,0.0,2.0,2.0,-12.0,0.0,0.0,0.0,7.808726028619621e-07,6.728842668201044e-07,6.03322647572154e-07,5.485818510769078e-07,5.026484485643009e-07,4.6570004039912556e-07,4.08801075172958e-07,4.0547813782924496e-07,3.8690982825975904e-07,3.5862255887907227e-07,3.531887003303763e-07,3.2349250897016987e-07,2.7804258781430765e-07,2.888354070255458e-07,2.785179072885858e-07,2.568665028327178e-07,2.387613535593123e-07,2.3621556783068375e-07,2.171690400802666e-07,1.969762873940003e-07,1.6632770667706938e-07,1.5969877857056507e-07,1.4720952916921888e-07,1.2102075349390447e-07,1.1152935016159638e-07,9.22787204153561e-08,8.117538591395076e-08,7.111962542799656e-08,5.924007824858129e-08,5.1217061061490844e-08,4.42542800440862e-08,3.9320659308683885e-08,3.296724797042007e-08,2.7553094191167285e-08
0.0,8,8.0,0.0,30.0,0.0,0.0,0.0,0.0,2.0,2.0,-12.0,0.0,0.0,0.0,8.097554670308869e-07,6.492276945591353e-07,5.557830011680584e-07,4.752722471570839e-07,4.433499798703454e-07,4.2628740359792844e-07,3.95362188068243e-07,3.7677882103511547e-07,3.4745856299172416e-07,3.262145892031235e-07,3.089859984292044e-07,2.8670192814277444e-07,2.674174785268534e-07,2.7660519891398406e-07,2.439842149308683e-07,2.364632950988975e-07,2.2549568545121217e-07,2.139333660890383e-07,1.8421375720990816e-07,1.7524943170432424e-07,1.495290917718633e-07,1.4062799796911583e-07,1.2540809878393047e-07,1.149180641720889e-07,9.920215622542188e-08,9.010055712302194e-08,7.148641784704371e-08,6.598018152036305e-08,5.438461833057687e-08,4.661267636977974e-08,3.892388705453335e-08,3.347128475464393e-08,2.8182078839288296e-08,2.4258033761594387e-08
0.0,9,9.0,0.0,30.0,0.0,0.0,0.0,0.0,2.0,2.0,-12.0,0.0,0.0,0.0,7.245933860766843e-07,5.717447955834772e-07,4.999510570796873e-07,4.681371462267769e-07,4.253982656348505e-07,3.64668840703704e-07,3.6856780071264517e-07,3.2559137159442225e-07,3.065913441009238e-07,2.9680230151070363e-07,2.560508740056996e-07,2.5162019912507374e-07,2.4970799548532813e-07,2.4607222850413364e-07,2.1423979124833627e-07,2.1025932499174108e-07,2.066646088459704e-07,1.930944026120424e-07,1.7096379627872262e-07,1.586007150658445e-07,1.3703161031230247e-07,1.2402907452366884e-07,1.1600783372716553e-07,1.0439500718729634e-07,8.799131310771597e-08,7.769108025389612e-08,6.886858664147496e-08,5.9567884922898595e-08,4.859962067668898e-08,4.453101551536502e-08,3.430003822464831e-08,2.9500091998070312e-08,2.7603472482469306e-08,2.0968168240072934e-08
0.0,10,10.0,0.0,30.0,0.0,0.0,0.0,0.0,2.0,2.0,-12.0,0.0,0.0,0.0,6.869878981147775e-07,5.527835313974238e-07,4.372330854269572e-07,3.813636079357475e-07,3.769798954993724e-07,3.4683640750481336e-07,3.2648959183545534e-07,2.824897775482955e-07,2.7282127135524375e-07,2.564867352953566e-07,2.449959254082861e-07,2.3586532110418617e-07,2.154878513360967e-07,2.0820422755678184e-07,2.0088761534512236e-07,1.8251978127784975e-07,1.8552575610622426e-07,1.7652060940723683e-07,1.6197648796393838e-07,1.466452874742201e-07,1.231760980992918e-07,1.194412747508087e-07,1.0286882581169883e-07,9.518023949399946e-08,8.40861678661173e-08,6.834459899117001e-08,6.011612124749224e-08,5.363891333524456e-08,4.395392043677796e-08,3.663369346083687e-08,3.153689050063526e-08,2.832934708893048e-08,2.2413210600011006e-08,1.9417793461241944e-08
0.0,11,11.0,0.0,30.0,0.0,0.0,0.0,0.0,2.0,2.0,-12.0,0.0,0.0,0.0,7.54809389706256e-07,5.056097149090607e-07,4.0535550033794736e-07,3.737392045393737e-07,3.4272828999822456e-07,3.1101896426584006e-07,2.760319203135674e-07,2.5614349640793815e-07,2.5076791648848514e-07,2.407409168076445e-07,2.299710909244236e-07,2.1081929352257984e-07,1.9474129925645332e-07,1.904040746544928e-07,1.7170978438542165e-07,1.7295168356013655e-07,1.5947472190987687e-07,1.5595300150030705e-07,1.3892962468904243e-07,1.2367587909974627e-07,1.1499194078753761e-07,1.0377839382852206e-07,9.434720431343299e-08,8.248372284703241e-08,6.905620390265244e-08,6.624343361418578e-08,5.512100264719901e-08,4.450136366740218e-08,3.959860052939206e-08,3.589172865502121e-08,3.142219211762724e-08,2.4080195208509568e-08,1.9626011930581524e-08,1.7405036062040605e-08
0.0,12,12.0,0.0,30.0,0.0,0.0,0.0,0.0,2.0,2.0,-12.0,0.0,0.0,0.0,7.355498189255332e-07,5.107364966652259e-07,3.991284467279637e-07,3.4693206207865824e-07,2.8984349444567457e-07,2.7864393657240046e-07,2.563086828267241e-07,2.417051027444683e-07,2.3356045100665376e-07,2.2036336332841804e-07,1.9506041665303122e-07,1.939859797240957e-07,1.8425520645314114e-07,1.790315091520509e-07,1.5632630625913866e-07,1.5245419409185994e-07,1.4934019089260466e-07,1.4009776965507463e-07,1.3771101628211183e-07,1.1849841527279338e-07,1.0201237584943083e-07,9.178497442500194e-08,8.025762485425061e-08,7.689050124468704e-08,6.978669735892914e-08,5.754052289736284e-08,4.937168785814562e-08,4.4158266642725645e-08,4.094291834533652e-08,3.005137628326782e-08,2.7125361346292327e-08,2.3456194704355284e-08,1.928220743097324e-08,1.5300054845133862e-08
0.0,13,13.0,0.0,30.0,0.0,0.0,0.0,0.0,2.0,2.0,-12.0,0.0,0.0,0.0,7.462639759276763e-07,4.720396950639027e-07,3.8045339136737864e-07,3.2410807612887804e-07,2.869162015615303e-07,2.5781734498926917e-07,2.4084608151797437e-07,2.3719047847577966e-07,1.9769102836921882e-07,1.8735854201827588e-07,1.791837694912862e-07,1.8491423668033437e-07,1.663938102197827e-07,1.5190369517575e-07,1.3695550217969816e-07,1.4282189239967833e-07,1.3251574839808892e-07,1.2775667239683687e-07,1.1630923002151296e-07,1.1040245224221422e-07,9.657764060281127e-08,8.642446291939729e-08,7.822658640320233e-08,6.957643352739437e-08,5.8350474659118035e-08,5.2835192523682174e-08,4.5809569999784026e-08,3.819884765697481e-08,3.364914143395279e-08,2.788877114340916e-08,2.672550241613867e-08,1.9742732083917444e-08,1.9091538079726332e-08,1.6642399637072157e-08
0.0,14,14.0,0.0,30.0,0.0,0.0,0.0,0.0,2.0,2.0,-12.0,0.0,0.0,0.0,7.782103993023079e-07,4.495797365747625e-07,3.4613183192237146e-07,2.927028822658711e-07,2.6341931917079533e-07,2.3236838774664266e-07,2.2559238131074301e-07,2.0550167331555568e-07,1.8314178012407763e-07,1.8089187565585364e-07,1.6633889821671877e-07,1.5644073088110537e-07,1.4918195395204e-07,1.4642442336124996e-07,1.3133830348910805e-07,1.328484831559208e-07,1.2543787820207913e-07,1.1783294523983859e-07,1.1233652709857064e-07,9.820996892238964e-08,9.22999503174657e-08,7.631430479581948e-08,6.950699489061534e-08,5.976834210781138e-08,5.390649118154364e-08,4.825103169002636e-08,4.380364858135694e-08,3.900883355837304e-08,3.18692001804494e-08,2.7945424931989627e-08,2.1698481896833867e-08,1.999899087075294e-08,1.6054025723143117e-08,1.3536022909057535e-08
0.0,15,15.0,0.0,30.0,0.0,0.0,0.0,0.0,2.0,2.0,-12.0,0.0,0.0,0.0,8.011516763834156e-07,4.7392593523582226e-07,3.437641026031231e-07,2.768908893327255e-07,2.3780597364201282e-07,2.24978154005389e-07,1.9957538345896737e-07,1.8099982983600152e-07,1.7772914824876455e-07,1.6038310034553902e-07,1.5961261500037152e-07,1.4229423805550414e-07,1.3736168586630917e-07,1.2932653006223076e-07,1.1928421841215792e-07,1.1557853876941581e-07,1.0682466501595391e-07,1.0070881505822235e-07,9.824471345202228e-08,8.700010120838652e-08,7.802888086532833e-08,6.812570920532297e-08,6.185987869027212e-08,5.8350668124644125e-08,5.075599391873243e-08,4.411850361350227e-08,3.5857524060843485e-08,3.096587712022636e-08,2.858717970676722e-08,2.471563192008197e-08,2.0041713247156385e-08,1.7306439461183573e-08,1.4882519600721047e-08,1.4301002113707542e-08
0.0,16,16.0,0.0,30.0,0.0,0.0,0.0,0.0,2.0,2.0,-12.0,0.0,0.0,0.0,8.148919622863014e-07,4.7426911060608884e-07,3.203289613993529e-07,2.810970162699088e-07,2.1459739334054284e-07,2.002660082308927e-07,1.7369095748787189e-07,1.7037032338320762e-07,1.5388348479555826e-07,1.5180829473356676e-07,1.3631543450247453e-07,1.308472443763192e-07,1.192503952008245e-07,1.1550643539568909e-07,1.1576233333261171e-07,1.0763971387231527e-07,1.0285012890483293e-07,9.964547683729536e-08,8.883778144586122e-08,8.291578349332637e-08,7.210005806562606e-08,7.064408447101937e-08,5.796747464946311e-08,5.349277750104038e-08,4.642892337159807e-08,4.099665536462456e-08,3.410544761238566e-08,3.195033915953807e-08,2.602884706793867e-08,2.1394442410739e-08,1.9770242352531234e-08,1.6083404216948764e-08,1.452579274971015e-08,1.0608620561978126e-08
0.0,17,17.0,0.0,30.0,0.0,0.0,0.0,0.0,2.0,2.0,-12.0,0.0,0.0,0.0,9.112521030563363e-07,4.941486246424563e-07,3.2698287200220797e-07,2.4080688838289096e-07,2.1419372569115369e-07,1.9715738421107319e-07,1.764958677920512e-07,1.7289310823303833e-07,1.4469986450279455e-07,1.4089121073558129e-07,1.2676756998889573e-07,1.2492944371883627e-07,1.2272595174997776e-07,1.0752669660709687e-07,1.0392820752592596e-07,9.337124003032666e-08,9.284604240572647e-08,8.68160022367925e-08,8.707042290749638e-08,7.418963994921918e-08,6.094977307956884e-08,5.899832461545659e-08,5.225897732193765e-08,5.280353722429815e-08,4.142732530091478e-08,3.5357669740446704e-08,3.1397607019567584e-08,2.761498926082289e-08,2.2760031314962746e-08,2.188492427559286e-08,1.7030667306091643e-08,1.5356117403240562e-08,1.3433061093155438e-08,8.862942713875905e-09
0.0,18,18.0,0.0,30.0,0.0,0.0,0.0,0.0,2.0,2.0,-12.0,0.0,0.0,0.0,8.826710643873653e-07,4.961213489537906e-07,3.3554060228458657e-07,2.5173800098464404e-07,2.1148117614038223e-07,1.919680290431208e-07,1.703189505698044e-07,1.4857580681594446e-07,1.3977297023524854e-07,1.2776207029496437e-07,1.184619536895398e-07,1.1585539808164207e-07,1.1032870884584604e-07,1.0318348246632056e-07,9.748361696515412e-08,9.734024404725711e-08,8.898165704529863e-08,7.952408873213054e-08,7.727813123124316e-08,6.927603162716846e-08,5.909661519223578e-08,5.691357619798471e-08,5.0887985596477654e-08,4.392558064185301e-08,3.903900607216795e-08,3.562033171422185e-08,2.9262016781239934e-08,2.650066305606965e-08,2.328679428973354e-08,2.0391617569246496e-08,1.6401695884728007e-08,1.2187707020571432e-08,1.1912901497591613e-08,9.395500696735307e-09
0.0,19,19.0,0.0,30.0,0.0,0.0,0.0,0.0,2.0,2.0,-12.0,0.0,0.0,0.0,9.591155166999144e-07,5.068705796432092e-07,3.328267447076742e-07,2.4723118608981597e-07,2.145662643172307e-07,1.8056582080517571e-07,1.5098596074470725e-07,1.4930787165016596e-07,1.23393810452557e-07,1.2053984652256508e-07,1.1218072856238509e-07,1.0665054353213409e-07,1.051324762844798e-07,9.64281260351947e-08,8.692076351879508e-08,8.515806459237061e-08,7.962198002981593e-08,7.699702852382143e-08,6.937451898233604e-08,6.453028907625292e-08,5.355001364372158e-08,5.1920889803982524e-08,4.283879380204589e-08,4.249287050950988e-08,3.3476575055886555e-08,3.1363882157467704e-08,2.8797928750998454e-08,2.3925560190215688e-08,2.05595846696387e-08,1.605701037005019e-08,1.4226542904889887e-08,1.1739723452628955e-08,1.0711444221549642e-08,7.747658472145463e-09
0.0,20,20.0,0.0,30.0,0.0,0.0,0.0,0.0,2.0,2.0,-12.0,0.0,0.0,0.0,9.90625158997265e-07,5.427050496673287e-07,3.4294759572036165e-07,2.419103482215421e-07,1.957542432858566e-07,1.6879180932648542e-07,1.5315712158912718e-07,1.3437565564563679e-07,1.2412498187008952e-07,1.1314833995964731e-07,1.049351332564189e-07,9.788160624104332e-08,9.049646728573844e-08,8.778843330130512e-08,8.83536944300998e-08,7.696671121711331e-08,8.021987995705916e-08,6.922583159755295e-08,6.574328690584818e-08,5.8067904779867447e-08,5.566679936050769e-08,4.947644546697916e-08,4.403046848271699e-08,3.7109646921950575e-08,3.053962093636306e-08,2.7151601179824366e-08,2.7207929284028367e-08,2.3601799626410286e-08,1.7582773617203405e-08,1.6657078355967707e-08,1.5680654094273935e-08,1.1784367302373083e-08,7.808201809132704e-09,7.699500514121813e-09
0.0,21,21.0,0.0,30.0,0.0,0.0,0.0,0.0,2.0,2.0,-12.0,0.0,0.0,0.0,1.0414068664205949e-06,5.548898530301632e-07,3.492071457907866e-07,2.474648376194546e-07,2.0448583305830445e-07,1.6311232849003883e-07,1.371843425348424e-07,1.2699406468311913e-07,1.1470484999852846e-07,1.076781574891293e-07,9.827992342386449e-08,9.23301162459162e-08,9.177637385294609e-08,8.361189775091678e-08,7.656840943980923e-08,7.856959393006172e-08,6.863187615134172e-08,6.940591802147768e-08,5.707550496284442e-08,5.222815480417464e-08,5.036816134596509e-08,4.27116530216184e-08,3.844947734431516e-08,3.277446559413677e-08,3.05267073084447e-08,2.6803158958340418e-08,2.316629620272256e-08,2.1108183018860183e-08,1.7825850395742907e-08,1.5660977033093607e-08,1.2487166864297849e-08,1.1086488356228649e-08,8.508808036591676e-09,7.700955865678465e-09
0.0,22,22.0,0.0,30.0,0.0,0.0,0.0,0.0,2.0,2.0,-12.0,0.0,0.0,0.0,1.1201767034765399e-06,5.813481601745621e-07,3.68697315319053e-07,2.5720845551566785e-07,1.8041164743029825e-07,1.6180735357319521e-07,1.3420387824857382e-07,1.178578225398741e-07,1.0485058499521512e-07,1.0106530609178844e-07,9.491033146475433e-08,8.601959606163001e-08,8.730254634410684e-08,7.54232448241565e-08,7.362728977936371e-08,6.810932111926568e-08,6.401574642130512e-08,6.094141563085338e-08,5.40649008026157e-08,4.934691724558765e-08,4.4601634864029504e-08,3.546849854226972e-08,3.466152490603231e-08,3.132329582115492e-08,2.6983778065570694e-08,2.466592249563515e-08,2.3523366203620463e-08,1.972166252657949e-08,1.7712933724033496e-08,1.2284448261242368e-08,1.229772373220041e-08,1.1219260427065588e-08,9.714793848218775e-09,7.373605631986457e-09
0.0,23,23.0,0.0,30.0,0.0,0.0,0.0,0.0,2.0,2.0,-12.0,0.0,0.0,0.0,1.1456872660770091e-06,5.999658322788931e-07,3.804827496858935e-07,2.613277327338826e-07,2.05804267479302e-07,1.5840820451492713e-07,1.3130999032532457e-07,1.1406232936399886e-07,1.0205595886759212e-07,8.881008901670458e-08,8.44353902648147e-08,7.88533160974703e-08,7.808567391770652e-08,7.300828583425559e-08,7.04719353946724e-08,6.479628635259411e-08,6.044761303680218e-08,5.87763394589493e-08,5.406955486461111e-08,4.9359448659254004e-08,4.2056555322706104e-08,3.665917287391226e-08,3.5201666524874275e-08,3.091127095033018e-08,2.6600884368642732e-08,2.274715941936179e-08,1.854048546125431e-08,1.8030293064145544e-08,1.533992730264259e-08,1.431352268550954e-08,1.1316664090853858e-08,8.573887414231513e-09,7.951416954649661e-09,6.8394074778352936e-09
0.0,24,24.0,0.0,30.0,0.0,0.0,0.0,0.0,2.0,2.0,-12.0,0.0,0.0,0.0,1.1558565581618733e-06,6.689903913630252e-07,3.98774611593615e-07,2.72183947182726e-07,2.0613761897268256e-07,1.5823026379463367e-07,1.3294981321609573e-07,1.1170151154324923e-07,9.873093915090538e-08,9.360724782373207e-08,8.268347462925727e-08,8.141162420292511e-08,7.205709077969903e-08,7.087837057047408e-08,6.411046670463764e-08,6.232291271701481e-08,5.587938771348595e-08,5.237238734744998e-08,4.8393763501992306e-08,4.3502859605531414e-08,3.7433891491622606e-08,3.46458989118607e-08,3.2241789657161526e-08,2.7939699799267635e-08,2.567540209469415e-08,2.1542289939355073e-08,1.905403059614747e-08,1.7723010800717714e-08,1.3996092860152415e-08,1.0341539153655057e-08,1.2514376660485703e-08,9.805525582897162e-09,6.480341766710679e-09,6.169233182997888e-09
0.0,25,25.0,0.0,30.0,0.0,0.0,0.0,0.0,2.0,2.0,-12.0,0.0,0.0,0.0,1.2318236658581799e-06,6.493962652149368e-07,3.938787470818647e-07,2.714959751447003e-07,2.0942543725864522e-07,1.605323416281726e-07,1.39885612213795e-07,1.0364901477782779e-07,9.634488571757849e-08,8.595485175066261e-08,8.130603552922336e-08,7.668879816947237e-08,6.890905641251353e-08,6.39347732016436e-08,5.8168203633182225e-08,5.7839301101606545e-08,5.323454398288777e-08,5.045353740137727e-08,4.653461671518796e-08,4.1266648982997374e-08,3.820981702956046e-08,3.263052035473469e-08,2.828554445996673e-08,2.5572549276763054e-08,1.9733575211207553e-08,1.9497219475663127e-08,1.83413501396846e-08,1.4852289839962819e-08,1.4524104088667973e-08,1.1358242200660558e-08,9.57382964219827e-09,1.0622190467793659e-08,6.338471048422621e-09,4.841962514999861e-09
0.0,26,26.0,0.0,30.0,0.0,0.0,0.0,0.0,2.0,2.0,-12.0,0.0,0.0,0.0,1.1896028973961105e-06,7.251450101320545e-07,4.340857075246219e-07,3.037655380167218e-07,2.1539809268142673e-07,1.772386054130801e-07,1.3443956069050861e-07,1.139214593309692e-07,9.252925977560439e-08,8.66156015377755e-08,7.755215594863582e-08,7.123075088864952e-08,6.808375437241299e-08,6.333180946948688e-08,5.5512227591977275e-08,5.298886536729761e-08,4.937402140553876e-08,4.65978383968627e-08,4.408163108593927e-08,3.803881185402903e-08,3.2353153703709246e-08,3.065049759664441e-08,2.6310909558283142e-08,2.4003313470723523e-08,2.104831702240174e-08,1.8377609467087076e-08,1.5240310281301586e-08,1.507176648611652e-08,1.2592882001068217e-08,1.0690337248499427e-08,8.503626182375138e-09,5.82714048594166e-09,6.407906791380778e-09,4.638019587894983e-09
0.0,27,27.0,0.0,30.0,0.0,0.0,0.0,0.0,2.0,2.0,-12.0,0.0,0.0,0.0,1.275718589433585e-06,7.43604965566204e-07,4.528233053605972e-07,3.1074185689562707e-07,2.1645490863992376e-07,1.6513439646494103e-07,1.3420642936155702e-07,1.1169484623795536e-07,9.319412712371036e-08,8.31890664612185e-08,7.671002939777001e-08,6.829124506313722e-08,6.356790411256239e-08,5.7020910907453775e-08,5.5683588640306204e-08,5.27005680375109e-08,4.752615095692762e-08,4.587247483029754e-08,3.881358367957711e-08,3.928431375936948e-08,3.003574839561568e-08,3.118277595328362e-08,2.583517055225882e-08,2.275183271933724e-08,1.765575175607745e-08,1.4652380616817052e-08,1.727000711889098e-08,1.4479005377094965e-08,1.0609474413605207e-08,8.361419596525937e-09,8.523521175853695e-09,6.595400079712036e-09,5.161112183274171e-09,4.054348314363099e-09
0.0,28,28.0,0.0,30.0,0.0,0.0,0.0,0.0,2.0,2.0,-12.0,0.0,0.0,0.0,1.351884482691588e-06,7.500518687016928e-07,4.771396539868588e-07,3.1147550064166765e-07,2.2513601866209415e-07,1.804696801218954e-07,1.3190635221211404e-07,1.1374882183075192e-07,9.040451324145284e-08,8.273541495141991e-08,6.846142946405251e-08,7.014184516117373e-08,5.8558515733045516e-08,5.540664026478717e-08,5.070099667357315e-08,4.8435572836208164e-08,4.522692330865326e-08,3.9564448633617127e-08,3.8682127345974736e-08,3.6214422861757746e-08,2.959444666750245e-08,2.643513410673895e-08,2.5170323050796212e-08,2.050849478323146e-08,1.879100550231638e-08,1.6291233312572298e-08,1.5053536341073183e-08,1.204569799743847e-08,1.0120302848476954e-08,1.0818122944283388e-08,6.958594368024684e-09,4.633234183699044e-09,2.774348032950081e-09,4.849800840296329e-09
0.0,29,29.0,0.0,30.0,0.0,0.0,0.0,0.0,2.0,2.0,-12.0,0.0,0.0,0.0,1.2841968080413778e-06,7.713431278001118e-07,4.876358597927317e-07,3.2796084170653254e-07,2.1761869905099303e-07,1.7750378845182868e-07,1.3819586878022441e-07,1.0492891350189969e-07,9.594445905314203e-08,7.974588123048826e-08,7.328252216291773e-08,6.705894435953024e-08,5.785187314782486e-08,5.5234938390447346e-08,5.114066050090961e-08,4.487101779679164e-08,4.414076703245562e-08,4.198108500724703e-08,3.728960232797802e-08,3.2484128461688645e-08,2.841798060367458e-08,2.4763213001611126e-08,2.3803704072421113e-08,2.249596195968885e-08,1.807074058510277e-08,1.4069867526735672e-08,1.2364640623700316e-08,1.219764074424557e-08,9.609073105026075e-09,8.232592259459154e-09,7.523307677014482e-09,5.1297564085416825e-09,5.731737917483715e-09,6.104184816647704e-09
0.0,30,30.0,0.0,30.0,0.0,0.0,0.0,0.0,2.0,2.0,-12.0,0.0,0.0,0.0,1.4021960328511249e-06,8.261067131432825e-07,5.196922313983326e-07,3.567063236492025e-07,2.441628491929857e-07,1.7299591881504363e-07,1.467191126243227e-07,1.135369849881451e-07,9.361436257501838e-08,8.03777552298207e-08,6.786684978551043e-08,6.433895713665572e-08,5.8427098847411157e-08,5.016104557212748e-08,4.585585284742178e-08,4.5653169966238226e-08,4.1416858076800207e-08,3.875678419481836e-08,3.767236910478712e-08,3.17076639294082e-08,2.8496921966904853e-08,2.2636318030708713e-08,2.056198683374064e-08,1.7715796380652625e-08,1.5502561330967476e-08,1.494496217976289e-08,1.3988209446762449e-08,9.576261975120402e-09,1.0391127516937937e-08,9.34696592816181e-09,9.4962416409291e-09,6.093841732452184e-09,5.368598975673406e-09,5.2354470699495926e-09
0.0,31,31.0,0.0,30.0,0.0,0.0,0.0,0.0,2.0,2.0,-12.0,0.0,0.0,0.0,1.3196504260485964e-06,8.670676944437977e-07,5.453058662575827e-07,3.5692038180085705e-07,2.598256074432743e-07,1.857998675242661e-07,1.4916230020437767e-07,1.1426106142817798e-07,9.7012995704738e-08,8.582893206246399e-08,7.447414171364942e-08,6.551411092682678e-08,5.5381158036675616e-08,5.228163502870727e-08,4.608182151714846e-08,4.055442688601674e-08,4.4367580901218375e-08,3.602352744845554e-08,3.2604375574520136e-08,2.8370952879794882e-08,2.5912100648059097e-08,2.3289372825716394e-08,2.0144024788660406e-08,1.6959022172696462e-08,1.5038065348524305e-08,1.4822151516498935e-08,1.1075284602875129e-08,1.0105529693087366e-08,8.578218515921401e-09,8.285847780540965e-09,5.540669204896759e-09,6.847361974036188e-09,5.478942654297226e-09,4.758573560700901e-09
0.0,32,32.0,0.0,30.0,0.0,0.0,0.0,0.0,2.0,2.0,-12.0,0.0,0.0,0.0,1.537640340758847e-06,9.013260674955775e-07,5.27802438499922e-07,3.7111029069758556e-07,2.712073850673528e-07,2.0851849658473724e-07,1.4988100985160547e-07,1.2251406433651687e-07,9.693928943102242e-08,8.570061286615996e-08,7.557282961243109e-08,6.706971574901856e-08,5.713775058593976e-08,4.9059094906877075e-08,4.730399076266171e-08,4.354387761528187e-08,3.7889832768454677e-08,3.444442050591195e-08,3.2651809586294655e-08,2.8539608471571624e-08,2.2483418213331936e-08,2.260799945472883e-08,2.0044530773109177e-08,1.4997055420781046e-08,1.4225996111281671e-08,1.3380762615893502e-08,1.1745528292083076e-08,8.617254407733221e-09,8.673334505772321e-09,6.895373777858722e-09,4.788625692686038e-09,4.277989935992885e-09,4.340968394474661e-09,4.095621787719338e-09
0.0,33,33.0,0.0,30.0,0.0,0.0,0.0,0.0,2.0,2.0,-12.0,0.0,0.0,0.0,1.614727099411152e-06,9.219435389911441e-07,5.672804789549228e-07,3.872666812346338e-07,2.6997485640957215e-07,2.034117542556554e-07,1.555368102237559e-07,1.2249887736838376e-07,9.586060837807357e-08,8.352164849809811e-08,7.555446436876832e-08,6.313874546561116e-08,5.747257284460542e-08,4.8538678843054703e-08,4.563875366987307e-08,4.264663349329222e-08,3.9699591630367223e-08,3.454397001419033e-08,2.9548835771262534e-08,2.8239147747324453e-08,2.38665099959403e-08,2.0971966575496465e-08,1.959703904438931e-08,1.507596378418611e-08,1.3224319279145318e-08,1.122071133083599e-08,1.0189748611451076e-08,8.847726407359058e-09,6.54952067028485e-09,6.200634053265917e-09,5.917087903644218e-09,5.2928762925144465e-09,4.2279922005262456e-09,3.946837441202977e-09
0.0,34,34.0,0.0,30.0,0.0,0.0,0.0,0.0,2.0,2.0,-12.0,0.0,0.0,0.0,1.5402968697383094e-06,8.525275161658637e-07,5.894004771672849e-07,4.085378153326076e-07,2.8299928846346804e-07,2.0504208468808529e-07,1.6216399879508123e-07,1.3342867445497655e-07,1.0376503216489336e-07,8.858685492384111e-08,7.569334001416576e-08,6.846762168927329e-08,5.315273798932601e-08,4.794085411695845e-08,4.175720562460829e-08,4.3178385744939436e-08,3.703951918118898e-08,3.2153828048981655e-08,2.9767490074664093e-08,2.6957897350510372e-08,2.1619276604034073e-08,1.708030283664459e-08,1.674695923666571e-08,1.4858380897284074e-08,1.3257658752693e-08,1.1305112080895971e-08,1.0237346354259354e-08,7.826289248355615e-09,7.286113350389261e-09,5.215349200761702e-09,6.8345897970424914e-09,6.443218000242101e-09,3.948330009196193e-09,2.4673543109417713e-09
0.0,35,35.0,0.0,30.0,0.0,0.0,0.0,0.0,2.0,2.0,-12.0,0.0,0.0,0.0,1.5556263076751888e-06,9.15956365243159e-07,5.961131306631173e-07,4.3064769661960197e-07,2.989444606914554e-07,2.119070428424258e-07,1.6108080097270715e-07,1.323387433456988e-07,1.064684947693924e-07,8.9588990381069e-08,7.714914927878157e-08,6.660564991600326e-08,5.918685221226344e-08,4.5638680835393854e-08,4.181872645099478e-08,4.117217862536933e-08,3.7774793454237786e-08,3.4552668215191306e-08,2.7224336207065744e-08,2.522065156735077e-08,2.1673410701193504e-08,1.9498967474172803e-08,1.6798858398696874e-08,1.51736431259196e-08,1.1183917831662745e-08,1.1810572608763904e-08,8.95482281099513e-09,7.843634042581496e-09,6.997982489629221e-09,6.299198123238681e-09,5.88260344234854e-09,4.459985390074411e-09,5.1875917850139064e-09,3.615450074485204e-09
0.0,36,36.0,0.0,30.0,0.0,0.0,0.0,0.0,2.0,2.0,-12.0,0.0,0.0,0.0,1.6601289263837569e-06,9.216132692598266e-07,6.081755998859379e-07,4.2116610053089605e-07,3.1073045382358536e-07,2.2537619727693183e-07,1.6921661835038602e-07,1.394256221459202e-07,1.1431038090402578e-07,8.801560176869372e-08,7.964812892401167e-08,6.524384988964864e-08,5.7481485018301235e-08,5.043751880286355e-08,4.590915353663903e-08,3.9973616573853196e-08,3.962935271374006e-08,3.089462201833782e-08,2.799858716853685e-08,2.3532362210162786e-08,2.038693722809427e-08,1.6119184091119407e-08,1.57610889227705e-08,1.4116657482871212e-08,1.2119682133934249e-08,1.1168097797827022e-08,7.994573222487288e-09,7.313685049212453e-09,7.328820734681653e-09,5.033198321640894e-09,3.728873103288771e-09,3.712361451491975e-09,2.6067599790842855e-09,3.114290232497064e-09
0.0,37,37.0,0.0,30.0,0.0,0.0,0.0,0.0,2.0,2.0,-12.0,0.0,0.0,0.0,1.618806441187088e-06,1.0007348738302649e-06,6.582914919384737e-07,4.529258193017872e-07,3.314256709669805e-07,2.428803784505834e-07,1.8074174001272114e-07,1.504036936548068e-07,1.19382936374413e-07,9.060390234350391e-08,7.8196517916148e-08,6.693072907101833e-08,5.913205511785956e-08,5.250403702771701e-08,4.667471450398327e-08,3.765671570178072e-08,3.441996493948079e-08,3.38117160400545e-08,2.7149072404008772e-08,2.380781985982527e-08,1.8707808595860024e-08,1.5782576085900593e-08,1.3923116073352735e-08,1.2294850116573365e-08,1.126804867357717e-08,9.108313956816085e-09,6.865440604254538e-09,9.044154196174976e-09,4.3093756899410864e-09,5.973504027677848e-09,5.7037362534294e-09,4.149373471485999e-09,3.465327633451853e-09,3.367027965914575e-09
0.0,38,38.0,0.0,30.0,0.0,0.0,0.0,0.0,2.0,2.0,-12.0,0.0,0.0,0.0,1.7425725741984275e-06,1.0307092287645094e-06,6.648486381867771e-07,4.436536281834201e-07,3.3746861156012325e-07,2.5428922933730974e-07,1.9132502622820496e-07,1.4597105636814047e-07,1.216030509142163e-07,9.99431268015713e-08,8.203693515779066e-08,6.761090882856958e-08,6.027031994963331e-08,5.225430608714612e-08,4.5628975780423097e-08,3.9589233930392235e-08,3.6912455347550406e-08,3.194687468850944e-08,2.7655897235492454e-08,2.3534952897732448e-08,1.9235063385473475e-08,1.8582798017908295e-08,1.5667377039096525e-08,1.08472028456323e-08,1.2083709863435347e-08,8.877540900562143e-09,8.544267295104847e-09,7.182151904519979e-09,5.369495003272553e-09,5.16838235772763e-09,4.344498530842089e-09,5.1650891301760125e-09,3.5585857987654885e-09,1.000838079160745e-09
0.0,39,39.0,0.0,30.0,0.0,0.0,0.0,0.0,2.0,2.0,-12.0,0.0,0.0,0.0,1.7142964299166475e-06,1.0448682855298212e-06,7.10017543305638e-07,4.5467024678137273e-07,3.3694902311664656e-07,2.603950376173209e-07,1.962330056700746e-07,1.5187868894744578e-07,1.194622011975709e-07,9.913643260642924e-08,8.837998131048543e-08,6.774389939670226e-08,6.239446525139665e-08,5.297748227787359e-08,4.604771869326308e-08,3.8026789483453765e-08,3.770097627762993e-08,3.139582386084607e-08,2.8249586378968147e-08,2.3424057445712297e-08,1.8433046816651012e-08,1.8200488463309884e-08,1.2740101279188708e-08,1.0944143242697405e-08,8.510134858064285e-09,9.406449131089397e-09,7.475840227947896e-09,7.274220827782872e-09,5.508265308119231e-09,5.591559777190583e-09,4.505243984673665e-09,4.2899736122844085e-09,3.007732660964622e-10,1.1849847192228137e-09
0.0,40,40.0,0.0,30.0,0.0,0.0,0.0,0.0,2.0,2.0,-12.0,0.0,0.0,0.0,1.6838745111142673e-06,1.033444524114152e-06,7.041516665911121e-07,4.916529069417545e-07,3.26388451000778e-07,2.60072776574776e-07,2.0299326948642783e-07,1.6222790019489116e-07,1.330425744929178e-07,1.0418419739550819e-07,8.471141489035718e-08,7.402469130687693e-08,6.133520619121307e-08,5.2340008079049575e-08,4.586807654872032e-08,4.152430871726922e-08,3.702153512405713e-08,3.218496248744263e-08,2.687756638906935e-08,2.1304146975187285e-08,1.6382266626653615e-08,1.4758429677097506e-08,1.1075819193082394e-08,9.870034986811496e-09,8.735727540853202e-09,8.028873925477565e-09,9.023465496397111e-09,8.244899597095507e-09,5.833754977742612e-09,4.36957135526436e-09,3.925316491246781e-09,4.334766500935812e-09,2.0727323091653742e-09,2.987297433459056e-09
0.0,41,41.0,0.0,30.0,0.0,0.0,0.0,0.0,2.0,2.0,-12.0,0.0,0.0,0.0,1.876876460077583e-06,1.028166400531878e-06,7.11734341687006e-07,5.298110845081343e-07,3.741760765698946e-07,2.707743548770755e-07,2.1460596312359816e-07,1.6286251663334666e-07,1.3116487238632409e-07,1.1233547503008671e-07,8.771819916418106e-08,7.095226190643118e-08,6.676228891990356e-08,5.4647365635489936e-08,4.735921852481371e-08,4.319076656282504e-08,3.7598245600254536e-08,3.036889976163575e-08,2.5112805788401527e-08,2.0193621185052728e-08,1.7546112342775175e-08,1.3552359777767698e-08,1.2630460973051454e-08,1.2211212271024987e-08,8.869356539777833e-09,7.790802198186921e-09,7.63649717806654e-09,5.033272565931187e-09,4.933529540923971e-09,3.740011149814106e-09,4.059952501958083e-09,4.285733282169962e-09,1.7666490026402662e-09,9.669505307842726e-10
0.0,42,42.0,0.0,30.0,0.0,0.0,0.0,0.0,2.0,2.0,-12.0,0.0,0.0,0.0,1.7970543423455461e-06,1.1157322575418446e-06,7.181132921678578e-07,5.328308618258853e-07,3.743452462170956e-07,2.960974170005061e-07,2.0862084892226464e-07,1.7480293425761634e-07,1.3486357542487538e-07,1.1241146235614124e-07,9.136998136793182e-08,8.127421096950466e-08,6.668802792970647e-08,6.025288904406883e-08,4.763632735827652e-08,4.068157961300275e-08,3.77473197101788e-08,3.496410074683003e-08,2.407234014223374e-08,2.1690238945918893e-08,1.528947473360061e-08,1.6018281972612833e-08,1.1266091312772875e-08,1.0894696370773062e-08,1.1966579396475753e-08,7.912855733652281e-09,6.392465774553759e-09,5.6393765066254166e-09,3.0554989857915225e-09,3.352675397263803e-09,3.6569089650270254e-09,2.2917577337957163e-09,2.371222581682623e-09,2.2120459937647303e-09
0.0,43,43.0,0.0,30.0,0.0,0.0,0.0,0.0,2.0,2.0,-12.0,0.0,0.0,0.0,1.9246321619149847e-06,1.1117685013039369e-06,7.045762029625246e-07,5.151525021246916e-07,3.907384262426535e-07,3.016928542627743e-07,2.305806926475028e-07,1.8712997751142738e-07,1.4080244399191453e-07,1.182002786669553e-07,9.497212134459026e-08,7.44789153542196e-08,6.598538669462883e-08,6.00195688740668e-08,5.176690484070509e-08,4.429855904993566e-08,4.040815647680482e-08,3.3255351491206256e-08,2.4708634122353498e-08,2.1774456044388553e-08,1.9275286283486473e-08,1.462000165543508e-08,1.3793372351186065e-08,9.046449205621926e-09,8.59130576350809e-09,6.534658224057153e-09,6.236937073317969e-09,5.66255980437135e-09,4.492552370093991e-09,4.135315749694635e-09,2.984694850149089e-09,3.1182173309259314e-09,3.663910033976761e-09,2.3687874916175904e-09
0.0,44,44.0,0.0,30.0,0.0,0.0,0.0,0.0,2.0,2.0,-12.0,0.0,0.0,0.0,1.8024640498376006e-06,1.1940672430794722e-06,7.668397986169303e-07,5.719509024085711e-07,3.9593733102614165e-07,3.097351667370082e-07,2.312545363812872e-07,1.896898057500615e-07,1.4396467518028293e-07,1.232322614327194e-07,9.732393853203748e-08,8.913410984389333e-08,7.238927665091868e-08,5.885076279065894e-08,5.503677361702363e-08,4.8328859818038216e-08,3.935451971762127e-08,3.350001023592166e-08,2.8086657124425965e-08,2.137473649324043e-08,1.873484197302756e-08,1.427760702423241e-08,1.1046290190099406e-08,9.378907153506783e-09,8.456394942015526e-09,7.678993653138915e-09,4.914035562152836e-09,4.014312626898016e-09,4.9797965168773956e-09,4.952297900663938e-09,4.260671117076345e-09,2.710694837702404e-09,1.5050641726554036e-09,1.6011544520601843e-09
0.0,45,45.0,0.0,30.0,0.0,0.0,0.0,0.0,2.0,2.0,-12.0,0.0,0.0,0.0,1.887113012698803e-06,1.0975246522332828e-06,8.113824388347391e-07,5.630877453883411e-07,4.061553631813923e-07,3.186866644578011e-07,2.4103291135980907e-07,2.023615160656393e-07,1.5265893483812893e-07,1.2765745867040247e-07,1.0577426924898544e-07,8.721542271290961e-08,7.669588273569734e-08,6.172339365855795e-08,5.656251517853965e-08,4.563329998978429e-08,4.2863773540906475e-08,3.623261611673095e-08,2.7373963850991303e-08,2.3194920260411963e-08,1.8461329968766767e-08,1.529186921732841e-08,1.3878374234822461e-08,1.0416399140670411e-08,8.62599597709704e-09,7.111246155964067e-09,5.812433287854783e-09,5.655935944987501e-09,4.459697431314574e-09,5.630124783048472e-09,1.9881848533304963e-09,3.854530702710742e-09,1.3037897340102363e-09,5.782373299933372e-10
0.0,46,46.0,0.0,30.0,0.0,0.0,0.0,0.0,2.0,2.0,-12.0,0.0,0.0,0.0,1.8792907427906805e-06,1.1214343747804394e-06,8.08790919365214e-07,5.561732127106537e-07,4.1274179976095036e-07,3.216885827180977e-07,2.579230807490219e-07,2.005043889163432e-07,1.5977034134089077e-07,1.28727210771411e-07,1.0877003542925906e-07,9.016845973790185e-08,7.488292624009516e-08,6.684166506910972e-08,5.591201316955601e-08,4.835437125267208e-08,4.280768310036632e-08,3.450684318167181e-08,2.8045521021533385e-08,2.281250476869715e-08,1.6840551847951013e-08,1.3035779929105046e-08,1.149936356860683e-08,9.474798305778162e-09,7.97309082433713e-09,6.125205265670751e-09,4.782125945633659e-09,5.598347238185318e-09,3.155368525627953e-09,3.0848622944361234e-09,3.682442460592285e-09,1.6912337534661164e-09,2.180954399464617e-09,2.5591738411232216e-09
0.0,47,47.0,0.0,30.0,0.0,0.0,0.0,0.0,2.0,2.0,-12.0,0.0,0.0,0.0,1.9280527694566066e-06,1.1343128044087814e-06,8.036067977191018e-07,5.955552676658671e-07,4.4128758023752187e-07,3.230075331036201e-07,2.636470155763837e-07,2.0669715586903348e-07,1.7424239094426433e-07,1.3437696687124845e-07,1.100084488863198e-07,9.442829837575569e-08,7.92227196632433e-08,6.448863508110636e-08,5.8425088906127826e-08,5.199958388699974e-08,4.44566337835609e-08,3.7322440204547336e-08,2.582152653430452e-08,2.1275637824629586e-08,1.7431642862802092e-08,1.3478674983550956e-08,1.2315528589898948e-08,8.617459823314087e-09,8.317748554444374e-09,6.6665415247760525e-09,1.7590345946511376e-09,3.0459677719128194e-09,4.831099525468379e-09,3.2488821803211937e-09,2.6004355659339537e-09,2.690119503492352e-09,2.1873604468690394e-09,2.600932952376982e-09
0.0,48,48.0,0.0,30.0,0.0,0.0,0.0,0.0,2.0,2.0,-12.0,0.0,0.0,0.0,2.02005090952497e-06,1.2381545855030213e-06,8.319752382019287e-07,5.93428288499264e-07,4.4495180469893125e-07,3.240122024548373e-07,2.666574088761896e-07,2.063177733116091e-07,1.629118109045772e-07,1.440726574422131e-07,1.1452565351759942e-07,9.258840320125246e-08,8.296111864268892e-08,6.540274517879797e-08,5.807219185562991e-08,5.3605967623336095e-08,4.375602887702691e-08,3.51543687737975e-08,3.1222590410416893e-08,2.3420933930826883e-08,1.6805485783819507e-08,1.3686848694119795e-08,1.1235148402660911e-08,1.0130691313963379e-08,6.718374531435642e-09,6.859924730630739e-09,4.526108539092918e-09,5.131728999576141e-09,2.492097602101602e-09,3.128381097010768e-09,2.023494518372448e-09,8.329610274562317e-10,4.026430940947603e-09,2.259465298287505e-09
0.0,49,49.0,0.0,30.0,0.0,0.0,0.0,0.0,2.0,2.0,-12.0,0.0,0.0,0.0,2.0642906700935113e-06,1.2641711469743685e-06,8.142120558118215e-07,6.064676377115862e-07,4.7102898163565573e-07,3.21538475378314e-07,2.7100225978123857e-07,2.2689266351984428e-07,1.7292567116905933e-07,1.4935620206430666e-07,1.175014057378197e-07,9.868923434845868e-08,8.431868543504114e-08,7.096740656556117e-08,6.052236954237262e-08,5.4710000970465445e-08,4.868341803709253e-08,3.854324835367493e-08,2.855317972596542e-08,2.232899014907349e-08,1.7973671351086806e-08,1.4157894480143493e-08,9.657914765655728e-09,7.275641191741954e-09,8.921004368250721e-09,6.024066698816177e-09,6.190091524923385e-09,6.465531113584629e-09,2.3593403703843106e-09,3.5634537211317057e-09,3.523961425211952e-09,2.755149221186588e-09,1.8113477958001752e-09,3.572231873733108e-11
0.0,50,50.0,0.0,30.0,0.0,0.0,0.0,0.0,2.0,2.0,-12.0,0.0,0.0,0.0,1.9460684369507633e-06,1.1785598203985457e-06,8.550068557278013e-07,5.935332743367264e-07,4.609794388151726e-07,3.390259921030099e-07,2.7382661340532147e-07,2.2028511115978509e-07,1.7784179787417383e-07,1.4147197220292862e-07,1.2339463955956104e-07,1.037181868482624e-07,9.283987582715605e-08,7.169022786476178e-08,6.453856533051514e-08,5.5811661033810536e-08,4.914449904528694e-08,4.041457064207247e-08,3.319833672256684e-08,2.3971943325296233e-08,1.6972216269203215e-08,1.488332208910617e-08,1.4111256394428094e-08,8.882153941496367e-09,7.490335528329982e-09,4.730443895364399e-09,4.434245522254307e-09,4.093837174181071e-09,3.839877281281696e-09,2.365215085545812e-09,2.8159769382919457e-09,1.737052769837758e-09,2.222754894703396e-09,9.089643965730037e-10
0.0,51,51.0,0.0,30.0,0.0,0.0,0.0,0.0,2.0,2.0,-12.0,0.0,0.0,0.0,1.9922517748895766e-06,1.2730789132378271e-06,8.294380416567108e-07,6.257230175836579e-07,4.5563606034922207e-07,3.599186585594608e-07,2.891618585222596e-07,2.3595008513592124e-07,1.8713939029683677e-07,1.5644429753368988e-07,1.2894057324932592e-07,1.1561573348819887e-07,9.290440798121631e-08,7.928095141038421e-08,6.720875624250779e-08,6.018108612928103e-08,5.0733481343433703e-08,4.187565667001387e-08,3.036521020703604e-08,2.5152431147442364e-08,1.9598392674194134e-08,1.4321071196021916e-08,1.0444509850228185e-08,9.564272155875438e-09,7.395984867488274e-09,6.2518618667751245e-09,3.967057043555592e-09,4.16104129207586e-09,2.5039137418235912e-09,4.022832294466023e-09,2.9558509050434593e-09,1.1530046378210727e-09,3.358318562759324e-09,1.9210047546502896e-09
0.0,52,52.0,0.0,30.0,0.0,0.0,0.0,0.0,2.0,2.0,-12.0,0.0,0.0,0.0,2.0747455888568217e-06,1.2238351613292294e-06,8.692392591080719e-07,6.231624716928697e-07,4.991254729227066e-07,3.475225208288844e-07,3.0055293829810826e-07,2.3081282399903802e-07,1.927941192473402e-07,1.622216563425144e-07,1.305317172118778e-07,1.072597866772888e-07,9.246489363108278e-08,7.775387423491938e-08,6.800627569244763e-08,5.74207356371342e-08,5.1628841306489823e-08,3.9343443373655306e-08,3.7056582936100994e-08,2.471521694397836e-08,1.9053660127842197e-08,1.4626410967861936e-08,1.0227902689761738e-08,9.635043290309571e-09,6.486638997109092e-09,5.520825850913243e-09,4.8719900981647715e-09,5.4535253610652766e-09,4.735856255495455e-09,3.614169261712293e-09,2.622110750164043e-09,1.6826451283535729e-09,1.553407419482498e-09,2.4883368072213706e-09
0.0,53,53.0,0.0,30.0,0.0,0.0,0.0,0.0,2.0,2.0,-12.0,0.0,0.0,0.0,2.153348263195422e-06,1.2252256930202916e-06,8.537372138249434e-07,6.579637050750314e-07,4.718653666995475e-07,3.883700100132937e-07,2.897302668561976e-07,2.5421537381426374e-07,1.92010499313974e-07,1.5321041959418505e-07,1.4225219019015482e-07,1.1327679131106267e-07,9.70056224437832e-08,8.901149147862335e-08,7.041094150250872e-08,6.054376983327544e-08,5.052435607375307e-08,4.2629337506797265e-08,3.244861323911453e-08,2.5339617577800545e-08,1.9458200908913782e-08,1.7156402872302297e-08,1.1300610856921755e-08,7.190770271026616e-09,6.790789515265484e-09,6.100529952168481e-09,2.8085201807284278e-09,3.0840550758060258e-09,2.908686895765657e-09,2.1654589750986568e-09,2.9117866846152824e-09,1.7273591375519824e-09,1.5433357472088284e-09,2.4888696256101956e-09
0.0,54,54.0,0.0,30.0,0.0,0.0,0.0,0.0,2.0,2.0,-12.0,0.0,0.0,0.0,1.9836415918203126e-06,1.2723077577704757e-06,8.980932171603792e-07,6.339607170595356e-07,4.959981082605757e-07,3.753336201326321e-07,2.8473143151516627e-07,2.414092732458383e-07,2.0049239874218822e-07,1.6803192244518383e-07,1.418192757367801e-07,1.2367567470708022e-07,9.801892423711315e-08,8.767224213608663e-08,7.570004397083424e-08,6.404533615506557e-08,5.7341244471827794e-08,4.3478848870837603e-08,3.5205573922231563e-08,2.813378722514333e-08,1.937952174489292e-08,1.5813708198367822e-08,1.2636966625754085e-08,7.651102613082276e-09,7.804943006132735e-09,5.460528755059132e-09,5.746827084723589e-09,3.6440906415407764e-09,5.08901020346299e-09,2.8401475210070023e-09,3.7055956799553454e-09,3.040923118681004e-09,2.4533374066655766e-09,3.79021175432551e-10
0.0,55,55.0,0.0,30.0,0.0,0.0,0.0,0.0,2.0,2.0,-12.0,0.0,0.0,0.0,2.225307125593646e-06,1.3226465956785822e-06,9.351783970574298e-07,6.640922405906597e-07,5.125028485125423e-07,3.950761028972932e-07,3.0330676091152686e-07,2.6076140190678934e-07,2.0618598585639464e-07,1.6697955569366218e-07,1.4107107067603208e-07,1.1843638771319251e-07,9.756498269552734e-08,8.384155508785814e-08,7.566654546105966e-08,6.767563426109301e-08,5.742984708747874e-08,4.7234284383061514e-08,3.7086442059639524e-08,2.7895196762975918e-08,2.0498332628782715e-08,1.475157574452069e-08,1.1716721925136497e-08,1.1662697185458285e-08,6.477097585751644e-09,6.519607482735452e-09,4.6292444870648555e-09,5.075961500752291e-09,2.279570663104417e-09,1.028172852708052e-09,1.7923179013739933e-09,3.988944911916943e-10,3.176846042009225e-09,2.265687337501577e-09
0.0,56,56.0,0.0,30.0,0.0,0.0,0.0,0.0,2.0,2.0,-12.0,0.0,0.0,0.0,2.045258463841104e-06,1.3861473094572997e-06,8.968358936921979e-07,6.725480239554276e-07,5.199052651849485e-07,3.8371861739791624e-07,3.2514842054083303e-07,2.522466007077758e-07,2.1263614430090373e-07,1.748502346346013e-07,1.511200854860547e-07,1.2343868421789286e-07,1.0583704026967618e-07,8.634178182656191e-08,7.983778874647363e-08,6.727354347978459e-08,5.8520069480577016e-08,4.538976605060286e-08,3.7901447480173955e-08,2.9734792124404743e-08,2.0530455195361772e-08,1.6904199052065055e-08,1.2065088003991154e-08,9.626185792143387e-09,7.920286586175586e-09,5.632199591646202e-09,3.7193821269204453e-09,4.932624363874362e-09,1.810772229405188e-09,5.925197232459166e-10,2.162362553522609e-09,2.442308681578944e-09,2.8944775360308838e-09,1.3437816363378054e-09
0.0,57,57.0,0.0,30.0,0.0,0.0,0.0,0.0,2.0,2.0,-12.0,0.0,0.0,0.0,2.1897791559218468e-06,1.2654151744219575e-06,9.356265979382741e-07,7.059170557214091e-07,5.085649404089606e-07,4.166940790472337e-07,3.133988591368003e-07,2.634713989340892e-07,2.150662317134992e-07,1.8742323470255652e-07,1.5209054001437402e-07,1.3146791435997855e-07,1.0655460942577545e-07,9.496087197022155e-08,8.243541563535763e-08,6.944475621807154e-08,5.561245380648309e-08,4.744096279798774e-08,4.113801568774123e-08,3.257881451304301e-08,2.0999668425573364e-08,1.705548600899275e-08,1.2920292241598057e-08,1.024688864830654e-08,6.5203688184230625e-09,6.266982084847754e-09,3.3643779493942317e-09,2.535290580983053e-09,2.3605365879732682e-09,1.2144385746269705e-09,1.1624520484710266e-09,1.933327633900329e-09,4.6305463403528617e-10,2.4306382253034757e-09
0.0,58,58.0,0.0,30.0,0.0,0.0,0.0,0.0,2.0,2.0,-12.0,0.0,0.0,0.0,2.411379771304462e-06,1.4358351843458393e-06,9.377616582422003e-07,6.77282536239795e-07,5.559568879625139e-07,4.136509281274541e-07,3.337690689250846e-07,2.619178503296863e-07,2.199662279210052e-07,1.8805882546204766e-07,1.5926823012277524e-07,1.210320536134368e-07,1.1134763464322576e-07,1.0090782416430215e-07,8.271080880572958e-08,7.502063153301715e-08,6.100590897623428e-08,4.937298306236452e-08,4.140572232521621e-08,3.1632897111868005e-08,2.1695255169575492e-08,1.8067870233742843e-08,1.1316567534641031e-08,8.64583881780071e-09,7.132024848727376e-09,7.2506379231619e-09,3.646875832150757e-09,3.891880718057347e-09,3.4061998355143015e-09,1.0614950322197943e-09,1.4880744341530473e-09,2.188589456229884e-09,1.7416089093746087e-09,1.9687945039561054e-09
0.0,59,59.0,0.0,30.0,0.0,0.0,0.0,0.0,2.0,2.0,-12.0,0.0,0.0,0.0,2.2668488023365006e-06,1.3486860917170783e-06,1.009841370007489e-06,7.189414391809742e-07,5.420290439321613e-07,4.2034796719850806e-07,3.455332824516645e-07,2.659154938527154e-07,2.2378491181112675e-07,1.973309286449376e-07,1.626799369037e-07,1.396527839799771e-07,1.065477808316042e-07,9.58334610630185e-08,9.209863572381462e-08,7.174743517145939e-08,6.442963712582804e-08,5.540048438434408e-08,4.367320805495145e-08,3.1705612898137616e-08,2.2254351283512854e-08,1.7317235064116497e-08,1.2876599800367376e-08,1.2530621078310226e-08,8.624322672145239e-09,5.7383353247295504e-09,3.4579013176770013e-09,1.3774729091111602e-09,2.63418294688198e-09,1.8168236541432892e-09,1.6172487760134238e-09,1.3376866060111318e-09,1.7079265956534044e-09,2.1858649880562338e-09
0.0,60,60.0,0.0,30.0,0.0,0.0,0.0,0.0,2.0,2.0,-12.0,0.0,0.0,0.0,2.4186596091721803e-06,1.4486077465047293e-06,9.774564442477634e-07,7.426562162893918e-07,5.551387164343122e-07,4.116436364032097e-07,3.341707985163719e-07,2.726234890447712e-07,2.3857386535543243e-07,1.8835558499664554e-07,1.6085555217846125e-07,1.4042544583696627e-07,1.1705257232785308e-07,9.814902531906274e-08,8.930895111195772e-08,7.392639175401618e-08,6.579044323357705e-08,5.407390579734569e-08,4.11495664259819e-08,3.254783759405594e-08,2.3382467660963027e-08,1.876277633459848e-08,1.2448692629011304e-08,9.027018496065785e-09,5.8128413009947355e-09,4.942154775216792e-09,4.316777731628536e-09,1.94184828466993e-09,2.1546802929559304e-09,1.1590860224562787e-09,3.996939812952524e-09,2.3349853766024443e-09,1.1114878315785198e-09,7.640420412515924e-10
0.0,61,61.0,0.0,30.0,0.0,0.0,0.0,0.0,2.0,2.0,-12.0,0.0,0.0,0.0,2.291744889261634e-06,1.4078852510655077e-06,9.621658180076298e-07,7.450717408364996e-07,5.395726951448718e-07,4.435943815480002e-07,3.648368047472582e-07,2.842490620954136e-07,2.4143461644562057e-07,1.927280366006453e-07,1.68394090247343e-07,1.4145755460253942e-07,1.1758790287283594e-07,1.0252686816313726e-07,8.783884851054743e-08,7.874016060531627e-08,6.775273588595828e-08,5.5498427220007615e-08,4.488128459310304e-08,3.202121362159369e-08,2.30979747867742e-08,1.865621071799633e-08,1.3928198028833585e-08,8.848069140641903e-09,9.263793240971142e-09,6.424016100287412e-09,4.1611797303689165e-09,1.7561788501615464e-09,2.3689363092009222e-09,1.5029382676149861e-09,1.1574909871923351e-09,1.9858859091462733e-09,9.752282762669766e-10,3.7622165354562727e-10
0.0,62,62.0,0.0,30.0,0.0,0.0,0.0,0.0,2.0,2.0,-12.0,0.0,0.0,0.0,2.2838586960976052e-06,1.4383015138560798e-06,9.62747874964905e-07,7.085285107780096e-07,5.326982729877826e-07,4.17714571567334e-07,3.359261169580693e-07,2.845993676798914e-07,2.365548643081051e-07,1.9872404481276443e-07,1.653739038735031e-07,1.4030384704843235e-07,1.2206269176486717e-07,1.0664559433914155e-07,9.221222877082854e-08,8.02018144903878e-08,7.04637417923514e-08,5.4830066545881814e-08,4.523724403777888e-08,3.475895985687377e-08,2.5716844886906323e-08,1.835516026911889e-08,1.2678177586211837e-08,1.1365262382690177e-08,7.862168576241304e-09,5.058598734846828e-09,4.504624794157962e-09,6.463313620594756e-09,2.4505944753759305e-09,1.3456325463165263e-09,1.6043692872491222e-09,1.0916013004387575e-10,1.3624920982823574e-09,1.8373010871483496e-09
0.0,63,63.0,0.0,30.0,0.0,0.0,0.0,0.0,2.0,2.0,-12.0,0.0,0.0,0.0,2.4030939571839433e-06,1.4229615552348434e-06,9.270843063157599e-07,7.630956654171385e-07,5.541332192505965e-07,4.421587554242586e-07,3.522129363869042e-07,2.764337389023206e-07,2.4936639818697265e-07,1.93400175347923e-07,1.6721560195602344e-07,1.4726458366990408e-07,1.3069956890961248e-07,1.0584750190607761e-07,9.828173361062301e-08,8.42456878317312e-08,7.510964519309764e-08,6.183690700088165e-08,4.6262612609649017e-08,3.332882612394352e-08,2.5800274386878815e-08,1.9995569862487372e-08,1.2975486612090327e-08,1.2516308413266943e-08,7.875561068957642e-09,6.506924072177749e-09,3.5647284485735633e-09,3.420982027070233e-09,1.5981966069675068e-09,-6.172985391803848e-10,1.5481971322812704e-09,-1.7681476797357947e-09,3.106914679002381e-09,1.7335768717435433e-09
0.0,64,64.0,0.0,30.0,0.0,0.0,0.0,0.0,2.0,2.0,-12.0,0.0,0.0,0.0,2.408638369497162e-06,1.3584863925580706e-06,1.0296004132490234e-06,7.377788482117871e-07,5.754428704658022e-07,4.631095191403853e-07,3.560602275109452e-07,2.8987335250225017e-07,2.401816048906863e-07,2.0846216789738292e-07,1.7283699947659621e-07,1.5351143179516365e-07,1.29852051573555e-07,1.0863698692340327e-07,9.633945426853657e-08,8.576504486633885e-08,7.676107181861609e-08,5.760914913790549e-08,4.857461777086124e-08,3.607937745465499e-08,2.534764551031769e-08,2.1180518082625534e-08,1.5332868330410073e-08,1.0590049099979008e-08,7.853920702664474e-09,6.065240975506383e-09,5.752161295478889e-09,4.4843435250673066e-09,1.6218091292314314e-09,2.5330443454442713e-09,2.537120533006108e-09,9.847921401325188e-11,1.3677580933811818e-09,-6.840051910211301e-10
0.0,65,65.0,0.0,30.0,0.0,0.0,0.0,0.0,2.0,2.0,-12.0,0.0,0.0,0.0,2.477304172716508e-06,1.422138240682648e-06,1.034915177949278e-06,7.239501730303488e-07,5.744605306025579e-07,4.7276581659085046e-07,3.731472032050559e-07,3.1785392431363507e-07,2.493369026264814e-07,2.156314442824454e-07,1.8147853362756447e-07,1.6109480988201646e-07,1.2963883542432994e-07,1.1176987429754852e-07,9.452688908478493e-08,8.093653632733166e-08,7.846808401564449e-08,6.154745334590225e-08,4.9616369133231355e-08,3.619116237311102e-08,2.944961525397261e-08,1.8518209963321642e-08,1.4717339633486214e-08,9.882972080349167e-09,7.17112276331891e-09,6.3594678360603584e-09,4.4397601482321314e-09,2.886962641028621e-09,8.343343465563339e-10,1.1487800651635659e-09,2.366295779134836e-09,1.3611661750153156e-09,3.897190728605353e-10,-4.0548931471334093e-11
0.0,66,66.0,0.0,30.0,0.0,0.0,0.0,0.0,2.0,2.0,-12.0,0.0,0.0,0.0,2.4334070455307177e-06,1.5039223904928762e-06,1.003023528327754e-06,7.467044037065094e-07,5.562738901542785e-07,4.923204609293224e-07,3.580468401531803e-07,3.209305891790057e-07,2.5279111451802883e-07,2.1607598406503337e-07,1.8181094731815972e-07,1.6157044015102718e-07,1.4345670538261974e-07,1.1996791557592607e-07,9.990295486344168e-08,8.72391947218183e-08,7.853289879791064e-08,6.540640778789813e-08,5.134606024687311e-08,3.653497731509481e-08,2.8159315800358258e-08,2.0062068740928657e-08,1.7682359050325117e-08,1.1829367211832259e-08,5.6650833509257275e-09,4.977905191296185e-09,6.015110940959971e-09,4.064985531270686e-09,1.044389351160571e-09,1.924447322582047e-09,1.6368281803843685e-09,-2.296699765331988e-10,1.7298124765032734e-09,3.5184983178802746e-10
0.0,67,67.0,0.0,30.0,0.0,0.0,0.0,0.0,2.0,2.0,-12.0,0.0,0.0,0.0,2.4363812981694204e-06,1.579825157434834e-06,1.049627741805486e-06,7.731945912743106e-07,6.031557951108263e-07,4.822200633123456e-07,3.9020725304766677e-07,3.04788411312348e-07,2.6226218216636145e-07,2.157045103462946e-07,1.9668772296790136e-07,1.5955867394747757e-07,1.3996002358486425e-07,1.1572650781723592e-07,1.0298371827815425e-07,9.546613940563565e-08,8.140128253943858e-08,6.652572280238865e-08,5.4565495295373784e-08,4.413338786243095e-08,3.0316198530662484e-08,2.2157426245250047e-08,1.7271264126378515e-08,1.142088068836053e-08,1.0010032852103053e-08,6.201496409043338e-09,4.1015523525318655e-09,3.453808462234643e-09,2.627080477909485e-09,3.0913591304143257e-09,-9.117550811382487e-11,1.9173637056178584e-09,1.9338701457528677e-09,1.5947604076434228e-09
0.0,68,68.0,0.0,30.0,0.0,0.0,0.0,0.0,2.0,2.0,-12.0,0.0,0.0,0.0,2.607971028954889e-06,1.527262058273021e-06,1.1301007992579984e-06,7.244474472084237e-07,5.614796679473751e-07,4.912693597950949e-07,3.881813994730811e-07,3.151762239496762e-07,2.62469367331775e-07,2.1529455155025633e-07,1.8690637270730593e-07,1.642736572355863e-07,1.352990308033878e-07,1.1688686724049818e-07,1.0406555053694043e-07,9.05160419284972e-08,7.892499424702708e-08,6.791989940752666e-08,5.537022541235498e-08,4.14650123069556e-08,3.033401018666551e-08,2.2500831574800955e-08,1.549042227351545e-08,1.2664039576562111e-08,7.234658787482404e-09,6.4689452953114524e-09,5.147359756617163e-09,4.833431229242604e-09,2.8918637704960292e-09,1.50050368385637e-10,-9.879259883132638e-11,2.0111219185683367e-09,6.720755825866008e-10,-1.2134198329244751e-10
0.0,69,69.0,0.0,30.0,0.0,0.0,0.0,0.0,2.0,2.0,-12.0,0.0,0.0,0.0,2.5837095354373755e-06,1.4537932088886446e-06,1.0260468879569013e-06,8.289785116492658e-07,6.195684107571955e-07,4.739578238714016e-07,3.811026085709722e-07,3.3809915612947386e-07,2.6735140041940806e-07,2.1632311934991689e-07,2.025880530426408e-07,1.68861658667166e-07,1.3707062957445052e-07,1.221082841431507e-07,1.0264588289197288e-07,9.469284581336821e-08,8.52358129007783e-08,6.764083130465725e-08,5.2936560719844556e-08,4.322782186363245e-08,3.0873859247558905e-08,2.3454043968164717e-08,1.6973320100071118e-08,1.3212885190929857e-08,9.323404127155598e-09,7.962995605654777e-09,5.3338936759031865e-09,4.596047199669346e-09,1.8904333018187732e-10,2.5611132655839606e-09,8.686530135490451e-10,1.4142200447225922e-09,1.2293727586986633e-09,9.080301643431348e-10
0.0,70,70.0,0.0,30.0,0.0,0.0,0.0,0.0,2.0,2.0,-12.0,0.0,0.0,0.0,2.6468651889630514e-06,1.4831726850664298e-06,1.0793184201571997e-06,7.803293661529298e-07,6.233437705806117e-07,4.7394927759626874e-07,4.120458756672373e-07,3.302816594518478e-07,2.8538527689108057e-07,2.3046991343828246e-07,2.0225808761168085e-07,1.7250816417724655e-07,1.4262009331146742e-07,1.295267964842074e-07,1.1170028782957172e-07,9.702890200028733e-08,8.290622618020982e-08,7.210025769458284e-08,5.582868018704168e-08,4.4814569267044216e-08,3.315086344677287e-08,2.5522096422497856e-08,1.7540489948593995e-08,1.259793414387284e-08,9.287440391017133e-09,6.505087687316223e-09,4.0089749397509005e-09,2.4374482684851453e-09,1.9787468061299053e-09,3.0246144155488127e-09,2.198265520054299e-10,2.2317268048857033e-09,1.5694186095827473e-09,1.2250162476780565e-09
