Line_number,Fiducial,Easting,Northing,Height,Elevation,tx_pitch,tx_roll,tx_yaw,txrx_dx,txrx_dy,txrx_dz,rx_pitch,rx_roll,rx_yaw,S0Z_time_5.811e-05,S0Z_time_8.588e-05,S0Z_time_1.137e-04,S0Z_time_1.414e-04,S0Z_time_1.692e-04,S0Z_time_1.970e-04,S0Z_time_2.248e-04,S0Z_time_2.525e-04,S0Z_time_2.803e-04,S0Z_time_3.081e-04,S0Z_time_3.359e-04,S0Z_time_3.637e-04,S0Z_time_3.914e-04,S0Z_time_4.192e-04,S0Z_time_4.470e-04,S0Z_time_4.748e-04,S0Z_time_5.026e-04,S0Z_time_5.442e-04,S0Z_time_5.998e-04,S0Z_time_6.692e-04,S0Z_time_7.526e-04,S0Z_time_8.359e-04,S0Z_time_9.331e-04,S0Z_time_1.044e-03,S0Z_time_1.169e-03,S0Z_time_1.308e-03,S0Z_time_1.461e-03,S0Z_time_1.628e-03,S0Z_time_1.822e-03,S0Z_time_2.044e-03,S0Z_time_2.280e-03,S0Z_time_2.544e-03,S0Z_time_2.850e-03,S0Z_time_3.197e-03
0.0,0,0.0,0.0,30.0,0.0,0.0,0.0,0.0,2.0,2.0,-12.0,0.0,0.0,0.0,7.420620376918587e-06,5.4091313572748975e-06,4.391583872649086e-06,3.7306426166086723e-06,3.08388492644233e-06,2.4038709229398247e-06,2.1866906902380155e-06,1.835294809543415e-06,1.6086342656129673e-06,1.4393801692501486e-06,1.2667987568099304e-06,1.1743957123184914e-06,1.0321076707863226e-06,9.122856799714763e-07,8.33302903794764e-07,7.543150962394452e-07,7.112394817326219e-07,5.92845005281192e-07,5.088838890762765e-07,4.0413007816577745e-07,3.07549485263813e-07,2.773565571017188e-07,2.2414491908859888e-07,1.688477556134574e-07,1.4516560009642485e-07,1.0086218705422939e-07,8.216801971935283e-08,6.307494187058433e-08,5.1016437211875546e-08,3.843506214635787e-08,2.7615696036884182e-08,2.1159970596068698e-08,1.4338391030841323e-08,9.049349421397292e-09
0.0,1,1.0,0.0,30.0,0.0,0.0,0.0,0.0,2.0,2.0,-12.0,0.0,0.0,0.0,7.041677666015502e-06,5.470538225810696e-06,4.550332409247312e-06,3.757872789025609e-06,3.0169372967932134e-06,2.580949444851493e-06,2.1769367940361257e-06,1.8742210543536313e-06,1.6317084393034093e-06,1.609212679169953e-06,1.3316040568362297e-06,1.1933674200292928e-06,1.045748657148191e-06,1.0034723779809123e-06,8.454731501460493e-07,8.028663253566713e-07,7.175077947444356e-07,6.546397017830336e-07,5.393972112595136e-07,4.35373621058333e-07,3.627566899887352e-07,3.004469841425532e-07,2.388184583560312e-07,1.9031238038610225e-07,1.4516349188896523e-07,1.140132574124697e-07,8.754245978253384e-08,6.832688553458207e-08,5.104160724303002e-08,3.670947927398174e-08,2.996284879087955e-08,2.1921755947215773e-08,1.4755922781857347e-08,1.249459161623883e-08
0.0,2,2.0,0.0,30.0,0.0,0.0,0.0,0.0,2.0,2.0,-12.0,0.0,0.0,0.0,6.970259834348039e-06,5.517504548112157e-06,4.567581856238242e-06,3.734360535097915e-06,3.258132473917332e-06,2.603070878658848e-06,2.372402422336811e-06,2.0081427661943185e-06,1.760540313043371e-06,1.5753758642167376e-06,1.4168027606289114e-06,1.2842942851087868e-06,1.1142855222985982e-06,1.0723208730856436e-06,9.60994984305457e-07,8.234378202637456e-07,8.2409140790556e-07,7.330763808498045e-07,6.092221142639156e-07,4.83218093217534e-07,3.788916395258725e-07,3.3049564248094903e-07,2.545572804308883e-07,2.1167296714490288e-07,1.6134606343772737e-07,1.287058666086241e-07,9.802490808455104e-08,7.66418920213033e-08,5.6903461815744643e-08,4.54682515584911e-08,3.227480330694985e-08,2.4639361275742936e-08,2.0012477478440847e-08,1.1454526245037635e-08
0.0,3,3.0,0.0,30.0,0.0,0.0,0.0,0.0,2.0,2.0,-12.0,0.0,0.0,0.0,6.933156224609049e-06,5.713767564454667e-06,4.364402159630171e-06,4.0044744373734025e-06,3.1809385053623066e-06,2.714631791537917e-06,2.5579893305638393e-06,2.2178736566613e-06,1.98417504713175e-06,1.7169568696457243e-06,1.4566273459473716e-06,1.4208965843783774e-06,1.203255779200131e-06,1.1255910947125328e-06,1.02798547199528e-06,9.077506100074876e-07,8.500483849770326e-07,7.557131748648616e-07,6.323721411520123e-07,5.004862707529496e-07,4.218354453499697e-07,3.563801451813735e-07,2.7037672524901815e-07,2.1805187685631391e-07,1.699750123045798e-07,1.4201747777242094e-07,1.0652022773541357e-07,8.170578776823538e-08,5.961664366477782e-08,4.671119112170223e-08,3.353855491689618e-08,2.5951789648324946e-08,1.8464256491269605e-08,1.4554440952900919e-08
0.0,4,4.0,0.0,30.0,0.0,0.0,0.0,0.0,2.0,2.0,-12.0,0.0,0.0,0.0,7.375392225129543e-06,5.550717756590768e-06,4.614297188722136e-06,3.701606868707259e-06,3.123932628886147e-06,2.867697997660468e-06,2.486556732306911e-06,2.221508935128453e-06,2.0732739101845076e-06,1.7752966002974768e-06,1.5060296831097105e-06,1.4417907181595898e-06,1.2121489894830482e-06,1.1299539939771769e-06,1.041855186862226e-06,1.003244841198504e-06,8.550810760361889e-07,7.530241531376129e-07,6.563341984595401e-07,5.35440214973114e-07,4.574682373695014e-07,3.516242760642915e-07,2.833433896647363e-07,2.3014592533604933e-07,1.8092349073713181e-07,1.5197643913659488e-07,1.1482898082766683e-07,8.652551056127736e-08,6.283354036067214e-08,5.0515315370557754e-08,3.543760669201086e-08,2.5687340442747622e-08,2.1925408967948516e-08,1.5110951444295677e-08
0.0,5,5.0,0.0,30.0,0.0,0.0,0.0,0.0,2.0,2.0,-12.0,0.0,0.0,0.0,7.496140055018703e-06,5.669154305975112e-06,4.704965765118795e-06,3.781539186131831e-06,3.2017703884425782e-06,2.926940452769334e-06,2.4542414721613795e-06,2.176332607585663e-06,1.950932698074735e-06,1.7703335879309853e-06,1.5740117557885094e-06,1.3772630406294227e-06,1.2771076803475077e-06,1.1056503369002729e-06,1.1016648996492728e-06,9.423905349015874e-07,8.787637133974569e-07,8.053825975897896e-07,6.719900953409899e-07,5.984616243377026e-07,4.4644844284762824e-07,3.8551757211729157e-07,3.091845984283103e-07,2.378035887472525e-07,1.9763609128173946e-07,1.5134962048345571e-07,1.213001319215759e-07,9.41788703097339e-08,7.47795767910413e-08,5.4676254362263916e-08,3.876602700317241e-08,2.9160791953778903e-08,2.3173999241381023e-08,1.644455121192439e-08
0.0,6,6.0,0.0,30.0,0.0,0.0,0.0,0.0,2.0,2.0,-12.0,0.0,0.0,0.0,7.484237870637285e-06,5.371751480388371e-06,4.606381210885897e-06,3.7927788835823954e-06,3.3560262466006127e-06,2.886300519315303e-06,2.613401587580504e-06,2.274764308302659e-06,2.057679063358811e-06,1.7771523480166722e-06,1.5780463223410215e-06,1.451408353801276e-06,1.3340329110640983e-06,1.2302824195491354e-06,1.1876621323966415e-06,1.0186033569956703e-06,9.108467742927305e-07,8.227230518612946e-07,7.024024136521827e-07,6.030180523066911e-07,4.617172300373202e-07,4.0033741243293255e-07,3.25724346722374e-07,2.6060604896732344e-07,2.0093219370759915e-07,1.5918998751160998e-07,1.1952667984935563e-07,9.551792592951269e-08,7.254017143529216e-08,5.610745168842319e-08,3.985418727667923e-08,3.232129793108832e-08,2.499272331136097e-08,1.4367661416474286e-08
0.0,7,7.0,0.0,30.0,0.0,0.0,0.0,0.0,2.0,2.0,-12.0,0.0,0.0,0.0,7.491039253940659e-06,5.793497187074836e-06,4.543095418766465e-06,3.8501162684068536e-06,3.3322696952791996e-06,2.887611653968463e-06,2.540758304794723e-06,2.161196902404203e-06,2.1042700605567994e-06,1.8862636957472368e-06,1.609140934015081e-06,1.4293115933492978e-06,1.38160596368461e-06,1.2203887926933615e-06,1.1421096641223073e-06,1.0343962841353695e-06,9.816194103611689e-07,8.720334695907953e-07,7.176910190688941e-07,5.883597515542572e-07,4.775530034732973e-07,4.2246054693413685e-07,3.2530877231036233e-07,2.6585253873283174e-07,2.1011044419014073e-07,1.6774938732265328e-07,1.234107751779555e-07,1.0265563905529817e-07,7.912505552960927e-08,5.8490440228454405e-08,4.3501773853569956e-08,3.3129260189628146e-08,2.4955539243152835e-08,1.4506324722744534e-08
0.0,8,8.0,0.0,30.0,0.0,0.0,0.0,0.0,2.0,2.0,-12.0,0.0,0.0,0.0,7.892079227079173e-06,5.781119048898096e-06,4.563840354934732e-06,3.867499191637697e-06,3.4097375206775085e-06,2.9175241375447673e-06,2.4222302497413455e-06,2.433565325014792e-06,2.044298128466432e-06,1.901727187590977e-06,1.6337029841149887e-06,1.5844244376024925e-06,1.392012208557836e-06,1.284846145598424e-06,1.1208681143734129e-06,1.102822875489647e-06,1.0014247702645992e-06,9.072134422445411e-07,7.374321877382296e-07,6.213720597515704e-07,5.521746142746365e-07,4.146139100793719e-07,3.477481675464646e-07,2.897247996760863e-07,2.2317801015701476e-07,1.7821562408295168e-07,1.3539445241151997e-07,1.0801013563445818e-07,7.808631762959422e-08,6.46703669024693e-08,4.6049540738992443e-08,3.371105812267248e-08,2.655625829427957e-08,1.8066924723201073e-08
0.0,9,9.0,0.0,30.0,0.0,0.0,0.0,0.0,2.0,2.0,-12.0,0.0,0.0,0.0,7.217048835793533e-06,5.521825274888086e-06,4.7782365944748905e-06,3.912227943665296e-06,3.3598486959983174e-06,3.034430640441605e-06,2.5031271642920172e-06,2.252857210544716e-06,2.0397217028149197e-06,1.8637484611718092e-06,1.6801922019509124e-06,1.516014697780673e-06,1.3926168923383567e-06,1.2730387233919214e-06,1.14738291931254e-06,1.0533928240511855e-06,1.0048806410074608e-06,8.646581378863926e-07,7.397983913391739e-07,6.384235570101723e-07,5.267508651184746e-07,4.6983428173616924e-07,3.519346761035561e-07,2.9738264255065944e-07,2.3545695444451009e-07,1.74994578320871e-07,1.4584919171750348e-07,1.070545550984e-07,7.778268344669479e-08,6.52703703283396e-08,4.5301045763683834e-08,3.7007776655342844e-08,2.604926406358866e-08,2.145090682988869e-08
0.0,10,10.0,0.0,30.0,0.0,0.0,0.0,0.0,2.0,2.0,-12.0,0.0,0.0,0.0,7.829682944277993e-06,5.71973785383711e-06,4.6127141969176985e-06,3.8067593587123533e-06,3.342571054907899e-06,2.9255497374658636e-06,2.571850588561493e-06,2.323410244547473e-06,2.108867458663063e-06,1.8878454726641665e-06,1.6537896096113929e-06,1.473534257389851e-06,1.4640472305035328e-06,1.262125504668854e-06,1.161445514340948e-06,1.0747822076846946e-06,9.530853437180472e-07,8.877444288914067e-07,7.672942479345142e-07,6.683093829947027e-07,5.514784463457043e-07,4.500657520256961e-07,3.789859177475446e-07,3.0019983519382653e-07,2.3705550565467765e-07,1.8838057222574662e-07,1.4651652467711171e-07,1.1383894222195043e-07,8.76197783778213e-08,6.404500034130772e-08,5.0949422304857366e-08,3.642157178767016e-08,2.9198918963386603e-08,2.0142366845109074e-08
0.0,11,11.0,0.0,30.0,0.0,0.0,0.0,0.0,2.0,2.0,-12.0,0.0,0.0,0.0,7.671578025189375e-06,5.9338308399031705e-06,4.834076249168941e-06,3.7856917897554515e-06,3.3818420795988627e-06,3.040097781166587e-06,2.476541692998112e-06,2.3474986009896563e-06,1.939631010672574e-06,1.8182072067358896e-06,1.702287677562597e-06,1.471056300754805e-06,1.3730082475099466e-06,1.240215906518255e-06,1.2527162670791922e-06,1.1065720376005767e-06,1.035709090392687e-06,9.042152984895482e-07,7.798228731845311e-07,6.332739191137647e-07,5.444146844941331e-07,4.480559185406382e-07,3.861993783142578e-07,3.146418872028262e-07,2.5412892173205925e-07,1.9775797086881865e-07,1.4907037247146984e-07,1.1487614189379581e-07,9.368961703914783e-08,6.98312563716729e-08,4.908246935745405e-08,3.999116843413777e-08,3.030360305040515e-08,2.1380126439242445e-08
0.0,12,12.0,0.0,30.0,0.0,0.0,0.0,0.0,2.0,2.0,-12.0,0.0,0.0,0.0,7.696110262635689e-06,5.7571161395475015e-06,4.57145384835409e-06,4.094109120016918e-06,3.389022368447295e-06,2.953928297086926e-06,2.7554021882680014e-06,2.376203189050925e-06,2.110443812956758e-06,1.8900670076310723e-06,1.7842764415938031e-06,1.6343926633960503e-06,1.4608487998836946e-06,1.3268972820131536e-06,1.1250307706674095e-06,1.1123092319388698e-06,1.0216114114758139e-06,9.203635190734706e-07,8.183747041147454e-07,6.178643821109575e-07,5.472086686490088e-07,4.6951764994942126e-07,3.7777944154482956e-07,2.9699519127785735e-07,2.552877376988318e-07,1.991433314594378e-07,1.5126524951983325e-07,1.2363724141662796e-07,9.675029918288368e-08,7.130914564423746e-08,5.572669531939813e-08,4.100199850203715e-08,2.9759352936608318e-08,2.0755925732167276e-08
0.0,13,13.0,0.0,30.0,0.0,0.0,0.0,0.0,2.0,2.0,-12.0,0.0,0.0,0.0,7.802872363313193e-06,5.991882675078475e-06,4.945410751407878e-06,4.012557034568088e-06,3.4882823850245666e-06,2.9030157769950706e-06,2.5684616010582776e-06,2.329109652404032e-06,2.0278221778662777e-06,1.9343992054252512e-06,1.7355854934615639e-06,1.572356519462212e-06,1.4407559410701159e-06,1.388619556938319e-06,1.188757496199043e-06,1.0399966353955629e-06,1.0373234312563136e-06,9.221276889506423e-07,7.893596413648385e-07,6.594129330524934e-07,5.554172687452287e-07,4.742675076017155e-07,3.8293835213931894e-07,3.384587292279579e-07,2.4611238554960955e-07,1.968001394897606e-07,1.4834767214763464e-07,1.2652227444440247e-07,9.068488134076439e-08,7.21105885288749e-08,5.5366164713077996e-08,4.108933696954054e-08,3.370160898551578e-08,2.4151611848186668e-08
0.0,14,14.0,0.0,30.0,0.0,0.0,0.0,0.0,2.0,2.0,-12.0,0.0,0.0,0.0,8.225118963446699e-06,5.859040187935124e-06,5.026970561565627e-06,4.118344425273261e-06,3.5442359016322576e-06,3.0993465637554735e-06,2.570808991481329e-06,2.3165876476295625e-06,2.156006965716105e-06,1.743138648650208e-06,1.79497627529875e-06,1.5899088906972058e-06,1.4286329465710258e-06,1.3221100891551064e-06,1.1725015110325221e-06,1.10604930386594e-06,1.0696468218523189e-06,9.641368856413194e-07,8.717546866707872e-07,6.826968813789345e-07,5.565315552854977e-07,4.6921391796758995e-07,3.814948924951831e-07,3.192071084767152e-07,2.605584299983102e-07,2.0512444521963115e-07,1.6823027195210158e-07,1.2740345391535748e-07,9.815551161934728e-08,7.393127395229205e-08,5.423820114153775e-08,4.093061093678084e-08,3.0644793227247363e-08,2.5294006173629274e-08
0.0,15,15.0,0.0,30.0,0.0,0.0,0.0,0.0,2.0,2.0,-12.0,0.0,0.0,0.0,8.220883688972753e-06,6.334520711898574e-06,4.713161122193785e-06,3.8508505775903434e-06,3.420695349813982e-06,3.041745694240167e-06,2.6971916405019652e-06,2.4316926693337343e-06,2.12822931399507e-06,2.0002798427818763e-06,1.7110749711690339e-06,1.5256838292342315e-06,1.3623594298507855e-06,1.2820738462593413e-06,1.2223107364023228e-06,1.091377663128613e-06,1.0681313709137256e-06,9.709823715834814e-07,7.524637989242023e-07,7.058677349865222e-07,5.332203557051661e-07,4.863569803198644e-07,4.1213151713458726e-07,3.243529284263003e-07,2.5098572754696243e-07,2.048305351022965e-07,1.6429068004652038e-07,1.3009314568890587e-07,1.0073500813308527e-07,7.688022468461671e-08,5.939909987174461e-08,4.2676396240381854e-08,3.286306879247635e-08,2.6287030530801076e-08
0.0,16,16.0,0.0,30.0,0.0,0.0,0.0,0.0,2.0,2.0,-12.0,0.0,0.0,0.0,8.010963436829323e-06,6.070743423326915e-06,5.120216762710721e-06,3.8130636797617435e-06,3.6429304038085588e-06,2.9896834795318505e-06,2.6871937843585975e-06,2.3772238194420343e-06,2.1801619335775102e-06,1.8934202221953479e-06,1.693704482549255e-06,1.6351144573085972e-06,1.3369975753179578e-06,1.3218063516746957e-06,1.1676706579357243e-06,1.0987415971276703e-06,1.104827025897352e-06,9.331506495105105e-07,8.177748789297325e-07,6.540420396883973e-07,5.622289252254305e-07,4.866142331350452e-07,4.0496587725455276e-07,3.3294246964689e-07,2.641474805444432e-07,2.1468843510559651e-07,1.7044960011210965e-07,1.2551831259764595e-07,1.034258821516153e-07,8.075669917658423e-08,6.154183572932401e-08,4.5185738530378866e-08,3.291811140407727e-08,2.3669589466423683e-08
0.0,17,17.0,0.0,30.0,0.0,0.0,0.0,0.0,2.0,2.0,-12.0,0.0,0.0,0.0,8.17547235424845e-06,6.437126986515742e-06,4.719868947892612e-06,4.088104575789299e-06,3.427909357884927e-06,3.1438163083170713e-06,2.6479548924071253e-06,2.351311176862443e-06,2.11783584123789e-06,1.9434838090227654e-06,1.7157160555687145e-06,1.4353246988823503e-06,1.4674935537619647e-06,1.342551233048737e-06,1.212389736282642e-06,1.0908892438848763e-06,1.0558099810664e-06,9.47668635985013e-07,8.039561967912361e-07,6.889403299507698e-07,5.611866230584519e-07,4.837157162629908e-07,3.8448057566351255e-07,3.336114383490907e-07,2.589863158254356e-07,2.1522326416269737e-07,1.6297299069250714e-07,1.3253982195957264e-07,1.0465481757522167e-07,7.592970952091079e-08,6.18081908609987e-08,4.61741971002448e-08,3.236046206023372e-08,2.4043503412085993e-08
0.0,18,18.0,0.0,30.0,0.0,0.0,0.0,0.0,2.0,2.0,-12.0,0.0,0.0,0.0,8.466456260813207e-06,6.471258437053984e-06,5.050116461642536e-06,4.265109583566172e-06,3.606890985765927e-06,3.128422391671196e-06,2.8181839058256533e-06,2.2928589040425343e-06,2.1883542167104248e-06,1.9062353641895793e-06,1.7328470788829768e-06,1.5721573849553093e-06,1.4332235223294027e-06,1.2807990686508822e-06,1.2310772784266303e-06,1.1876510371618706e-06,1.0459602312899316e-06,9.394957565837055e-07,8.008094032444892e-07,6.930686893740599e-07,5.874831718997805e-07,4.829706788368188e-07,3.9989214242699376e-07,3.3564204463790047e-07,2.6125013821592316e-07,2.1735029107185224e-07,1.764878674376525e-07,1.4245404847269865e-07,1.062383336106084e-07,8.520016345025379e-08,6.490443498757408e-08,4.603078924744192e-08,3.3858644836818793e-08,2.5878695163709216e-08
0.0,19,19.0,0.0,30.0,0.0,0.0,0.0,0.0,2.0,2.0,-12.0,0.0,0.0,0.0,8.687765048874991e-06,6.368004304291057e-06,5.037446312846255e-06,4.458205748422726e-06,3.6499131542675176e-06,2.9086180561592895e-06,2.76227754561074e-06,2.4574529574127944e-06,2.1741753677245892e-06,1.966436623931215e-06,1.7507190711374786e-06,1.5313582298041636e-06,1.439817796706737e-06,1.2971976758885073e-06,1.1944159867389146e-06,1.0917012715075253e-06,1.0652425118346973e-06,9.449710657433667e-07,8.088303014650965e-07,6.837983871487189e-07,5.806962761095236e-07,5.060288645816566e-07,3.826054398839382e-07,3.3716061881257104e-07,2.660015143480698e-07,2.049681851400671e-07,1.6345679607439721e-07,1.343095662494337e-07,1.0862536151013853e-07,8.38202471330497e-08,6.170345430083957e-08,5.043671861205962e-08,3.8453624591961635e-08,2.7313495969204086e-08
0.0,20,20.0,0.0,30.0,0.0,0.0,0.0,0.0,2.0,2.0,-12.0,0.0,0.0,0.0,8.392381795876063e-06,6.683150960957644e-06,5.310082937932179e-06,4.4203240078870555e-06,3.5849305835570477e-06,2.8883702432991846e-06,2.9362374248614424e-06,2.3217984070204167e-06,2.1735550711855447e-06,2.0931681640637742e-06,1.7827282010359784e-06,1.6491244277933256e-06,1.3974868176560648e-06,1.2697178762928307e-06,1.214253593401547e-06,1.1763542218005212e-06,1.0437002786601953e-06,9.226172746738549e-07,8.270494302403378e-07,7.219576694872273e-07,5.57373395645321e-07,4.7369742653778216e-07,3.989143841281279e-07,3.45877500489844e-07,2.73851501856738e-07,2.3299774450007867e-07,1.8017177437043327e-07,1.3934003700915834e-07,1.1338454336288085e-07,8.439155912205801e-08,6.311821557446429e-08,5.064485630973113e-08,3.59622998595433e-08,2.6930437435584804e-08
0.0,21,21.0,0.0,30.0,0.0,0.0,0.0,0.0,2.0,2.0,-12.0,0.0,0.0,0.0,9.009567680170954e-06,6.531562960197563e-06,5.130932163040755e-06,4.298221790002559e-06,3.8106050324319767e-06,3.13646752378741e-06,2.755004535141889e-06,2.4237103840755136e-06,2.2058712833249558e-06,1.9456218854894056e-06,1.6920296827041484e-06,1.5706670921717208e-06,1.4307401842781345e-06,1.398665047396823e-06,1.2701697667535065e-06,1.1642449876608136e-06,1.0428509535002971e-06,9.253103596861382e-07,8.12144958908719e-07,6.790088340218362e-07,6.280228604252961e-07,4.596357518471182e-07,4.168120561396856e-07,3.2303199836826123e-07,2.722760717090859e-07,2.1344623069777908e-07,1.6999191488153695e-07,1.3565693920379957e-07,1.1613567749299067e-07,8.438367643105127e-08,6.379931686499171e-08,5.115176136338162e-08,3.762151113347363e-08,2.870811813467328e-08
0.0,22,22.0,0.0,30.0,0.0,0.0,0.0,0.0,2.0,2.0,-12.0,0.0,0.0,0.0,8.307885457275501e-06,6.701417097921937e-06,5.4488104303442284e-06,4.191967310126163e-06,3.789856776044927e-06,3.387718432379357e-06,2.8142554737510896e-06,2.545886697007164e-06,2.2576335211217624e-06,1.9423935680951135e-06,1.7930915628116332e-06,1.5485349621290966e-06,1.4613917485327702e-06,1.3671891234708885e-06,1.273759746092263e-06,1.1506733720043425e-06,1.0867872263024822e-06,9.208853379076245e-07,8.250819629642812e-07,7.036812686691722e-07,6.183025472962914e-07,4.910023399067195e-07,4.0479597942713187e-07,3.373088399179407e-07,2.6654676435696915e-07,2.2234822517573863e-07,1.7534667164212505e-07,1.3373446300382947e-07,1.1076382188324712e-07,8.468649428710014e-08,6.259621492154384e-08,5.067577800115057e-08,4.042309255005652e-08,2.8885432303819686e-08
0.0,23,23.0,0.0,30.0,0.0,0.0,0.0,0.0,2.0,2.0,-12.0,0.0,0.0,0.0,9.08093178934149e-06,6.462342100367364e-06,5.47272776026758e-06,4.486840586503414e-06,3.8438081736779705e-06,3.3010466213669604e-06,2.729170573902247e-06,2.5062718875681603e-06,2.1830355505458764e-06,1.9989350342911336e-06,1.757028751013846e-06,1.7018492133865414e-06,1.453532863056617e-06,1.3284947644762976e-06,1.2571349555566701e-06,1.1189481317091838e-06,1.055731416919023e-06,9.330176223893444e-07,8.661315458406833e-07,7.223130504093584e-07,5.864250566454436e-07,4.896536010491005e-07,4.2369658272394144e-07,3.4215557623941924e-07,2.791834698744084e-07,2.2173795385158147e-07,1.6898328170389657e-07,1.4186801886106884e-07,1.0987108583984142e-07,8.806199494844879e-08,6.915076245367432e-08,5.017445077222538e-08,3.938146990873801e-08,3.088990443965408e-08
0.0,24,24.0,0.0,30.0,0.0,0.0,0.0,0.0,2.0,2.0,-12.0,0.0,0.0,0.0,8.868106297595885e-06,7.173111960340792e-06,5.328150317152389e-06,4.527090297438966e-06,3.828407218245354e-06,3.2984912168902737e-06,2.8041632397720573e-06,2.490526255904612e-06,2.2106490777055786e-06,2.0403988299146235e-06,1.8395161167657408e-06,1.7611180625784736e-06,1.565366846456225e-06,1.3541511444435845e-06,1.2751008701751186e-06,1.1984211906853153e-06,1.076609166804326e-06,9.598798473912087e-07,8.36003809013575e-07,7.268267685691607e-07,5.743049576572511e-07,4.920067962600884e-07,4.189433969994785e-07,3.420855051633262e-07,2.778245585743195e-07,2.2015695971005895e-07,1.8418980196915496e-07,1.5245911146466182e-07,1.1382328204093627e-07,8.63510171313485e-08,6.916532298865242e-08,5.090954850602543e-08,3.796659924384052e-08,2.9015975331860337e-08
0.0,25,25.0,0.0,30.0,0.0,0.0,0.0,0.0,2.0,2.0,-12.0,0.0,0.0,0.0,8.473545124077588e-06,6.686729497668356e-06,5.484833719081717e-06,4.396795953972278e-06,3.7571512017252073e-06,3.2927626043384175e-06,2.7656395815372156e-06,2.531659642235743e-06,2.2424511293865225e-06,2.041893269290308e-06,1.902036963718688e-06,1.673963860580474e-06,1.5169332314874755e-06,1.3900708136282172e-06,1.2807489579843905e-06,1.1358752937474785e-06,1.0788471561776138e-06,9.764996849631682e-07,8.04465032471325e-07,7.299621577946493e-07,6.106800414963767e-07,4.889476002137611e-07,4.11211597131408e-07,3.3077657721816527e-07,2.8239873265163483e-07,2.1612147999111674e-07,1.782830174572894e-07,1.3985297013664034e-07,1.1314281085840353e-07,8.238995235759174e-08,7.09774001194206e-08,5.057732099914825e-08,3.962951383776018e-08,2.9030809551399757e-08
0.0,26,26.0,0.0,30.0,0.0,0.0,0.0,0.0,2.0,2.0,-12.0,0.0,0.0,0.0,9.111615633211235e-06,6.839977128772497e-06,5.777354395340444e-06,4.570319901493945e-06,3.958345669476179e-06,3.295794290173326e-06,2.8857409745315288e-06,2.6281677655325927e-06,2.3676699454609764e-06,2.050302929368405e-06,1.7770578432103091e-06,1.781531395902163e-06,1.4900136000830403e-06,1.3328601730713094e-06,1.3819537380468119e-06,1.1660716708827704e-06,1.0423814622531498e-06,9.53802561894023e-07,8.530976803079833e-07,7.190412251084297e-07,5.786820328588851e-07,5.275441346442906e-07,4.08927518023837e-07,3.2850444394420746e-07,2.853085110721325e-07,2.3293604682686898e-07,1.7555882675753436e-07,1.3795030704375874e-07,1.1711004018050043e-07,8.211707947179129e-08,6.560636218289138e-08,5.4599280725904306e-08,3.982229022517218e-08,2.9274651023448966e-08
0.0,27,27.0,0.0,30.0,0.0,0.0,0.0,0.0,2.0,2.0,-12.0,0.0,0.0,0.0,9.568217411543584e-06,7.097661154419775e-06,5.476303427012588e-06,4.886067065741046e-06,4.1350882266949845e-06,3.439875773332339e-06,2.9819469149353356e-06,2.8050986343827674e-06,2.3093993336793957e-06,2.0666945436196824e-06,1.8955558153261973e-06,1.771982896605438e-06,1.61726039379832e-06,1.3989263419131015e-06,1.304889981848512e-06,1.140627958418713e-06,1.088214351875758e-06,9.558833196322101e-07,8.234215174513795e-07,7.551603475850628e-07,5.824057160785399e-07,4.940568507295995e-07,4.214050677156712e-07,3.549996230443854e-07,2.820181728649334e-07,2.432696250096469e-07,1.8013624685290978e-07,1.4578069679099045e-07,1.1486410890202703e-07,9.235628398077669e-08,6.995447395250897e-08,5.293342443563204e-08,3.875601477747866e-08,3.024400098561775e-08
0.0,28,28.0,0.0,30.0,0.0,0.0,0.0,0.0,2.0,2.0,-12.0,0.0,0.0,0.0,1.0019012325175442e-05,7.146994860248916e-06,5.87081732344282e-06,4.805111047451563e-06,4.133346798964228e-06,3.378269947275862e-06,3.2262490592907867e-06,2.550015527605334e-06,2.329171857143754e-06,2.1648423339166728e-06,1.9115570393765376e-06,1.7568430981945274e-06,1.5352222435966056e-06,1.4197530418581693e-06,1.3048930416538637e-06,1.2564584241716691e-06,1.1303559366052824e-06,1.0116496477204119e-06,8.380006799705209e-07,7.442163523417439e-07,6.037234391836591e-07,5.253318351087173e-07,4.4370436381493795e-07,3.395262837838943e-07,2.7531147842438125e-07,2.1915615198870966e-07,1.8022335532947234e-07,1.4333653881965703e-07,1.1554485125695787e-07,8.823385600604168e-08,6.8293801779398e-08,5.548552980417619e-08,3.9060781491880815e-08,3.0762527430398094e-08
0.0,29,29.0,0.0,30.0,0.0,0.0,0.0,0.0,2.0,2.0,-12.0,0.0,0.0,0.0,9.646274667829187e-06,7.503921174372391e-06,6.105425185352607e-06,4.791447470375362e-06,4.136273997787929e-06,3.524844811390678e-06,2.9780323179681645e-06,2.702785934477598e-06,2.4028250527771844e-06,2.1554320682573977e-06,1.9036996684120146e-06,1.7368768501451704e-06,1.5198503387329235e-06,1.4212591428226482e-06,1.338506884527861e-06,1.2430901978169947e-06,1.1027393842021302e-06,9.990942396369405e-07,8.670613437447323e-07,7.323034540433205e-07,6.128359582232169e-07,4.790187085729898e-07,4.1943885397307163e-07,3.463500270884101e-07,2.711022709043447e-07,2.370974732260182e-07,1.8236844307044416e-07,1.5242464727594775e-07,1.1177074777951961e-07,8.636835820654021e-08,6.993705640457133e-08,5.056941600575855e-08,4.113977324588162e-08,3.054877851750621e-08
0.0,30,30.0,0.0,30.0,0.0,0.0,0.0,0.0,2.0,2.0,-12.0,0.0,0.0,0.0,1.0221442528101492e-05,7.611817446032427e-06,5.871916111304634e-06,4.741029847726165e-06,4.349317551064312e-06,3.4669178106684985e-06,2.992438489613332e-06,2.6274952680351184e-06,2.4909233663652863e-06,2.119768520367639e-06,1.8924369208632517e-06,1.757717706123337e-06,1.580456108485959e-06,1.421538726978742e-06,1.3593350073249236e-06,1.2610123104585924e-06,1.1602497725907903e-06,1.0275300096049073e-06,8.783889724025488e-07,6.939263284842903e-07,6.371727772218475e-07,5.140485612338666e-07,4.2969773128250986e-07,3.567846767749109e-07,2.9259388559164834e-07,2.2914017177945357e-07,1.8435488179059515e-07,1.4310849007870513e-07,1.1503335410005776e-07,8.678968810249642e-08,6.80080453406833e-08,5.230085126414129e-08,4.078464860231528e-08,3.205825255861459e-08
0.0,31,31.0,0.0,30.0,0.0,0.0,0.0,0.0,2.0,2.0,-12.0,0.0,0.0,0.0,1.1035441988000963e-05,7.611217860224297e-06,5.7887601565345145e-06,5.159582993183964e-06,4.154729490308643e-06,3.5263224978738896e-06,3.1480824703235887e-06,2.6468756160083836e-06,2.455128816555169e-06,2.172449537920111e-06,1.9637816137797263e-06,1.7898618623753082e-06,1.6104539949797224e-06,1.4667156396317665e-06,1.3539702856631992e-06,1.2491265287282164e-06,1.1022368303035963e-06,9.698256271125824e-07,8.734389843979915e-07,7.067417908864449e-07,6.123724219779225e-07,5.268547374839111e-07,4.318399453881637e-07,3.356937780651784e-07,2.7412932280907476e-07,2.292078390030226e-07,1.8018968868504296e-07,1.4474102453741715e-07,1.1735936282267818e-07,8.665434595882835e-08,6.897269888001764e-08,5.269210739335266e-08,3.957755154892525e-08,2.966098069702101e-08
0.0,32,32.0,0.0,30.0,0.0,0.0,0.0,0.0,2.0,2.0,-12.0,0.0,0.0,0.0,1.0446207565150619e-05,7.695758484509178e-06,5.959593458569038e-06,5.005900718449076e-06,4.04056022342388e-06,3.5647395740799893e-06,3.3726217599566534e-06,2.7757543082308605e-06,2.5224560807802706e-06,2.199474667885539e-06,2.001072939215243e-06,1.824912491610027e-06,1.5707595017324717e-06,1.480070184681653e-06,1.4205295009503208e-06,1.2162757734207755e-06,1.128909436604832e-06,1.0132189865293119e-06,8.897446832727711e-07,7.561044983693191e-07,6.385177424128389e-07,5.233658121323441e-07,4.25619790840259e-07,3.614742122526547e-07,2.8855389323284217e-07,2.173674355292066e-07,1.97032447332033e-07,1.5452226357093685e-07,1.1489518340417772e-07,9.080311380847177e-08,7.319565913670111e-08,5.4082998395685745e-08,4.2582490025622556e-08,3.2512102196118964e-08
0.0,33,33.0,0.0,30.0,0.0,0.0,0.0,0.0,2.0,2.0,-12.0,0.0,0.0,0.0,1.008640609049363e-05,7.660917461264734e-06,6.382767636790504e-06,5.1828455385286286e-06,4.426941195420233e-06,3.678504633509398e-06,3.181208766280346e-06,2.649123666424012e-06,2.412453863172162e-06,2.233137013317908e-06,2.0528898937480084e-06,1.8383624503689152e-06,1.6361933449749708e-06,1.485156277449861e-06,1.3794075410351985e-06,1.261689431521103e-06,1.2087271793066257e-06,1.0369419720353477e-06,8.509410481375272e-07,7.218752697116521e-07,6.479940135942486e-07,5.008266026519712e-07,4.388130937140294e-07,3.472008817369476e-07,2.823042692443876e-07,2.2758306185106442e-07,1.9033243117030274e-07,1.460668467805871e-07,1.1567322002058977e-07,8.553874997816205e-08,7.078380339186114e-08,5.560419969891335e-08,4.195979213569204e-08,3.307410991637099e-08
0.0,34,34.0,0.0,30.0,0.0,0.0,0.0,0.0,2.0,2.0,-12.0,0.0,0.0,0.0,1.0589392401686599e-05,7.993528372096206e-06,6.614640111973978e-06,4.943780233722144e-06,4.307031766665967e-06,3.902513265424866e-06,3.34186110788487e-06,2.911701028806474e-06,2.592240759982005e-06,2.2788827338169356e-06,2.1260120196104682e-06,1.8509724815373113e-06,1.6728318418586003e-06,1.5209447098934976e-06,1.3931137830948069e-06,1.2276837694721866e-06,1.1987204407392263e-06,1.0384254885066835e-06,9.479665830040749e-07,7.553331554799536e-07,6.325109935726036e-07,5.266978019564818e-07,4.2355079639922127e-07,3.6248744604727313e-07,3.0149826799014563e-07,2.2931110494634493e-07,1.824230329987009e-07,1.4575250684375035e-07,1.0923747977957185e-07,8.965381388088901e-08,7.106774601036414e-08,5.6770088839121e-08,4.325766115062927e-08,3.072957728838429e-08
0.0,35,35.0,0.0,30.0,0.0,0.0,0.0,0.0,2.0,2.0,-12.0,0.0,0.0,0.0,1.0655263275164001e-05,8.316826106568394e-06,6.363297082032997e-06,5.178515720775942e-06,4.611990995192888e-06,3.910554577739357e-06,3.294732452593653e-06,2.838327525083905e-06,2.405813164309357e-06,2.3244326822979327e-06,1.995590355687203e-06,1.742354699281948e-06,1.75954032021512e-06,1.5602397244849956e-06,1.3522447127615831e-06,1.2384775979929526e-06,1.2146996943929343e-06,1.0251945044419391e-06,9.426874626227563e-07,7.779732663973391e-07,6.39915665625721e-07,5.331765266915174e-07,4.37103733066069e-07,3.634491207386387e-07,2.826195645870927e-07,2.310030060882376e-07,1.8901389944083327e-07,1.503781397364434e-07,1.120699877991162e-07,8.894563559796484e-08,7.124672237963481e-08,5.410110902208725e-08,4.469557384050155e-08,3.088620164483078e-08
0.0,36,36.0,0.0,30.0,0.0,0.0,0.0,0.0,2.0,2.0,-12.0,0.0,0.0,0.0,1.0867855644865356e-05,8.359797357753662e-06,6.556450399270761e-06,5.311222831833057e-06,4.3865714972796106e-06,3.878274593616504e-06,3.4399361339567254e-06,2.968711365410947e-06,2.5317090811310005e-06,2.4322807444079086e-06,1.9850911698161094e-06,1.7840244057124355e-06,1.7478126393615918e-06,1.558097246346232e-06,1.3921134537281554e-06,1.256299920627628e-06,1.279531208020172e-06,1.0674182762148384e-06,9.309317613831305e-07,7.782345280262128e-07,6.434484345746498e-07,5.395469267391652e-07,4.47354809247805e-07,3.522713333584875e-07,2.855888980748113e-07,2.1926671542084242e-07,1.8109740186954036e-07,1.4955194290383468e-07,1.2055489992273396e-07,9.236024212642404e-08,7.002652518316752e-08,5.2586533361340384e-08,3.749792600278534e-08,3.312478799659067e-08
0.0,37,37.0,0.0,30.0,0.0,0.0,0.0,0.0,2.0,2.0,-12.0,0.0,0.0,0.0,1.0905270420978763e-05,8.18774282410945e-06,6.6154233511308885e-06,5.1831712558352425e-06,4.5031749939860935e-06,4.131883324747123e-06,3.4309927103218123e-06,2.9960630545062322e-06,2.5000390075884964e-06,2.4976210966473126e-06,2.0103655442772604e-06,2.0042496595977546e-06,1.609344523645183e-06,1.6310828079005815e-06,1.5006205349100334e-06,1.280757312608707e-06,1.2242970176506557e-06,1.0923553079400487e-06,9.027490023245772e-07,7.442980798457644e-07,6.153945794836466e-07,5.43989555845601e-07,4.398637010350698e-07,3.5259342994497553e-07,2.9828470911700726e-07,2.3623500024172337e-07,1.8201724352005085e-07,1.4335914961990209e-07,1.1902307402005911e-07,8.930891503416438e-08,7.123521662907647e-08,5.820523450932382e-08,4.287926347240898e-08,3.045197259101101e-08
0.0,38,38.0,0.0,30.0,0.0,0.0,0.0,0.0,2.0,2.0,-12.0,0.0,0.0,0.0,1.1340508492464042e-05,8.18933393874144e-06,7.011396528703833e-06,5.397158476997754e-06,4.643220133678058e-06,3.9846474992481e-06,3.440652489547006e-06,2.82580003081722e-06,2.542285987413642e-06,2.3367036005260383e-06,2.145658756694447e-06,1.9093901562177393e-06,1.6883789130615935e-06,1.5188333281028446e-06,1.4296761239179338e-06,1.308985911730502e-06,1.2407946285913902e-06,1.075329671971239e-06,9.516200982233514e-07,7.716314080222404e-07,6.415954872987829e-07,5.341787263410912e-07,4.339796087937531e-07,3.680282952642221e-07,2.8447234144927334e-07,2.302173747816095e-07,1.867547340764973e-07,1.4348449752964588e-07,1.1631359281878442e-07,8.90599415309381e-08,7.026803908126397e-08,5.517367567956137e-08,4.088151664114069e-08,3.142945267724992e-08
0.0,39,39.0,0.0,30.0,0.0,0.0,0.0,0.0,2.0,2.0,-12.0,0.0,0.0,0.0,1.1925412055830414e-05,8.557200317070756e-06,7.0230357676606656e-06,5.627256833054882e-06,4.787907144624882e-06,3.9088950386428675e-06,3.48049012991559e-06,3.053139683360526e-06,2.641644470694173e-06,2.3388686682130788e-06,2.0547969843339e-06,2.027138066563299e-06,1.7072280961296018e-06,1.6656546913911686e-06,1.4428508014388606e-06,1.3075782817237065e-06,1.2583395373087582e-06,1.0766797875791982e-06,9.603928011184588e-07,7.854333218143223e-07,6.619761375824773e-07,5.28690296082559e-07,4.592454677962787e-07,3.692412731290873e-07,2.854111294324146e-07,2.5410743411628465e-07,1.912009938463479e-07,1.6064519363255855e-07,1.2381250521611127e-07,9.085891312064254e-08,7.039998684332871e-08,5.4641043312604567e-08,3.931360183843016e-08,3.085650489621529e-08
0.0,40,40.0,0.0,30.0,0.0,0.0,0.0,0.0,2.0,2.0,-12.0,0.0,0.0,0.0,1.1754379045805571e-05,9.098431844726487e-06,6.733020133268335e-06,5.8000529620536655e-06,4.566743765716161e-06,3.985100466030581e-06,3.4673145289715595e-06,3.1146094380714662e-06,2.762512527938174e-06,2.4978370065792306e-06,2.227407645191481e-06,1.9774572133562572e-06,1.7999311863674323e-06,1.696566804089176e-06,1.457225485299056e-06,1.388796720327349e-06,1.1810092140666085e-06,1.1228871710542764e-06,9.402097278050136e-07,8.013084502483409e-07,6.792988267593914e-07,5.521205983035756e-07,4.6381122232153774e-07,3.8296255627329496e-07,2.990671152248284e-07,2.451050377069747e-07,1.8722649922336065e-07,1.5073112217234248e-07,1.1646026225317401e-07,9.476419893924944e-08,7.255811576557957e-08,5.4576515219226606e-08,4.261525134642304e-08,3.333975750604252e-08
0.0,41,41.0,0.0,30.0,0.0,0.0,0.0,0.0,2.0,2.0,-12.0,0.0,0.0,0.0,1.1851535898120278e-05,8.58765069168101e-06,7.025565099869244e-06,5.39251241461222e-06,4.923004985947843e-06,4.059961820953999e-06,3.5121772323576576e-06,3.202166311188074e-06,2.6466302283946853e-06,2.6014441923237847e-06,2.1717810445696974e-06,1.955378096360402e-06,1.8551123352730635e-06,1.6728872894860034e-06,1.6067981397123218e-06,1.3637029596530192e-06,1.2579422207060012e-06,1.0713427656511602e-06,9.543941663380252e-07,7.917694890494413e-07,6.560682040217082e-07,5.253477501258632e-07,4.784130074351352e-07,3.538210528486155e-07,2.7254312326399013e-07,2.2965518283772948e-07,1.8667974043777576e-07,1.461583677708421e-07,1.229523099613479e-07,9.163037054281077e-08,7.185462946439924e-08,5.6896646004026255e-08,4.292519799644684e-08,3.332998768313667e-08
0.0,42,42.0,0.0,30.0,0.0,0.0,0.0,0.0,2.0,2.0,-12.0,0.0,0.0,0.0,1.1665903005651461e-05,8.833799608623856e-06,7.246904074182653e-06,5.374969233828644e-06,4.678806594791186e-06,4.230990431826503e-06,3.557821847680901e-06,3.2495213829492455e-06,2.862566894852289e-06,2.3989770423274707e-06,2.2576068593701816e-06,2.082824745843894e-06,1.8291827769002819e-06,1.6084027558219155e-06,1.55369293950126e-06,1.4142503885203029e-06,1.2972326010574852e-06,1.1575870000342354e-06,8.865654569121918e-07,8.391316409076621e-07,7.079567860529891e-07,5.668910015444884e-07,4.623081066876243e-07,3.804241047723836e-07,3.0301924415696726e-07,2.445712295459393e-07,1.9132125786694222e-07,1.4871265550361854e-07,1.1568111510459889e-07,8.944307779606372e-08,6.875814732168909e-08,5.377813825934101e-08,4.5417943846006775e-08,3.309385198280281e-08
0.0,43,43.0,0.0,30.0,0.0,0.0,0.0,0.0,2.0,2.0,-12.0,0.0,0.0,0.0,1.2044127360886181e-05,9.019437782661267e-06,7.238468824367773e-06,5.786885019534024e-06,4.959470134791676e-06,4.324253516125594e-06,3.6541636006555724e-06,3.2342163845121873e-06,2.9055794845190257e-06,2.4988687476970147e-06,2.2769326740334704e-06,2.0155662467997215e-06,1.8410162329294989e-06,1.659885186899911e-06,1.5067320344746869e-06,1.4107093595456123e-06,1.312534674732982e-06,1.1505653342266485e-06,9.991559739208986e-07,8.075629947818806e-07,6.53556175123138e-07,5.718849528224213e-07,4.733390791927419e-07,3.762883947258577e-07,3.1457263178658e-07,2.481570860485433e-07,2.082229935979954e-07,1.5219510274716188e-07,1.1625493436982708e-07,9.057049666934364e-08,7.092733795454323e-08,5.69571147069527e-08,3.9159835186639076e-08,3.395201214784491e-08
0.0,44,44.0,0.0,30.0,0.0,0.0,0.0,0.0,2.0,2.0,-12.0,0.0,0.0,0.0,1.2396158457105088e-05,9.20570059485804e-06,7.088188231786911e-06,5.969687994695085e-06,5.021941069434057e-06,4.268284059214528e-06,3.7448165907586425e-06,3.1863734269159684e-06,2.7893781292922506e-06,2.592867427340911e-06,2.2920420368593614e-06,2.0710795675044154e-06,1.9235980048183707e-06,1.6436676627143476e-06,1.5088058451588142e-06,1.4727560759851007e-06,1.2468614330604613e-06,1.1124996204888045e-06,1.0192823962744944e-06,8.403141830738543e-07,6.869407882191748e-07,5.686030021922625e-07,4.6838595455573526e-07,3.778811558302931e-07,3.171370302748048e-07,2.403385453135938e-07,1.9281899601843783e-07,1.6251289116583766e-07,1.206970513304529e-07,9.978592084408204e-08,7.22947923771686e-08,5.888239666977364e-08,4.008140642329056e-08,3.240841034166927e-08
0.0,45,45.0,0.0,30.0,0.0,0.0,0.0,0.0,2.0,2.0,-12.0,0.0,0.0,0.0,1.2098445279457154e-05,9.664315992883416e-06,7.168172882335585e-06,6.1308081401495124e-06,5.048570206896411e-06,4.192293598798525e-06,3.5743879231525163e-06,3.2358301798066184e-06,3.0546717441180566e-06,2.5600761558670456e-06,2.3769616335262153e-06,2.08011709100512e-06,1.9360383476365767e-06,1.6213997344217478e-06,1.5473468678948474e-06,1.4761327076561682e-06,1.3129986629875942e-06,1.1676105627355893e-06,9.92453101190054e-07,8.720488753020323e-07,6.977713169548562e-07,5.76403185715747e-07,4.813727705438854e-07,3.889956063806912e-07,3.0912065716237665e-07,2.565720315280104e-07,1.9473005074211698e-07,1.5628871200499254e-07,1.1881262820366278e-07,9.403631282240758e-08,7.66492138349487e-08,5.512601928227725e-08,4.104320551375825e-08,3.365807239421991e-08
0.0,46,46.0,0.0,30.0,0.0,0.0,0.0,0.0,2.0,2.0,-12.0,0.0,0.0,0.0,1.2866080026794744e-05,9.607493155282452e-06,7.54430832714158e-06,6.18418012622824e-06,5.296443958555522e-06,4.292591340774022e-06,3.691931151021845e-06,3.337813528988712e-06,2.798551638959168e-06,2.5074621160704494e-06,2.4728680328865828e-06,2.1567338746770176e-06,1.9081926068693e-06,1.7999023762090846e-06,1.5348091614718928e-06,1.4377332449362432e-06,1.359142796637057e-06,1.215086469281614e-06,1.0318143389084792e-06,7.867116150012029e-07,6.782004287402811e-07,5.895348828469216e-07,4.715166224066669e-07,4.1508990167167e-07,3.18355294520572e-07,2.5114860292607333e-07,1.8978252222378688e-07,1.5578044924466305e-07,1.2283271878672932e-07,9.741993870291659e-08,7.526570382507128e-08,5.862707211191532e-08,4.150609474668662e-08,3.431762270483572e-08
0.0,47,47.0,0.0,30.0,0.0,0.0,0.0,0.0,2.0,2.0,-12.0,0.0,0.0,0.0,1.2605899582516155e-05,9.581006737375293e-06,7.771659743836159e-06,6.233535890669187e-06,5.080806160331578e-06,4.354650023501139e-06,3.679669800762146e-06,3.4269383030064513e-06,3.0906360925699597e-06,2.6400618374520067e-06,2.3420578729062177e-06,2.039992193717151e-06,1.9843418655727564e-06,1.8721900223020681e-06,1.516060019191216e-06,1.4210794547880975e-06,1.3215711941291955e-06,1.1761537699704812e-06,1.0340389470645074e-06,9.022434054985738e-07,7.268975605411878e-07,5.961545571772405e-07,4.7060273053355425e-07,3.759217168815773e-07,3.048011128323694e-07,2.605817402182653e-07,1.9751087246249305e-07,1.548246293896007e-07,1.2193282021161635e-07,9.700557734940129e-08,7.029034668470926e-08,5.960283667719705e-08,4.340289039925498e-08,3.2131078344858126e-08
0.0,48,48.0,0.0,30.0,0.0,0.0,0.0,0.0,2.0,2.0,-12.0,0.0,0.0,0.0,1.3560414334744791e-05,9.963458444273266e-06,7.712354684100214e-06,6.3073857621712385e-06,5.175973483567613e-06,4.616115254853294e-06,3.8487269470263475e-06,3.3195118622426696e-06,3.031331356663663e-06,2.788280492670711e-06,2.3962694039050123e-06,2.1206765303402236e-06,1.9780583704473458e-06,1.8794417827541453e-06,1.5503177736467253e-06,1.5015985981224883e-06,1.3725683179767992e-06,1.2517034548369321e-06,1.0688977799354765e-06,8.646214810865545e-07,6.76581785423956e-07,6.069412114014743e-07,4.734093557164346e-07,3.813549095255488e-07,3.258920358811699e-07,2.439978825219502e-07,2.0785972923935704e-07,1.5967099073810302e-07,1.2460599184278666e-07,9.596236917099389e-08,6.98333990283438e-08,5.3516156003642365e-08,4.364200660421046e-08,3.3314557806982455e-08
0.0,49,49.0,0.0,30.0,0.0,0.0,0.0,0.0,2.0,2.0,-12.0,0.0,0.0,0.0,1.3654027517089432e-05,9.81509754632179e-06,7.920037589933286e-06,6.435329858039627e-06,5.236606693409835e-06,4.729936190474049e-06,3.758449334513595e-06,3.5238678428998474e-06,3.090436268943636e-06,2.797407826766989e-06,2.3561038494370996e-06,2.192906085407556e-06,2.106463926178048e-06,1.832712984440669e-06,1.644564008384996e-06,1.5257203730118286e-06,1.3830131652644483e-06,1.3032236163870726e-06,1.080123991548171e-06,8.763014781204746e-07,7.252864536963482e-07,5.913590113175553e-07,5.080352994994073e-07,3.793436635616423e-07,3.0232770779775053e-07,2.6412622660325066e-07,2.1402115681343278e-07,1.6143479312148407e-07,1.2459866325562823e-07,9.756328481067626e-08,7.260180707590253e-08,5.762122740211785e-08,4.350408472226396e-08,3.3491279712307524e-08
0.0,50,50.0,0.0,30.0,0.0,0.0,0.0,0.0,2.0,2.0,-12.0,0.0,0.0,0.0,1.321563223371489e-05,1.007556335823436e-05,8.244563136875521e-06,6.415917693231597e-06,5.306710877801491e-06,4.9398718983966616e-06,4.022775603179145e-06,3.447621816228927e-06,2.937552670526774e-06,2.8096126513565462e-06,2.5110156417186753e-06,2.1929444743757794e-06,1.93501861949042e-06,1.8167365903556023e-06,1.6169348490360133e-06,1.4755680944322439e-06,1.39058490664435e-06,1.1972535318718437e-06,1.0682540049850955e-06,9.039326831543685e-07,7.087794855175367e-07,5.794221899869988e-07,5.180931293670081e-07,3.884209318582115e-07,3.1410473629758386e-07,2.5669656364335846e-07,2.061146862492283e-07,1.5903470598506227e-07,1.2676415181999767e-07,9.490184728645613e-08,7.218612447119092e-08,6.038454115699787e-08,4.769891544617692e-08,3.509084343024556e-08
0.0,51,51.0,0.0,30.0,0.0,0.0,0.0,0.0,2.0,2.0,-12.0,0.0,0.0,0.0,1.4172869455696783e-05,1.0975125494269621e-05,8.255610494254236e-06,6.552742265068231e-06,5.627060210411889e-06,4.706849736361551e-06,3.9528800681591134e-06,3.459321536463407e-06,3.2101862768102607e-06,2.629998223560318e-06,2.535031861466037e-06,2.130165849232676e-06,1.8962011525064864e-06,1.7379233886780169e-06,1.7766971362845887e-06,1.5267304919305492e-06,1.4142177980661903e-06,1.3030959817946876e-06,1.1018401921044003e-06,8.595316767216057e-07,7.536473109945293e-07,6.135875916836572e-07,4.944493043088458e-07,4.0370691547210317e-07,3.357870758675461e-07,2.5029446752815215e-07,2.0650743194021278e-07,1.614233978324208e-07,1.1880011477904903e-07,9.424581996553389e-08,7.544549244611403e-08,6.040913348310046e-08,4.5426198286783376e-08,3.365912589478985e-08
0.0,52,52.0,0.0,30.0,0.0,0.0,0.0,0.0,2.0,2.0,-12.0,0.0,0.0,0.0,1.4016660936482943e-05,1.1150052640780796e-05,8.352336467654913e-06,6.545345892688574e-06,5.599655990728246e-06,4.915562473931015e-06,4.129689792739169e-06,3.698299501505072e-06,3.2805865306458046e-06,2.8534362215272933e-06,2.455940813588638e-06,2.276145735897206e-06,2.052068173809083e-06,1.9648528903114553e-06,1.6142739868576033e-06,1.5469833803879458e-06,1.4013897974184453e-06,1.276329030004049e-06,1.0040473162692071e-06,9.367172521821333e-07,7.422330956763807e-07,5.820732872198439e-07,4.988818418791754e-07,4.1459968472730255e-07,3.105216719957037e-07,2.593865282889181e-07,1.9904287860564923e-07,1.5991076105877915e-07,1.2679173732072353e-07,9.787855883892084e-08,7.422814175075244e-08,5.864680601356777e-08,4.5309135298836876e-08,3.2542322257124446e-08
0.0,53,53.0,0.0,30.0,0.0,0.0,0.0,0.0,2.0,2.0,-12.0,0.0,0.0,0.0,1.5257845530696016e-05,1.1229701236549534e-05,8.323271843033106e-06,6.721106014574033e-06,5.427926444704852e-06,4.836208125713083e-06,4.139768912860832e-06,3.7358377037347443e-06,3.071054663168847e-06,2.8316238864562485e-06,2.62634086305509e-06,2.2442944573798684e-06,2.0263879993410684e-06,1.8011801131130302e-06,1.8517313381813262e-06,1.5357436932450053e-06,1.3861380767993998e-06,1.2467253148226475e-06,1.0695038018128664e-06,9.084546941253301e-07,7.680303273772758e-07,6.167286476484807e-07,4.950611037561733e-07,3.92958080009944e-07,3.293002194173466e-07,2.61907797119402e-07,2.169599017818399e-07,1.643835803088878e-07,1.2718998645717253e-07,9.467797055211708e-08,7.507193530128663e-08,5.7514655732667977e-08,4.353341608042204e-08,3.170405039800211e-08
0.0,54,54.0,0.0,30.0,0.0,0.0,0.0,0.0,2.0,2.0,-12.0,0.0,0.0,0.0,1.5138012484968137e-05,1.0894370448497183e-05,8.515908348417263e-06,6.599567622786463e-06,5.883133742684627e-06,4.995547554153315e-06,4.136190335120688e-06,3.8092419451400415e-06,3.1252689920464836e-06,2.88985785525539e-06,2.562943670885506e-06,2.2308182559375055e-06,2.1106369367271425e-06,2.002440352268796e-06,1.740168452029919e-06,1.5668386515998504e-06,1.4782176227182095e-06,1.2957309484349927e-06,1.107651699655208e-06,9.136241832899155e-07,7.893896828766166e-07,6.37066965582401e-07,5.059003788896772e-07,4.1337445050711666e-07,3.2461211469983285e-07,2.5896231155771614e-07,2.0494192136587486e-07,1.5945179723556994e-07,1.3159655549594347e-07,9.767720116701012e-08,7.767312444496082e-08,5.73558048517345e-08,4.4249729965252124e-08,3.217957635490779e-08
0.0,55,55.0,0.0,30.0,0.0,0.0,0.0,0.0,2.0,2.0,-12.0,0.0,0.0,0.0,1.549945093672693e-05,1.1045600135102505e-05,8.515001810318731e-06,6.716524474053393e-06,5.9315896496634505e-06,4.8876547768388964e-06,4.299537382928858e-06,3.6936705762387967e-06,3.3958018583069913e-06,2.9764811913102168e-06,2.6513416475935667e-06,2.3075722762879852e-06,2.1536142509926305e-06,2.0267839309891983e-06,1.7129385020083052e-06,1.615387149558712e-06,1.4020792459177425e-06,1.3606986879379547e-06,1.105284274267834e-06,9.571049028834322e-07,7.251781799704436e-07,6.689311185741447e-07,5.134365128278974e-07,4.25452768277543e-07,3.365332155198842e-07,2.640343795927687e-07,2.2152265502012472e-07,1.5808416708058692e-07,1.3064080900936284e-07,1.0211263335375406e-07,7.668725522970656e-08,5.8799656442278545e-08,4.432444640513875e-08,3.1582373549532544e-08
0.0,56,56.0,0.0,30.0,0.0,0.0,0.0,0.0,2.0,2.0,-12.0,0.0,0.0,0.0,1.5470827067111377e-05,1.1494258539211099e-05,8.865451368263563e-06,7.11507935523842e-06,5.8824594700088944e-06,5.0227467513911785e-06,4.525687275489505e-06,3.5615569374827087e-06,3.3485810554394534e-06,2.9369746643529455e-06,2.7646814567318547e-06,2.3838246818374954e-06,2.245221367137347e-06,1.82610096459583e-06,1.8017396071878592e-06,1.6391294535663577e-06,1.5539564296028078e-06,1.2552839944847788e-06,1.125433944157718e-06,9.468066554625144e-07,7.610187828714308e-07,6.643548153242946e-07,5.186536442535013e-07,4.4834521284325996e-07,3.48766693810293e-07,2.7610833953279967e-07,2.160898867975285e-07,1.6233523338810544e-07,1.2866541875311118e-07,1.0174723404599923e-07,7.896091875832833e-08,6.204978942557405e-08,4.400199330218189e-08,3.2241944337082373e-08
0.0,57,57.0,0.0,30.0,0.0,0.0,0.0,0.0,2.0,2.0,-12.0,0.0,0.0,0.0,1.614712094685014e-05,1.1236328866010284e-05,9.227111528553889e-06,7.547230822575583e-06,6.141939967573136e-06,5.082737313954651e-06,4.427137764265171e-06,3.919213808162817e-06,3.3895405385842827e-06,3.2023177954715645e-06,2.6024825186978344e-06,2.336631789218125e-06,2.111607205436491e-06,1.9385768712088262e-06,1.6803791562574243e-06,1.6130365278791564e-06,1.4789810369710186e-06,1.3380654446513956e-06,1.157216917257534e-06,9.192892943953702e-07,8.01460543925846e-07,6.823083338222205e-07,5.257095806360108e-07,4.466133701775491e-07,3.431173441802886e-07,2.869988335902859e-07,2.2152165508351124e-07,1.6104432545316584e-07,1.3146484872640524e-07,1.0399230689695129e-07,7.783140536671952e-08,5.965501797210967e-08,4.715032882236834e-08,3.260251277135122e-08
0.0,58,58.0,0.0,30.0,0.0,0.0,0.0,0.0,2.0,2.0,-12.0,0.0,0.0,0.0,1.6045317349095797e-05,1.1830118954314122e-05,9.047331600916276e-06,7.394089051267641e-06,6.292508042503039e-06,5.279485552865604e-06,4.374504497819181e-06,3.7734638533998593e-06,3.351867193113563e-06,3.0429198947274697e-06,2.702887901127785e-06,2.3778935723589384e-06,2.1621299003492233e-06,1.9058245493290651e-06,1.841699679941471e-06,1.6609723314768393e-06,1.4679352052046712e-06,1.3508596431891212e-06,1.2017685569389163e-06,9.434203416452389e-07,8.194322026723182e-07,6.473136599767478e-07,5.372803739632614e-07,4.31652394649503e-07,3.5868701609057733e-07,2.7438963458415977e-07,2.0856039344215266e-07,1.6365821632234708e-07,1.2611204968348055e-07,9.587730359635219e-08,7.838865744123808e-08,5.8117686025329174e-08,4.512115282113415e-08,3.276569323576787e-08
0.0,59,59.0,0.0,30.0,0.0,0.0,0.0,0.0,2.0,2.0,-12.0,0.0,0.0,0.0,1.5961964211134494e-05,1.1749267983810656e-05,9.4853214628945e-06,7.723784326023563e-06,6.3112199039755445e-06,5.130077836882363e-06,4.633700496007844e-06,4.0374405067141045e-06,3.507153695166082e-06,3.026207683024837e-06,2.808627149386327e-06,2.5001793533432726e-06,2.019904786349418e-06,2.0597005586542983e-06,1.7344794124400848e-06,1.7155765052381424e-06,1.5357441710217827e-06,1.4135429073212042e-06,1.1642558108575362e-06,9.490284100531994e-07,7.927953597296987e-07,6.811429807235572e-07,5.396616401219832e-07,4.329044739317447e-07,3.55038712022413e-07,2.772148612021196e-07,2.1782659330895314e-07,1.790423350585632e-07,1.3982406202467853e-07,1.0406649230767671e-07,7.80670315836569e-08,6.356774341040518e-08,4.7509230019592626e-08,3.495745632583603e-08
0.0,60,60.0,0.0,30.0,0.0,0.0,0.0,0.0,2.0,2.0,-12.0,0.0,0.0,0.0,1.6042922268032174e-05,1.2181969540670556e-05,9.232146149566059e-06,7.595974219085689e-06,6.381263540320519e-06,5.379812966227654e-06,4.543924946832489e-06,4.162626773804396e-06,3.3452107859943187e-06,3.190233137029841e-06,2.6296734504067364e-06,2.5280807129042847e-06,2.195292531862242e-06,2.098570416872052e-06,1.8665069398010318e-06,1.7140973735812096e-06,1.5126907205574298e-06,1.3527052802592783e-06,1.1876611696434813e-06,1.002473623372884e-06,8.751668728072677e-07,6.711188478920089e-07,5.603885557226513e-07,4.179106544688462e-07,3.3635118925865336e-07,2.748844272755205e-07,2.1171977149164477e-07,1.811304037368585e-07,1.3273838611054098e-07,1.0732046929030011e-07,8.318213347847208e-08,6.094003962955435e-08,4.661746005209748e-08,3.402216365677424e-08
0.0,61,61.0,0.0,30.0,0.0,0.0,0.0,0.0,2.0,2.0,-12.0,0.0,0.0,0.0,1.7242930809920743e-05,1.2524120204396854e-05,9.564031589670621e-06,7.870236367347877e-06,6.763896209448428e-06,5.558090920156904e-06,4.7201418386951695e-06,4.079428068816612e-06,3.4628675470340533e-06,3.0648193841693777e-06,2.8474829351340865e-06,2.4264062065025277e-06,2.2302270288904142e-06,2.148636219071738e-06,1.991683751471465e-06,1.6350397571485977e-06,1.6551115929624913e-06,1.3862917450799072e-06,1.1925587710140219e-06,9.921812241780839e-07,8.389706410116297e-07,6.407395147215018e-07,5.571844301576051e-07,4.299565911693545e-07,3.5964058592787347e-07,2.933618183864099e-07,2.2155525196841426e-07,1.766702059181988e-07,1.3720646534252968e-07,1.0098784414194714e-07,8.382356198991369e-08,6.481436073415664e-08,4.722779884687708e-08,3.4384913387862126e-08
0.0,62,62.0,0.0,30.0,0.0,0.0,0.0,0.0,2.0,2.0,-12.0,0.0,0.0,0.0,1.7055773823585283e-05,1.2328235136156906e-05,1.0260725313216832e-05,8.209776378345755e-06,6.516347974989128e-06,5.259393837423597e-06,4.3376327677127585e-06,3.985926016751805e-06,3.6047512306195408e-06,3.337966420830202e-06,2.8000747925207158e-06,2.6005996178723727e-06,2.4008491553122715e-06,2.1018863879647815e-06,1.8974804346759442e-06,1.6725875543130912e-06,1.5384426342684711e-06,1.428285796046587e-06,1.1987529971320259e-06,1.009743571800569e-06,8.197166691204539e-07,6.934746311311269e-07,5.418433751218061e-07,4.4215217504493777e-07,3.77136035084087e-07,2.759162219981353e-07,2.2152354609607912e-07,1.7293232551138663e-07,1.384306354074698e-07,1.0773185688331987e-07,7.916082368638498e-08,6.074057468446639e-08,4.582754010794963e-08,3.522558962242846e-08
0.0,63,63.0,0.0,30.0,0.0,0.0,0.0,0.0,2.0,2.0,-12.0,0.0,0.0,0.0,1.723935223536315e-05,1.2644473308738337e-05,9.217168826451556e-06,7.669199752446679e-06,6.6058020186053014e-06,5.752816970370096e-06,4.850025338846314e-06,4.038717256041803e-06,3.513203409923169e-06,3.262070190632308e-06,2.7488224519314835e-06,2.6766431787089544e-06,2.3431902548850714e-06,2.016705444476425e-06,1.8721693983629725e-06,1.7228282962345716e-06,1.5767602894101631e-06,1.3626207950116846e-06,1.1871086167877995e-06,9.957519144515987e-07,8.115374258702576e-07,7.099034447604758e-07,5.620281173048993e-07,4.3735417718822824e-07,3.563467419158233e-07,2.776419092762707e-07,2.2327299306118595e-07,1.8228806450509246e-07,1.3870263177409624e-07,1.1271961745780688e-07,8.20259785965266e-08,6.012848582356433e-08,4.797767042419821e-08,3.621102678945123e-08
0.0,64,64.0,0.0,30.0,0.0,0.0,0.0,0.0,2.0,2.0,-12.0,0.0,0.0,0.0,1.856407688401523e-05,1.2590904743902638e-05,1.0045772288293284e-05,8.40464447858216e-06,6.389276003149845e-06,5.599058627903773e-06,4.666990230674583e-06,4.115432829278575e-06,3.6034918366129875e-06,3.410771892002689e-06,2.908514595532635e-06,2.5580428232117162e-06,2.2937561686428825e-06,2.1534365997998116e-06,1.950131201806425e-06,1.8533685121036021e-06,1.657125527569619e-06,1.3803489799439732e-06,1.2090920872018562e-06,1.0603504991044565e-06,8.220818959108052e-07,7.295662987736821e-07,5.469780643883447e-07,4.6286318084302854e-07,3.538025566202544e-07,2.8328432615873424e-07,2.3480018690415055e-07,1.783053567412504e-07,1.4220058570775502e-07,1.075279431409961e-07,8.36165087777507e-08,6.059210852996301e-08,4.6491766575949716e-08,3.546257631461802e-08
0.0,65,65.0,0.0,30.0,0.0,0.0,0.0,0.0,2.0,2.0,-12.0,0.0,0.0,0.0,1.7859828328206698e-05,1.3901041285286641e-05,1.0021889951790187e-05,8.184668097410087e-06,6.626242165139555e-06,5.3971405393725905e-06,5.211743843933023e-06,4.266043193130644e-06,3.7156779085446407e-06,3.310610050948701e-06,3.092946835191439e-06,2.581926562478618e-06,2.4451900964691165e-06,2.142520648180998e-06,1.9384932530266897e-06,1.832879026937636e-06,1.7002585023130448e-06,1.4359551566202e-06,1.2170170677834885e-06,1.0017628989279432e-06,8.742888878376699e-07,6.88210308529898e-07,5.393509899259409e-07,4.78742987224446e-07,3.5138150118916554e-07,2.9705772983521346e-07,2.3042987269364086e-07,1.820541509700053e-07,1.372986719379641e-07,1.0798276507280403e-07,7.777751475853019e-08,6.41624070598206e-08,4.9866484901815174e-08,3.633269093635879e-08
0.0,66,66.0,0.0,30.0,0.0,0.0,0.0,0.0,2.0,2.0,-12.0,0.0,0.0,0.0,1.7556163724315795e-05,1.3095146665016528e-05,1.0376731349762818e-05,8.51459485247124e-06,6.915515972193093e-06,5.766751113470477e-06,5.105395110799126e-06,4.503802580506141e-06,3.7904156619408644e-06,3.447970882363757e-06,2.7721147941542517e-06,2.6165331758444864e-06,2.4023925773716723e-06,2.1640779574489386e-06,2.0171397635918372e-06,1.8786466534456872e-06,1.6955943465686265e-06,1.447244262422296e-06,1.201783630751362e-06,1.0667020710317615e-06,8.077166465848419e-07,7.211228195364495e-07,5.733114243778395e-07,4.4715113310701966e-07,3.7301302465066703e-07,2.927364166158668e-07,2.308398827224541e-07,1.8148415372623386e-07,1.4275168612551703e-07,1.1069409272607814e-07,8.414857113835158e-08,6.551454668948166e-08,4.7392430944499774e-08,3.761203652297027e-08
0.0,67,67.0,0.0,30.0,0.0,0.0,0.0,0.0,2.0,2.0,-12.0,0.0,0.0,0.0,1.9386255863193964e-05,1.3515520889050355e-05,1.0265375245636592e-05,8.580358429819426e-06,6.768753363004883e-06,5.766796054787272e-06,5.12421125644355e-06,4.331809511223122e-06,3.7602531766992073e-06,3.4150547100252314e-06,3.049846158787276e-06,2.709267629756185e-06,2.4278307225829316e-06,2.2798016079124757e-06,2.04165281637876e-06,1.8320850972125522e-06,1.8142824482270059e-06,1.5000006989799864e-06,1.3163237780624565e-06,1.0424090588876558e-06,8.282978757876656e-07,6.972827688789453e-07,5.774344799091176e-07,4.6087618499274777e-07,3.881695175581754e-07,2.9424800377676446e-07,2.363120380508269e-07,1.8318671206201192e-07,1.401521712179676e-07,1.0852381806782166e-07,8.804841499345889e-08,6.212464329357365e-08,4.911612105186879e-08,3.3969426985851e-08
0.0,68,68.0,0.0,30.0,0.0,0.0,0.0,0.0,2.0,2.0,-12.0,0.0,0.0,0.0,1.917270634518497e-05,1.3993013508866183e-05,1.0901433556268665e-05,9.051779434107497e-06,7.143376910825345e-06,5.876181342806591e-06,5.261536187598394e-06,4.424890976075408e-06,3.949058092195218e-06,3.451629908179718e-06,2.9026919075574313e-06,2.8025524460037673e-06,2.5294692372533744e-06,2.3122605957175866e-06,2.1553823962540733e-06,1.7990888256201269e-06,1.735265617480895e-06,1.5266094999304756e-06,1.2708018867294466e-06,1.0842634538601878e-06,8.855635008652922e-07,6.949560132587031e-07,5.920727665098047e-07,4.5918697084889165e-07,3.6912392673319e-07,2.8193624721128923e-07,2.316542395926739e-07,1.8380645263690593e-07,1.4560585831306992e-07,1.0922975209536439e-07,7.986283912045995e-08,6.610217266562494e-08,4.787946071331134e-08,3.639909783615495e-08
0.0,69,69.0,0.0,30.0,0.0,0.0,0.0,0.0,2.0,2.0,-12.0,0.0,0.0,0.0,2.040664692623464e-05,1.4857516079476083e-05,1.1627893088396665e-05,8.788409442705788e-06,7.333297945327864e-06,5.920942881927864e-06,5.4020971111366575e-06,4.375054347688277e-06,3.7590073934052146e-06,3.5969769153847442e-06,3.0733670616141246e-06,2.860541397543074e-06,2.5475292688334686e-06,2.16565621237627e-06,1.9004207415597596e-06,1.825732692602554e-06,1.7293176629568122e-06,1.469154963242032e-06,1.2755882730839444e-06,1.035440770147156e-06,8.859109392802977e-07,7.305112050797793e-07,5.84800186965065e-07,4.96650622947351e-07,3.9704707728574197e-07,3.056220066890752e-07,2.2409033233324984e-07,1.801959481082585e-07,1.4613047764231052e-07,1.0789822251958572e-07,8.334112869250148e-08,6.664677421647186e-08,4.930544870852019e-08,3.783573106470794e-08
0.0,70,70.0,0.0,30.0,0.0,0.0,0.0,0.0,2.0,2.0,-12.0,0.0,0.0,0.0,1.9973038743325517e-05,1.5112177854971633e-05,1.098615429723791e-05,9.354407584064381e-06,7.40243398920258e-06,6.05036857715461e-06,5.05123397252209e-06,4.558315820529099e-06,3.997433460874423e-06,3.647618760547527e-06,3.1521787019409263e-06,2.794001132493486e-06,2.630261983703996e-06,2.2891600872311144e-06,2.0577768728944515e-06,1.9429276843768743e-06,1.7227105469116514e-06,1.5727578806463303e-06,1.2917785555129169e-06,1.0870373279017535e-06,8.945256555587857e-07,7.275019730036403e-07,5.988577784782621e-07,4.928662279687844e-07,3.8807737776583254e-07,3.075156999487847e-07,2.3441690339463847e-07,1.9289045864507112e-07,1.4846900850043229e-07,1.1440442985053223e-07,8.330638766773545e-08,6.476510068852266e-08,4.9848691294615916e-08,3.523120815199636e-08
