Line_number,Fiducial,Easting,Northing,Height,Elevation,tx_pitch,tx_roll,tx_yaw,txrx_dx,txrx_dy,txrx_dz,rx_pitch,rx_roll,rx_yaw,S0Z_time_5.811e-05,S0Z_time_8.588e-05,S0Z_time_1.137e-04,S0Z_time_1.414e-04,S0Z_time_1.692e-04,S0Z_time_1.970e-04,S0Z_time_2.248e-04,S0Z_time_2.525e-04,S0Z_time_2.803e-04,S0Z_time_3.081e-04,S0Z_time_3.359e-04,S0Z_time_3.637e-04,S0Z_time_3.914e-04,S0Z_time_4.192e-04,S0Z_time_4.470e-04,S0Z_time_4.748e-04,S0Z_time_5.026e-04,S0Z_time_5.442e-04,S0Z_time_5.998e-04,S0Z_time_6.692e-04,S0Z_time_7.526e-04,S0Z_time_8.359e-04,S0Z_time_9.331e-04,S0Z_time_1.044e-03,S0Z_time_1.169e-03,S0Z_time_1.308e-03,S0Z_time_1.461e-03,S0Z_time_1.628e-03,S0Z_time_1.822e-03,S0Z_time_2.044e-03,S0Z_time_2.280e-03,S0Z_time_2.544e-03,S0Z_time_2.850e-03,S0Z_time_3.197e-03
0.0,0,0.0,0.0,30.0,0.0,0.0,0.0,0.0,2.0,2.0,-12.0,0.0,0.0,0.0,0.0001512604700558443,0.00011444778653392207,0.00010232352367869705,8.418648548744323e-05,7.032221815169631e-05,6.142521051075781e-05,5.635255891167139e-05,5.109171658873818e-05,4.439729434533129e-05,4.1683842824562875e-05,3.629370803574198e-05,3.3225365389582057e-05,2.8817256754545127e-05,2.860847879843261e-05,2.4993696128693043e-05,2.497440942506935e-05,2.3964276001627646e-05,1.9849372626289084e-05,1.789558949600143e-05,1.472624822129324e-05,1.3658045507027725e-05,1.0747872730674123e-05,9.02201469489742e-06,7.877972897095418e-06,6.561370006711367e-06,5.397131515227757e-06,4.2362446068593255e-06,3.496992887486951e-06,2.8877883087098535e-06,2.1772726756306046e-06,1.722943278150641e-06,1.3369960874455831e-06,9.932748331343917e-07,7.681265375039391e-07
0.0,1,1.0,0.0,30.0,0.0,0.0,0.0,0.0,2.0,2.0,-12.0,0.0,0.0,0.0,0.0001519314545462536,0.00011598878184336322,9.573699599345091e-05,8.162973289732195e-05,6.84716877713209e-05,6.119542950929335e-05,5.4725372064692236e-05,5.044627202391614e-05,4.435891987352676e-05,3.584880887501128e-05,3.758445516665878e-05,3.392458044459506e-05,3.0011879984980302e-05,2.7060273400090333e-05,2.5846510604006416e-05,2.212722340684465e-05,2.1807512699524582e-05,2.0188987044543362e-05,1.7513255721950485e-05,1.5121307331017751e-05,1.348248430723879e-05,1.1135109421756911e-05,9.747437209882501e-06,7.932886580324139e-06,6.4477042706941475e-06,5.015460085036441e-06,4.166115624639217e-06,3.5567164086346153e-06,2.871232200662256e-06,2.269415158606336e-06,1.7550067600147688e-06,1.4146761628837661e-06,1.0621457832207759e-06,7.645513524507206e-07
0.0,2,2.0,0.0,30.0,0.0,0.0,0.0,0.0,2.0,2.0,-12.0,0.0,0.0,0.0,0.00014076901062322746,0.00010878933995545163,0.00010061276765467814,8.175032483170733e-05,6.728177500919814e-05,5.995755073938543e-05,5.8608156618986e-05,5.044217310156173e-05,4.4584038840484653e-05,4.2231511546185303e-05,3.6911824808181525e-05,3.1530266047741934e-05,3.0637239347346845e-05,2.90164300486139e-05,2.5395835582890335e-05,2.458358945656603e-05,2.2707797995541955e-05,2.144372761094773e-05,1.860009278020861e-05,1.5600997223922687e-05,1.364898875491779e-05,1.1235444712457721e-05,9.750335603784654e-06,7.880184085985124e-06,6.192748257382756e-06,5.2860531214928645e-06,4.462448271337388e-06,3.59248864645336e-06,2.7481882465625867e-06,2.2684242091021194e-06,1.6838162741037838e-06,1.3361617651929619e-06,1.0631949145502405e-06,7.434878111564719e-07
0.0,3,3.0,0.0,30.0,0.0,0.0,0.0,0.0,2.0,2.0,-12.0,0.0,0.0,0.0,0.00014298633576707666,0.00011501095931141484,9.714508097745095e-05,8.132176015786354e-05,6.731577744410644e-05,6.061208941068594e-05,5.578785658020336e-05,5.0565649112503326e-05,4.495805854842434e-05,3.766337407319391e-05,3.482319589429889e-05,3.406216686106626e-05,2.9488651903487755e-05,2.91059167901019e-05,2.5720193121971375e-05,2.4530344389081598e-05,2.180219246109389e-05,2.0471699905711165e-05,1.7311499428212715e-05,1.5156275297117919e-05,1.3100368926340562e-05,1.1121120022297447e-05,9.575602072177347e-06,7.89880449340473e-06,6.7115711607844065e-06,5.419585826354399e-06,4.133927936938969e-06,3.4586507632266476e-06,2.9380348889776776e-06,2.265660499875672e-06,1.7962698318080048e-06,1.312568702646451e-06,1.0572542830327799e-06,7.595205192904654e-07
0.0,4,4.0,0.0,30.0,0.0,0.0,0.0,0.0,2.0,2.0,-12.0,0.0,0.0,0.0,0.00014802318748917892,0.00011514827518933011,9.744905565480281e-05,8.19521780019765e-05,7.230171855874791e-05,6.0757640249159666e-05,5.1791633382439846e-05,4.7572815867275734e-05,4.4551161475871487e-05,4.029435126850712e-05,3.703404224362749e-05,3.4114111313624434e-05,3.210266645516125e-05,2.970529955837582e-05,2.629803983567309e-05,2.3933484647176333e-05,2.2697053697229473e-05,2.023388763856048e-05,1.801638861815314e-05,1.5657620383042687e-05,1.2536698400635201e-05,1.1345211365545802e-05,9.842122317769882e-06,7.845929654224642e-06,6.532305317137237e-06,5.267467219127497e-06,4.46977702194559e-06,3.648025447022914e-06,2.8508230760362256e-06,2.2495446769101455e-06,1.7221886312671357e-06,1.3885481225548e-06,1.0729693560621309e-06,7.744452404942127e-07
0.0,5,5.0,0.0,30.0,0.0,0.0,0.0,0.0,2.0,2.0,-12.0,0.0,0.0,0.0,0.0001519982087266447,0.00011432573446051243,9.603449777710214e-05,7.901157948258371e-05,7.274245343898382e-05,6.0730201464691e-05,5.787630059365708e-05,4.733937067523224e-05,4.4496532646829186e-05,3.9283781743456864e-05,3.597134782841431e-05,3.5408207457980045e-05,3.129323239266926e-05,2.7319767693479533e-05,2.683647589326856e-05,2.460890926056056e-05,2.2447590227133637e-05,2.0771524122518906e-05,1.7201078110350775e-05,1.6243853298114083e-05,1.3116579014479393e-05,1.113193557613448e-05,9.641252724378217e-06,8.193490352363813e-06,6.094136584785917e-06,5.403710957839604e-06,4.4187347335900925e-06,3.6894617533443795e-06,2.768191499343892e-06,2.286700429403042e-06,1.7462935833595873e-06,1.330065297215745e-06,1.0703429876241378e-06,7.70724372054859e-07
0.0,6,6.0,0.0,30.0,0.0,0.0,0.0,0.0,2.0,2.0,-12.0,0.0,0.0,0.0,0.00014877140057176712,0.0001170290515724092,0.00010142520766155439,8.247098490313934e-05,7.122096181575672e-05,6.078779578894588e-05,5.678855547668253e-05,4.797386484838731e-05,4.525323615729621e-05,4.045974328242955e-05,3.6399218655168876e-05,3.373951286870851e-05,3.1435268919634824e-05,2.8232151393643742e-05,2.6382170233320447e-05,2.457676753048134e-05,2.3059305450393898e-05,2.0499495663672353e-05,1.817103970329966e-05,1.5944509073806698e-05,1.3394277582947992e-05,1.1661141518380587e-05,9.616331731680747e-06,8.11415613171495e-06,6.586023612939842e-06,5.3555051189667305e-06,4.139036616251849e-06,3.550769393799978e-06,2.8673555514472957e-06,2.2469424153127176e-06,1.764694806864023e-06,1.3800831666007722e-06,1.0286613655241983e-06,7.677342249878334e-07
0.0,7,7.0,0.0,30.0,0.0,0.0,0.0,0.0,2.0,2.0,-12.0,0.0,0.0,0.0,0.00013909175928902026,0.00011745582935057608,0.00010270213562710825,7.98278722894379e-05,7.191737676944648e-05,5.858968253535522e-05,5.521298125386542e-05,5.025448503846731e-05,4.405238386618858e-05,4.0512137125339256e-05,3.643871086356555e-05,3.294421787435944e-05,3.216044105041679e-05,2.890755945196196e-05,2.6043645613919718e-05,2.4506210498517748e-05,2.228967444759902e-05,2.0914231286510363e-05,1.763081657170333e-05,1.5118300470283355e-05,1.355001577003379e-05,1.1574108165889263e-05,9.163502049012293e-06,7.728747866543253e-06,6.430168579754088e-06,5.623314756424378e-06,4.629187212546606e-06,3.6144535041191887e-06,2.8181387057560843e-06,2.2579920381220616e-06,1.8426315472770381e-06,1.3143826824419356e-06,1.0547291415024915e-06,7.034223975419462e-07
0.0,8,8.0,0.0,30.0,0.0,0.0,0.0,0.0,2.0,2.0,-12.0,0.0,0.0,0.0,0.00014376467319794197,0.00011414917059461243,9.593006975711955e-05,8.546024430586209e-05,7.241425437522123e-05,6.122161094414597e-05,5.588803050819295e-05,5.1540712744419485e-05,4.407037561372672e-05,3.977950835169017e-05,3.5906122169355244e-05,3.5623099968903646e-05,3.147586601837916e-05,2.9416205806509422e-05,2.7685761449566723e-05,2.365475442885823e-05,2.1663982566406357e-05,2.0352899831962314e-05,1.803197580163261e-05,1.5912583911676368e-05,1.3256551203380519e-05,1.1042223611795705e-05,9.457799229355092e-06,7.872076876878338e-06,6.7103725636577785e-06,5.775684961832951e-06,4.464075315106103e-06,3.7185549886013693e-06,2.766432610923353e-06,2.1775065054467088e-06,1.801185393932441e-06,1.275389311862795e-06,1.0353953203863892e-06,7.256472468927656e-07
0.0,9,9.0,0.0,30.0,0.0,0.0,0.0,0.0,2.0,2.0,-12.0,0.0,0.0,0.0,0.00014220992033582683,0.00011201989336146525,9.282712344529846e-05,8.786231334881718e-05,7.035012837225509e-05,6.168352460789517e-05,5.453059303621484e-05,5.1048671608489433e-05,4.4613350151154e-05,3.9617634704436656e-05,3.614333969413785e-05,3.324338679487462e-05,3.148856015881008e-05,2.8500562079574838e-05,2.784669359532892e-05,2.4979296364951835e-05,2.2445012748401665e-05,2.06119824190157e-05,1.857643807153413e-05,1.601650182595114e-05,1.3604848249388982e-05,1.1042235239541481e-05,9.617380764500331e-06,8.148415631762062e-06,6.4947413912551794e-06,5.577827256383963e-06,4.401928647640374e-06,3.421111962538503e-06,2.999335901687893e-06,2.312114897269895e-06,1.7495149666428936e-06,1.3819657367672442e-06,1.0694508244822883e-06,7.289189474234953e-07
0.0,10,10.0,0.0,30.0,0.0,0.0,0.0,0.0,2.0,2.0,-12.0,0.0,0.0,0.0,0.00014371856331908594,0.00011752668086574158,9.21222445884701e-05,8.132237104734279e-05,7.165446499260763e-05,6.368366189566234e-05,5.6895855826957706e-05,5.038339283532048e-05,4.490944153667261e-05,3.9587541758662805e-05,3.728794474944116e-05,3.4600694444758365e-05,3.0486680862749694e-05,2.8794102269075274e-05,2.6953919800785526e-05,2.4355023105480335e-05,2.3112672912528628e-05,2.136960734381481e-05,1.7757051367473168e-05,1.5678074200065988e-05,1.3285080852690693e-05,1.0926633772874047e-05,1.0112324284444642e-05,7.766217330417455e-06,6.756967450415697e-06,5.384532635550517e-06,4.740494241557103e-06,3.6417254815419497e-06,2.7357535236204654e-06,2.2144839443334425e-06,1.6767094299452009e-06,1.425472184073274e-06,1.035414726621527e-06,7.542770215548346e-07
0.0,11,11.0,0.0,30.0,0.0,0.0,0.0,0.0,2.0,2.0,-12.0,0.0,0.0,0.0,0.0001461310388002552,0.00011629219885072591,9.811401509438369e-05,7.688230451738715e-05,7.224874720860601e-05,5.99817701112919e-05,5.430657797227745e-05,5.052258332367925e-05,4.4202326399779236e-05,3.966797751152884e-05,3.695863249874387e-05,3.181761136881397e-05,3.167608238015654e-05,2.9500862263446586e-05,2.494983488411178e-05,2.4752721147047876e-05,2.264563735846903e-05,2.169224485046109e-05,1.8882022209738466e-05,1.58476879283352e-05,1.324493529671992e-05,1.1424467327670422e-05,9.569387543409359e-06,7.908313885939436e-06,6.632024812492049e-06,5.433549296899534e-06,4.561672932713154e-06,3.6518999786784067e-06,2.936498758205248e-06,2.3162985549362566e-06,1.7052827255700577e-06,1.320284180719093e-06,1.0112928897283843e-06,7.360511210545345e-07
0.0,12,12.0,0.0,30.0,0.0,0.0,0.0,0.0,2.0,2.0,-12.0,0.0,0.0,0.0,0.0001402502045961238,0.00012372329549971425,9.777068857076201e-05,7.991033045324323e-05,7.224166548111854e-05,6.190053121518992e-05,5.4329147644135824e-05,5.0657863891686316e-05,4.6450525621790664e-05,4.140272756514549e-05,3.814897084279293e-05,3.232271528047269e-05,3.217478657970487e-05,2.8844102956173277e-05,2.621281158837651e-05,2.5229210359905983e-05,2.2804890828982548e-05,2.0659673865814728e-05,1.8378244165089337e-05,1.5929839005985065e-05,1.3040412230151282e-05,1.1576384048198115e-05,1.0195178138970971e-05,8.02148329520206e-06,6.891208549676176e-06,5.613142898217935e-06,4.427282825684661e-06,3.569587566634203e-06,3.027607606920055e-06,2.279916282471896e-06,1.7571896266542664e-06,1.3475788871038517e-06,1.0152360709826228e-06,7.15642081103027e-07
0.0,13,13.0,0.0,30.0,0.0,0.0,0.0,0.0,2.0,2.0,-12.0,0.0,0.0,0.0,0.00014549307455247483,0.00011599385489936477,9.834601429528937e-05,7.859909624340193e-05,7.054469021177694e-05,6.257258429027233e-05,5.549785302927374e-05,4.767858319206482e-05,4.3079972153140614e-05,4.065130253993991e-05,3.9104515659409185e-05,3.3676538154809846e-05,3.141846731419178e-05,2.9596896701617363e-05,2.6868066046331047e-05,2.479132201417674e-05,2.3525325048005455e-05,2.0947714682432742e-05,1.8417720511755304e-05,1.6195227619772677e-05,1.3098052161485433e-05,1.1583095184358809e-05,9.860350077584499e-06,8.007846331180415e-06,6.999774430173555e-06,5.578832651539383e-06,4.6990726461800925e-06,3.4723600487593035e-06,2.9214945205139977e-06,2.2671516744305933e-06,1.8315770912140202e-06,1.3510223184633784e-06,9.664080279399696e-07,7.270246329903458e-07
0.0,14,14.0,0.0,30.0,0.0,0.0,0.0,0.0,2.0,2.0,-12.0,0.0,0.0,0.0,0.0001535180463967995,0.00011327278040180733,0.00010142777572916041,8.681687228234823e-05,7.530064435420437e-05,6.140037046002438e-05,5.6442344513519315e-05,4.80215935600412e-05,4.502153658431352e-05,4.085046614463915e-05,3.5499780195417074e-05,3.4636343045582946e-05,3.0358993779554446e-05,2.9274513102286348e-05,2.6557124879322324e-05,2.4730200243815933e-05,2.3457287981128686e-05,2.274156667186602e-05,1.9026211565822692e-05,1.692669214089172e-05,1.3791134249678938e-05,1.1818820577386943e-05,9.694271628685618e-06,7.855508090144365e-06,6.71388620913265e-06,5.283006080358969e-06,4.879172309938027e-06,3.5155756814984027e-06,2.859278456816407e-06,2.2220078053220905e-06,1.7404917739764592e-06,1.3676370300372674e-06,1.0442941484331162e-06,7.257892254356283e-07
0.0,15,15.0,0.0,30.0,0.0,0.0,0.0,0.0,2.0,2.0,-12.0,0.0,0.0,0.0,0.00015032219683667363,0.0001177240771144834,0.00010391649739777293,8.286295741904978e-05,7.284233998063124e-05,6.145631491300972e-05,5.815019289221999e-05,4.985871354835858e-05,4.470165293969133e-05,4.1003164934214215e-05,3.8209959735041195e-05,3.3498797207126034e-05,3.093152632850227e-05,3.0149165763194395e-05,2.8175700154104447e-05,2.5354618181409902e-05,2.3457635547842404e-05,2.1744617610960337e-05,1.946531146303835e-05,1.693370364458299e-05,1.3977515524621322e-05,1.1933372265091085e-05,9.8438961936848e-06,8.296052115056631e-06,6.674563760324632e-06,5.694509591057856e-06,4.504548257369836e-06,3.557007730362197e-06,2.7111858021521783e-06,2.244470058112588e-06,1.5608146803881743e-06,1.3442277832176668e-06,9.804564281919863e-07,7.47413852537036e-07
0.0,16,16.0,0.0,30.0,0.0,0.0,0.0,0.0,2.0,2.0,-12.0,0.0,0.0,0.0,0.0001409367555585009,0.00012064127182941301,9.756990856712384e-05,7.96046307646159e-05,7.022255380890622e-05,6.20230185111019e-05,5.5103619411076234e-05,5.2133167212222195e-05,4.430015034347884e-05,4.11949380939287e-05,3.7879066734534e-05,3.447078462781921e-05,2.9355433655129173e-05,3.0036479851047103e-05,2.848910428249484e-05,2.5011536689258442e-05,2.2571622010814272e-05,2.1636381575976827e-05,1.870225697608567e-05,1.6456636891830774e-05,1.3391878090276544e-05,1.2017129963710792e-05,9.956314310372221e-06,8.49354667728004e-06,6.804859336994354e-06,5.4734870226531555e-06,4.5269804668106776e-06,3.473327393175365e-06,2.814725082679506e-06,2.211567314497198e-06,1.598853923187705e-06,1.302669595608825e-06,1.0064178849525441e-06,7.139437689077308e-07
0.0,17,17.0,0.0,30.0,0.0,0.0,0.0,0.0,2.0,2.0,-12.0,0.0,0.0,0.0,0.0001496786380222728,0.00011497663026774476,9.45283000769072e-05,7.937570359160164e-05,7.165460698190632e-05,6.548155887322075e-05,5.539251251706956e-05,4.927354610104866e-05,4.52916730908324e-05,4.022496723929086e-05,3.8467300900367234e-05,3.491884366841013e-05,3.2006546200819936e-05,3.0962790500186224e-05,2.6811055268397943e-05,2.4667050588350955e-05,2.383935893669782e-05,2.0804612924379866e-05,1.853004557456755e-05,1.6466153586025037e-05,1.3494986956732005e-05,1.135797716651301e-05,9.282448410241705e-06,8.037189803352967e-06,6.680554242853895e-06,5.562508227858332e-06,4.473203224916401e-06,3.6840445153512663e-06,2.888712255584713e-06,2.291097502936619e-06,1.7106912961226457e-06,1.2658940002100645e-06,9.214840167113024e-07,6.739688956692333e-07
0.0,18,18.0,0.0,30.0,0.0,0.0,0.0,0.0,2.0,2.0,-12.0,0.0,0.0,0.0,0.00015034547380047699,0.00011976368376039186,9.411426597190323e-05,8.079330131279306e-05,7.110644786819811e-05,6.0932822710621504e-05,5.7374998494679974e-05,5.167218481534863e-05,4.3841070850284186e-05,4.162144365605478e-05,3.7906776020680074e-05,3.250763661599328e-05,3.094321441189279e-05,2.9233628548338946e-05,2.7628357230754167e-05,2.6120903984039816e-05,2.2915450267268257e-05,2.1140175585915762e-05,1.9014607694808646e-05,1.6282394533435365e-05,1.3439779454759478e-05,1.1849605612656689e-05,1.0022088143120002e-05,8.215931313055222e-06,6.506523093437064e-06,5.579507506372522e-06,4.407061346073863e-06,3.5761891402853092e-06,2.9637564016009767e-06,2.204779860657661e-06,1.7240771561210805e-06,1.2911734528760096e-06,9.690161643584336e-07,7.069429684644073e-07
0.0,19,19.0,0.0,30.0,0.0,0.0,0.0,0.0,2.0,2.0,-12.0,0.0,0.0,0.0,0.00015025814013570427,0.0001236647871512523,9.56183248336507e-05,8.668297740626913e-05,7.056116149208598e-05,6.14392898768184e-05,5.620310551532511e-05,5.049003249451949e-05,4.517424876051831e-05,4.170365884694823e-05,3.9162482808762624e-05,3.4812479350793527e-05,3.124985676871756e-05,2.888575630529912e-05,2.8409664783464193e-05,2.5721093368818624e-05,2.4046050345490096e-05,2.2081476672863027e-05,2.030219485172069e-05,1.687310285792071e-05,1.4260033732467815e-05,1.2197645043124258e-05,1.0055497355241136e-05,8.19911155115595e-06,6.882863971816267e-06,5.489165469487006e-06,4.460069408076565e-06,3.7104200221047298e-06,3.051163191634823e-06,2.092731870412292e-06,1.6773697938769904e-06,1.2614256741465194e-06,9.56204840369109e-07,7.253400072815648e-07
0.0,20,20.0,0.0,30.0,0.0,0.0,0.0,0.0,2.0,2.0,-12.0,0.0,0.0,0.0,0.0001433061807683506,0.00011434342809528807,9.817917411040938e-05,8.703636819265045e-05,6.83369424891846e-05,6.3889493408143e-05,5.6502522081604906e-05,4.9406149694377026e-05,4.588073113863554e-05,4.182327056557481e-05,3.889065050794742e-05,3.346713980778718e-05,3.114675768445905e-05,3.0350272890302124e-05,2.6808274992645362e-05,2.485208532051938e-05,2.3994544641535465e-05,2.1176016091074635e-05,1.965961086076366e-05,1.6151167202290874e-05,1.3976581967670621e-05,1.2371023471501e-05,9.7438832708829e-06,8.294130760235187e-06,7.022826897495511e-06,6.040051555392202e-06,4.404253694518984e-06,3.62132512685742e-06,2.8609736944225113e-06,2.1657633391083806e-06,1.6667478625998203e-06,1.2176175618821351e-06,9.313468322867435e-07,6.896819889421095e-07
0.0,21,21.0,0.0,30.0,0.0,0.0,0.0,0.0,2.0,2.0,-12.0,0.0,0.0,0.0,0.00015369424384717044,0.00011378525255227858,9.648681431360632e-05,7.8769668693298e-05,7.089509499352904e-05,6.27759715316286e-05,5.7839684169449027e-05,5.05653778954915e-05,4.720565645476081e-05,3.981747015643415e-05,3.731281276278119e-05,3.5691163634167754e-05,3.192510467744156e-05,2.935013938308173e-05,2.7931131767261616e-05,2.5703471893867228e-05,2.4255211488994212e-05,2.1566258632896996e-05,1.7596115601672504e-05,1.7044168811916104e-05,1.3824454939843947e-05,1.2371952818444289e-05,1.0267144998628352e-05,8.370711003509965e-06,6.932477492521102e-06,5.6990594039038185e-06,4.587135909065768e-06,3.663606962951494e-06,2.8785867857313105e-06,2.162105301440888e-06,1.6564866690450553e-06,1.257724552799684e-06,9.368519900703061e-07,7.009735608710056e-07
0.0,22,22.0,0.0,30.0,0.0,0.0,0.0,0.0,2.0,2.0,-12.0,0.0,0.0,0.0,0.00015141759164192698,0.00012039752386438165,9.739529935148537e-05,8.052931750147146e-05,7.31766088346213e-05,6.151419968638984e-05,5.4662018606633784e-05,5.2866411165034316e-05,4.522582351034894e-05,4.349204405870374e-05,3.823180799411057e-05,3.425968327230811e-05,3.088623629570121e-05,2.9680495725045046e-05,2.8383375622694223e-05,2.592351856055337e-05,2.4562720254678615e-05,2.090684092562123e-05,1.831642491551095e-05,1.618645282690273e-05,1.3223800996461411e-05,1.2234484542589849e-05,1.003576833279779e-05,8.426434336065454e-06,6.88641816602744e-06,5.601194066041153e-06,4.420299804339231e-06,3.6598627752227418e-06,2.9304786694973555e-06,2.1062015221022674e-06,1.7002365750769953e-06,1.2668636548168836e-06,9.22030730822854e-07,6.788783720852789e-07
0.0,23,23.0,0.0,30.0,0.0,0.0,0.0,0.0,2.0,2.0,-12.0,0.0,0.0,0.0,0.00014735477485043616,0.0001128098823489574,9.880520590394332e-05,8.314073820678873e-05,7.26852050473217e-05,6.333975778003131e-05,5.5256974902256126e-05,5.052553702018851e-05,4.4368701303914477e-05,4.411007616156058e-05,3.840295329624936e-05,3.621116009336e-05,3.165889778704023e-05,2.917391137427454e-05,2.8174460378794645e-05,2.5848063533199037e-05,2.502173082145012e-05,2.1600129179892657e-05,1.9276476799640988e-05,1.783116384209586e-05,1.4190328265290013e-05,1.2125334777155055e-05,1.0016870115865447e-05,7.815021329551002e-06,6.6617996143630154e-06,5.460973485597816e-06,4.474233622045798e-06,3.589055162424076e-06,2.84383196225296e-06,2.1355584627600742e-06,1.6533657981648347e-06,1.3357008735325458e-06,9.605367554826607e-07,6.870167091937719e-07
0.0,24,24.0,0.0,30.0,0.0,0.0,0.0,0.0,2.0,2.0,-12.0,0.0,0.0,0.0,0.00014797736042660437,0.00011891061493724484,0.00010037177806442526,8.579846818916079e-05,7.040932406103705e-05,6.213198429987294e-05,5.553175358688883e-05,5.03901277809987e-05,4.512189242849394e-05,4.2306321592913545e-05,3.9019985412471985e-05,3.6534340470240284e-05,3.2408682735484066e-05,3.0071875319420848e-05,2.7115814990372112e-05,2.6693727457244945e-05,2.462580699047062e-05,2.1025037686464412e-05,1.9312096360197183e-05,1.6422642841273617e-05,1.3889836265059046e-05,1.123021576621271e-05,1.028982061827785e-05,8.637189076294207e-06,7.099267137151197e-06,5.496617865966027e-06,4.772807597968553e-06,3.559341330301171e-06,2.9941876798581964e-06,2.225372808796864e-06,1.691194446968405e-06,1.2618108511953457e-06,9.655851518821473e-07,6.832418664303314e-07
0.0,25,25.0,0.0,30.0,0.0,0.0,0.0,0.0,2.0,2.0,-12.0,0.0,0.0,0.0,0.00015153439563647146,0.0001153711143036641,9.831278156468816e-05,8.719159489533999e-05,7.178663611449241e-05,6.226098972474692e-05,5.9094562694650844e-05,5.184303475152472e-05,4.899447550140615e-05,3.9750324614991995e-05,3.9030760883736385e-05,3.566601508393188e-05,3.179667160317432e-05,3.004098528872312e-05,2.8919221549553414e-05,2.495428230729781e-05,2.4792336014895984e-05,2.2888133911543324e-05,1.9568714663763426e-05,1.6705172276045744e-05,1.4185686075293716e-05,1.197702625429382e-05,1.0323863005511484e-05,8.863527017305049e-06,6.305911720449987e-06,5.526950265230446e-06,4.515250462606048e-06,3.53487851703306e-06,2.7349005682296855e-06,2.136311018166172e-06,1.6776059313315065e-06,1.2862693713554214e-06,1.0099811290837657e-06,7.184729391343172e-07
0.0,26,26.0,0.0,30.0,0.0,0.0,0.0,0.0,2.0,2.0,-12.0,0.0,0.0,0.0,0.00014485684200561262,0.00012115249841698056,9.542492486879972e-05,8.335776414300051e-05,7.375191679915746e-05,6.5513620699146e-05,5.788712223129233e-05,4.997793089467724e-05,4.8421227744331304e-05,4.33793105629703e-05,3.8458647512576005e-05,3.5530016209203034e-05,3.4050006646726566e-05,2.772404466188978e-05,2.859606166133186e-05,2.5209446269754703e-05,2.515986019605749e-05,2.2600924572353696e-05,1.9800386460420675e-05,1.7406053272680445e-05,1.460317518574663e-05,1.2576359775491159e-05,1.0666510310293523e-05,8.192715255921559e-06,6.75901162979818e-06,5.521396951820412e-06,4.645867907581052e-06,3.6516963870808584e-06,2.7699551803559874e-06,2.084855036567375e-06,1.6734010003289043e-06,1.2245018008677705e-06,9.691268730486056e-07,6.964716121366938e-07
0.0,27,27.0,0.0,30.0,0.0,0.0,0.0,0.0,2.0,2.0,-12.0,0.0,0.0,0.0,0.00015677549617529416,0.00011716464787967752,9.70017252661173e-05,8.483133340151127e-05,7.117084946361501e-05,6.472672356737541e-05,5.722671524424189e-05,5.166857522022137e-05,4.487790035603176e-05,4.2527133477197714e-05,3.753092741217332e-05,3.720111043224201e-05,3.233329010650787e-05,3.228518435581824e-05,2.9415022498844637e-05,2.4204382374223167e-05,2.5211603505406466e-05,2.3260679017283184e-05,2.039718856391056e-05,1.6570611889925314e-05,1.5185111369969634e-05,1.2401516543135907e-05,1.0215201062831626e-05,8.349900520041673e-06,6.962107338526986e-06,5.889145508084072e-06,4.685884292575399e-06,3.5255839544271784e-06,2.716401848849584e-06,2.234847959142742e-06,1.6331337634251477e-06,1.244210048495702e-06,9.361788743584298e-07,6.474245901299578e-07
0.0,28,28.0,0.0,30.0,0.0,0.0,0.0,0.0,2.0,2.0,-12.0,0.0,0.0,0.0,0.0001513661179645021,0.00011659708594406916,9.979317580048238e-05,8.595623764812748e-05,7.474176254620207e-05,6.338008172885917e-05,5.9350288501534815e-05,5.262173960911252e-05,4.6641300574026426e-05,4.3731127410629456e-05,4.103419595646379e-05,3.629402345373286e-05,3.2420788872548006e-05,3.118803522315395e-05,2.6835904487276637e-05,2.5723747683163135e-05,2.5504157938797337e-05,2.3002493324284087e-05,2.0211504391228068e-05,1.728687270793088e-05,1.4273393855805014e-05,1.2236661956004787e-05,1.0398850450967522e-05,9.142765744739335e-06,6.59600569824579e-06,5.844126711234239e-06,4.513900020266422e-06,3.4192769732852915e-06,2.775891225795803e-06,2.099632312422311e-06,1.7035917308315339e-06,1.1815403378339619e-06,9.092897500699298e-07,6.69358619694949e-07
0.0,29,29.0,0.0,30.0,0.0,0.0,0.0,0.0,2.0,2.0,-12.0,0.0,0.0,0.0,0.00014041888579538939,0.0001195300728074703,9.96882222488854e-05,8.8486262342854e-05,6.880811096225663e-05,6.576094547218212e-05,5.778961934219358e-05,5.082265247726829e-05,4.714087302668942e-05,4.245708722192957e-05,3.755542857106036e-05,3.816837855221261e-05,3.312419960926115e-05,3.092850961664737e-05,2.8405153849191067e-05,2.5679900262787514e-05,2.5017532202392675e-05,2.1709410293188843e-05,2.0347212794433584e-05,1.7348477857311782e-05,1.4842152861579883e-05,1.1854786672736576e-05,1.0893998004548522e-05,8.0650313303266e-06,6.9340387153033004e-06,5.534402776814842e-06,4.418844889393877e-06,3.5356715707891275e-06,2.660831515993836e-06,2.05746026676169e-06,1.633066746053129e-06,1.1506097617341014e-06,8.641404773960592e-07,6.264894780776314e-07
0.0,30,30.0,0.0,30.0,0.0,0.0,0.0,0.0,2.0,2.0,-12.0,0.0,0.0,0.0,0.00014513188729540968,0.00011690882244567812,9.729915688051452e-05,8.009374375492655e-05,7.612529002664743e-05,6.75528148847726e-05,5.649640375511235e-05,4.98637420902043e-05,4.811420098905015e-05,4.101782582665674e-05,3.995066438202101e-05,3.722053882741399e-05,3.383343736732389e-05,3.005146988109111e-05,2.8921418260074778e-05,2.7955022473311226e-05,2.4019213453943128e-05,2.308082928110481e-05,2.0219637423692135e-05,1.697723464231693e-05,1.499430721510817e-05,1.1944018906754684e-05,1.0886945229374087e-05,8.680641685995597e-06,7.3855770086272835e-06,5.599095790318818e-06,4.5443165148507525e-06,3.545319979310532e-06,2.7033183140625053e-06,1.9923442515672496e-06,1.5742556039391136e-06,1.2236265722505719e-06,8.77290585488031e-07,6.647225032896231e-07
0.0,31,31.0,0.0,30.0,0.0,0.0,0.0,0.0,2.0,2.0,-12.0,0.0,0.0,0.0,0.00014373024531382083,0.00012030810866547285,0.00010242208697406864,8.770612109854244e-05,6.995705796206358e-05,6.379728003776895e-05,5.838051933051178e-05,5.292845609473254e-05,4.5847187001820716e-05,4.308416899151874e-05,3.840770542484194e-05,3.6522319575576126e-05,3.4199076777025807e-05,3.056607738594661e-05,2.9197218649380667e-05,2.509417769354718e-05,2.5772051322238756e-05,2.375148501723295e-05,2.0568360265804924e-05,1.7362720982687138e-05,1.4952832665948006e-05,1.1912379678063748e-05,1.0387664636474328e-05,8.414463140362513e-06,7.16311242056824e-06,5.858644585560685e-06,4.249051794028983e-06,3.5569172789380983e-06,2.8627537218843986e-06,2.1758770650237228e-06,1.6407267449366815e-06,1.2320915712109583e-06,8.840708892712333e-07,6.314572626972007e-07
0.0,32,32.0,0.0,30.0,0.0,0.0,0.0,0.0,2.0,2.0,-12.0,0.0,0.0,0.0,0.00015112543622191268,0.0001226702990276708,9.680060335144602e-05,8.879182422532441e-05,6.961865341580947e-05,6.422536045110773e-05,6.129629555710107e-05,5.1760678494543636e-05,4.6620964336200903e-05,4.462525028034368e-05,4.0770943430095755e-05,3.743794690770122e-05,3.543192519250219e-05,3.163743055231596e-05,2.7885187426753603e-05,2.6870626649921127e-05,2.384072504890834e-05,2.218151966769199e-05,2.0023664334931787e-05,1.7269587003472343e-05,1.4005064294258411e-05,1.3176387652551976e-05,1.0371587075974073e-05,8.594213996458574e-06,6.858416703992898e-06,5.469317604085343e-06,4.241535914109961e-06,3.510158909961725e-06,2.684397846180658e-06,2.1613369459837466e-06,1.6386520171611865e-06,1.1434870458496937e-06,9.259609533392885e-07,6.320170191551082e-07
0.0,33,33.0,0.0,30.0,0.0,0.0,0.0,0.0,2.0,2.0,-12.0,0.0,0.0,0.0,0.00014604841299043574,0.00011581613820426355,9.937983015420596e-05,8.82809713895808e-05,7.261744121295736e-05,6.301686021219764e-05,5.5492647496180916e-05,5.182594095730316e-05,4.671944720592526e-05,4.239910170244302e-05,3.972411656318357e-05,3.558463016459594e-05,3.281875396578152e-05,3.1669231072057957e-05,2.842809652974177e-05,2.7466334155977656e-05,2.660022216574568e-05,2.3030464730415674e-05,2.1792536211991818e-05,1.6636462478148095e-05,1.5087165996731483e-05,1.3096024669971162e-05,1.0283152202631113e-05,8.111757301513993e-06,7.1874787625404875e-06,5.58083452789632e-06,4.567181540951358e-06,3.4080715454299345e-06,2.742733312106178e-06,2.023745740255265e-06,1.5355271746717455e-06,1.205747694778931e-06,8.819934158823055e-07,6.15115897714045e-07
0.0,34,34.0,0.0,30.0,0.0,0.0,0.0,0.0,2.0,2.0,-12.0,0.0,0.0,0.0,0.0001417137327834093,0.0001198339734773586,9.935702859607881e-05,8.724328906924852e-05,7.150049945851081e-05,6.538818171613104e-05,6.236863395435487e-05,5.290345404920951e-05,4.651593372742432e-05,4.5417959906702914e-05,4.236595383185168e-05,3.882109423072276e-05,3.1994268386954234e-05,3.178078431130166e-05,2.8203104051324313e-05,2.6870182329247283e-05,2.634764536160014e-05,2.3127916244963764e-05,2.022225286383309e-05,1.803015658273497e-05,1.4872473868447903e-05,1.241868460447172e-05,1.0031928587778754e-05,8.313585598535305e-06,7.150866031589724e-06,5.63238254886633e-06,4.533818898560208e-06,3.387610613027687e-06,2.6809730783153108e-06,2.018761755686108e-06,1.619927512119745e-06,1.208399461729221e-06,8.615166342142048e-07,6.196675584282673e-07
0.0,35,35.0,0.0,30.0,0.0,0.0,0.0,0.0,2.0,2.0,-12.0,0.0,0.0,0.0,0.00014927558930957,0.00011921170899832631,9.963463331818159e-05,8.828705789551769e-05,7.614246246316683e-05,6.210769431616834e-05,5.9508351392742994e-05,5.392277160802059e-05,4.7756522755627876e-05,4.302154908666605e-05,3.9407669302612164e-05,3.593549390130467e-05,3.474748706737626e-05,3.289389858202008e-05,3.0537612534865375e-05,2.610121551152075e-05,2.5217735711671075e-05,2.3532126647126215e-05,2.1823128982279824e-05,1.6964464193056886e-05,1.4427616919951728e-05,1.203535515876256e-05,9.9792636903913e-06,8.651360853060085e-06,6.9332828789303896e-06,5.677814073238788e-06,4.257835464501117e-06,3.53870341050737e-06,2.681577393500327e-06,2.025079686527264e-06,1.5360329405110428e-06,1.1135450294777647e-06,8.084203276416351e-07,6.320091829388909e-07
0.0,36,36.0,0.0,30.0,0.0,0.0,0.0,0.0,2.0,2.0,-12.0,0.0,0.0,0.0,0.00014724502654402932,0.00011867504263675068,9.756614027508549e-05,9.03061005759164e-05,7.696792047516524e-05,6.245810732986317e-05,5.735084237851997e-05,5.579501064858158e-05,5.1367588830186986e-05,4.4153603548007425e-05,3.9882217988573185e-05,3.586310931327389e-05,3.4014088149242886e-05,3.20314665084218e-05,2.8794760978347484e-05,2.6799349877446e-05,2.648575329381346e-05,2.3199176976028273e-05,1.8987836348123226e-05,1.700840905939144e-05,1.4787710920932853e-05,1.2548208932278414e-05,1.0622528336888343e-05,8.472029350017782e-06,6.551763661762577e-06,5.771886918478651e-06,4.4488957333647785e-06,3.4931487407335532e-06,2.6655590560977998e-06,2.0527964959039008e-06,1.5084659913407747e-06,1.1346371366108371e-06,8.426770202974736e-07,6.084737738348346e-07
0.0,37,37.0,0.0,30.0,0.0,0.0,0.0,0.0,2.0,2.0,-12.0,0.0,0.0,0.0,0.00015597775065402474,0.00012679604690979653,0.00010058296012135233,8.872105381633485e-05,7.533354977852397e-05,6.486101205525456e-05,6.039117616292111e-05,5.279988983063697e-05,4.7654275617222053e-05,4.224457525533754e-05,4.174829423095924e-05,3.873063292674564e-05,3.4848962437378345e-05,3.221065703837514e-05,3.0085768827773317e-05,2.7694435716263945e-05,2.6226884290294922e-05,2.319119426717349e-05,1.9904032244852433e-05,1.71208594256754e-05,1.4308780358952745e-05,1.2455872082230974e-05,9.864193892504061e-06,7.99462964424526e-06,6.9487809626930445e-06,5.5926536782078235e-06,4.292448795033053e-06,3.3628036322467867e-06,2.6391582494061075e-06,2.037217918862365e-06,1.452776918828907e-06,1.1573138852053447e-06,8.29181971764339e-07,6.052126717258994e-07
0.0,38,38.0,0.0,30.0,0.0,0.0,0.0,0.0,2.0,2.0,-12.0,0.0,0.0,0.0,0.00015339546006365836,0.00012046646146073088,0.00010567273850562823,8.751061297169493e-05,7.693833272923909e-05,6.236993564629833e-05,6.12194423733626e-05,5.5934665105902404e-05,4.657644317919238e-05,4.4903884527069645e-05,4.2330885144360764e-05,3.7394023224612224e-05,3.3087773084696415e-05,2.9925733721984878e-05,2.88555523782589e-05,2.7678063186574254e-05,2.6161208974910875e-05,2.3290845344297247e-05,2.1775943264951357e-05,1.6881554384703745e-05,1.4568398202449196e-05,1.2500092196518499e-05,1.0026385490084134e-05,8.60696439248219e-06,6.762096029039851e-06,5.347292558145647e-06,4.226222819072668e-06,3.4629895465648936e-06,2.6249766221620166e-06,1.955788075032154e-06,1.5081349838720413e-06,1.0369571149457894e-06,8.625606466177215e-07,6.142328034750312e-07
0.0,39,39.0,0.0,30.0,0.0,0.0,0.0,0.0,2.0,2.0,-12.0,0.0,0.0,0.0,0.0001484330569150804,0.00011911068282106123,0.00010101270247725489,8.769512721096146e-05,7.227235787440107e-05,6.525239848641992e-05,5.81441017053755e-05,5.376894128618542e-05,4.8499205565534095e-05,4.184273462817679e-05,4.033473776817096e-05,3.6969175129945096e-05,3.42934174501866e-05,3.313498729306043e-05,2.972765042316501e-05,2.906421857284919e-05,2.6403722610372907e-05,2.32020075398321e-05,2.0085677822164433e-05,1.7775558351506176e-05,1.4786427430750477e-05,1.2442725501870932e-05,1.1044550916324284e-05,8.586715615920153e-06,6.905470656083854e-06,5.456718498964354e-06,4.1851565458503774e-06,3.3196792503862073e-06,2.627300101418815e-06,2.0097997206528524e-06,1.4876193553239024e-06,1.1352302626282852e-06,8.177353209877384e-07,5.864610991280376e-07
0.0,40,40.0,0.0,30.0,0.0,0.0,0.0,0.0,2.0,2.0,-12.0,0.0,0.0,0.0,0.00014968366578103212,0.00011770132399725439,0.000102646927073236,8.836107816102433e-05,7.621140744142349e-05,6.668281350250066e-05,6.211514292929889e-05,5.2545335663791486e-05,4.766559269265153e-05,4.637444933061918e-05,4.016349338294724e-05,3.9771826828477385e-05,3.5083407040744205e-05,3.2403718585248774e-05,3.1318279383774756e-05,2.8480620982051833e-05,2.605042723359282e-05,2.5006689441054215e-05,2.033644143962844e-05,1.8182244747686595e-05,1.4860290734549911e-05,1.2986975565093087e-05,1.0522076299348218e-05,8.533974273684648e-06,6.627693519767498e-06,5.7207082150504094e-06,4.524485960173204e-06,3.2967411234738454e-06,2.5382707685263384e-06,1.9398959153934167e-06,1.489479827570486e-06,1.1240788600011896e-06,8.142289468754846e-07,5.654642000501165e-07
0.0,41,41.0,0.0,30.0,0.0,0.0,0.0,0.0,2.0,2.0,-12.0,0.0,0.0,0.0,0.0001519367994978409,0.00011904874359340436,0.00010320246623949136,8.38963924158215e-05,7.829568112476998e-05,6.823758687027703e-05,6.111168072853155e-05,5.588077581646937e-05,5.075457390558522e-05,4.696050164697162e-05,4.1537658094308634e-05,4.0522263180467934e-05,3.395080708653877e-05,3.203522409116015e-05,2.9387644216332276e-05,2.7543363314603144e-05,2.7203178043010504e-05,2.2792131373603695e-05,2.0407237448170358e-05,1.723866780031598e-05,1.4484950425118114e-05,1.2304064638562606e-05,1.1052955704795613e-05,8.81456628002712e-06,6.819490296593378e-06,5.268693239230008e-06,4.047927922369244e-06,3.3256104846844876e-06,2.6474274278870115e-06,1.8592243350993402e-06,1.3880138289290472e-06,1.1006714770400262e-06,7.657615329703402e-07,5.440384757950177e-07
0.0,42,42.0,0.0,30.0,0.0,0.0,0.0,0.0,2.0,2.0,-12.0,0.0,0.0,0.0,0.00014772505368243792,0.0001226868308417668,0.00010313381610055988,8.701532356247849e-05,7.513321756673501e-05,7.234352670572253e-05,6.193311972028369e-05,5.37865146728747e-05,4.8373024396871316e-05,4.4968984948670774e-05,4.032541736163675e-05,3.877361253228251e-05,3.419698163877334e-05,3.3346275177279525e-05,3.027103110721665e-05,2.7948903958414535e-05,2.5964128626366703e-05,2.4349985247787808e-05,2.0479397020157105e-05,1.8077826467168655e-05,1.4311449507435604e-05,1.2615910289836216e-05,9.888520578514668e-06,8.486643002522278e-06,6.544613775711626e-06,5.324024389378115e-06,4.31333822361764e-06,3.287450310326977e-06,2.4921959637395664e-06,1.8740035371973737e-06,1.4085656140962803e-06,1.0737982542579846e-06,7.734352567645394e-07,5.185113442111479e-07
0.0,43,43.0,0.0,30.0,0.0,0.0,0.0,0.0,2.0,2.0,-12.0,0.0,0.0,0.0,0.00014864170058032634,0.00011788171068707656,9.791532643430121e-05,8.555160315036758e-05,8.100799857397734e-05,7.111430093151417e-05,6.303767168979837e-05,4.9049462944539424e-05,4.8490720515042e-05,4.4631601809581214e-05,3.92150926675706e-05,3.786223251414028e-05,3.32547766443874e-05,3.374600044636299e-05,3.160271338717665e-05,2.7475099137481966e-05,2.60488145662416e-05,2.4265570910388337e-05,2.0946012830771174e-05,1.7154977427489402e-05,1.492395229255837e-05,1.2205022272281778e-05,1.0130569877441147e-05,8.340905535001538e-06,6.670973016442134e-06,5.39917475106648e-06,3.865750033063228e-06,3.2434328468010095e-06,2.4707656112365268e-06,1.7671806481185123e-06,1.3045890847357432e-06,1.0684786113595041e-06,7.330144025974337e-07,5.502821336831656e-07
0.0,44,44.0,0.0,30.0,0.0,0.0,0.0,0.0,2.0,2.0,-12.0,0.0,0.0,0.0,0.00015807365100628003,0.00011896008475972563,0.0001037897288101214,8.927194993637508e-05,7.965070508598669e-05,6.995956495960218e-05,6.28772788375287e-05,5.224697038664508e-05,4.75973552958644e-05,4.722370332787767e-05,4.5563438327426124e-05,3.779070108856276e-05,3.4371488860356615e-05,3.17494379382207e-05,3.157909535341629e-05,2.819135945974306e-05,2.664987678942578e-05,2.351584558656271e-05,1.9638126738548378e-05,1.7566248374031592e-05,1.529016409887357e-05,1.2006223243307368e-05,1.0015977245250601e-05,7.568661423659663e-06,6.8183961291280846e-06,5.24737068740025e-06,4.136306394130709e-06,3.234771708124424e-06,2.4904094889043525e-06,1.8338964253846374e-06,1.368639360261015e-06,9.81593340635129e-07,7.861350222402972e-07,5.414217775341461e-07
0.0,45,45.0,0.0,30.0,0.0,0.0,0.0,0.0,2.0,2.0,-12.0,0.0,0.0,0.0,0.000144999912400804,0.00012055542479241065,0.00010556962026907267,8.654759654749037e-05,8.155426425301407e-05,7.022443595350772e-05,6.35525570232425e-05,5.390756034295094e-05,4.9935839915552164e-05,4.349943657166566e-05,4.1619714864883634e-05,3.9109278274716964e-05,3.525379784891053e-05,3.3963012343901624e-05,3.135620977632118e-05,2.9158406849709773e-05,2.6697185693338505e-05,2.2438451378206233e-05,2.1387137276362322e-05,1.7381647754152022e-05,1.4565510175641144e-05,1.2565216436238653e-05,1.008697782187671e-05,8.241314237773085e-06,6.484903291168195e-06,5.4770977677481136e-06,4.1346118874720834e-06,3.0740762089178208e-06,2.436665260892996e-06,1.8248109087134131e-06,1.237760185267779e-06,1.0113891965805373e-06,7.220281623939011e-07,5.424368719868913e-07
0.0,46,46.0,0.0,30.0,0.0,0.0,0.0,0.0,2.0,2.0,-12.0,0.0,0.0,0.0,0.00015564939235548228,0.00012544595883482175,0.00010273801823877886,8.577434717673224e-05,7.977080108014953e-05,6.794540925609939e-05,6.069125164733711e-05,5.4013972617416225e-05,4.8957474201253547e-05,4.626414144182363e-05,4.225200784929034e-05,3.944458920266783e-05,3.539072488601721e-05,3.322948764313884e-05,2.9613148546049897e-05,2.8115654776223253e-05,2.7001212538798137e-05,2.3267203163187204e-05,2.0795558941910242e-05,1.7637579622384046e-05,1.4695292272677823e-05,1.2236468573325717e-05,1.0057073798236887e-05,8.961279581051814e-06,6.666652525732478e-06,5.030986136109685e-06,3.958028202805815e-06,3.2071381037367747e-06,2.453894489492623e-06,1.791381597905109e-06,1.3422521076993103e-06,1.0018648605769738e-06,6.928491497193214e-07,5.025714781124236e-07
0.0,47,47.0,0.0,30.0,0.0,0.0,0.0,0.0,2.0,2.0,-12.0,0.0,0.0,0.0,0.00015614458989745474,0.00013190757972379095,0.000103661083353094,8.959383375854264e-05,7.932015118434489e-05,6.894618137546715e-05,6.467467454028054e-05,5.763452266609412e-05,5.035962564312386e-05,4.368706982820529e-05,4.2395674005627775e-05,4.037227411996582e-05,3.642242660257445e-05,3.5168414294443023e-05,2.9733227752366657e-05,2.7367058654613624e-05,2.5125758480778335e-05,2.245147027527382e-05,1.9286219556702437e-05,1.835822598906637e-05,1.4790524010447586e-05,1.2254656428660923e-05,9.942077609083638e-06,8.173649405052944e-06,6.511873936376074e-06,4.968968435349436e-06,4.078046286178895e-06,3.1287881103007546e-06,2.3287539282947266e-06,1.6874016926929965e-06,1.314147340783944e-06,9.433112224163719e-07,7.00832551013188e-07,4.91560381177551e-07
0.0,48,48.0,0.0,30.0,0.0,0.0,0.0,0.0,2.0,2.0,-12.0,0.0,0.0,0.0,0.00015403158105377546,0.00012079420749504512,0.00010802008722961715,8.721385836803493e-05,8.106495853745787e-05,7.01950250640234e-05,6.492958291448155e-05,5.4718847866749235e-05,5.1983205208056e-05,4.7425553304553244e-05,4.326771216724841e-05,3.752715137266129e-05,3.488717507163123e-05,3.2815099273161384e-05,3.0414873389562452e-05,2.854626273206576e-05,2.5865523909527046e-05,2.2186927156448733e-05,2.0512829715179242e-05,1.7808575240631878e-05,1.4795321170077961e-05,1.1093598162398333e-05,9.969136191773456e-06,8.054287254956571e-06,6.51050469566853e-06,4.915736670575699e-06,3.818720289218889e-06,3.262801175209941e-06,2.3778589763063434e-06,1.811899150730177e-06,1.3203992856784346e-06,9.103610953191414e-07,6.573177712306095e-07,4.813187740765882e-07
0.0,49,49.0,0.0,30.0,0.0,0.0,0.0,0.0,2.0,2.0,-12.0,0.0,0.0,0.0,0.0001506019963003935,0.00012841401899680243,0.00010348024528334782,8.784038716862325e-05,8.421106371248345e-05,6.99008516921375e-05,6.031244293656326e-05,5.77696503968417e-05,5.236880499296628e-05,4.536613830657137e-05,4.30557005787033e-05,4.090470824842428e-05,3.7028764722302265e-05,3.3171921562111444e-05,3.043193481446476e-05,2.7351047940667105e-05,2.6469349147518748e-05,2.1922573442425426e-05,2.096021811872672e-05,1.68910508333493e-05,1.4530963403682756e-05,1.2921988975096792e-05,9.594405595895227e-06,7.756412891176998e-06,6.587785180031062e-06,5.016603294988498e-06,3.927550197972154e-06,2.9344182840001064e-06,2.3808628651472357e-06,1.7132246354906314e-06,1.252323174429532e-06,9.2678236282252e-07,6.798099229471255e-07,4.637592121520535e-07
0.0,50,50.0,0.0,30.0,0.0,0.0,0.0,0.0,2.0,2.0,-12.0,0.0,0.0,0.0,0.0001520518039489088,0.00012189971929854555,0.00010696969219971031,9.013207522481956e-05,8.178842834130607e-05,6.95347139654053e-05,6.377863303853076e-05,5.8744727987090076e-05,5.174099154415463e-05,4.704244014334517e-05,4.3078494600075234e-05,4.021213331842953e-05,3.766653819154653e-05,3.42595122778541e-05,3.058847096935263e-05,2.673271757930855e-05,2.612285446232784e-05,2.350957292783713e-05,2.0599020992054405e-05,1.7758213687042502e-05,1.3768201393539159e-05,1.1567919161952898e-05,9.158992898669878e-06,7.940860295642653e-06,6.46840199292628e-06,5.172955496407411e-06,3.900362740197923e-06,2.9551654063891652e-06,2.3692455071796575e-06,1.5897079003823313e-06,1.1986271893180517e-06,8.927178719142854e-07,6.602310752795009e-07,4.397582739395118e-07
0.0,51,51.0,0.0,30.0,0.0,0.0,0.0,0.0,2.0,2.0,-12.0,0.0,0.0,0.0,0.0001558267193788803,0.00012146160710000668,0.00010911221910651292,8.628830681825838e-05,7.775340983339916e-05,6.894353495437197e-05,6.800201075752684e-05,5.7591714729556116e-05,4.953288774338596e-05,4.798604707192774e-05,4.59343781129463e-05,4.020209469994666e-05,3.728180719079792e-05,3.2522070367866005e-05,3.022701185005096e-05,2.937342115284999e-05,2.7877679420667433e-05,2.311435915581338e-05,2.0174390497455444e-05,1.787652950087966e-05,1.3562092325759197e-05,1.211383166675954e-05,9.460369393895927e-06,8.079765726918086e-06,6.254222764391361e-06,4.712689569440693e-06,3.7007980172303236e-06,2.8905596683902795e-06,2.2723120392099392e-06,1.7158969798511331e-06,1.218290632979066e-06,8.832871514204583e-07,6.543916583244681e-07,4.5629564173634495e-07
0.0,52,52.0,0.0,30.0,0.0,0.0,0.0,0.0,2.0,2.0,-12.0,0.0,0.0,0.0,0.00014176466721904968,0.0001266607697719613,0.00010207603598805102,8.926218183484162e-05,7.606930219411056e-05,6.632192106628117e-05,6.058634502427831e-05,5.357986985837935e-05,5.295235723411091e-05,4.6910276098824084e-05,4.14753193911699e-05,4.1363378023550224e-05,3.617798234926144e-05,3.3747072819334215e-05,2.9370059182692545e-05,3.0407331443245485e-05,2.6321947876723686e-05,2.2920543361871075e-05,2.0161694147799495e-05,1.7565960400182344e-05,1.3660277973711653e-05,1.1575939130567051e-05,9.583044885267825e-06,7.53306821155243e-06,6.06346796840498e-06,4.910202200453684e-06,3.7550752080144937e-06,2.9991469522215536e-06,2.2171577016206756e-06,1.624073882720495e-06,1.2086964385259742e-06,8.394139906665893e-07,6.296827646232028e-07,4.740208900101785e-07
0.0,53,53.0,0.0,30.0,0.0,0.0,0.0,0.0,2.0,2.0,-12.0,0.0,0.0,0.0,0.00015014757162731072,0.0001264084521517366,0.00010727438687941982,8.994139240530858e-05,8.131550155996906e-05,6.97408398813479e-05,6.201519392360623e-05,5.8210147242857785e-05,5.3502045427888526e-05,4.484616722563453e-05,4.3616819356533126e-05,3.849089859773444e-05,3.825073021726943e-05,3.4377818241972204e-05,3.05196884941355e-05,2.9003089693049642e-05,2.6376226188290214e-05,2.3913700749191766e-05,1.9562412461499478e-05,1.728572730656079e-05,1.3507883122025723e-05,1.1308638552138163e-05,9.853848194792275e-06,7.874806053588447e-06,6.374869967379469e-06,4.431777856668574e-06,3.593814739705504e-06,2.8032412027025743e-06,2.063449099134298e-06,1.497316112474471e-06,1.1471329775103552e-06,8.286494231269864e-07,5.905192617961026e-07,4.355668818708777e-07
0.0,54,54.0,0.0,30.0,0.0,0.0,0.0,0.0,2.0,2.0,-12.0,0.0,0.0,0.0,0.00015259828263945144,0.00012639340097371062,0.00010801903770489212,9.364447002586544e-05,7.93472087098575e-05,7.216708295384995e-05,6.441471918313215e-05,5.8866966585519295e-05,5.262721133436935e-05,4.702066097920736e-05,4.320618650526269e-05,3.994872040943487e-05,3.8335391760758645e-05,3.297301009313115e-05,3.041874577785871e-05,2.7681933657142398e-05,2.708785519502706e-05,2.2368678378400586e-05,2.1094811969945858e-05,1.6346696325202433e-05,1.3949420969809875e-05,1.1683567267563562e-05,9.438697106046685e-06,7.3272793819085815e-06,6.062760419518186e-06,4.5406465625061356e-06,3.828284491236916e-06,2.8508139475125974e-06,2.0607635879890846e-06,1.4089857860298205e-06,1.120209752314128e-06,8.081282405583668e-07,5.53676968532046e-07,3.935968809342077e-07
0.0,55,55.0,0.0,30.0,0.0,0.0,0.0,0.0,2.0,2.0,-12.0,0.0,0.0,0.0,0.00014694406219397968,0.00012555127925252012,0.00011071994734604461,9.085523333154622e-05,8.085378218810277e-05,7.52450808268478e-05,6.40769096003673e-05,5.858912861088364e-05,5.047897629180177e-05,4.692724024391614e-05,4.2656827976147957e-05,3.885580823747006e-05,3.639330442172725e-05,3.1953956842810595e-05,3.216369559045919e-05,2.9175216868440833e-05,2.683433847418511e-05,2.2735182572128583e-05,2.0583845856403853e-05,1.7181686085773748e-05,1.3436061357738971e-05,1.2062099281750556e-05,9.290796931365097e-06,7.904078673268085e-06,6.03198406916978e-06,4.4642278463572725e-06,3.592023282450856e-06,2.7847696314641614e-06,2.068460266197206e-06,1.487628906734481e-06,1.1020091891663774e-06,7.824434158864545e-07,5.877010934456185e-07,3.8593062001514e-07
0.0,56,56.0,0.0,30.0,0.0,0.0,0.0,0.0,2.0,2.0,-12.0,0.0,0.0,0.0,0.00015544188216065917,0.0001290331063044334,0.00010944970862779383,9.106856275297088e-05,7.788505886434591e-05,6.81928086855548e-05,6.145367489966244e-05,5.814638669062911e-05,5.176030380852626e-05,5.099380842474152e-05,4.3943421559262313e-05,3.91703943626157e-05,3.4729771876481845e-05,3.285341004498609e-05,3.069122049264593e-05,2.765534917575314e-05,2.7358781402610604e-05,2.2335537202142608e-05,1.9470351896771408e-05,1.638696647564608e-05,1.2968693508481575e-05,1.161985560929258e-05,9.244780346246673e-06,7.069688884557338e-06,5.828319802349207e-06,4.5304393980183466e-06,3.460826970563462e-06,2.6124220133041508e-06,2.0349109407229186e-06,1.3723531041314272e-06,1.0250746519390034e-06,7.726332907069437e-07,5.609743503031352e-07,3.8712484157068546e-07
0.0,57,57.0,0.0,30.0,0.0,0.0,0.0,0.0,2.0,2.0,-12.0,0.0,0.0,0.0,0.00015832087690433825,0.0001280022055731214,0.00011253267665347697,9.313446363735936e-05,8.588854198451086e-05,7.400208444268208e-05,6.286765871002238e-05,5.999499661350547e-05,4.889296098695521e-05,4.531877273305294e-05,4.296350818006604e-05,3.88090264470809e-05,3.5741172943796954e-05,3.308746379713494e-05,3.2592309625212184e-05,2.7581937967546276e-05,2.5422233965148028e-05,2.331259684267571e-05,1.9956216421640198e-05,1.6554623464068568e-05,1.379864718661377e-05,1.0694332590976716e-05,9.914343960322867e-06,7.4744538012475875e-06,5.701636874028709e-06,4.427521054216883e-06,3.3315563121831276e-06,2.608483884416518e-06,1.9192250291855166e-06,1.3581968221033633e-06,9.695684201544435e-07,7.506952557069489e-07,5.50471010073852e-07,3.693790488085985e-07
0.0,58,58.0,0.0,30.0,0.0,0.0,0.0,0.0,2.0,2.0,-12.0,0.0,0.0,0.0,0.000145219856021175,0.00012783232045173265,0.00011185200323078201,9.122202181846331e-05,7.953436449517572e-05,7.369921304223765e-05,6.545355645682474e-05,5.836121662301867e-05,5.293420878092327e-05,5.015403230719178e-05,4.278166121845925e-05,4.013225493248706e-05,3.629251820248119e-05,3.395935443919193e-05,2.9973762378313324e-05,2.9184825413433767e-05,2.733247968268015e-05,2.1924313765772623e-05,1.9857920160529708e-05,1.7017398071574167e-05,1.3525224319057626e-05,1.0874244580964945e-05,9.046662573444994e-06,7.155486940588477e-06,5.5925058604666575e-06,4.277821861190638e-06,3.273559902170485e-06,2.48872381627376e-06,1.8109404275938219e-06,1.3894252453117356e-06,9.873623576083924e-07,7.107480542471252e-07,5.235273928580606e-07,3.4662216641143263e-07
0.0,59,59.0,0.0,30.0,0.0,0.0,0.0,0.0,2.0,2.0,-12.0,0.0,0.0,0.0,0.00015151587722420963,0.00013383208018320146,0.00010643122173143639,9.124211315709415e-05,8.909268916976789e-05,7.026420482841747e-05,6.35868723148571e-05,5.8744656319392644e-05,5.1270886409890064e-05,4.493872647327036e-05,4.162886360968251e-05,3.944774790465346e-05,3.670761038609378e-05,3.3717479274879735e-05,2.9846366000133014e-05,2.9359299137843285e-05,2.6434514917865648e-05,2.2615690713249237e-05,1.9754487452900917e-05,1.6174890047722398e-05,1.3842603184902056e-05,1.0892019854713543e-05,8.78890289462349e-06,6.826682012466893e-06,5.518323192132784e-06,4.236032448856077e-06,3.1510908323332956e-06,2.3793614222305527e-06,1.7876095785168191e-06,1.3702738769531523e-06,9.959812467896166e-07,7.183435764348832e-07,5.420768945129649e-07,3.486581084502044e-07
0.0,60,60.0,0.0,30.0,0.0,0.0,0.0,0.0,2.0,2.0,-12.0,0.0,0.0,0.0,0.00015770743459041055,0.0001367105805783481,0.00011190653384254537,9.516712352449625e-05,8.807257390964268e-05,7.566541037702215e-05,6.788322876889104e-05,6.337346062187547e-05,4.812597771908529e-05,4.7435462847728686e-05,4.4441640120319744e-05,3.640175108640387e-05,3.4622608471880684e-05,3.343980480093617e-05,3.0594361061507406e-05,2.84215099376133e-05,2.5454643256441095e-05,2.248660068685341e-05,1.9842520167510486e-05,1.608892557461788e-05,1.3456112529007579e-05,1.0593487922788566e-05,8.845595616209586e-06,7.121819108796025e-06,5.709230409932507e-06,4.000037223857991e-06,3.272879240587787e-06,2.342417906013521e-06,1.9156596641155077e-06,1.292697822699512e-06,9.249154615341762e-07,6.918177881376459e-07,5.001821111488829e-07,3.191831704500005e-07
0.0,61,61.0,0.0,30.0,0.0,0.0,0.0,0.0,2.0,2.0,-12.0,0.0,0.0,0.0,0.0001648491734274374,0.00013411672414910465,0.0001104169621990163,9.357927601105511e-05,8.413481321046581e-05,7.523158119761613e-05,6.347961686500251e-05,5.7462976642783925e-05,5.466282227992734e-05,4.91511019376048e-05,4.168457245066954e-05,3.995530765324064e-05,3.6891593298576354e-05,3.001225257188962e-05,3.088250926627007e-05,2.710142076248904e-05,2.5666024765207932e-05,2.2629950573922066e-05,1.831502235768523e-05,1.6067265370946087e-05,1.307366692629386e-05,1.0496216458939944e-05,8.317197305677493e-06,6.793639172437763e-06,5.21462894471719e-06,3.913152807583941e-06,3.233892314342543e-06,2.255922187439877e-06,1.7921475554730806e-06,1.2154585486529403e-06,8.970922193717372e-07,6.882772473838882e-07,4.603068960665494e-07,3.362694670544652e-07
0.0,62,62.0,0.0,30.0,0.0,0.0,0.0,0.0,2.0,2.0,-12.0,0.0,0.0,0.0,0.0001652980469336455,0.00012902478079127613,0.00010197961267330547,9.436667544815056e-05,8.473163106688222e-05,7.427828626517448e-05,6.817161991813018e-05,5.9092947287123664e-05,5.3949394920149095e-05,4.938910185603384e-05,4.3217218747169714e-05,3.9289536156991454e-05,3.510449985709187e-05,3.187086828446199e-05,2.6728681638958608e-05,2.6655912168017e-05,2.4374490426202166e-05,2.1435755721252027e-05,1.9519570601890492e-05,1.588592584635699e-05,1.2711986132396338e-05,1.0381315505675899e-05,8.330034926202962e-06,6.653234731181783e-06,5.398969149553404e-06,4.1132043943251475e-06,3.0662120267956657e-06,2.3983073051055493e-06,1.5910928906568734e-06,1.2691004183593443e-06,9.008112541532338e-07,6.31153765945152e-07,4.464505553292936e-07,2.995881955723219e-07
0.0,63,63.0,0.0,30.0,0.0,0.0,0.0,0.0,2.0,2.0,-12.0,0.0,0.0,0.0,0.0001602378662228261,0.00012780661276413344,0.00010795762708409152,9.713086992574087e-05,8.370535521986796e-05,7.218659901668488e-05,6.582006744406767e-05,5.951442471472685e-05,5.1262795647451215e-05,4.836680887055245e-05,4.4330012630143944e-05,4.064398279808743e-05,3.5207977722417e-05,3.206705599883619e-05,2.9934876658594904e-05,2.669960499244299e-05,2.407100785384394e-05,2.178210546411883e-05,1.770712651823688e-05,1.5110998480574103e-05,1.2292965656804468e-05,1.0820394635099777e-05,7.860310253789074e-06,6.448673291182987e-06,4.700584764059466e-06,3.831424388827489e-06,2.9717552702876835e-06,2.1999096443618395e-06,1.620351242772677e-06,1.182245792914473e-06,8.55011081582227e-07,6.107482284551689e-07,4.4881301855810206e-07,3.048970658755654e-07
0.0,64,64.0,0.0,30.0,0.0,0.0,0.0,0.0,2.0,2.0,-12.0,0.0,0.0,0.0,0.00015445202887707038,0.0001248170302103496,0.00011355663622100167,9.559568670759309e-05,8.216512214637094e-05,7.157959179663295e-05,7.111907121325146e-05,5.7112027405777766e-05,5.221547458378488e-05,4.774626312866018e-05,4.46053961094414e-05,3.871355186953028e-05,3.475780632455382e-05,2.9574141725941897e-05,2.800708965721281e-05,2.6803132705351608e-05,2.5135197906010294e-05,2.3009065052315805e-05,1.8963743796870233e-05,1.5452282325024403e-05,1.2079403622146418e-05,9.979422451026313e-06,7.854200714480346e-06,6.087123093474884e-06,4.889481580678812e-06,3.718868524372109e-06,2.9315181460653606e-06,2.156023680367166e-06,1.5529251414704042e-06,1.1455987497714178e-06,8.2360838395041e-07,5.902069431716672e-07,4.318191238246217e-07,2.946876480881143e-07
0.0,65,65.0,0.0,30.0,0.0,0.0,0.0,0.0,2.0,2.0,-12.0,0.0,0.0,0.0,0.00016175174307801797,0.00013033042247900304,0.00011501553964413589,9.33791387785853e-05,8.014016024938484e-05,7.66166882545306e-05,6.716062472501533e-05,5.8481547932352056e-05,5.197910685495065e-05,4.5273206684262084e-05,4.1575512992953375e-05,3.884433458372103e-05,3.537239752273578e-05,3.180958253927314e-05,2.8124001236426845e-05,2.6421827139168e-05,2.4063647635511405e-05,1.9384273938902957e-05,1.805178830606548e-05,1.4935114313344533e-05,1.1740492907493673e-05,9.934863815455113e-06,7.98244639266669e-06,5.8809301726916935e-06,4.6471215216848155e-06,3.5538968533234322e-06,2.6613249507052256e-06,2.143146439309171e-06,1.5427040790286277e-06,1.0990454861219474e-06,7.79538925260677e-07,5.242233723054944e-07,4.0783122153694017e-07,2.691414848130427e-07
0.0,66,66.0,0.0,30.0,0.0,0.0,0.0,0.0,2.0,2.0,-12.0,0.0,0.0,0.0,0.00016294943746152443,0.00012802464426449453,0.00011161971732358492,9.921076889178959e-05,8.933798645026655e-05,7.539256013418869e-05,6.821131161797582e-05,5.5519457318055476e-05,5.21681843626422e-05,4.8133767898930506e-05,4.05196205475986e-05,3.8751985618423156e-05,3.4957151388396974e-05,3.075035093890885e-05,2.643413063952648e-05,2.6150097773168917e-05,2.3757367840266686e-05,2.077183995034079e-05,1.748501273179267e-05,1.4211413544606918e-05,1.2127632924441135e-05,9.424513137020508e-06,7.430207657372413e-06,6.073317140492137e-06,4.64281449079073e-06,3.244438511897935e-06,2.55206776957121e-06,2.07213486994883e-06,1.4942412088872666e-06,1.0545711945211215e-06,7.667648846941018e-07,5.420670315600545e-07,3.8171100304724044e-07,2.501544945835366e-07
0.0,67,67.0,0.0,30.0,0.0,0.0,0.0,0.0,2.0,2.0,-12.0,0.0,0.0,0.0,0.00016118637748122435,0.00013461169064052936,0.00011509032167567015,9.574882019798949e-05,8.404089319236301e-05,7.48609495413892e-05,6.58897622958498e-05,5.766531708147471e-05,4.87280573797809e-05,4.683089570700545e-05,4.0421549566278124e-05,3.696294343497257e-05,3.514663798394091e-05,3.061078100071867e-05,2.7966347482741355e-05,2.4368822021972227e-05,2.3519490650566765e-05,2.1126186613991537e-05,1.7038656416396186e-05,1.3540720438281515e-05,1.1574382834212886e-05,9.521171910534233e-06,7.00493093875358e-06,5.809749882137708e-06,4.571600356083267e-06,3.3794148526865192e-06,2.577181120629097e-06,1.8179897048197546e-06,1.3555508212975034e-06,9.987106339520858e-07,7.470435489146997e-07,5.228049259826282e-07,3.564506875106012e-07,2.3823911463620344e-07
0.0,68,68.0,0.0,30.0,0.0,0.0,0.0,0.0,2.0,2.0,-12.0,0.0,0.0,0.0,0.00017390109274854174,0.00014064807989774966,0.00011207813670600639,9.566534586903431e-05,8.413626468865424e-05,7.78890349720336e-05,6.67187102910943e-05,5.8497367941974116e-05,4.9757830871927586e-05,4.675514424341199e-05,4.42828326120667e-05,3.680352319283072e-05,3.350209978616929e-05,3.0076122524054827e-05,2.7389287126608213e-05,2.727812533054807e-05,2.219924558310485e-05,1.9053810221879035e-05,1.6892679004064157e-05,1.4229089030513898e-05,1.1118664646080725e-05,9.582448321970716e-06,6.875760952399674e-06,5.367202874244422e-06,4.492247106201832e-06,3.3667676640636928e-06,2.441552173469465e-06,1.7697315127925583e-06,1.3433680074379247e-06,9.488267716354909e-07,6.857565470073447e-07,4.89384275814232e-07,3.5024958221806415e-07,2.2129527955268786e-07
0.0,69,69.0,0.0,30.0,0.0,0.0,0.0,0.0,2.0,2.0,-12.0,0.0,0.0,0.0,0.00018144129213340158,0.00013799525874532003,0.00011518105640857645,9.780186598306684e-05,8.462470754632477e-05,7.605012226101009e-05,6.69170376909299e-05,5.635784599345515e-05,5.30894063630314e-05,4.428189023406991e-05,4.031270999622703e-05,3.699374299887937e-05,3.336432504190388e-05,3.0234906627438284e-05,2.6548283053472595e-05,2.44923456122115e-05,2.2597371404007403e-05,2.0709005783383024e-05,1.7297191440145824e-05,1.4225074820118629e-05,1.0170071597160156e-05,8.892996288488326e-06,6.677890707314091e-06,5.112901963810821e-06,4.045962203203945e-06,2.925469291456563e-06,2.348773446227392e-06,1.757571079935113e-06,1.2431403404237335e-06,9.199125844777455e-07,6.723779647934167e-07,4.646782371583385e-07,3.2837354986074845e-07,2.0837561915785622e-07
0.0,70,70.0,0.0,30.0,0.0,0.0,0.0,0.0,2.0,2.0,-12.0,0.0,0.0,0.0,0.00016160885838513493,0.00013603664419046345,0.00011837488333518015,9.582848736753675e-05,8.272445060268055e-05,7.305749117793562e-05,6.343189794813665e-05,5.4237669024924845e-05,5.090865032146484e-05,4.477223549127438e-05,3.9267536628862395e-05,3.7445899684500915e-05,3.2379348136202764e-05,2.9166350615745704e-05,2.5775129702486994e-05,2.4856750470660016e-05,2.3048392733610176e-05,1.9329984645102762e-05,1.6569606643040635e-05,1.3321520453174244e-05,1.0046637117920884e-05,8.025271072819792e-06,6.739813582399727e-06,5.198859716903363e-06,4.055147605897367e-06,3.1156856521457482e-06,2.2761429153245462e-06,1.5678525345049702e-06,1.1783037488978656e-06,8.685234938923397e-07,5.985075827883057e-07,4.259949740835399e-07,3.102865021743612e-07,2.137353539496278e-07
