Line_number,Fiducial,Easting,Northing,Height,Elevation,tx_pitch,tx_roll,tx_yaw,txrx_dx,txrx_dy,txrx_dz,rx_pitch,rx_roll,rx_yaw,S0Z_time_5.811e-05,S0Z_time_8.588e-05,S0Z_time_1.137e-04,S0Z_time_1.414e-04,S0Z_time_1.692e-04,S0Z_time_1.970e-04,S0Z_time_2.248e-04,S0Z_time_2.525e-04,S0Z_time_2.803e-04,S0Z_time_3.081e-04,S0Z_time_3.359e-04,S0Z_time_3.637e-04,S0Z_time_3.914e-04,S0Z_time_4.192e-04,S0Z_time_4.470e-04,S0Z_time_4.748e-04,S0Z_time_5.026e-04,S0Z_time_5.442e-04,S0Z_time_5.998e-04,S0Z_time_6.692e-04,S0Z_time_7.526e-04,S0Z_time_8.359e-04,S0Z_time_9.331e-04,S0Z_time_1.044e-03,S0Z_time_1.169e-03,S0Z_time_1.308e-03,S0Z_time_1.461e-03,S0Z_time_1.628e-03,S0Z_time_1.822e-03,S0Z_time_2.044e-03,S0Z_time_2.280e-03,S0Z_time_2.544e-03,S0Z_time_2.850e-03,S0Z_time_3.197e-03
0.0,0,0.0,0.0,30.0,0.0,0.0,0.0,0.0,2.0,2.0,-12.0,0.0,0.0,0.0,7.32666801516077e-06,4.106941199933393e-06,2.7904908810095783e-06,1.929796000358511e-06,1.5268901791873332e-06,1.1676684280149235e-06,9.850497430486292e-07,8.135057804484894e-07,6.696485730085983e-07,5.749562615432362e-07,5.066673110273984e-07,4.278155106109281e-07,3.928472704728736e-07,3.612087621475379e-07,3.2131417337473564e-07,2.7693913834919546e-07,2.54951097550055e-07,2.21754838554085e-07,1.891735363668158e-07,1.5654075266654804e-07,1.2595342660632027e-07,9.530028056361903e-08,8.165783190562812e-08,6.411706784296717e-08,4.879134650152492e-08,3.8906460763527336e-08,3.036930023962421e-08,2.489507824167541e-08,1.7688764600764257e-08,1.4730288768446332e-08,9.556292456526876e-09,8.117525980898836e-09,3.751069490902797e-09,4.801815193084577e-09
0.0,1,1.0,0.0,30.0,0.0,0.0,0.0,0.0,2.0,2.0,-12.0,0.0,0.0,0.0,7.146902199969481e-06,3.7463179857488537e-06,2.4774869337105797e-06,1.8156008192585584e-06,1.4064575636709292e-06,1.1189035151164718e-06,9.080937918532033e-07,7.614603313402911e-07,6.396957777832757e-07,5.852884355014342e-07,4.874737390284502e-07,4.364442042510494e-07,3.8203518452401423e-07,3.3939304348666775e-07,3.070940894374379e-07,2.7452206028530225e-07,2.4393542670465484e-07,2.2429804067879312e-07,1.783094326438295e-07,1.4307554799616303e-07,1.2585448329856738e-07,9.935090419739269e-08,7.291042975951903e-08,5.675306501562179e-08,4.6858108017546264e-08,3.709045112651207e-08,2.9169960899214742e-08,2.1027109619205783e-08,1.5835195413275285e-08,1.3038639938554129e-08,9.357548356079082e-09,5.7834102465019165e-09,7.519150092628817e-09,5.000839589430364e-09
0.0,2,2.0,0.0,30.0,0.0,0.0,0.0,0.0,2.0,2.0,-12.0,0.0,0.0,0.0,6.99202193098644e-06,3.891023175013299e-06,2.4607850125682016e-06,1.743946853532987e-06,1.3075663850353172e-06,1.102062802238142e-06,8.760923431163881e-07,7.389876650418276e-07,6.110821355883365e-07,5.578303270084323e-07,4.711877287639578e-07,4.387836290153189e-07,3.711675378640251e-07,3.271336276733332e-07,2.9284556931779935e-07,2.6493577854739936e-07,2.45569069377506e-07,1.9913238403907763e-07,1.7387187199863506e-07,1.394652541851933e-07,1.0872316264797707e-07,8.893638880690648e-08,7.290583452931547e-08,5.8598650037205117e-08,4.388225488734792e-08,3.3742474377600536e-08,2.5304393452352866e-08,2.1609065812857854e-08,1.639569434773791e-08,1.1513515379741304e-08,8.992335863392442e-09,9.264569159459081e-09,6.23643980656717e-09,3.743907410966826e-09
0.0,3,3.0,0.0,30.0,0.0,0.0,0.0,0.0,2.0,2.0,-12.0,0.0,0.0,0.0,6.773834718226112e-06,3.8043838605532077e-06,2.4339515573676714e-06,1.8074296351234708e-06,1.3128940113980944e-06,1.0125490687612731e-06,7.955180787676844e-07,6.68675946339786e-07,6.08071682340212e-07,5.163895770995137e-07,4.3060479036475707e-07,3.9924677214754543e-07,3.411696470533626e-07,3.035786824266248e-07,2.541699634959299e-07,2.5273998666821146e-07,2.2473078537491363e-07,1.8934687895526506e-07,1.661882557868865e-07,1.3452603639191412e-07,1.0694928469067228e-07,8.433747611489232e-08,7.363505219356617e-08,5.52262118383784e-08,4.512779081419768e-08,3.4286433044870746e-08,2.6325130962955412e-08,2.031963526727638e-08,1.6666582314473018e-08,1.1975754160219136e-08,9.667454330480456e-09,6.7459511200767014e-09,6.365206662721439e-09,4.321855345869367e-09
0.0,4,4.0,0.0,30.0,0.0,0.0,0.0,0.0,2.0,2.0,-12.0,0.0,0.0,0.0,6.8507354443499895e-06,3.7184016191283546e-06,2.4017607162518918e-06,1.6544555132000415e-06,1.2686230069675569e-06,1.0252561077601416e-06,7.780051372074962e-07,6.405864435191217e-07,5.627106588924516e-07,4.891096783183515e-07,4.181051458179955e-07,3.682440292762626e-07,3.177926997003861e-07,2.8923938201854674e-07,2.67661813854736e-07,2.4028213956346713e-07,2.1993964411461976e-07,1.8156461150739324e-07,1.6635274271713332e-07,1.3473003338620568e-07,1.0172882479207208e-07,8.361867698576137e-08,6.808428654231546e-08,5.639962765325108e-08,4.1926942749139546e-08,3.259849702194065e-08,2.614681361471122e-08,1.9154157558495298e-08,1.5956860146423787e-08,1.187992341306979e-08,7.930461055392228e-09,6.973649210939053e-09,4.129596962769767e-09,3.817590974890217e-09
0.0,5,5.0,0.0,30.0,0.0,0.0,0.0,0.0,2.0,2.0,-12.0,0.0,0.0,0.0,6.877565304900979e-06,3.722236927658617e-06,2.3412690738776653e-06,1.6015649480087367e-06,1.1997751722772672e-06,9.235114475697537e-07,8.012995372844173e-07,6.246482052360245e-07,5.293976037181363e-07,4.5928925418913565e-07,4.1771963309142503e-07,3.619581466915982e-07,3.2155084000746347e-07,2.943085956936371e-07,2.507976645463979e-07,2.2344042447077622e-07,2.1586057750527043e-07,1.743200825573574e-07,1.4873480302215099e-07,1.238207090066875e-07,9.75311699325753e-08,8.38205611301177e-08,6.406938495453885e-08,5.175694963304097e-08,4.056855094453235e-08,3.172465437708763e-08,2.657771961968625e-08,1.9796186330305703e-08,1.4602917598050516e-08,1.0522097615171648e-08,9.26791989486333e-09,6.677202797393276e-09,4.595217758580074e-09,2.35465127020546e-09
0.0,6,6.0,0.0,30.0,0.0,0.0,0.0,0.0,2.0,2.0,-12.0,0.0,0.0,0.0,6.901624559499485e-06,3.432384140522467e-06,2.2768195089213406e-06,1.6412391075416021e-06,1.1550287635379491e-06,9.08246044797022e-07,7.49506798700727e-07,6.170020521685173e-07,5.416081790596681e-07,4.29017875496288e-07,4.0095083528754716e-07,3.562775310023343e-07,3.116692149611924e-07,2.6520712130534073e-07,2.359320497380141e-07,2.136262492686411e-07,2.0612198941295168e-07,1.6520679273942436e-07,1.4818701892830495e-07,1.1975934561809658e-07,9.72711156002363e-08,7.636557298581306e-08,6.327369009115688e-08,4.82437823445429e-08,3.576486521713956e-08,3.019343992333208e-08,2.3891020884524328e-08,1.8713662235737488e-08,1.6551058429686383e-08,1.2240025482572129e-08,9.857208667302158e-09,4.79759398116819e-09,5.426638145982782e-09,4.457898080873172e-09
0.0,7,7.0,0.0,30.0,0.0,0.0,0.0,0.0,2.0,2.0,-12.0,0.0,0.0,0.0,6.886503149504066e-06,3.737448623938096e-06,2.1085322528730423e-06,1.5280907908678431e-06,1.1568172893717175e-06,8.858670667826638e-07,6.770479845965286e-07,5.940950677538665e-07,5.189765470843817e-07,4.227971772472682e-07,3.929456328060919e-07,3.238923177088911e-07,2.9504530241662463e-07,2.6930383054669887e-07,2.381045430173355e-07,2.1032492573232903e-07,1.9189972147999455e-07,1.6557755156587914e-07,1.3827697987851557e-07,1.1494327087646946e-07,9.50488521476455e-08,7.384674870613403e-08,6.113875049773295e-08,4.800470815194376e-08,3.9057181977450476e-08,3.01947115851582e-08,2.453532980349058e-08,1.7384368783670866e-08,1.2789130486654688e-08,1.229347220860299e-08,7.87374431170755e-09,5.949967376215901e-09,5.053657112350988e-09,3.463022840741989e-09
0.0,8,8.0,0.0,30.0,0.0,0.0,0.0,0.0,2.0,2.0,-12.0,0.0,0.0,0.0,6.838965759925957e-06,3.296564226783893e-06,2.2547327760864538e-06,1.4215362627669592e-06,1.1092347540803442e-06,8.787999903153404e-07,6.590257873504498e-07,5.859165714939626e-07,4.94181427150625e-07,4.2583432110474007e-07,3.485064439790156e-07,3.169083963963325e-07,2.798588142328878e-07,2.4483893011381444e-07,2.277239209658092e-07,1.9656966144944355e-07,1.7856679812540163e-07,1.6183817421797704e-07,1.2930552275368245e-07,1.1257543036746438e-07,9.370433896915622e-08,7.004548761215988e-08,5.644550449846675e-08,4.767156534107692e-08,3.546276485032304e-08,2.880304978147058e-08,2.3517185677741102e-08,1.9151050649912366e-08,1.3831078493738104e-08,1.2331828360561017e-08,7.162582238869641e-09,5.756991695723828e-09,7.352375993715155e-09,3.733947200617343e-09
0.0,9,9.0,0.0,30.0,0.0,0.0,0.0,0.0,2.0,2.0,-12.0,0.0,0.0,0.0,6.6097992105344694e-06,3.3609913464829073e-06,2.211188365156735e-06,1.5083333662694415e-06,1.0782060332871398e-06,8.388324749698206e-07,6.827595990328039e-07,5.64774713310739e-07,4.82702305323721e-07,4.046007790575318e-07,3.6226988940576673e-07,3.0355839055972597e-07,2.618891553542212e-07,2.3562875448263427e-07,2.1488326143775436e-07,1.906776174362217e-07,1.755741181312611e-07,1.491119554993334e-07,1.2791980436678647e-07,1.0690666712382913e-07,8.485365309010342e-08,6.950416129717067e-08,5.250066399076824e-08,4.3580623204197846e-08,3.7146865675282063e-08,2.835225880943185e-08,2.090233656889524e-08,1.8418359650370947e-08,1.264490270779836e-08,9.572959329417366e-09,8.641283549767357e-09,5.714222814665055e-09,3.850352776787918e-09,2.5408163638999666e-09
0.0,10,10.0,0.0,30.0,0.0,0.0,0.0,0.0,2.0,2.0,-12.0,0.0,0.0,0.0,6.435178088100229e-06,3.3499849286101048e-06,2.0479346093981732e-06,1.3809870222631487e-06,1.0637409829507084e-06,8.023862242163343e-07,6.280446519172753e-07,5.123093565381852e-07,4.1784900954600046e-07,3.894995764812004e-07,3.283247902661439e-07,2.8244973420248283e-07,2.623143205399183e-07,2.1829518884286134e-07,2.0864616230029968e-07,1.7685770069429888e-07,1.6574241205791605e-07,1.4127033174704788e-07,1.2879653434463538e-07,1.0080680763915183e-07,8.407132831233609e-08,6.560791348375176e-08,5.590619788010446e-08,4.375074962132202e-08,3.460594970671927e-08,2.5744503887636266e-08,2.2101299059993587e-08,1.6246931349554448e-08,1.2523927874840515e-08,1.1192036719336161e-08,5.737007878501572e-09,6.6727899034581e-09,3.90955499152341e-09,4.337862631474247e-09
0.0,11,11.0,0.0,30.0,0.0,0.0,0.0,0.0,2.0,2.0,-12.0,0.0,0.0,0.0,6.576150991940002e-06,3.44823290957654e-06,2.0005851903827507e-06,1.3743837713413052e-06,9.874014205390773e-07,7.910246271215224e-07,5.958870471364302e-07,5.243446505750461e-07,4.325966377721178e-07,3.604811944947402e-07,3.122154672083223e-07,2.799927053030574e-07,2.5193230935986715e-07,2.2486578584125267e-07,1.9220018610785165e-07,1.6587495959721914e-07,1.6125111761330955e-07,1.3786699593633212e-07,1.2556187774573424e-07,9.649404798711763e-08,8.165846111212574e-08,6.298174736167241e-08,5.3928038025395944e-08,3.961985678523979e-08,3.197084510382103e-08,2.4518932315700887e-08,2.019852531636692e-08,1.3785486940411549e-08,1.0600041906875711e-08,8.623691516924621e-09,7.565079339926814e-09,5.436354344020236e-09,3.242310541090918e-09,4.808334664624992e-09
0.0,12,12.0,0.0,30.0,0.0,0.0,0.0,0.0,2.0,2.0,-12.0,0.0,0.0,0.0,6.4542008801051394e-06,3.3860111148085096e-06,1.958414393475404e-06,1.2788295710821497e-06,9.489616214144717e-07,6.993050860356751e-07,5.987465984790497e-07,4.857986360988162e-07,4.1708157624101346e-07,3.5239843168480213e-07,3.090447413206649e-07,2.720545085631863e-07,2.4603127753330413e-07,2.156815406650164e-07,1.7729426910073154e-07,1.7108949524872524e-07,1.563189697518998e-07,1.3486526633010737e-07,1.131079731970001e-07,9.779375296752893e-08,7.312589404554099e-08,5.961040940616342e-08,4.964061095710583e-08,3.897928212377377e-08,3.1065304673178414e-08,2.7160589500408115e-08,1.9343560458679723e-08,1.5165722222901355e-08,1.1407944062674427e-08,1.0326849249427643e-08,7.946808739104176e-09,5.887794960438118e-09,4.7635272807076645e-09,2.0951515672006466e-09
0.0,13,13.0,0.0,30.0,0.0,0.0,0.0,0.0,2.0,2.0,-12.0,0.0,0.0,0.0,6.456133340624368e-06,3.1796064188847647e-06,1.8517622136036959e-06,1.3379356018636977e-06,9.256472305047928e-07,7.066795642970863e-07,5.815061883672864e-07,4.858056288319558e-07,4.011342612545807e-07,3.331577669980554e-07,3.0460398123150284e-07,2.5389759053788637e-07,2.2892193029278435e-07,2.0370250332771888e-07,1.774015444358501e-07,1.7395168753374402e-07,1.526547619651718e-07,1.3774533907844119e-07,1.0589243869697548e-07,9.115575159581562e-08,7.587169696300289e-08,5.845258301284311e-08,4.751155602122725e-08,3.6589030455136406e-08,2.8746777205991737e-08,2.4115223947928054e-08,1.9643202930427107e-08,1.5944652334744826e-08,1.1469984817731963e-08,7.733506107863453e-09,7.1318774283514265e-09,5.8375224870410675e-09,5.07506768621835e-09,2.62690596175644e-09
0.0,14,14.0,0.0,30.0,0.0,0.0,0.0,0.0,2.0,2.0,-12.0,0.0,0.0,0.0,6.347185256013963e-06,3.1344115347846004e-06,1.8092748457769335e-06,1.2844369964420429e-06,9.407250558353381e-07,7.558172295056968e-07,5.548393421193433e-07,4.825902303152718e-07,3.8529194106238687e-07,3.3180395135458136e-07,2.992742307324626e-07,2.4718553536788407e-07,2.1623283513525616e-07,1.8963780479317825e-07,1.7544051167858842e-07,1.5397262776048537e-07,1.4442612219834337e-07,1.2440958472063307e-07,1.1150502497281122e-07,9.22813923246314e-08,7.424379073569684e-08,5.712824432291877e-08,4.9334449962388635e-08,3.605353132954004e-08,2.7632940926289136e-08,2.1999102109281137e-08,1.9828561190704383e-08,1.668298267160558e-08,1.2481909895372479e-08,9.355640294916807e-09,6.80025036063908e-09,4.540567719745133e-09,3.5656567298156905e-09,2.494788863808538e-09
0.0,15,15.0,0.0,30.0,0.0,0.0,0.0,0.0,2.0,2.0,-12.0,0.0,0.0,0.0,6.282408498976061e-06,3.02553340504657e-06,1.8480579518279095e-06,1.310442098903944e-06,8.88177068068137e-07,6.884569227256372e-07,5.513608868177882e-07,4.528544810558779e-07,3.7163215229147804e-07,3.1509395851204074e-07,2.8154641707347376e-07,2.3736493120286116e-07,2.1744605939055948e-07,1.9151909815311028e-07,1.711762158976618e-07,1.4771089328013966e-07,1.3385368867605208e-07,1.1715036451369663e-07,1.0201926316456988e-07,8.579956632865458e-08,7.037404871866097e-08,5.534326054563736e-08,4.5599004061224466e-08,3.5509243179669755e-08,2.777876212204518e-08,2.0880380670064287e-08,1.764677451327854e-08,1.534840746806322e-08,1.1774915180951398e-08,9.077515119743198e-09,7.271325615408098e-09,5.097585000230274e-09,4.976545781764439e-09,3.530384565183894e-09
0.0,16,16.0,0.0,30.0,0.0,0.0,0.0,0.0,2.0,2.0,-12.0,0.0,0.0,0.0,6.174807984501371e-06,2.973522511447557e-06,1.7793132911352776e-06,1.1690267734317206e-06,9.012938812322423e-07,6.807330136754373e-07,5.377244933929691e-07,4.2626752263586353e-07,3.5736103092661804e-07,3.1515680747006415e-07,2.659998661404488e-07,2.375509916694118e-07,2.0815729835225985e-07,1.8384615813537832e-07,1.5769280394787037e-07,1.4775535246660908e-07,1.3399750661452011e-07,1.218839586045251e-07,9.846667481945876e-08,8.352685635813929e-08,6.469274873349225e-08,4.9849061410242145e-08,4.319425094344631e-08,3.61226952207196e-08,2.6443919407789155e-08,2.207380884659623e-08,1.7767896553706143e-08,1.4939586252530843e-08,1.1095549488104285e-08,6.8093546344695695e-09,5.172562647111336e-09,5.6780330320061294e-09,3.1304430633934268e-09,2.777559112170701e-09
0.0,17,17.0,0.0,30.0,0.0,0.0,0.0,0.0,2.0,2.0,-12.0,0.0,0.0,0.0,6.1054605996069535e-06,3.1343314497317355e-06,1.8437325489821168e-06,1.2331006507342587e-06,8.120401023270191e-07,6.437888653431496e-07,4.945020492231085e-07,4.1623201069716037e-07,3.5219693573553524e-07,3.0047719800108346e-07,2.5915533644650857e-07,2.3401401774543767e-07,1.9999538182203427e-07,1.74040606527296e-07,1.6199177863917143e-07,1.3682306830979914e-07,1.2767601908175859e-07,1.1872028400127357e-07,9.839991279296476e-08,7.601544934664137e-08,6.772311680747778e-08,5.068465005723875e-08,4.320643893098613e-08,3.6472616879527025e-08,2.6451688547642267e-08,1.8339384641210284e-08,1.7934845007721878e-08,1.168561862228901e-08,9.643010437614696e-09,7.827462691691909e-09,6.2281776744356705e-09,3.6821881146728203e-09,1.989666306280273e-09,2.840776015453004e-09
0.0,18,18.0,0.0,30.0,0.0,0.0,0.0,0.0,2.0,2.0,-12.0,0.0,0.0,0.0,6.176190973382335e-06,3.093024583612828e-06,1.785984502002271e-06,1.1568719260058965e-06,8.014875224078598e-07,6.49898510670097e-07,5.083803567158148e-07,4.14919801315126e-07,3.310252168520616e-07,2.8075679880713517e-07,2.5294163638209057e-07,2.209821499544859e-07,1.9483627850908916e-07,1.7902806642394947e-07,1.4574311475964646e-07,1.3714253014730373e-07,1.2847949149852611e-07,1.1021793289944731e-07,9.660898551367662e-08,7.707529408123552e-08,5.949237700211775e-08,4.962456913768576e-08,4.456338422133542e-08,3.3399947929831954e-08,2.541183435745644e-08,2.113188335050338e-08,1.7070259968494643e-08,1.4484630403721717e-08,9.162112168172963e-09,7.363223497405881e-09,6.2004619372712506e-09,3.74896077789224e-09,4.6791634433287545e-09,2.0272615303556007e-09
0.0,19,19.0,0.0,30.0,0.0,0.0,0.0,0.0,2.0,2.0,-12.0,0.0,0.0,0.0,5.742628275285844e-06,2.851414793774027e-06,1.8153428090937693e-06,1.1728452204216407e-06,8.26071204957721e-07,6.183419245062486e-07,4.591136687891295e-07,3.5543738640263283e-07,3.1136930115045504e-07,2.7176849404506146e-07,2.268406248148094e-07,2.0611041854273453e-07,1.8328622620162088e-07,1.6138527557983524e-07,1.4806760388610334e-07,1.320290512248037e-07,1.1358305389906296e-07,9.632596919577133e-08,8.984929605162196e-08,7.472875857833032e-08,5.7143969889923306e-08,4.9581141920708814e-08,4.231758984324708e-08,3.4483497771614875e-08,2.6775403838670882e-08,2.033589400976544e-08,1.4479510026913192e-08,1.2185852209258168e-08,8.551746669282919e-09,7.5793446957353e-09,4.392599542383052e-09,2.3739856393349497e-09,4.045390964770407e-09,1.328734483792624e-09
0.0,20,20.0,0.0,30.0,0.0,0.0,0.0,0.0,2.0,2.0,-12.0,0.0,0.0,0.0,5.476457192392333e-06,2.7273366250251945e-06,1.649124364218788e-06,1.1354745930589882e-06,7.999310849287503e-07,6.152179755000803e-07,4.735313225049903e-07,3.951047116897667e-07,2.973015083156599e-07,2.5472038728505403e-07,2.326515007282244e-07,2.0170227399278246e-07,1.745109020137071e-07,1.5004682045685583e-07,1.419521945309012e-07,1.2201983198234762e-07,1.1241331256011726e-07,9.723353624146353e-08,8.345280644705197e-08,7.441691575206954e-08,5.907581081746517e-08,4.5964409048243994e-08,3.8465299736392286e-08,3.1408088301605577e-08,2.3128874617571435e-08,2.037920158584302e-08,1.4017244037167229e-08,1.2662136009331208e-08,1.0311942746468638e-08,7.878990055181815e-09,7.815552708951555e-09,4.6472978812020096e-09,3.9003529724685285e-09,3.773614254291659e-09
0.0,21,21.0,0.0,30.0,0.0,0.0,0.0,0.0,2.0,2.0,-12.0,0.0,0.0,0.0,5.647957023534621e-06,2.898473219585653e-06,1.7148442423729641e-06,1.0734810619270132e-06,7.484262496544311e-07,5.902490096016332e-07,4.745961528853115e-07,3.712216617749885e-07,2.9316051215538413e-07,2.6329669187743433e-07,2.1892817275068782e-07,1.9801191472474076e-07,1.8457168204800663e-07,1.6020051474662532e-07,1.4179249411722083e-07,1.2389259425520183e-07,1.132657000807211e-07,9.592267229494254e-08,8.006500013413648e-08,6.943442847915091e-08,5.3463422337109295e-08,4.608095194530923e-08,3.5603436806644767e-08,3.038665347387051e-08,2.3048948168475006e-08,1.7265793767625945e-08,1.4695449602586545e-08,1.1923826813505683e-08,1.108067291097823e-08,7.63202761252252e-09,4.885770925040787e-09,3.522167305253464e-09,3.5372072713115706e-09,1.8793846585900643e-09
0.0,22,22.0,0.0,30.0,0.0,0.0,0.0,0.0,2.0,2.0,-12.0,0.0,0.0,0.0,5.7952127820605815e-06,2.6999267516294144e-06,1.6467643721686982e-06,1.0647728845129702e-06,7.564898289747991e-07,5.803013412976882e-07,4.2335748354147325e-07,3.6015095803135376e-07,2.974897803292953e-07,2.412329322578213e-07,2.0757454168591342e-07,1.8852323474300468e-07,1.5630826495260923e-07,1.448707478551391e-07,1.3265698998638036e-07,1.2028386209771438e-07,9.914540116476001e-08,9.488618910738402e-08,7.671836634186197e-08,6.59951631065615e-08,5.398898112173539e-08,4.3422833203270915e-08,3.510216938164657e-08,2.6663989137171377e-08,2.4878357942492287e-08,1.8259513590042866e-08,1.3593513010682625e-08,9.431080265892545e-09,1.0698002979573921e-08,8.564027197429376e-09,4.630466372334909e-09,4.830328375346439e-09,2.994394159033436e-09,1.882426574176129e-09
0.0,23,23.0,0.0,30.0,0.0,0.0,0.0,0.0,2.0,2.0,-12.0,0.0,0.0,0.0,5.8460185440424515e-06,2.75471455211007e-06,1.6185469751962532e-06,1.1108018534319644e-06,7.037509125666043e-07,5.488030083838518e-07,4.2984715635352853e-07,3.326986682127182e-07,2.8671925140163316e-07,2.407560420057619e-07,2.1015599799110802e-07,1.7080191981727834e-07,1.5809366358455018e-07,1.4766117622894564e-07,1.2703268834173362e-07,1.1689628956253525e-07,1.072680628903074e-07,9.334818191775196e-08,8.004603399663134e-08,6.392717990753909e-08,5.2142721701466364e-08,4.4064395611083205e-08,3.506929624553404e-08,2.968019749843545e-08,2.160207673317807e-08,1.8699763489582535e-08,1.4413637234135267e-08,1.345093949365937e-08,7.786321249288734e-09,6.5256480177972155e-09,5.622043004976656e-09,3.282324619720902e-09,3.43829168527218e-09,1.6428643873518693e-09
0.0,24,24.0,0.0,30.0,0.0,0.0,0.0,0.0,2.0,2.0,-12.0,0.0,0.0,0.0,5.334909383765727e-06,2.699680246761516e-06,1.6222516865415543e-06,1.0426999053305217e-06,6.794840733580642e-07,5.462799306354235e-07,4.3501004400047146e-07,3.2571669834861173e-07,2.8849924487221146e-07,2.2605348601819181e-07,2.0825133509449468e-07,1.7175797543595143e-07,1.5936943384860465e-07,1.290157498236095e-07,1.2992790636951227e-07,1.1148517833120209e-07,1.0268272408764714e-07,8.897745649742847e-08,7.227891002583245e-08,5.836465704297609e-08,5.065359799803008e-08,3.9419488638395644e-08,3.234219188101716e-08,2.7057091836926866e-08,2.155227727824428e-08,1.71759056690825e-08,1.3798726528003886e-08,1.1540833650938678e-08,8.39584026307806e-09,6.468892140420318e-09,8.203219519259522e-09,3.0985720986829997e-09,2.9091689883202245e-09,1.1677447324530867e-09
0.0,25,25.0,0.0,30.0,0.0,0.0,0.0,0.0,2.0,2.0,-12.0,0.0,0.0,0.0,5.356427022508573e-06,2.6358991500604224e-06,1.5810367733019195e-06,9.57212050379637e-07,6.938470832843812e-07,5.201003402134454e-07,3.7790119368121545e-07,3.2114793620672047e-07,2.7384422001151735e-07,2.2674616765452794e-07,2.0038156641205221e-07,1.6474853234945388e-07,1.5541845423160075e-07,1.3514232051686912e-07,1.1240039535259806e-07,1.0708107331110944e-07,9.904628235924759e-08,8.503664903145821e-08,7.212836914289844e-08,5.997479829551761e-08,4.73119801812492e-08,3.8332011752096425e-08,3.1626842689325926e-08,2.4252065448656496e-08,2.1872880403349875e-08,1.5990450995779736e-08,1.4299237017217957e-08,1.0770906521214424e-08,9.260514395058804e-09,6.173540376372149e-09,6.251417365447654e-09,3.5653141848188527e-09,1.8508781951821597e-09,1.8866430498892824e-09
0.0,26,26.0,0.0,30.0,0.0,0.0,0.0,0.0,2.0,2.0,-12.0,0.0,0.0,0.0,5.586869598114151e-06,2.668881118057548e-06,1.5017436443736562e-06,9.32664952575358e-07,7.051783879110037e-07,4.817751065740978e-07,3.87536357014691e-07,3.274721978061311e-07,2.719833042665602e-07,2.1691290747963755e-07,1.842748016470489e-07,1.6638440452956836e-07,1.5039035446696317e-07,1.263020151737813e-07,1.131115122965754e-07,1.0242099745630662e-07,9.210376710921165e-08,7.971045084124167e-08,6.77234301417099e-08,5.4175441361646956e-08,4.5380985643096874e-08,3.5132837636368315e-08,3.252860760706269e-08,2.379864270282744e-08,2.1026772569473145e-08,1.7881586069963652e-08,1.1382990527530786e-08,1.0510879063233385e-08,7.360411937166045e-09,5.878867970194688e-09,4.238067908316518e-09,2.5004408069930055e-09,3.427978383517419e-09,1.0867153481015902e-09
0.0,27,27.0,0.0,30.0,0.0,0.0,0.0,0.0,2.0,2.0,-12.0,0.0,0.0,0.0,5.411756561568115e-06,2.498060960535328e-06,1.5873292559821234e-06,9.532722191670503e-07,6.908502020880288e-07,4.882533309069673e-07,3.8268087898894304e-07,3.1712303135212976e-07,2.4337372712359657e-07,2.1174837961292553e-07,1.8778177346838146e-07,1.6110456672638605e-07,1.4095467695330614e-07,1.2417518050761314e-07,1.1240911837350134e-07,9.869959976691691e-08,9.189083867012576e-08,7.655184346175217e-08,6.599441255416843e-08,5.3417833312889165e-08,4.297341217608853e-08,3.693932956500479e-08,2.915983947104646e-08,2.5959436873744377e-08,2.178966175509731e-08,1.690379979459623e-08,1.3500861478631367e-08,1.0664229326982528e-08,8.387192921482562e-09,4.713847051361308e-09,2.7550984654484136e-09,3.1918430009768194e-09,2.680356042281415e-09,4.6231742827188905e-09
0.0,28,28.0,0.0,30.0,0.0,0.0,0.0,0.0,2.0,2.0,-12.0,0.0,0.0,0.0,5.168449459962878e-06,2.714962071886859e-06,1.4125562959498661e-06,9.394758948247974e-07,6.229267988881287e-07,5.070035023482645e-07,3.716290778499878e-07,2.8748744914985993e-07,2.5992824210213624e-07,1.9529392434139543e-07,1.8117441011948605e-07,1.4913022560883792e-07,1.3703092770153826e-07,1.2274428458113356e-07,1.068349565021734e-07,9.961850345211507e-08,8.658351461975881e-08,7.491683059627652e-08,6.149012706542737e-08,4.946401493426774e-08,3.929217417223358e-08,3.623597058498749e-08,2.8317729435741067e-08,2.4202760486331e-08,2.0679556485067414e-08,1.606820362023729e-08,1.087404805106062e-08,9.25029677146892e-09,7.1087432473602725e-09,7.106027663146442e-09,5.4737902870484205e-09,2.5528593955279006e-09,4.380401898326984e-09,1.7960089155113882e-09
0.0,29,29.0,0.0,30.0,0.0,0.0,0.0,0.0,2.0,2.0,-12.0,0.0,0.0,0.0,5.125732875371533e-06,2.544172893249671e-06,1.3732612810846348e-06,9.498051796212506e-07,6.886827313494054e-07,4.948702426183279e-07,3.6241160164406237e-07,3.019682665433845e-07,2.4981243276047276e-07,2.0370122434169574e-07,1.7709211788755774e-07,1.4729591520755225e-07,1.304007450647647e-07,1.1820609819998794e-07,1.0076207979799875e-07,9.610416788450665e-08,8.196209266190857e-08,7.452971198472669e-08,6.07253142885348e-08,5.233798731068747e-08,4.0561772471040954e-08,3.424375539042644e-08,2.724704037015384e-08,2.2965513803407206e-08,1.729422151751917e-08,1.640558507500018e-08,1.0367101334734128e-08,9.329951616830572e-09,6.904378370626168e-09,6.017421212645332e-09,4.588227338299398e-09,3.790935094223359e-09,3.2417439798367017e-09,1.0896814026845174e-09
0.0,30,30.0,0.0,30.0,0.0,0.0,0.0,0.0,2.0,2.0,-12.0,0.0,0.0,0.0,5.458852727540439e-06,2.4453996353406453e-06,1.379961763624049e-06,9.03685110553938e-07,6.535378733494969e-07,4.495531845511463e-07,3.568468224247322e-07,2.8667131943424243e-07,2.2317589854873024e-07,1.8970185891653473e-07,1.6721890632443955e-07,1.4230617749082408e-07,1.3231560000418197e-07,1.0745545074215134e-07,9.954678541076083e-08,9.102288399744253e-08,7.887921775299483e-08,6.998310493116938e-08,5.9541194122104854e-08,4.8585952513932754e-08,4.1902657847327114e-08,3.257033994144941e-08,2.7513362656753258e-08,2.1186002036450894e-08,1.5638662932306533e-08,1.1500403982731273e-08,1.1838850176073036e-08,9.25755159203903e-09,7.924259753941034e-09,5.636875333696694e-09,5.645930919402821e-09,2.5342511215500174e-09,3.837338661379015e-09,4.0114862267990643e-10
0.0,31,31.0,0.0,30.0,0.0,0.0,0.0,0.0,2.0,2.0,-12.0,0.0,0.0,0.0,5.187302724612088e-06,2.3467004203916983e-06,1.3391983160933905e-06,8.879485221191787e-07,5.782033051557146e-07,4.6615156308461386e-07,3.6127415090641925e-07,2.812165053360237e-07,2.2279596388927885e-07,1.942414278092351e-07,1.4895345646454176e-07,1.3787100299361733e-07,1.2269704430003292e-07,1.0933505358462364e-07,9.719108488587292e-08,8.634013319570785e-08,7.588218105201288e-08,7.057907836840457e-08,5.9324975574036676e-08,4.6464391829591474e-08,3.913957953617038e-08,3.2976593256217286e-08,2.7049161666467494e-08,2.24480496468326e-08,1.6006442116895003e-08,1.2917227131038517e-08,1.0547893165087898e-08,1.0599841942666022e-08,8.105873060154021e-09,4.112911129898898e-09,5.7793085871446785e-09,1.5737225042904626e-09,2.2610249774368344e-09,1.3287897805422212e-09
0.0,32,32.0,0.0,30.0,0.0,0.0,0.0,0.0,2.0,2.0,-12.0,0.0,0.0,0.0,4.861242266364081e-06,2.501298232385271e-06,1.3118608936507816e-06,8.821669796179766e-07,5.948591829425298e-07,4.2616702645709765e-07,3.304204791264415e-07,2.6378991104440163e-07,2.2171969260716875e-07,1.8792135939302827e-07,1.5573352046446913e-07,1.3858208491124993e-07,1.193375473204979e-07,1.0629538307507678e-07,9.055781479396998e-08,8.845323951458628e-08,8.038131530621528e-08,6.430999843508671e-08,5.504712718677577e-08,4.6941741429196284e-08,3.8013783035996226e-08,3.1896584166737136e-08,2.513816074920217e-08,2.1741341815895552e-08,1.6085137811404858e-08,1.2299099351352076e-08,1.0844699050685536e-08,7.622358242507555e-09,5.643913031906714e-09,4.754726300450037e-09,4.23475351607082e-09,2.286396049250339e-09,2.6880697551871087e-09,1.2913336885848983e-09
0.0,33,33.0,0.0,30.0,0.0,0.0,0.0,0.0,2.0,2.0,-12.0,0.0,0.0,0.0,4.967288038100932e-06,2.3569311433324497e-06,1.2825430580587103e-06,8.728010651459407e-07,5.910376626386093e-07,4.437693159843528e-07,3.337824862394029e-07,2.672503580377157e-07,2.1708927174453248e-07,1.782618477833348e-07,1.5151655958497266e-07,1.2848296197863473e-07,1.1385102952941591e-07,1.0451119423117742e-07,8.973043300113805e-08,8.117895335412351e-08,7.175310019264205e-08,6.76747513147737e-08,5.407510558687431e-08,4.3373908820382795e-08,3.818426150777773e-08,3.0594671273147533e-08,2.600452744531242e-08,1.9340841025595423e-08,1.640350336618317e-08,1.3242355603651092e-08,9.211244067622034e-09,9.38923256952423e-09,6.732604923319764e-09,4.291281554643657e-09,4.222838794282704e-09,2.519801354868269e-09,2.149912077025493e-09,2.4434774758914537e-09
0.0,34,34.0,0.0,30.0,0.0,0.0,0.0,0.0,2.0,2.0,-12.0,0.0,0.0,0.0,4.8325789901904405e-06,2.350561153097299e-06,1.2874617145587501e-06,8.415604297139455e-07,5.941630649432529e-07,4.256131205807883e-07,3.155801669472397e-07,2.5717252205348294e-07,2.0662564412376945e-07,1.6936819233258642e-07,1.3873225530618738e-07,1.2810318181712756e-07,1.1895866887366692e-07,1.0323640003013126e-07,9.190883429706793e-08,7.461026496663478e-08,6.752519216297742e-08,6.067136071458099e-08,5.084857645547065e-08,4.200742648688142e-08,3.455504889858249e-08,3.02025146835017e-08,2.425071363430164e-08,1.990492565106137e-08,1.2885374345355848e-08,1.3079179530271353e-08,1.0320784669557946e-08,8.91466223395162e-09,5.747991724245459e-09,5.397163461058046e-09,3.153549254163716e-09,3.2624320958546333e-10,2.995703659549427e-09,1.0223253671310638e-09
0.0,35,35.0,0.0,30.0,0.0,0.0,0.0,0.0,2.0,2.0,-12.0,0.0,0.0,0.0,4.8379659827872804e-06,2.307419625371484e-06,1.2841209957574115e-06,8.302682526994923e-07,5.511786846263082e-07,3.699163000662071e-07,3.2289723618886997e-07,2.3818745408074815e-07,1.9536990599968322e-07,1.7175515622620965e-07,1.4518259309252624e-07,1.2175808621473918e-07,1.025084667572635e-07,1.0023140019085385e-07,8.496797405385505e-08,7.381480163968132e-08,6.686555584525187e-08,6.236459911253889e-08,5.037405667348759e-08,4.232226195162203e-08,3.3152269977736233e-08,2.9326506740457055e-08,2.289581915065259e-08,2.0725320508011744e-08,1.5254035630646307e-08,1.3848862576508634e-08,9.767873162245721e-09,7.3929440649825834e-09,4.537581957055957e-09,4.368932479016174e-09,2.802193735239032e-09,2.804873091233641e-09,2.9372007245454394e-09,1.6919978971436284e-09
0.0,36,36.0,0.0,30.0,0.0,0.0,0.0,0.0,2.0,2.0,-12.0,0.0,0.0,0.0,4.759404227052484e-06,2.219898168731398e-06,1.2089729012400617e-06,7.292751868373497e-07,4.946414093060925e-07,4.039272780380158e-07,3.1217837576401394e-07,2.474889981262199e-07,2.0813605083105256e-07,1.6545336345148162e-07,1.4222471324380026e-07,1.1873410645399675e-07,1.0568541742503542e-07,9.043610366330292e-08,8.335313926051342e-08,7.30139400007298e-08,7.106050057674744e-08,6.312467969645514e-08,5.195998144238407e-08,4.188031241930573e-08,3.223170808110961e-08,2.498627185056606e-08,2.4037912319514653e-08,1.6453264114455985e-08,1.4054387339538334e-08,1.1690489295135365e-08,9.48689447986595e-09,8.579166484370007e-09,6.23173052890849e-09,4.946394444216379e-09,3.1583646534133596e-09,2.889343628933123e-09,2.903188376719037e-09,2.7129102722842734e-09
0.0,37,37.0,0.0,30.0,0.0,0.0,0.0,0.0,2.0,2.0,-12.0,0.0,0.0,0.0,4.692414006379128e-06,2.1070947042408665e-06,1.233236677865623e-06,7.689265217477297e-07,5.225032360568403e-07,4.0751788334156295e-07,2.929694999310596e-07,2.2426875664656086e-07,1.8915273962072483e-07,1.5856177608827128e-07,1.3114372197022676e-07,1.1326102763008027e-07,9.773315220276186e-08,8.422242579621121e-08,7.841242671858756e-08,7.081196896675678e-08,6.562231242507968e-08,5.481665447764053e-08,4.7409107894654194e-08,3.988102394336692e-08,3.12671638213166e-08,2.5647943755082453e-08,2.131312680029815e-08,1.709917059053179e-08,1.2925134885398861e-08,1.312178155490344e-08,9.902857077860916e-09,6.042192628600914e-09,7.704200845750017e-09,5.636275801644341e-09,4.435484333643987e-09,2.4970162232249363e-09,2.0133292733776894e-09,2.922458328251771e-09
0.0,38,38.0,0.0,30.0,0.0,0.0,0.0,0.0,2.0,2.0,-12.0,0.0,0.0,0.0,4.7165290046311355e-06,2.1681653706097195e-06,1.267651246385335e-06,7.283065196146879e-07,5.070239199896111e-07,3.8176016861780113e-07,2.851910177133788e-07,2.2667550267643887e-07,1.9160363539006005e-07,1.550765637192563e-07,1.3007428292338206e-07,1.103404524022985e-07,1.0007986259430427e-07,8.857669869854618e-08,7.561890527097597e-08,6.752424280886668e-08,5.989074913384772e-08,5.588734009524611e-08,4.8105344014252444e-08,3.7089905086732285e-08,2.9699740389474677e-08,2.5966307195282706e-08,1.962246319229375e-08,1.6509300397458463e-08,1.4398828104714064e-08,1.1202298301314783e-08,1.043879953699693e-08,7.398442903300772e-09,5.403857514115473e-09,6.5352880207442e-09,3.88348857725013e-09,2.7496017097033475e-09,2.602760418542978e-09,1.5230371888167219e-09
0.0,39,39.0,0.0,30.0,0.0,0.0,0.0,0.0,2.0,2.0,-12.0,0.0,0.0,0.0,4.374973354607672e-06,2.080969282166452e-06,1.1483642389991924e-06,7.36819664146906e-07,5.013995590456312e-07,3.72011457872288e-07,2.766131630052431e-07,2.10180840602767e-07,1.8626741100659724e-07,1.5511552278976392e-07,1.3026843354654687e-07,1.0530140959913855e-07,9.832376302786666e-08,8.565445777310747e-08,7.809438564651452e-08,6.84337974789652e-08,5.945402890714321e-08,5.153762304958971e-08,4.3408684007002e-08,4.038497521322718e-08,3.0330562019112916e-08,2.4733095922102368e-08,2.101597241751702e-08,1.6075337044571163e-08,1.500826502561788e-08,1.171348370562967e-08,8.705528567064585e-09,8.77349074638505e-09,5.663060034522336e-09,4.901820009222133e-09,3.961132605650886e-09,2.217610060587731e-09,3.0393921688658665e-09,1.7004209353224368e-09
0.0,40,40.0,0.0,30.0,0.0,0.0,0.0,0.0,2.0,2.0,-12.0,0.0,0.0,0.0,4.251721184838554e-06,2.0498729287859412e-06,1.1233265330169876e-06,6.940011506116632e-07,5.079017698755808e-07,3.4752239260112814e-07,2.778091515315079e-07,2.1213620128311317e-07,1.7467533409440112e-07,1.4778337916980966e-07,1.2899695538282948e-07,1.0609599813955022e-07,9.053926284807691e-08,8.145558428775055e-08,7.59948823327819e-08,7.10882515700082e-08,5.545669798219767e-08,5.00924998971644e-08,4.365020814696314e-08,3.336227654037657e-08,2.5929520086864616e-08,2.388880338317326e-08,1.9227056882004253e-08,1.749406237518453e-08,1.2136730565337364e-08,9.794625130112297e-09,8.220439326156486e-09,8.43797941023182e-09,5.951102348816372e-09,5.272152840349863e-09,4.269633283955232e-09,2.6291283518136323e-09,1.915406648652496e-09,2.068375184656052e-10
0.0,41,41.0,0.0,30.0,0.0,0.0,0.0,0.0,2.0,2.0,-12.0,0.0,0.0,0.0,4.375965986426195e-06,1.9610357878018288e-06,1.114389102562357e-06,7.333161366491614e-07,4.585173478414287e-07,3.44960168359688e-07,2.7540475822194645e-07,2.1039852007334067e-07,1.6094745945186414e-07,1.4316029403927787e-07,1.1866263353553387e-07,1.037679663413742e-07,8.46090135147837e-08,7.997861186936265e-08,7.255135443326021e-08,6.414089694083842e-08,5.923240785262143e-08,4.82251840982288e-08,4.305752721543234e-08,3.381925512294619e-08,2.7844360032298753e-08,2.4238501420211456e-08,1.900448687925198e-08,1.4657926858437072e-08,1.2710059333575534e-08,7.766140020050198e-09,9.498316654008755e-09,6.81471302617279e-09,4.686850315571248e-09,4.417294665467846e-09,4.438167327186792e-09,2.9904348105948323e-09,1.7409566273494276e-09,1.1617692868552994e-09
0.0,42,42.0,0.0,30.0,0.0,0.0,0.0,0.0,2.0,2.0,-12.0,0.0,0.0,0.0,4.243105032703718e-06,1.98388894698331e-06,1.0598379659799559e-06,6.854907230419352e-07,4.5651396624158564e-07,3.5580803439017426e-07,2.5544526794580653e-07,2.007818417405353e-07,1.6379705146096716e-07,1.3354606275219518e-07,1.1580369075070818e-07,1.0389988222467363e-07,8.819307946930753e-08,7.717130765960777e-08,6.593489747161668e-08,6.286124857578578e-08,5.6851914454607186e-08,4.564733564202363e-08,4.073507127698321e-08,3.4737307205290926e-08,2.412939354794475e-08,2.3021318952217648e-08,2.0968893402285473e-08,1.4929924294932456e-08,1.31747645605346e-08,1.0240812677352695e-08,8.134065901864142e-09,6.811302710496725e-09,4.593889310339318e-09,5.593695928352857e-09,4.022608541449234e-09,2.8269472936558064e-09,1.1692803350343665e-09,1.8774793524855832e-09
0.0,43,43.0,0.0,30.0,0.0,0.0,0.0,0.0,2.0,2.0,-12.0,0.0,0.0,0.0,4.039370148230784e-06,1.939698578558436e-06,1.0247894874669095e-06,6.263655584574613e-07,4.484252809072264e-07,3.484479038680657e-07,2.438987694160666e-07,1.9849636003187402e-07,1.5891902389267225e-07,1.3414896171509318e-07,1.1680177635291608e-07,9.329577837456584e-08,9.017755499528293e-08,7.272475387553602e-08,6.525978796414493e-08,5.906422184758757e-08,5.183782307069382e-08,4.5745738319172325e-08,4.0030905010070225e-08,3.014986951612628e-08,2.4963631947956313e-08,2.2320665073874327e-08,1.9896635942361157e-08,1.3088525518429705e-08,1.4623185733728421e-08,1.0789947198920406e-08,8.18694170728091e-09,6.92746901689079e-09,4.925456925287629e-09,2.086314203982842e-09,2.8125215188768404e-09,1.644690933765359e-09,2.2366002302811995e-09,1.9758301859491675e-09
0.0,44,44.0,0.0,30.0,0.0,0.0,0.0,0.0,2.0,2.0,-12.0,0.0,0.0,0.0,4.137848309415788e-06,1.8792947024315974e-06,1.0598004835502844e-06,6.546067622124914e-07,4.3584228298253756e-07,3.444773660526393e-07,2.507740489264572e-07,2.0135868345562414e-07,1.5343786216563224e-07,1.3278727719582156e-07,1.118889239340102e-07,9.472953412141678e-08,8.793714712410915e-08,7.123123542434601e-08,6.346168920108549e-08,5.586318689875867e-08,5.283432480855275e-08,4.453033903131133e-08,4.1246819828937164e-08,3.2739954579935136e-08,2.498639901571206e-08,2.0743439245975992e-08,1.818253743893416e-08,1.3965163969448566e-08,1.1525952991550825e-08,8.270031338402868e-09,8.587737433132883e-09,5.359771454020019e-09,1.934667160588727e-09,4.77841989008637e-09,2.7185500493276754e-09,3.5051884589465724e-09,2.8026128289425543e-09,1.188482611422781e-09
0.0,45,45.0,0.0,30.0,0.0,0.0,0.0,0.0,2.0,2.0,-12.0,0.0,0.0,0.0,3.937944475601756e-06,1.9026407785455749e-06,1.0361373629795014e-06,6.34170522637282e-07,4.4079954574764906e-07,3.306383596728686e-07,2.317333897557292e-07,1.8176661544428243e-07,1.55172921094344e-07,1.2510545029287183e-07,1.1052962327108341e-07,9.22451745302963e-08,8.179584226670883e-08,6.873965693993584e-08,6.235921556884051e-08,5.5537244111601165e-08,4.971841391671595e-08,4.477568384650932e-08,3.896572312034761e-08,3.0360394416468936e-08,2.475707723616286e-08,2.350213003508473e-08,1.7374384390150324e-08,1.5136389290625384e-08,1.1105069469922666e-08,8.805006976860824e-09,8.673404813441542e-09,5.99524837891384e-09,4.139916760886788e-09,4.248958419985887e-09,1.9627258132974753e-09,2.055340547184642e-09,1.9718122400110603e-09,2.139202435723177e-09
0.0,46,46.0,0.0,30.0,0.0,0.0,0.0,0.0,2.0,2.0,-12.0,0.0,0.0,0.0,3.8034629459827702e-06,1.809652502730358e-06,9.864653852258068e-07,6.117758433417598e-07,4.271277960737872e-07,3.1455437917589065e-07,2.388812495911832e-07,1.7282077026201452e-07,1.4643999303477304e-07,1.2651061954275985e-07,1.0478727466224994e-07,9.208184832272572e-08,7.618346334844303e-08,6.815107756985093e-08,6.214122376363342e-08,5.437265323909032e-08,4.969873217308248e-08,4.3197172674530374e-08,3.318548306590159e-08,2.9736541768607476e-08,2.416788513045058e-08,2.097123244771455e-08,1.6562148276465076e-08,1.3349170496715659e-08,1.1403172807642247e-08,8.155076632566063e-09,7.98013541858328e-09,5.376593464495306e-09,5.303797620923706e-09,6.111983371765693e-09,1.993344708017817e-09,2.037847429152052e-09,3.5544320458693213e-10,9.587640991650259e-10
0.0,47,47.0,0.0,30.0,0.0,0.0,0.0,0.0,2.0,2.0,-12.0,0.0,0.0,0.0,4.003778812657304e-06,1.7941412339249003e-06,1.0187215424607926e-06,6.149541848469162e-07,4.1966353280506325e-07,2.915778170069027e-07,2.2523603879045586e-07,1.7459867856936166e-07,1.3858273471116924e-07,1.1974520357652423e-07,1.0007152257043244e-07,8.642889842979646e-08,7.342789133850509e-08,6.626309330353847e-08,5.5739584634752364e-08,5.453730115803359e-08,4.434913049331098e-08,4.0770294171634824e-08,3.557543612144243e-08,2.87982832065067e-08,2.1269463531027975e-08,1.8919372085982164e-08,1.4436201955923493e-08,1.3330368039171838e-08,8.17776363516772e-09,8.306417523947918e-09,8.68192532541757e-09,5.0526190772209175e-09,4.724372332235557e-09,2.661850330594345e-09,2.026328397882028e-09,8.875750745201211e-10,4.013178547695694e-09,2.890542712037267e-09
0.0,48,48.0,0.0,30.0,0.0,0.0,0.0,0.0,2.0,2.0,-12.0,0.0,0.0,0.0,3.898916383848929e-06,1.7013384025699315e-06,8.899926300987072e-07,5.762219930572543e-07,4.261668128973545e-07,2.845458867861973e-07,2.263920004788952e-07,1.6860051064905322e-07,1.441880597397867e-07,1.171438315227226e-07,1.0130615484132586e-07,8.312764458818912e-08,7.69920816409702e-08,6.408569605966853e-08,6.036089349045811e-08,5.308603206183265e-08,4.54828209971402e-08,3.938188311352028e-08,3.247866841402222e-08,2.9131133127338884e-08,2.291695511013171e-08,2.1156963305382013e-08,1.596597986763218e-08,1.3721900747537736e-08,8.324293182052454e-09,8.884169704583163e-09,6.396957210749181e-09,6.881561342560823e-09,5.204864628077009e-09,3.410055898968308e-09,3.291089769668178e-09,7.725594269798466e-10,1.4531117799276999e-09,1.6116267746073843e-09
0.0,49,49.0,0.0,30.0,0.0,0.0,0.0,0.0,2.0,2.0,-12.0,0.0,0.0,0.0,3.6742201430326517e-06,1.7645641420365244e-06,9.632256352228458e-07,5.990974367170613e-07,3.9300589868509363e-07,3.019169931819455e-07,2.2080326953255994e-07,1.7159870956713298e-07,1.3512570610999436e-07,1.1195284957945895e-07,9.422591597370156e-08,8.139133156389023e-08,6.97133974222981e-08,6.536040955263565e-08,5.418923197540729e-08,4.90571533381739e-08,4.458163045750843e-08,3.9708777309415465e-08,3.384277096335262e-08,2.729325693208236e-08,2.1614451171160804e-08,1.956225897474551e-08,1.3847253652702562e-08,1.2305116177654726e-08,8.245246883778612e-09,8.979868618198347e-09,6.696719862663042e-09,5.58294872038248e-09,4.3574582298288776e-09,3.2679389986614777e-09,3.4766274569681623e-09,3.6057264907125317e-09,1.5446188332241585e-09,8.889381765164775e-10
0.0,50,50.0,0.0,30.0,0.0,0.0,0.0,0.0,2.0,2.0,-12.0,0.0,0.0,0.0,3.6979284080695748e-06,1.673460569118061e-06,8.706196157295912e-07,5.553418539703222e-07,4.0585379608765246e-07,2.7649375095019987e-07,2.0995835528422153e-07,1.5453827356189017e-07,1.3311392512653484e-07,1.1109386140118172e-07,9.46576426327106e-08,7.86640808879823e-08,6.463401980782375e-08,6.261284870000768e-08,5.219764164350942e-08,4.8301447194124987e-08,4.289785363623423e-08,3.937430130619608e-08,3.107709984303923e-08,2.729553592214157e-08,2.0750142027481983e-08,1.802706248409905e-08,1.4287336406639495e-08,1.1455285097010563e-08,9.247614861294837e-09,8.471780901165363e-09,7.663358523399235e-09,5.733898988419249e-09,3.632839179971147e-09,4.0856406748202315e-09,4.969218443437443e-09,2.665047138275269e-09,1.673367706776537e-09,1.2822402986465669e-09
0.0,51,51.0,0.0,30.0,0.0,0.0,0.0,0.0,2.0,2.0,-12.0,0.0,0.0,0.0,3.669372037424565e-06,1.6234421804699787e-06,8.692587686141653e-07,5.467783356481331e-07,3.7276627805626265e-07,2.754027362387749e-07,2.0080838589626473e-07,1.5643979317164035e-07,1.2927021986789208e-07,1.0467659118736275e-07,9.13963540596834e-08,8.144677042100185e-08,6.803322672017115e-08,6.30469220749747e-08,5.126513357833405e-08,4.4685810895920704e-08,4.1091880902313755e-08,3.6374684029332425e-08,2.9681168016173955e-08,2.450770947450318e-08,2.268450186618999e-08,1.6869494970802694e-08,1.5702556381238024e-08,1.0865770298899764e-08,1.0466192379898528e-08,7.867935725550761e-09,7.2665781223790755e-09,5.519490312684569e-09,5.54176197961822e-09,4.3710190923573336e-09,6.203806696953003e-10,1.1839573818595012e-09,1.098760173561634e-09,1.9444281415499074e-09
0.0,52,52.0,0.0,30.0,0.0,0.0,0.0,0.0,2.0,2.0,-12.0,0.0,0.0,0.0,3.465233352616636e-06,1.558204224354155e-06,8.243986567740368e-07,5.496774267804848e-07,3.585242637889514e-07,2.6803976816506794e-07,1.9960382383969633e-07,1.5075745763837932e-07,1.2133242279240738e-07,9.794126185994883e-08,8.358694301713972e-08,7.470357776388452e-08,6.434816863898678e-08,5.75852852714759e-08,5.1532224322464834e-08,4.509261634198189e-08,4.371997840528353e-08,3.7689902442834626e-08,3.13777042412651e-08,2.1355039729082446e-08,1.831073933757215e-08,1.9845961008901296e-08,1.554294673312112e-08,1.1333649408277236e-08,9.369780730408733e-09,6.848653436833599e-09,4.532584417773249e-09,4.411556604146431e-09,5.109016705469803e-09,1.5251290182977744e-09,3.507235687265329e-09,2.607160262856646e-09,1.3831150494442936e-09,7.690991785402171e-10
0.0,53,53.0,0.0,30.0,0.0,0.0,0.0,0.0,2.0,2.0,-12.0,0.0,0.0,0.0,3.3083671821653206e-06,1.4467426453128216e-06,8.116975355984715e-07,5.311449204107676e-07,3.5000197539280036e-07,2.4835749346982614e-07,1.879998251480894e-07,1.5551324092418438e-07,1.1492880239766697e-07,1.0267566330091921e-07,8.852159193389876e-08,7.699922913851242e-08,6.603601866495094e-08,5.657886805784708e-08,4.860943576534057e-08,4.3452596545306e-08,4.085747113005397e-08,3.412737964246877e-08,2.8105090355381502e-08,2.5039390191737037e-08,2.0724420828406596e-08,1.5147517742746402e-08,1.2905340786733867e-08,1.0945107903993718e-08,9.02199092922584e-09,8.132172712856657e-09,6.902229490446979e-09,4.096881391571243e-09,3.754391492101369e-09,4.104580540407168e-09,6.253240603277798e-10,1.3124296092111918e-09,2.9084256192676755e-09,2.325270660582892e-09
0.0,54,54.0,0.0,30.0,0.0,0.0,0.0,0.0,2.0,2.0,-12.0,0.0,0.0,0.0,3.329582922122111e-06,1.4195945050238076e-06,8.072969753285417e-07,5.113903250982711e-07,3.2976138209995375e-07,2.382313133506654e-07,1.7632862414062717e-07,1.4703142660136128e-07,1.2286997258511333e-07,9.758590826065439e-08,8.60935384280251e-08,7.048084657708751e-08,6.186857596840389e-08,5.301290490341047e-08,4.7656621867280234e-08,4.2900355571501717e-08,3.862130799920382e-08,3.348027705871009e-08,2.9132946718073603e-08,2.510049690257576e-08,1.8380510730722036e-08,1.5333947465186177e-08,1.4456251862795378e-08,1.1506970954146433e-08,9.28715405097811e-09,7.858868284273444e-09,4.16554865128287e-09,6.308868660517858e-09,4.7254007608467e-09,2.4032249305883146e-09,1.346021717331743e-09,1.238358756070358e-09,8.922221910255258e-10,8.211605794565247e-10
0.0,55,55.0,0.0,30.0,0.0,0.0,0.0,0.0,2.0,2.0,-12.0,0.0,0.0,0.0,3.2259581977946723e-06,1.4345863464308791e-06,7.694170954185529e-07,5.032119662931505e-07,3.29680987897119e-07,2.2439311566209385e-07,1.8623740198526385e-07,1.3464756570925927e-07,1.134737970770766e-07,9.297721774451473e-08,8.192886402720859e-08,7.298537496432476e-08,5.900615017355867e-08,5.1384103215872867e-08,4.646452911182927e-08,3.879602044706027e-08,3.838432340621072e-08,3.2786270445663354e-08,2.7566241076177456e-08,2.007970858942069e-08,1.7844636305500364e-08,1.5041325093220714e-08,1.3484657418344113e-08,1.083248345580275e-08,8.43087011398864e-09,7.80382024652804e-09,5.886358901593128e-09,5.154279400538146e-09,4.144147284425381e-09,3.4340278489638054e-09,2.9332476014630195e-09,1.0210166183541899e-09,1.3027924651634438e-09,1.7203797111644097e-09
0.0,56,56.0,0.0,30.0,0.0,0.0,0.0,0.0,2.0,2.0,-12.0,0.0,0.0,0.0,3.1288484412215693e-06,1.4308641720911638e-06,7.595387829119674e-07,4.812934415131668e-07,3.226021218919757e-07,2.2945301993754858e-07,1.7420607638825825e-07,1.3927843720743507e-07,1.1322229116667731e-07,8.881184261750614e-08,7.871874834037057e-08,6.81639492359721e-08,5.616914093495171e-08,5.1230095384647485e-08,4.6721060083257493e-08,4.1219330512015594e-08,3.68538308171347e-08,3.226866410082026e-08,2.6240254236659854e-08,2.1271859650528664e-08,1.6602856763535358e-08,1.7612676438581907e-08,1.1801361054872378e-08,9.033995079077883e-09,9.209444284019355e-09,7.400676791597591e-09,4.490386461211133e-09,4.9712706193879494e-09,4.841985146206341e-09,3.9464261115664876e-09,2.0576985563594477e-09,1.925733796408378e-09,3.131562627658027e-09,9.080492529189725e-10
0.0,57,57.0,0.0,30.0,0.0,0.0,0.0,0.0,2.0,2.0,-12.0,0.0,0.0,0.0,3.0870885299932578e-06,1.3115864871481724e-06,7.478234975465684e-07,4.5259939661072854e-07,3.425591227305728e-07,2.252114876830609e-07,1.7218237637941847e-07,1.375812904105531e-07,1.0335367340106555e-07,8.313914345968698e-08,8.010814994392292e-08,6.558962885375552e-08,5.6455406970581823e-08,4.8298234052551746e-08,4.229884166594014e-08,3.874942626408758e-08,3.549269394787372e-08,3.051914672638082e-08,2.680097112045298e-08,2.1095367694865205e-08,1.6673524216625928e-08,1.489674186010643e-08,1.235956634923748e-08,1.1540827365248343e-08,8.295129394760667e-09,6.851421646994968e-09,3.947151288362636e-09,4.614540697360522e-09,2.416493736673956e-09,1.088009553842765e-09,1.0840481541624361e-09,6.878690834827206e-10,2.554207294335118e-09,1.649093302337621e-09
0.0,58,58.0,0.0,30.0,0.0,0.0,0.0,0.0,2.0,2.0,-12.0,0.0,0.0,0.0,2.9540648020087556e-06,1.3230229209248397e-06,7.437237097362375e-07,4.397577148051609e-07,3.137267943201196e-07,2.1876582478970582e-07,1.6764169711402162e-07,1.2986943772417016e-07,1.109995788851262e-07,8.734035825404542e-08,7.544742039450213e-08,5.8334107337169573e-08,5.450148478508587e-08,4.836944209513212e-08,4.2594588174027624e-08,3.947205013082952e-08,3.5243468185211487e-08,2.9836967690606844e-08,2.3346723115375415e-08,1.8952990064620036e-08,1.5452653538279325e-08,1.3090876726957204e-08,1.1817742399302178e-08,8.368364631086158e-09,1.137252786054313e-08,7.000712324756549e-09,5.908647615902977e-09,5.025224895879751e-09,2.5381952178571274e-09,2.930383252869432e-09,3.543268394323512e-09,-5.129212112996897e-10,2.4342746919642724e-09,1.194994773695838e-09
0.0,59,59.0,0.0,30.0,0.0,0.0,0.0,0.0,2.0,2.0,-12.0,0.0,0.0,0.0,2.883205032997674e-06,1.2697723107308383e-06,6.913607491334273e-07,4.468329413586843e-07,3.042326368645366e-07,2.0612362986042542e-07,1.6996536532996896e-07,1.2532131706906688e-07,1.0355805170365835e-07,8.162853598072172e-08,6.907592287392265e-08,6.281728777061278e-08,5.3260916807946264e-08,4.6786345176786735e-08,3.9527629383778266e-08,3.730767742512804e-08,3.384698878448233e-08,2.8865242632136693e-08,2.535064003862312e-08,1.9638433339418956e-08,1.7825103520874148e-08,1.1831895252240566e-08,1.1222116738460124e-08,9.019908729402957e-09,8.091629150876738e-09,5.857659735328453e-09,6.369479137346912e-09,4.577234503053695e-09,4.295402880126814e-09,3.8089213126833565e-09,2.409275290959955e-09,7.85378935988118e-10,1.5114633970947464e-09,4.81134638291324e-10
0.0,60,60.0,0.0,30.0,0.0,0.0,0.0,0.0,2.0,2.0,-12.0,0.0,0.0,0.0,2.7096303463853873e-06,1.2554073394320354e-06,6.706291306914549e-07,4.1257525148646996e-07,2.8047865733946304e-07,2.004446541454883e-07,1.5947115486796958e-07,1.2193364578292854e-07,9.722257288776886e-08,8.227819980251129e-08,6.95901085493977e-08,5.898484953954407e-08,5.469210884627435e-08,4.358523843820172e-08,4.0688855573616255e-08,3.6110402785050616e-08,3.08841753284723e-08,2.7887876122716524e-08,2.4863089945159012e-08,1.7304270289963347e-08,1.6793724071179368e-08,1.4603940542018038e-08,9.120881309607466e-09,9.764382940687681e-09,8.462965763660887e-09,5.412881290496281e-09,6.521382307465063e-09,6.0628043979669935e-09,4.759446913743371e-09,3.1681643231401746e-09,1.9236579599677072e-09,1.7059885795865008e-09,1.4031764434119082e-09,1.418240908005123e-09
0.0,61,61.0,0.0,30.0,0.0,0.0,0.0,0.0,2.0,2.0,-12.0,0.0,0.0,0.0,2.6888066159091687e-06,1.212832060774098e-06,6.705360241289258e-07,4.1512156346884325e-07,2.7586612894223853e-07,1.9911512494054045e-07,1.54886245616893e-07,1.1574600249782927e-07,9.595667094579865e-08,8.007783162019523e-08,6.683120934416045e-08,5.55071192094333e-08,4.9582404830496723e-08,4.336787629775624e-08,3.6371860462099524e-08,3.331518514947828e-08,3.03780490277318e-08,2.57485107718434e-08,2.170713577759615e-08,1.9979538934853475e-08,1.448027896323274e-08,1.2015966780851168e-08,9.84226610209848e-09,1.0944719501028356e-08,7.677862565497451e-09,6.696402378490759e-09,4.0430287004925665e-09,2.6534147511301972e-09,2.0544143991616648e-09,3.866154635766284e-09,2.347163707169319e-09,1.5695645415790684e-09,3.1332778807760255e-09,9.96249798948864e-10
0.0,62,62.0,0.0,30.0,0.0,0.0,0.0,0.0,2.0,2.0,-12.0,0.0,0.0,0.0,2.794717216596481e-06,1.1586043942143248e-06,6.451927601308756e-07,4.037670533889077e-07,2.7971779941463065e-07,1.997119491674058e-07,1.4767201490752462e-07,1.215502992470104e-07,9.396931955036785e-08,7.481119381582659e-08,6.572729442693082e-08,5.428668630046757e-08,5.171478006630518e-08,4.04158849237493e-08,3.8635032947755705e-08,3.559434411076112e-08,2.818239220211089e-08,2.7593628841303784e-08,2.2112935053171395e-08,1.9064637296528592e-08,1.3770030341978776e-08,1.3736462975374253e-08,1.2234818900925855e-08,8.365609626335919e-09,6.593707577594423e-09,5.878048020775949e-09,6.609720210466797e-09,2.5264280529821657e-09,4.509100980094555e-09,7.230223121858093e-10,1.3485156848988064e-09,3.248602483916217e-09,2.928752242669458e-09,3.3945637325093485e-09
0.0,63,63.0,0.0,30.0,0.0,0.0,0.0,0.0,2.0,2.0,-12.0,0.0,0.0,0.0,2.5974765549663e-06,1.1326366348376394e-06,6.137925207902836e-07,3.670584595150202e-07,2.587229324019082e-07,1.928796914474806e-07,1.4271532233968546e-07,1.1290951879296062e-07,8.849124250434326e-08,7.23300667165568e-08,6.607016113267885e-08,5.8065912795560274e-08,4.570098200376667e-08,4.1263460625040195e-08,3.4985629434660916e-08,3.4173312434957974e-08,3.220483916153237e-08,2.622558140097528e-08,2.110673122872468e-08,1.8866067804978195e-08,1.6939948203561246e-08,1.1883467346349024e-08,1.131950333142959e-08,8.601032233038838e-09,6.4338278793650445e-09,5.473590426877341e-09,5.05796066449607e-09,3.6508226206911897e-09,1.9545251460512523e-09,2.493648381953813e-09,2.2972628237832682e-10,2.7693779224862407e-10,9.073300952180813e-10,2.0054018419390847e-09
0.0,64,64.0,0.0,30.0,0.0,0.0,0.0,0.0,2.0,2.0,-12.0,0.0,0.0,0.0,2.397405730343704e-06,1.14918001196142e-06,5.601951199208236e-07,3.5934673163807346e-07,2.415741533432949e-07,1.884410906135951e-07,1.2476305734594555e-07,1.1105729695396112e-07,8.679219645091735e-08,7.715587707652118e-08,6.197018638335826e-08,5.21916472481331e-08,4.709525689028026e-08,3.8587050498004415e-08,3.530844825674291e-08,3.0389513759114365e-08,2.6389141864051418e-08,2.745207917823966e-08,2.1568379871774922e-08,1.818474682048812e-08,1.4523662896084613e-08,1.2392562091472213e-08,1.0252705664029748e-08,7.573273262512418e-09,5.860621647674545e-09,5.288835364892865e-09,4.085583312832313e-09,2.793959120884342e-09,3.5276437537007407e-09,1.229392068743376e-09,1.0488199011737046e-09,4.669612994597293e-10,5.863905042641194e-10,1.3067428872117636e-09
0.0,65,65.0,0.0,30.0,0.0,0.0,0.0,0.0,2.0,2.0,-12.0,0.0,0.0,0.0,2.328239461592565e-06,1.0686418831750589e-06,5.631485106732342e-07,3.620716860717691e-07,2.4631418810905077e-07,1.7560043985223975e-07,1.36011213924378e-07,1.0393760767571441e-07,8.35086746735675e-08,7.190315144406381e-08,6.380452857173189e-08,5.0689616087528516e-08,4.350038376963553e-08,4.096126921952774e-08,3.260589090526821e-08,3.3066491820055696e-08,2.82037878832016e-08,2.6151175599264342e-08,2.0922481036924547e-08,1.6006420946783583e-08,1.3294217192401116e-08,1.1163766353528295e-08,1.0563695775267048e-08,7.555344039823791e-09,6.589387340726076e-09,5.008591935305374e-09,5.896600518819518e-09,4.4166923667343075e-09,3.703348242570556e-09,2.1174200180143914e-09,1.6517909266270912e-09,3.546244609695175e-10,-6.320545024186578e-11,2.244871302268399e-09
0.0,66,66.0,0.0,30.0,0.0,0.0,0.0,0.0,2.0,2.0,-12.0,0.0,0.0,0.0,2.348450083212453e-06,1.005917411022589e-06,5.8045096994605e-07,3.6210706430846414e-07,2.323193415350719e-07,1.6667189520162538e-07,1.2801791818856975e-07,1.0680734725933064e-07,8.292094089266973e-08,7.08262933928127e-08,6.020749852758146e-08,5.097589528754591e-08,4.372364050273409e-08,4.041535476982244e-08,3.2903352177341515e-08,3.090026247419315e-08,2.5171867173861876e-08,2.3452386419097315e-08,2.141022631599071e-08,1.6682298505563753e-08,1.4413166885618312e-08,1.0945419647974503e-08,8.931140935608551e-09,7.64900594779738e-09,7.086163033887502e-09,5.006521572887196e-09,4.9330088181244575e-09,3.452510523092303e-09,2.4988491203434244e-09,4.186816745379759e-09,2.054372504225018e-09,7.575937572973991e-10,6.273825921526405e-10,5.464585029518212e-10
0.0,67,67.0,0.0,30.0,0.0,0.0,0.0,0.0,2.0,2.0,-12.0,0.0,0.0,0.0,2.283851869186508e-06,1.0418490304822668e-06,5.368986861081432e-07,3.538144877610144e-07,2.224331021757061e-07,1.6753078065824269e-07,1.2734541463088936e-07,1.005920741758001e-07,8.008454895449949e-08,6.702295750126987e-08,5.5078537930273186e-08,4.765798613397426e-08,4.359249667320435e-08,3.528320819179028e-08,3.174664429204796e-08,3.0136926838328635e-08,2.756072053895943e-08,2.324954447869896e-08,1.931500490284946e-08,1.6894926865085896e-08,1.302418982624025e-08,1.1975036109238783e-08,7.409940275290588e-09,6.4322979509420065e-09,8.397574777863428e-09,3.90711807885486e-09,4.319227837987672e-09,2.5497824966500213e-09,2.576932089961885e-09,2.5330888923855142e-09,1.922934394989282e-09,2.27606898143025e-09,1.0023148835217885e-09,-3.9886352962401623e-10
0.0,68,68.0,0.0,30.0,0.0,0.0,0.0,0.0,2.0,2.0,-12.0,0.0,0.0,0.0,2.1517042115452205e-06,9.728973731649247e-07,5.058457089350195e-07,3.23801400040364e-07,2.3994707836222116e-07,1.6201130866746007e-07,1.23003230789557e-07,9.619018584784802e-08,7.699195236509536e-08,6.615340488298662e-08,5.675194930507616e-08,4.727445192661628e-08,4.039408584891558e-08,3.5785760909268286e-08,3.1456153969298043e-08,2.625598635733203e-08,2.3799769745450325e-08,2.2365606643800213e-08,1.7905800839150542e-08,1.4478289737293567e-08,1.3009770397393496e-08,1.2092410311020268e-08,7.413116234149595e-09,6.5581847466058505e-09,6.165359422327904e-09,5.746490160511788e-09,4.3487788407878355e-09,3.731638555683496e-09,2.8300421616253015e-09,7.236660232690355e-10,1.3040951511241027e-09,-3.5962613138925424e-11,1.0838435683484851e-09,1.1409539706522426e-09
0.0,69,69.0,0.0,30.0,0.0,0.0,0.0,0.0,2.0,2.0,-12.0,0.0,0.0,0.0,2.1210591961086495e-06,8.810583622197608e-07,5.094162201214836e-07,3.2680406526281565e-07,2.1046129362918542e-07,1.644006418525464e-07,1.1284730231242953e-07,9.594119180992788e-08,7.328806376842144e-08,6.481120255549903e-08,5.202258140474968e-08,4.48501737029304e-08,3.7369645306967565e-08,3.109623155804066e-08,2.945728392891265e-08,2.7618570456542592e-08,2.5684965176592837e-08,2.3866034842468304e-08,1.66292910278332e-08,1.4882048972478404e-08,1.040335427982687e-08,1.0051429903175402e-08,8.316718186884074e-09,5.731640218472185e-09,4.664017635504802e-09,4.444129857524541e-09,2.8031539608041354e-09,1.9814366126426904e-09,3.76906926047727e-09,1.5286249387172812e-09,3.822065794865503e-10,1.6478918856609655e-09,2.90782928018064e-09,2.579642543254433e-09
0.0,70,70.0,0.0,30.0,0.0,0.0,0.0,0.0,2.0,2.0,-12.0,0.0,0.0,0.0,1.9835392364295454e-06,8.607539022989418e-07,4.975772558057743e-07,3.0945630831761043e-07,2.1595997914763428e-07,1.4995167049025186e-07,1.1722082183901525e-07,8.915988922542564e-08,7.502766658871963e-08,5.863860149516071e-08,4.9457708869750845e-08,4.548726208695169e-08,3.934480316350905e-08,3.282711163984257e-08,2.990019918944162e-08,2.5912122669590844e-08,2.35642079212181e-08,2.159619170807307e-08,1.786871935408419e-08,1.5017170995637042e-08,1.04393783175059e-08,1.0053801217535805e-08,8.756186604212714e-09,7.664334610108057e-09,6.361926696153745e-09,3.95054509204444e-09,3.5462332559851727e-09,3.310155157810685e-09,2.7840963518388986e-09,3.0676364646012533e-09,5.388338410257842e-10,-9.315453693550996e-10,1.4328933957347747e-09,1.7454942121084529e-09
