Line_number,Fiducial,Easting,Northing,Height,Elevation,tx_pitch,tx_roll,tx_yaw,txrx_dx,txrx_dy,txrx_dz,rx_pitch,rx_roll,rx_yaw,S0Z_time_3.834e-04,S0Z_time_3.924e-04,S0Z_time_4.039e-04,S0Z_time_4.184e-04,S0Z_time_4.364e-04,S0Z_time_4.589e-04,S0Z_time_4.869e-04,S0Z_time_5.224e-04,S0Z_time_5.679e-04,S0Z_time_6.249e-04,S0Z_time_6.969e-04,S0Z_time_7.879e-04,S0Z_time_9.019e-04,S0Z_time_1.046e-03,S0Z_time_1.227e-03,S0Z_time_1.456e-03,S0Z_time_1.744e-03,S0Z_time_2.109e-03,S0Z_time_2.567e-03,S0Z_time_3.145e-03,S0Z_time_3.864e-03,S0Z_time_4.745e-03,S0Z_time_5.821e-03,S0Z_time_7.140e-03,S0Z_time_8.754e-03,S0Z_time_1.073e-02,S1Z_time_2.057e-05,S1Z_time_2.607e-05,S1Z_time_3.307e-05,S1Z_time_4.206e-05,S1Z_time_5.356e-05,S1Z_time_6.807e-05,S1Z_time_8.607e-05,S1Z_time_1.086e-04,S1Z_time_1.366e-04,S1Z_time_1.721e-04,S1Z_time_2.176e-04,S1Z_time_2.746e-04,S1Z_time_3.466e-04,S1Z_time_4.376e-04,S1Z_time_5.516e-04,S1Z_time_6.956e-04,S1Z_time_8.771e-04,S1Z_time_1.106e-03,S1Z_time_1.394e-03
0.0,0,0.0,0.0,30.0,0.0,0.0,0.0,0.0,-13.0,0.0,2.0,0.0,0.0,0.0,6.021566334213454e-11,4.9296786778616916e-11,4.224670668247743e-11,3.308279508455493e-11,2.4184049109254418e-11,1.9049023124984883e-11,1.5245698153519197e-11,1.0611391977606825e-11,8.27387404510559e-12,5.482972921671708e-12,3.9760942013224795e-12,2.601212414973219e-12,1.6810051401769228e-12,1.1629705152658815e-12,7.694835186927692e-13,4.5189629644315523e-13,2.833034671461443e-13,1.7617994662730084e-13,1.0878814912198393e-13,6.087255503737584e-14,3.113255720819718e-14,1.734470514093668e-14,9.774264275566647e-15,6.424600171315703e-15,5.275829774518345e-15,1.831641627484929e-15,6.0803826517132425e-09,3.527056099314979e-09,2.0156093155875267e-09,1.1761765197937183e-09,7.068459358286163e-10,3.8787022538495946e-10,2.310423458158887e-10,1.285751954734158e-10,7.402519088233292e-11,4.005751695466106e-11,2.296770368651606e-11,1.2732672543551724e-11,7.285803792236134e-12,3.857412420554002e-12,2.036505299146789e-12,1.1202457637996033e-12,6.592004183591722e-13,3.36301973948556e-13,1.4854372458993742e-13
0.0,1,1.0,0.0,30.0,0.0,0.0,0.0,0.0,-13.0,0.0,2.0,0.0,0.0,0.0,5.787020151809486e-11,4.903128911546348e-11,3.957749435378064e-11,3.164516041958346e-11,2.4122905940263353e-11,1.815146526227914e-11,1.4021265514223472e-11,1.0287432629313695e-11,7.656774698602033e-12,5.0669595180989915e-12,3.572000638312491e-12,2.7309282798170622e-12,1.6314883174667896e-12,1.0645033561419718e-12,7.198744422932116e-13,4.416675263606957e-13,2.6763196048908775e-13,1.6590870710843292e-13,9.975576987079419e-14,5.499521071281483e-14,3.083000318005926e-14,1.945149615240162e-14,9.846638940321405e-15,6.186756534128585e-15,2.2664581616034534e-15,2.6369302381234924e-15,6.079089354426883e-09,3.7011827213259105e-09,1.977833127815719e-09,1.2158356032251229e-09,7.299567621820791e-10,3.976957504267723e-10,2.3648423978165276e-10,1.2910941778817587e-10,7.066012159501647e-11,4.0685917847025133e-11,2.192090406219865e-11,1.2175548919272568e-11,6.6794428688965304e-12,3.704137825306728e-12,2.0148732581480418e-12,1.138621171216782e-12,5.572115774717043e-13,3.0511009807694715e-13,1.509890476026638e-13
0.0,2,2.0,0.0,30.0,0.0,0.0,0.0,0.0,-13.0,0.0,2.0,0.0,0.0,0.0,5.48347581305271e-11,4.697820056592427e-11,3.9824891078019085e-11,3.061609638059736e-11,2.3962097240803562e-11,1.850059010864272e-11,1.405210748714243e-11,9.766558514635873e-12,7.2293157480949284e-12,5.08584982684668e-12,3.47487568159174e-12,2.4266950769346577e-12,1.7077996847519395e-12,1.0906851807811642e-12,6.960233007411872e-13,4.365996330782004e-13,2.725818848347886e-13,1.602036507164515e-13,9.542345972671184e-14,5.565824539963962e-14,3.084512413107301e-14,1.9402461047067405e-14,1.149030753258962e-14,7.804767180639416e-15,1.195164346218136e-15,6.322597110641126e-16,5.783481565969931e-09,3.5095219829608167e-09,2.1417673626640695e-09,1.2703262082078865e-09,7.509615877187276e-10,3.9890145039550337e-10,2.3748018222977775e-10,1.2576854941247044e-10,6.80987137728019e-11,3.844602792346323e-11,2.1069997023436062e-11,1.1985966136082901e-11,6.4396499150048995e-12,3.531874248339409e-12,1.8928373943479774e-12,1.0228767126212459e-12,5.527901346975767e-13,2.9614930860383367e-13,1.5304769858498e-13
0.0,3,3.0,0.0,30.0,0.0,0.0,0.0,0.0,-13.0,0.0,2.0,0.0,0.0,0.0,5.4372456415130133e-11,4.7838102274780264e-11,3.818859254000916e-11,2.8771703478581175e-11,2.3592197336584494e-11,1.638466342081077e-11,1.2865183160963107e-11,9.54487794676482e-12,6.742964615399474e-12,4.762027226320173e-12,3.655644127290749e-12,2.2687245039139685e-12,1.517032628924558e-12,1.0308986219439105e-12,6.542014157838141e-13,4.2375743553141403e-13,2.628024889042475e-13,1.5599595835820702e-13,9.499400992153258e-14,5.300401320848857e-14,2.9889199478779347e-14,1.7885175655299236e-14,9.231303689845296e-15,5.92621183563926e-15,3.599791035704939e-15,1.318796626579589e-16,6.084497674677129e-09,3.377375971358767e-09,2.124591445503201e-09,1.2234974089893698e-09,7.522277198412204e-10,4.134591575439044e-10,2.3307174638684276e-10,1.280459533066995e-10,6.841309526361395e-11,3.8793470905225345e-11,2.0136988542155778e-11,1.082810566660882e-11,6.375786442114995e-12,3.313979972620227e-12,1.88176333110237e-12,1.0203615148727825e-12,5.44175905747671e-13,2.736995871234622e-13,1.4872405868598618e-13
0.0,4,4.0,0.0,30.0,0.0,0.0,0.0,0.0,-13.0,0.0,2.0,0.0,0.0,0.0,5.4164475046937396e-11,4.8467546498227323e-11,3.478129292328283e-11,3.049095308534579e-11,2.244067033184523e-11,1.6491978227181592e-11,1.264590179689013e-11,9.338814815191367e-12,6.529954184977927e-12,4.7831877495069966e-12,3.2775684727976365e-12,2.1873173075876882e-12,1.4930413763907782e-12,9.617082180966686e-13,6.822466780979374e-13,4.2912673398569277e-13,2.6164921026951465e-13,1.5587785091991835e-13,8.552010973013824e-14,4.985806964704852e-14,3.1489465077077695e-14,1.725978876120618e-14,1.0407158905640725e-14,6.262526957142505e-15,2.387872816626946e-15,1.6072112804173677e-15,6.436724458300582e-09,3.4446549139301756e-09,2.1743767970952344e-09,1.2411407759323208e-09,7.279721007905571e-10,4.093644883717383e-10,2.3672326812377645e-10,1.2412883553162854e-10,7.002262865850119e-11,3.5459087807206484e-11,2.0007571128789757e-11,1.0961897581330804e-11,5.989972036485113e-12,3.2009856476068057e-12,1.6700059083139606e-12,9.820451701976457e-13,5.159989383978785e-13,2.7641235336853797e-13,1.487759875022291e-13
0.0,5,5.0,0.0,30.0,0.0,0.0,0.0,0.0,-13.0,0.0,2.0,0.0,0.0,0.0,5.2771346582043845e-11,4.28757658252597e-11,3.821850608501195e-11,2.8033264582507156e-11,2.2208022466430596e-11,1.6323055292081265e-11,1.1967401215487856e-11,8.71986637046556e-12,6.289990274723281e-12,4.739789885608411e-12,3.346501438525275e-12,2.1899845273944872e-12,1.5056664346312671e-12,9.548391081345926e-13,5.88356489125411e-13,4.109349495924681e-13,2.4763380604414674e-13,1.477804644906014e-13,8.684609005522793e-14,5.2225085789707823e-14,2.7801670145609074e-14,1.7514845539317365e-14,9.86259598230089e-15,5.8912049307121945e-15,2.0056870383855317e-15,4.948210213328466e-16,6.157957055762267e-09,3.547662037990101e-09,2.006083295333406e-09,1.2420869993820964e-09,7.156906821550493e-10,4.0476280892819185e-10,2.3086583919741718e-10,1.2973808585794099e-10,7.333709890207456e-11,3.846307212792018e-11,2.0195783260418543e-11,1.0744172888620502e-11,5.653815904197602e-12,3.1813716559790694e-12,1.7202202718885414e-12,9.848346494605512e-13,5.147759804274312e-13,2.653989354260029e-13,1.4246592649684518e-13
0.0,6,6.0,0.0,30.0,0.0,0.0,0.0,0.0,-13.0,0.0,2.0,0.0,0.0,0.0,5.3327898788031815e-11,4.3178298582196857e-11,3.6428123099164e-11,2.9103316411204898e-11,2.05505601984316e-11,1.687078989606745e-11,1.20098381575683e-11,8.99291372326315e-12,6.191588070332706e-12,4.613456484335316e-12,3.03398279786342e-12,2.0170231662501885e-12,1.408296482728841e-12,9.224348762736293e-13,5.847446945703424e-13,3.6889562912039335e-13,2.439328904732088e-13,1.4439539744790776e-13,8.88376511952354e-14,5.089698255188162e-14,2.897465393081552e-14,1.6713734070802575e-14,9.965043349819971e-15,5.966477402555477e-15,2.8069450742038753e-15,2.409271347164581e-15,6.327068479842271e-09,3.3588880649158254e-09,2.1232212427368406e-09,1.2308338681974922e-09,7.099655029181144e-10,3.894289555261547e-10,2.3178857862808517e-10,1.2425305597702872e-10,6.776649426424611e-11,3.703026139170545e-11,1.97026020540786e-11,1.0461955062979581e-11,6.0391442296388164e-12,3.02350517614912e-12,1.6481221617830175e-12,9.060106806540726e-13,4.599268635084706e-13,2.4746708899501177e-13,1.3011823804355962e-13
0.0,7,7.0,0.0,30.0,0.0,0.0,0.0,0.0,-13.0,0.0,2.0,0.0,0.0,0.0,5.582682940953118e-11,4.437328121768499e-11,3.5180608118143063e-11,2.739774161464908e-11,2.1582908318601134e-11,1.596359216250872e-11,1.172469220045798e-11,8.10969066719799e-12,5.6887491501272544e-12,4.354850371512539e-12,2.9080090043889053e-12,2.0759720108883347e-12,1.3491946408719792e-12,8.836496627736625e-13,5.876516333012197e-13,3.594879600728543e-13,2.2751191482661996e-13,1.4320978352056832e-13,8.373885557843693e-14,4.726718320077481e-14,2.678213822633017e-14,1.757798518964509e-14,9.00135426234611e-15,2.4896560967775306e-15,3.8252162684346074e-15,1.1968305426418866e-16,6.137462529856832e-09,3.6502768152871846e-09,2.028094262110826e-09,1.2731545535558254e-09,7.167884320543671e-10,4.3264074639762554e-10,2.2989594127671984e-10,1.246536145245115e-10,6.35301212549581e-11,3.48990885964632e-11,1.8430772451835778e-11,9.851372681241131e-12,5.5766898639646994e-12,2.9612803355366822e-12,1.6700523521341689e-12,8.603000393212125e-13,4.590838863439181e-13,2.344130432681773e-13,1.2108338485017632e-13
0.0,8,8.0,0.0,30.0,0.0,0.0,0.0,0.0,-13.0,0.0,2.0,0.0,0.0,0.0,5.426962236108499e-11,4.515518984936378e-11,3.552338456615911e-11,2.7830718085256184e-11,2.0436222585892428e-11,1.516174138890849e-11,1.1234699563522298e-11,7.798503030719462e-12,5.766590901100483e-12,4.035578032154122e-12,2.947202709841349e-12,1.887401460562618e-12,1.2473258623862685e-12,9.048789530300945e-13,5.421673291316266e-13,3.649406582187117e-13,2.2709096184352737e-13,1.2918013269159901e-13,8.59893394711089e-14,4.832584450358465e-14,2.835600788097417e-14,1.5781445177271054e-14,8.608562865167087e-15,6.382836286007557e-15,3.0826916386213245e-15,2.6247392588739834e-15,6.464604216315108e-09,3.6503215894198405e-09,2.2552835226944706e-09,1.272651789818847e-09,6.982678019795315e-10,3.8526681441141915e-10,2.2886666813184649e-10,1.1828195432790366e-10,6.458064426721878e-11,3.390902218125128e-11,1.865703958695725e-11,9.588836287025058e-12,5.473285928763308e-12,2.8341629863816367e-12,1.511191400660319e-12,8.217081118873602e-13,4.5413440491641514e-13,2.432246678038004e-13,1.1483306966131706e-13
0.0,9,9.0,0.0,30.0,0.0,0.0,0.0,0.0,-13.0,0.0,2.0,0.0,0.0,0.0,5.388800981453677e-11,4.532092284226833e-11,3.4972397960440925e-11,2.5864311712867078e-11,2.020817752916005e-11,1.4794318111366767e-11,1.037569403327105e-11,8.02738270672196e-12,5.582772422879408e-12,3.784604234638129e-12,2.8817845963601392e-12,1.78999042076339e-12,1.1850377019394225e-12,8.280601949941144e-13,5.531628083886734e-13,3.5466230066325066e-13,2.2671784377796512e-13,1.3404775685477064e-13,7.862326257684435e-14,4.524810924344278e-14,2.85678466985819e-14,1.6098554839288416e-14,8.954630255766329e-15,5.673561812496813e-15,1.1315266567749858e-15,-6.793432016016848e-16,6.114608412605392e-09,3.567987824696929e-09,1.9899270020753005e-09,1.2702280937798895e-09,7.145881164543789e-10,4.0992086380118037e-10,2.2995227815760784e-10,1.230106839173854e-10,6.493254826851585e-11,3.4183564447871186e-11,1.7692231150262145e-11,9.80079233874697e-12,5.092771266463165e-12,2.927457438167417e-12,1.6156562092554982e-12,8.034051401402322e-13,4.380982319347368e-13,2.5082218471211183e-13,1.1587979800975025e-13
0.0,10,10.0,0.0,30.0,0.0,0.0,0.0,0.0,-13.0,0.0,2.0,0.0,0.0,0.0,5.2233997084472534e-11,4.3518340467284765e-11,3.447509804335978e-11,2.7431046822693347e-11,2.0930904526031498e-11,1.463575333536681e-11,1.0859777077859268e-11,7.578482777630964e-12,5.21152352953654e-12,3.894799056961726e-12,2.760710838505587e-12,1.86938651236216e-12,1.2165747846278575e-12,8.269611795921616e-13,5.275004566477292e-13,3.222547001935455e-13,2.1635709589453742e-13,1.2903599228511487e-13,7.4210435084216e-14,4.5912472162930965e-14,2.7686842484178073e-14,1.5264853580851607e-14,7.716202146817465e-15,4.6451164197280835e-15,2.8209044013522292e-15,2.048469156981462e-15,6.386843212619692e-09,3.4594240751706967e-09,2.2313331714813848e-09,1.284726737426095e-09,7.10332249310671e-10,4.111188661344075e-10,2.3152681111068928e-10,1.3287210574197964e-10,6.57810339619072e-11,3.6442539552706464e-11,1.766058708204939e-11,8.939754291793592e-12,4.911950973552518e-12,2.6205117469308133e-12,1.486257418118287e-12,7.674739491599356e-13,4.118766043431656e-13,2.262527615221456e-13,1.1677463727427056e-13
0.0,11,11.0,0.0,30.0,0.0,0.0,0.0,0.0,-13.0,0.0,2.0,0.0,0.0,0.0,5.417576146403161e-11,4.4834618123668224e-11,3.503134463090266e-11,2.490821197538479e-11,1.8995442879004523e-11,1.4556582927032047e-11,1.0818898399090938e-11,7.1136087493926225e-12,5.35258919162316e-12,3.935271850517601e-12,2.5703434738959588e-12,1.7578743423879402e-12,1.1947023070280525e-12,7.701525756192863e-13,5.073376484547281e-13,3.0777907163903557e-13,2.0157650944344537e-13,1.283927371629515e-13,7.299259711766447e-14,4.836667392905289e-14,2.518702292355239e-14,1.4844251919031785e-14,8.256194239059824e-15,4.221019526190754e-15,2.0126636400013336e-15,1.6236692501005357e-15,5.888584178531496e-09,3.610941796573891e-09,2.107738312861621e-09,1.267941367837165e-09,7.252926634117261e-10,4.304012038062481e-10,2.2723058124282672e-10,1.2387763034654068e-10,6.659535672374817e-11,3.261900339854789e-11,1.706809389128708e-11,9.19066502441858e-12,5.0007378905514866e-12,2.6618501211307363e-12,1.3511524477066282e-12,7.468274796902077e-13,4.1963594104777805e-13,2.195490139417737e-13,1.137348066673541e-13
0.0,12,12.0,0.0,30.0,0.0,0.0,0.0,0.0,-13.0,0.0,2.0,0.0,0.0,0.0,5.213660054562727e-11,4.373015549560743e-11,3.260286824383118e-11,2.552236506985006e-11,1.980876555715282e-11,1.335396122696687e-11,1.0359750167816443e-11,7.406140545067142e-12,5.378432344628509e-12,3.660010949808106e-12,2.583717850254453e-12,1.736342523932622e-12,1.1484305420106111e-12,7.631761079119832e-13,4.968962710147827e-13,3.117902595470608e-13,1.978696164166905e-13,1.2272484234216768e-13,7.426972880212279e-14,4.348893050656148e-14,2.519204213088114e-14,1.568976422895845e-14,7.383179438473383e-15,3.2154708984924923e-15,3.1226871578510017e-15,1.5826525039062196e-15,5.988744900471464e-09,3.505284099656389e-09,2.105918454580335e-09,1.3088826636852968e-09,7.158773846135911e-10,3.6782267665522325e-10,2.1895240184448098e-10,1.2065185113001646e-10,6.445268832531149e-11,3.549634964651453e-11,1.7451881171110658e-11,8.728350627265735e-12,4.612840920498977e-12,2.5478103734286085e-12,1.2797758389963546e-12,7.289804952594015e-13,3.7274440202978016e-13,2.0246661258364196e-13,1.0606831402714566e-13
0.0,13,13.0,0.0,30.0,0.0,0.0,0.0,0.0,-13.0,0.0,2.0,0.0,0.0,0.0,4.9843951702950006e-11,4.124419975025849e-11,3.331516554862632e-11,2.614472630355785e-11,1.9229112759910568e-11,1.3544902393291053e-11,9.909795731258037e-12,7.151764496880179e-12,4.914443670186601e-12,3.410620407237736e-12,2.4242175841170617e-12,1.6665795838270662e-12,1.138114772977658e-12,7.091550362456181e-13,4.737164686402234e-13,3.0708263986881364e-13,1.7966907897323944e-13,1.1982858528599535e-13,7.108433632594497e-14,4.455852995020091e-14,2.721574971226879e-14,1.381116472395965e-14,9.393333922480643e-15,6.33210262400093e-15,3.266835244305461e-15,1.923089348419379e-15,6.011159058441645e-09,3.4231848194562224e-09,2.154281161611178e-09,1.2573833014981534e-09,7.340998535843952e-10,4.1552691745620837e-10,2.2468042911980626e-10,1.19464674958376e-10,6.068391638568905e-11,3.2188841287918834e-11,1.7947073569261336e-11,8.865361426470297e-12,4.55072158547591e-12,2.30802190985953e-12,1.3031075001750408e-12,7.136236089498952e-13,3.968212453090148e-13,1.9967570079392656e-13,1.1049193549511717e-13
0.0,14,14.0,0.0,30.0,0.0,0.0,0.0,0.0,-13.0,0.0,2.0,0.0,0.0,0.0,5.1245154779308095e-11,3.903336837568767e-11,3.119760226353001e-11,2.5333783753166738e-11,1.881634778553522e-11,1.442882108883177e-11,9.877155482449695e-12,7.222870364305094e-12,4.906852913615435e-12,3.369080299846728e-12,2.2365208263146112e-12,1.6401462911815235e-12,9.964818009994073e-13,7.294065118152309e-13,4.4425915413290684e-13,2.979329532157401e-13,1.8660373386472063e-13,1.1850057049132932e-13,7.344112572337022e-14,4.415792550261896e-14,2.2333455802642237e-14,1.4869988435028046e-14,7.583536700179892e-15,3.978359738855464e-15,9.407479539298825e-16,6.375463928909547e-16,5.967684876055851e-09,3.5314386044664965e-09,2.1532648900282376e-09,1.2975259798770167e-09,7.258323302687222e-10,4.061427414728843e-10,2.2441143855030798e-10,1.2045641536295607e-10,6.190246397824669e-11,3.153023407745438e-11,1.7211193322459316e-11,8.283135680139234e-12,4.5105280169666685e-12,2.2806302946423987e-12,1.2354255031783918e-12,7.044211164588819e-13,3.6106678792791704e-13,2.001322629750066e-13,1.121196367273594e-13
0.0,15,15.0,0.0,30.0,0.0,0.0,0.0,0.0,-13.0,0.0,2.0,0.0,0.0,0.0,5.356289609001037e-11,4.2698550530929865e-11,3.2870328291978685e-11,2.539936837245842e-11,1.8480417661593493e-11,1.2784470486554582e-11,9.796153701389242e-12,6.924842980924209e-12,4.70832699341805e-12,3.234036639168149e-12,2.4111637883862168e-12,1.490754339881107e-12,1.0332243841214741e-12,7.036681108245959e-13,4.3516211020443495e-13,2.892913191580001e-13,1.8750920933413632e-13,1.1259152065695662e-13,6.701763283158834e-14,4.34188564655999e-14,2.4724743726498212e-14,1.2097573115984378e-14,7.452379701924185e-15,6.19946507908431e-15,9.762452626457356e-16,2.7627838044659475e-15,6.157142400665142e-09,3.555337019744089e-09,2.0401968982319282e-09,1.2881529690788415e-09,7.302268833060951e-10,4.191743229669905e-10,2.2572286604015128e-10,1.1866008014335495e-10,6.505089426186997e-11,3.203511271668519e-11,1.6552299686318378e-11,8.65149006233119e-12,4.303268741522762e-12,2.1656718671909456e-12,1.2646579812285765e-12,6.464779710362631e-13,3.619890888322959e-13,1.8825425476961622e-13,9.143520010403521e-14
0.0,16,16.0,0.0,30.0,0.0,0.0,0.0,0.0,-13.0,0.0,2.0,0.0,0.0,0.0,4.991996109564735e-11,3.999216351686587e-11,3.114468139888536e-11,2.471279435298201e-11,1.792195804030107e-11,1.3973567942359528e-11,9.233082484987324e-12,7.0327683463903276e-12,4.464954611156572e-12,3.205335251376286e-12,2.2221227515055267e-12,1.5212800698873768e-12,9.810796171195744e-13,6.549865912499947e-13,4.313419772773283e-13,2.806487105671267e-13,1.7252390829129572e-13,1.1365537587044393e-13,6.527527689518452e-14,4.042022541350595e-14,2.273968902050765e-14,1.4152840395021443e-14,7.321473327479437e-15,5.595959349506782e-15,2.4240898398102024e-15,6.271890427946056e-16,6.1450085373890476e-09,3.6804063480696543e-09,2.247172595732951e-09,1.3084948670784383e-09,7.351384402131148e-10,4.1007133848690864e-10,2.2318532540272326e-10,1.204671359397995e-10,6.437819905549241e-11,3.071253361863918e-11,1.6335992536544392e-11,7.696404285130136e-12,4.181935153378738e-12,2.1695969814638517e-12,1.1362706877180325e-12,6.352180012479791e-13,3.4263916968924467e-13,2.0124009352851226e-13,9.596855294010208e-14
0.0,17,17.0,0.0,30.0,0.0,0.0,0.0,0.0,-13.0,0.0,2.0,0.0,0.0,0.0,5.09606093539397e-11,3.9695670766076184e-11,3.141198473698813e-11,2.4222494631069395e-11,1.7770718174667702e-11,1.2585134632306301e-11,9.402048031092797e-12,6.320426206346197e-12,4.311902013312387e-12,3.201982874736908e-12,2.009964907801339e-12,1.4461143777095481e-12,1.0737402373857713e-12,6.658838933427256e-13,4.178447655915156e-13,2.7151614204817604e-13,1.765815873196357e-13,1.1043252437649486e-13,6.720130265694594e-14,4.0951446369773586e-14,2.3150395359243778e-14,1.3701839617073133e-14,7.063032489125402e-15,4.303251546559962e-15,1.5620100524798662e-15,1.7513267937514957e-15,6.10564261209891e-09,3.7012322956100098e-09,2.1102068100072307e-09,1.2235214284819386e-09,7.435574646395661e-10,4.1335478781982783e-10,2.3181649210533315e-10,1.2117080206129304e-10,5.950625159937361e-11,3.189688298292876e-11,1.5845160041417928e-11,8.208610688927032e-12,4.266502282062678e-12,2.2099743235751872e-12,1.1225053493274593e-12,6.227360415443871e-13,3.137076643054189e-13,1.6329826252759055e-13,9.940094612492692e-14
0.0,18,18.0,0.0,30.0,0.0,0.0,0.0,0.0,-13.0,0.0,2.0,0.0,0.0,0.0,4.92366153979568e-11,4.2840224886160494e-11,3.0490510360360775e-11,2.5798656564360575e-11,1.8057785175198632e-11,1.3519593862215914e-11,9.426653153405407e-12,6.513863665206737e-12,4.1670657018945484e-12,3.030511630195708e-12,2.0172417721162293e-12,1.3086887779029753e-12,9.332067761680123e-13,6.172665456697008e-13,4.126756759248666e-13,2.6289961475674995e-13,1.727897962467378e-13,1.023591817932706e-13,6.426251622589481e-14,3.959391185903289e-14,2.1495924476185064e-14,1.3195535066945987e-14,4.483228231687516e-15,3.1459722418124644e-15,2.659831435725161e-15,1.5256019703640923e-15,6.153756509095615e-09,3.5914033240099066e-09,2.09198860613892e-09,1.3045663433151143e-09,7.204097684112666e-10,4.129578762428357e-10,2.3509199769225225e-10,1.1576433802026722e-10,6.278280119059227e-11,3.086610625735564e-11,1.5183613669618566e-11,7.952000023583813e-12,3.984587073689324e-12,2.1117153141421073e-12,1.1758076117863546e-12,5.929688328119266e-13,3.1708285174806344e-13,1.8198893387234574e-13,9.223275199423204e-14
0.0,19,19.0,0.0,30.0,0.0,0.0,0.0,0.0,-13.0,0.0,2.0,0.0,0.0,0.0,4.969317300845774e-11,3.83380056211327e-11,3.0184609088804234e-11,2.3068412412336978e-11,1.801437321230536e-11,1.2896573229161133e-11,9.286547428337696e-12,5.9556917197035704e-12,4.384325813986487e-12,2.9540272749073204e-12,2.128270920483769e-12,1.3962455300605689e-12,9.130422007898464e-13,6.095086686964932e-13,4.0627358888291885e-13,2.509007502502567e-13,1.5909200507015815e-13,1.0406392624260004e-13,6.484518762297715e-14,3.8869682436984655e-14,2.2570398340867472e-14,1.312815849071991e-14,8.415870018843709e-15,4.2076856969602755e-15,1.4981541276382652e-15,2.80213730789787e-16,6.079312292158337e-09,3.477585068157603e-09,2.1122070742535816e-09,1.2296822865773838e-09,7.571514017280457e-10,3.965107235437007e-10,2.1756410370893695e-10,1.1905885711766725e-10,5.803967934989267e-11,2.9819103052575534e-11,1.6175101536460867e-11,7.469357910122578e-12,3.973283528048263e-12,2.141360568756369e-12,1.0995787694305024e-12,5.841467756522862e-13,3.4026976118577196e-13,1.62059147135553e-13,6.886421528592555e-14
0.0,20,20.0,0.0,30.0,0.0,0.0,0.0,0.0,-13.0,0.0,2.0,0.0,0.0,0.0,4.7963968791995165e-11,3.851919951200003e-11,3.075967069947774e-11,2.2910333152438818e-11,1.7639430665668616e-11,1.2623324758777466e-11,8.438006298062418e-12,6.262794176129445e-12,4.173348657844776e-12,2.6388848649133064e-12,1.978606503702817e-12,1.2478161249252997e-12,9.252962181681933e-13,5.933676140588838e-13,3.8774012432300143e-13,2.6092715699015207e-13,1.6263190598845646e-13,1.058099868675444e-13,6.322683202473075e-14,3.6900225102671114e-14,2.374829537324166e-14,1.0580137426941747e-14,6.6805100503206e-15,3.2622569965914204e-15,1.9572516610069246e-15,1.6648017843619557e-15,6.1794964324650446e-09,3.752400199590763e-09,2.1778786716936763e-09,1.3154561813846196e-09,7.18034002953932e-10,3.9693107868176547e-10,2.2165995808464452e-10,1.163235257754442e-10,6.22509860091139e-11,3.0020246020739405e-11,1.5386394062498698e-11,7.544695910836577e-12,3.972176606115469e-12,1.9624129146212614e-12,1.0483831399307585e-12,5.793501610534523e-13,2.8197665606071697e-13,1.72557202463949e-13,8.162108144360891e-14
0.0,21,21.0,0.0,30.0,0.0,0.0,0.0,0.0,-13.0,0.0,2.0,0.0,0.0,0.0,4.7535173761078875e-11,4.013901367761769e-11,3.0120334709721335e-11,2.3421271774305885e-11,1.7789055933023614e-11,1.2620430215311055e-11,9.27066156508545e-12,5.803362177366055e-12,3.870265432593708e-12,2.7996944383931587e-12,1.949790276295677e-12,1.2848637898602143e-12,7.953075711677211e-13,5.809067710741926e-13,3.7921886761935843e-13,2.5434082332722797e-13,1.511513036679615e-13,1.0317524621132913e-13,5.759960721208979e-14,3.485010226934519e-14,1.827818838145454e-14,1.4727095536535547e-14,4.767308338585833e-15,5.086269888264955e-15,2.0707395829805495e-15,1.1570229205223654e-15,6.4337900420607635e-09,3.676184156153971e-09,2.2118946043380153e-09,1.3764557104922154e-09,7.614218231649764e-10,4.3808619633700665e-10,2.1160692388392434e-10,1.0941627856707782e-10,5.98247601000492e-11,3.03576275992286e-11,1.4969094716496187e-11,7.52153746024767e-12,3.758765271047589e-12,1.9010820619839918e-12,1.0321547286704446e-12,5.37081051742837e-13,2.992412929237614e-13,1.7501409749038794e-13,5.872754421773771e-14
0.0,22,22.0,0.0,30.0,0.0,0.0,0.0,0.0,-13.0,0.0,2.0,0.0,0.0,0.0,4.766700387050517e-11,3.94171161975776e-11,2.920412605863716e-11,2.392811396988775e-11,1.7183732302768905e-11,1.215713610617147e-11,8.165799641899853e-12,5.721345643199396e-12,3.956020426984544e-12,2.7755188150519447e-12,1.872712744313879e-12,1.297575207830658e-12,8.316634627920305e-13,5.426449545698412e-13,3.68948535551697e-13,2.3153322520980814e-13,1.5956547382426155e-13,9.471980945960855e-14,6.065288800482081e-14,3.7392093215002494e-14,1.9974161757617092e-14,1.1493934357259734e-14,5.1353279519728884e-15,4.202908293917148e-15,2.45667412723521e-15,1.5647812026014427e-15,6.234178914686452e-09,3.5965526807107954e-09,2.056651350830606e-09,1.2588410176138016e-09,7.007576505962031e-10,3.9969846730340106e-10,2.1409330639153544e-10,1.1140517536375521e-10,5.7305042902671856e-11,2.9053098988748532e-11,1.4065715685496637e-11,7.333960470571293e-12,3.771423126868451e-12,1.829867422066269e-12,9.976061861114384e-13,5.418358082375272e-13,3.050449957162531e-13,1.4545594545815896e-13,8.589296304693142e-14
0.0,23,23.0,0.0,30.0,0.0,0.0,0.0,0.0,-13.0,0.0,2.0,0.0,0.0,0.0,4.682150166505875e-11,3.8877466880358054e-11,2.973396916364141e-11,2.301356739026583e-11,1.5799819264563636e-11,1.1640485974755681e-11,8.450327554891572e-12,5.719987291390921e-12,3.847854457726095e-12,2.5099049562178973e-12,1.7813974387700122e-12,1.2236203550851473e-12,8.308041923562331e-13,5.490004702902003e-13,3.590196679903366e-13,2.2092772093171047e-13,1.5706388302779328e-13,8.937710811556528e-14,5.678306015164e-14,3.6170216739723123e-14,2.1261826287652205e-14,1.10080060148604e-14,7.228805707868365e-15,5.010581540919383e-15,2.622628254810649e-15,2.740406025870658e-15,6.233426636943938e-09,3.769353351477912e-09,2.1438543314893956e-09,1.2646589037970414e-09,7.432223211462001e-10,4.0622667623094414e-10,2.2406279921613748e-10,1.1936349759953362e-10,5.4552517667632194e-11,2.99706345597926e-11,1.3701897846544138e-11,6.806839177420444e-12,3.4382463062356042e-12,1.7851457672772028e-12,9.470089828659594e-13,4.876115957463172e-13,2.891098468062235e-13,1.5376551860862358e-13,6.340323645202728e-14
0.0,24,24.0,0.0,30.0,0.0,0.0,0.0,0.0,-13.0,0.0,2.0,0.0,0.0,0.0,4.6080113449551923e-11,3.762529001406183e-11,3.079600006877544e-11,2.1685043687364693e-11,1.56928518601338e-11,1.2438628781005613e-11,8.048910803258396e-12,5.529016771887901e-12,3.783024425491963e-12,2.509812124611466e-12,1.7436607973473888e-12,1.1664059987694236e-12,7.845053534554776e-13,5.306988478843342e-13,3.5239791284365654e-13,2.1140535977139955e-13,1.3960051508896768e-13,9.437844609328292e-14,5.829310490667502e-14,3.2301329781347326e-14,2.1609786357648222e-14,1.1199847420980147e-14,5.864520137360321e-15,3.350632624235474e-15,1.1826695601789172e-15,1.531708807997019e-15,6.560949684985009e-09,3.610424738889133e-09,2.0807452738169187e-09,1.313449885146219e-09,7.262630084380948e-10,4.0889160617245214e-10,2.1011556896932653e-10,1.14703268572764e-10,5.685014802622004e-11,2.8671113348989183e-11,1.3912553739490532e-11,7.0112861852067184e-12,3.2906378751194704e-12,1.6796894925274388e-12,9.146584100410771e-13,4.839282432340956e-13,2.673163041983205e-13,1.2532246804129734e-13,9.10424994998396e-14
0.0,25,25.0,0.0,30.0,0.0,0.0,0.0,0.0,-13.0,0.0,2.0,0.0,0.0,0.0,4.800436962416814e-11,3.7111606894306324e-11,3.023266237211857e-11,2.2846521060241902e-11,1.4989450317706257e-11,1.1537008910570591e-11,8.32398349266799e-12,5.474904100657452e-12,3.700577183720882e-12,2.4465307719024624e-12,1.7050320448903872e-12,1.1365900217071284e-12,7.594496998832159e-13,5.348810156229024e-13,3.3415983892549944e-13,2.168704529133227e-13,1.5095108706786076e-13,9.058978779470134e-14,5.4726006210111635e-14,3.4457370563127e-14,2.0013700691886387e-14,1.0555269613697573e-14,7.942516536584463e-15,4.138821671229166e-15,2.0691140349361227e-15,1.7202263364969401e-15,6.0799099937089076e-09,3.6236315663838914e-09,2.213948231036818e-09,1.3057210962893208e-09,7.122828130225409e-10,3.999079985312599e-10,2.1367804261626768e-10,1.1540806514371627e-10,5.816324167507168e-11,2.9057153413574695e-11,1.429455281374739e-11,6.920470378488317e-12,3.2723876750385203e-12,1.8265109895404197e-12,8.926363159861268e-13,4.75570672089352e-13,2.560451373214651e-13,1.2811360770357382e-13,6.722557298210692e-14
0.0,26,26.0,0.0,30.0,0.0,0.0,0.0,0.0,-13.0,0.0,2.0,0.0,0.0,0.0,4.703988523503777e-11,3.70159230689295e-11,2.867354444943631e-11,2.1929686978427717e-11,1.5366272712553055e-11,1.104645537626018e-11,8.260379806353282e-12,5.268961891156752e-12,3.597642644027868e-12,2.3568618237568545e-12,1.700099233614812e-12,1.1104685843432502e-12,7.584202496947453e-13,4.947753608876033e-13,3.2911352080607016e-13,2.164431622849255e-13,1.3583735843286566e-13,8.387727079895742e-14,5.673187125032995e-14,3.432536548116454e-14,2.0892827763848943e-14,1.0323679980821634e-14,6.665191037942474e-15,4.242881420831489e-15,2.700755563801116e-15,2.754720642632466e-15,6.249173310484808e-09,3.84472725011545e-09,2.0619445388928336e-09,1.301503493696313e-09,7.019051303089376e-10,4.0434308442310383e-10,2.2321914315629457e-10,1.0937809517368065e-10,5.945034789144674e-11,2.8500149367893195e-11,1.458274843055902e-11,6.8584523365216076e-12,3.2867097432854927e-12,1.6801097328585269e-12,8.564783915383177e-13,4.756252295238597e-13,2.39704508859163e-13,1.353771957390082e-13,4.241409662915052e-14
0.0,27,27.0,0.0,30.0,0.0,0.0,0.0,0.0,-13.0,0.0,2.0,0.0,0.0,0.0,4.480166979757386e-11,3.588694127254962e-11,2.954172067827054e-11,2.1947938404790624e-11,1.571573795950536e-11,1.1142017384362129e-11,7.927898578928146e-12,5.274335233754009e-12,3.713152736572616e-12,2.3993350935774536e-12,1.5682167979992948e-12,1.0976243104146777e-12,7.218517416813035e-13,5.004179136632103e-13,3.3420222376130027e-13,2.0091784641688874e-13,1.358109783099632e-13,8.917449890486332e-14,5.0048930796998916e-14,3.196926263069114e-14,1.8112250781366127e-14,1.2441173913421563e-14,5.523175460715871e-15,3.724487141879625e-15,8.843020483827547e-16,2.652362839076096e-15,6.340898162993798e-09,3.650139610625673e-09,2.089316972437668e-09,1.2833306536908641e-09,7.372950414475909e-10,3.952471988438235e-10,2.1294638154741505e-10,1.1147242966653591e-10,5.339192514775381e-11,2.7112780894309495e-11,1.3206743400705187e-11,6.7223869887390276e-12,3.2791545412065996e-12,1.596864622108746e-12,8.144285555231491e-13,4.616964004741069e-13,2.3885967341880687e-13,1.0652217244091248e-13,5.6068784117597034e-14
0.0,28,28.0,0.0,30.0,0.0,0.0,0.0,0.0,-13.0,0.0,2.0,0.0,0.0,0.0,4.8227193673237764e-11,3.660645697988665e-11,2.6988633476271715e-11,2.2032985570266872e-11,1.5362689910558826e-11,1.1247546723573503e-11,7.37770230377637e-12,5.457655602727148e-12,3.4550067180520253e-12,2.2908911468174775e-12,1.5163465479242546e-12,1.0285531830775188e-12,6.861568426622707e-13,4.984203251619021e-13,3.0669812075561013e-13,2.1199825581648436e-13,1.3530034459100717e-13,8.377635999162823e-14,5.006837314109999e-14,3.165302565638055e-14,1.9951870204302404e-14,1.2061606286895426e-14,7.665951006537191e-15,4.924135231749425e-15,1.1201751186865252e-15,1.3613863843962055e-15,6.571609314999989e-09,3.458100021849752e-09,2.190384922547363e-09,1.2879949088941168e-09,7.403241363870512e-10,3.979296822882076e-10,2.0285871830991558e-10,1.0904854999808557e-10,5.750981206267426e-11,2.9096228097660425e-11,1.3734133732903845e-11,6.377166340078659e-12,3.125335383836576e-12,1.555871438095143e-12,7.907101828868797e-13,4.2694647518135854e-13,2.3807479053952373e-13,1.4689020561067558e-13,6.640479333003453e-14
0.0,29,29.0,0.0,30.0,0.0,0.0,0.0,0.0,-13.0,0.0,2.0,0.0,0.0,0.0,4.5464799741529196e-11,3.657979642656318e-11,2.812316064714434e-11,2.1796285832129013e-11,1.5594017810966112e-11,1.0556363176258643e-11,6.867515956164675e-12,4.8527836325662775e-12,3.4293820552967756e-12,2.264316219965424e-12,1.5359281328806511e-12,9.926536005097933e-13,7.033826960953816e-13,4.718038509969657e-13,3.1220876912060997e-13,1.9491239995439624e-13,1.2493344495776407e-13,8.253634163682365e-14,4.8988555938457865e-14,3.080081150237664e-14,1.6710777963673764e-14,1.2951617926511788e-14,5.4191191743283454e-15,3.3080720194397713e-15,7.162359677087558e-16,1.796353441499595e-15,6.519272576167082e-09,3.963563539897434e-09,2.1179889937628275e-09,1.3731335920893359e-09,7.45518906706729e-10,3.8877703372787635e-10,2.0595947579523644e-10,1.089800488653942e-10,5.614912598594942e-11,2.9012241172265212e-11,1.3058650601547971e-11,6.506374731890683e-12,3.1340336896111586e-12,1.5840289082085804e-12,8.089717362584693e-13,4.4275868685440307e-13,2.2504465289965937e-13,1.3803607472004578e-13,5.718910339587789e-14
0.0,30,30.0,0.0,30.0,0.0,0.0,0.0,0.0,-13.0,0.0,2.0,0.0,0.0,0.0,4.3822382824089454e-11,3.69075660407678e-11,2.6655865202425842e-11,2.107197672287796e-11,1.4839769511741315e-11,1.0115322502158563e-11,7.958878722698086e-12,4.749809332315493e-12,3.3060218940036308e-12,2.1691901457168544e-12,1.4323532384720124e-12,1.0111084483678485e-12,6.586091334487944e-13,4.3661768927664536e-13,3.0534270633524043e-13,1.9668793801343272e-13,1.2195268315053978e-13,8.047973429577241e-14,4.5657516480245806e-14,3.0758197551998454e-14,1.8010818466583573e-14,1.2397936015158714e-14,6.685951216760843e-15,2.9688762977529854e-15,9.632028387784302e-16,1.9532185031631083e-15,5.9656160165404395e-09,3.721495332764955e-09,2.2112304225119145e-09,1.3728068468279069e-09,6.846215277940315e-10,3.8441292950757115e-10,2.174233746478341e-10,1.0849845524728393e-10,5.583021077539827e-11,2.7434760339866785e-11,1.294221838652835e-11,6.1159157434198946e-12,3.0490387552669645e-12,1.5630027018660496e-12,7.766315964143237e-13,4.0221323681699217e-13,2.108887456652502e-13,1.0672076950080595e-13,5.472652312449236e-14
0.0,31,31.0,0.0,30.0,0.0,0.0,0.0,0.0,-13.0,0.0,2.0,0.0,0.0,0.0,4.4660231189259604e-11,3.42579174796514e-11,2.7236766329671193e-11,2.002352530640727e-11,1.42014667098671e-11,1.0435203677489871e-11,7.818012833721223e-12,4.5244849209466455e-12,3.113321585817178e-12,2.115435852387413e-12,1.4231066072066274e-12,9.573017955514285e-13,6.936450282615788e-13,4.565433671817907e-13,2.866180865347157e-13,1.922618970201907e-13,1.3106340167180368e-13,7.790436465094388e-14,4.877266825430143e-14,2.954732702168916e-14,1.6148268584165708e-14,8.918603913979859e-15,5.407338185326156e-15,4.453276305273231e-15,2.2532602288728564e-15,3.24545033842316e-15,6.480062566935907e-09,3.789622117404845e-09,2.1913622288454506e-09,1.2642474897861358e-09,7.138520260771211e-10,3.908022867069813e-10,2.0344817064974923e-10,1.0752296163267557e-10,5.36248793246165e-11,2.6877455598281167e-11,1.2536397791996385e-11,6.2441094963489555e-12,3.1172987160675065e-12,1.4463458140962441e-12,7.824561791909901e-13,3.942922229097442e-13,2.1721556526443132e-13,1.2746789940700113e-13,6.674727786670392e-14
0.0,32,32.0,0.0,30.0,0.0,0.0,0.0,0.0,-13.0,0.0,2.0,0.0,0.0,0.0,4.440778563094108e-11,3.4040181998793726e-11,2.7200164530462876e-11,1.9562183215473572e-11,1.3936634380615857e-11,9.978924549079818e-12,6.9938758775700055e-12,4.8809501579597185e-12,2.924001891712221e-12,2.110559205501385e-12,1.3964676478916173e-12,9.688597357661418e-13,6.15442117701713e-13,4.358091849929165e-13,2.886888970508959e-13,1.838537621297431e-13,1.20758328538488e-13,7.521643198936543e-14,4.754258717797642e-14,2.8038274010141288e-14,1.9478440217570096e-14,8.390930836403855e-15,6.3040792445047285e-15,4.83491640350744e-15,1.8127031173638445e-16,2.1372108515609235e-15,6.1415045619312264e-09,3.5926084319142456e-09,2.2389190375790457e-09,1.2953711567570473e-09,7.257282455567252e-10,3.9928207517448794e-10,2.136535922202774e-10,1.023610004381119e-10,5.411805843627372e-11,2.6847086991983662e-11,1.3619828068290832e-11,6.078527203849704e-12,2.7295130825443815e-12,1.3740480084680616e-12,7.361365049586429e-13,3.76851908017444e-13,2.331799048561371e-13,1.053315400346251e-13,4.6569909147615806e-14
0.0,33,33.0,0.0,30.0,0.0,0.0,0.0,0.0,-13.0,0.0,2.0,0.0,0.0,0.0,4.235903401064363e-11,3.390934788671449e-11,2.4528705359240207e-11,2.051192921567675e-11,1.3972539900814368e-11,1.0080328581880075e-11,6.813254306632799e-12,4.814397681454052e-12,3.138571669760981e-12,2.0132551453594754e-12,1.317923191513436e-12,9.05160836665865e-13,5.733386915308688e-13,4.105226539995364e-13,2.722660770786707e-13,1.8288421947714842e-13,1.17099556353512e-13,7.238769896488048e-14,4.948339125144073e-14,2.981685666078081e-14,1.6524717662058988e-14,1.0091045226022028e-14,6.411532343314561e-15,7.230080110628266e-16,1.4815720310540154e-15,9.437550421525106e-16,6.451387114855055e-09,3.699672043709423e-09,2.121920051599686e-09,1.199955210268167e-09,6.976206508332268e-10,3.873322415266242e-10,2.053660897792021e-10,1.0556760972604667e-10,5.3148212082281575e-11,2.645999035371289e-11,1.2188256512493769e-11,6.155954555648255e-12,2.644238431246343e-12,1.3395158311874163e-12,6.918041052642195e-13,4.0050281977719244e-13,2.2083484569332817e-13,1.2524287215155719e-13,6.837786822379004e-14
0.0,34,34.0,0.0,30.0,0.0,0.0,0.0,0.0,-13.0,0.0,2.0,0.0,0.0,0.0,4.292514571682394e-11,3.361723350588383e-11,2.7107835576500957e-11,1.9933833400507206e-11,1.3922696810209346e-11,1.0111351955853744e-11,6.640242491251064e-12,4.5575195010194495e-12,3.112310411442744e-12,1.9912955732820756e-12,1.283773268995875e-12,8.621816609517734e-13,5.980517396154783e-13,3.849958837461847e-13,2.437030589931478e-13,1.8261428107649484e-13,1.1243781686169426e-13,7.208533683627042e-14,4.4224573221818583e-14,2.5854437079008173e-14,1.624722266604119e-14,9.92444406282023e-15,5.968146663568772e-15,1.854498229817243e-15,1.0686734829579267e-15,2.223587039871899e-15,6.291755045484114e-09,3.561446022696803e-09,2.115347305980019e-09,1.232799352504964e-09,7.269377994625431e-10,3.7435310839392333e-10,1.9930552454212196e-10,9.975084277345415e-11,5.0728766752795944e-11,2.7133274537563752e-11,1.2473704298142541e-11,5.812660284595384e-12,2.9205599355649525e-12,1.3672504002864901e-12,7.063536461856065e-13,3.6288531359610413e-13,1.912203538978979e-13,1.0931962539757849e-13,6.861904416418769e-14
0.0,35,35.0,0.0,30.0,0.0,0.0,0.0,0.0,-13.0,0.0,2.0,0.0,0.0,0.0,4.305240030382792e-11,3.354767711083287e-11,2.642638154750532e-11,1.921111775057786e-11,1.3940357083966133e-11,9.656653267381474e-12,6.64607168314315e-12,4.688975585953781e-12,2.929992429920386e-12,1.8781738888117446e-12,1.2610138118824473e-12,8.457263232073541e-13,5.995184307566166e-13,3.875261219948463e-13,2.527868166135176e-13,1.6204976858250708e-13,1.1635461818474536e-13,6.739291317735093e-14,4.632243145086975e-14,2.887826361286757e-14,1.5329126781047855e-14,9.778766689326825e-15,5.482692468785994e-15,3.301382932881546e-15,9.93173029484112e-16,4.72240931169866e-16,6.344742191042621e-09,3.5150980655923775e-09,2.151969646524921e-09,1.2808854785292427e-09,7.028439751160313e-10,3.8363189426833855e-10,1.9303900602557254e-10,1.0203283393959726e-10,5.340731513696196e-11,2.5575400164764705e-11,1.1328217071518662e-11,5.810941606783287e-12,2.7089201998609903e-12,1.3112266955422015e-12,6.536485237276854e-13,3.4293744107155564e-13,1.915567484829256e-13,1.0790045177619764e-13,6.456868050329665e-14
0.0,36,36.0,0.0,30.0,0.0,0.0,0.0,0.0,-13.0,0.0,2.0,0.0,0.0,0.0,3.90256611829568e-11,3.1138363300815946e-11,2.6044128688969246e-11,1.8096005162946288e-11,1.35582376559198e-11,1.0016288752794781e-11,6.438359131149537e-12,4.6666305973118135e-12,2.9770581036427188e-12,1.890429033895491e-12,1.2245263564736818e-12,8.429361967682117e-13,5.525278673972599e-13,3.7184088683008177e-13,2.5591603951001503e-13,1.6913116296937792e-13,1.1405719724245761e-13,6.975221046260073e-14,4.326281393883922e-14,2.875938282066948e-14,1.6484187215724393e-14,8.828939969745004e-15,4.5596161150766414e-15,2.3701474571506783e-15,1.7488667047658733e-16,1.485385003074486e-16,6.303639642227761e-09,3.551541239535924e-09,2.341283107099043e-09,1.2405546436151902e-09,6.722540623136246e-10,3.773209837057311e-10,2.0147388997268377e-10,1.00579271795508e-10,4.912643215025759e-11,2.6179708621524626e-11,1.2441963564267882e-11,5.613836548880079e-12,2.6071839109855147e-12,1.3199621163479493e-12,6.241521226972418e-13,3.65838784581125e-13,1.9661098111510978e-13,1.1018110740420202e-13,4.2531245979417924e-14
0.0,37,37.0,0.0,30.0,0.0,0.0,0.0,0.0,-13.0,0.0,2.0,0.0,0.0,0.0,4.285420321889099e-11,3.2778606592421163e-11,2.4925511696716735e-11,1.906569904552263e-11,1.3141614145240458e-11,9.428328034704725e-12,6.421192065704519e-12,4.246904272632152e-12,2.6461664204328892e-12,1.811198468772479e-12,1.2636191557946701e-12,8.003668801290434e-13,5.99434006613654e-13,3.871078071019398e-13,2.4365394024746746e-13,1.6529921284370328e-13,1.1587451376334208e-13,6.834510364267578e-14,4.206860811941668e-14,2.636074252644422e-14,1.5937677571449263e-14,9.164599516595345e-15,4.993526880204561e-15,4.775977062014481e-15,1.8135081668021023e-15,6.333751969068503e-16,6.502636342601856e-09,3.7876220940797336e-09,2.159160163288438e-09,1.2360449687038423e-09,6.951189259422234e-10,3.731379779544058e-10,2.0459724826204455e-10,9.76438171474661e-11,4.964992644058006e-11,2.4982543600520418e-11,1.1883369375064487e-11,5.211427658399472e-12,2.6667155951348387e-12,1.2443857713288413e-12,6.675370903793684e-13,3.254621754858483e-13,1.7673923876635468e-13,1.0453247434813329e-13,5.515890256808055e-14
0.0,38,38.0,0.0,30.0,0.0,0.0,0.0,0.0,-13.0,0.0,2.0,0.0,0.0,0.0,4.073607387128077e-11,3.214690815392345e-11,2.4180943690320232e-11,1.812924614992796e-11,1.2688302964712278e-11,9.694074935401528e-12,6.358298549108841e-12,4.042833581239153e-12,2.83808535324374e-12,1.7325293382339113e-12,1.1644057037540433e-12,7.935031787666477e-13,5.159504383003985e-13,3.556378847815607e-13,2.4211413158777123e-13,1.5028023320466356e-13,1.0875595792990694e-13,6.912511285690359e-14,4.072976194669522e-14,2.853353635388692e-14,1.423915158643903e-14,1.0698306569153413e-14,5.118507402267972e-15,5.2171089507439766e-15,2.0770903960273398e-15,1.0415235509488468e-15,6.4115930733811045e-09,3.743225994502939e-09,2.189285154607951e-09,1.2411242905559353e-09,6.807441842810668e-10,3.6164691454341263e-10,1.9362396013623317e-10,1.0019195428369212e-10,5.0828911086413884e-11,2.4522508296026922e-11,1.1525346674617717e-11,5.359675211633775e-12,2.6082776559488084e-12,1.2551669671572777e-12,6.249490218451462e-13,3.421838173006569e-13,1.821823096916594e-13,9.292846072911256e-14,4.298302657727576e-14
0.0,39,39.0,0.0,30.0,0.0,0.0,0.0,0.0,-13.0,0.0,2.0,0.0,0.0,0.0,3.978867230718642e-11,3.209827863053745e-11,2.393608191529059e-11,1.8093546367753825e-11,1.3205050997207931e-11,9.039550964819157e-12,6.258523601494657e-12,4.094465539852199e-12,2.6540725723764837e-12,1.79359117568254e-12,1.1054462306507213e-12,8.307453187990117e-13,5.024130518452814e-13,3.4102949064727907e-13,2.303764014313237e-13,1.521823867119216e-13,9.920602978135437e-14,6.677786858611937e-14,4.0651938117167397e-14,2.4885458488640683e-14,1.3500486931111096e-14,8.437287652932485e-15,5.475287122037052e-15,3.3701775570069445e-15,3.0220343155773092e-16,1.0151934622809318e-15,5.978397018817244e-09,3.804585660757884e-09,2.1677477384034036e-09,1.2883043399367115e-09,6.942896246449947e-10,3.7826134304940553e-10,1.8945341710697198e-10,9.81002934734263e-11,4.79980022250558e-11,2.4657161307229566e-11,1.1398755066964718e-11,5.305605817673187e-12,2.634037080685777e-12,1.1501643424995401e-12,6.385957781467711e-13,3.076212852434635e-13,1.702800266140287e-13,7.816585616473095e-14,5.0958191919452905e-14
0.0,40,40.0,0.0,30.0,0.0,0.0,0.0,0.0,-13.0,0.0,2.0,0.0,0.0,0.0,3.908768794823313e-11,3.055976300538227e-11,2.523683771198906e-11,1.7204199357968808e-11,1.2663828641811004e-11,9.079286216095166e-12,6.2017335197993144e-12,3.914180753370759e-12,2.6397511488221225e-12,1.8256391789904298e-12,1.122624549756678e-12,7.959523563258927e-13,5.09255362023132e-13,3.453595640246552e-13,2.1103707291293888e-13,1.495722326182015e-13,1.0297159187693623e-13,6.371556329367844e-14,3.8791255664892764e-14,2.443933155594971e-14,1.5454900911549713e-14,8.293876673034187e-15,4.755277106219974e-15,2.2441283451348388e-15,5.7854380306501e-16,2.825994560963335e-15,6.230033391194899e-09,3.847188618614787e-09,2.2036130471962715e-09,1.290319557580569e-09,6.945388709421522e-10,3.618986851268905e-10,1.953933412836832e-10,9.594209615902664e-11,4.8603926146177694e-11,2.31358628606782e-11,1.1000165883779103e-11,5.307931637401838e-12,2.3904259484228437e-12,1.2462597090381013e-12,6.098921957937956e-13,3.317768194978733e-13,1.6499994271806257e-13,9.032871609810957e-14,5.892214447097491e-14
0.0,41,41.0,0.0,30.0,0.0,0.0,0.0,0.0,-13.0,0.0,2.0,0.0,0.0,0.0,4.092973654626854e-11,3.043940271203469e-11,2.402488981595819e-11,1.780922680796323e-11,1.255690749652573e-11,8.504737609975155e-12,5.779736678580623e-12,4.288611619652975e-12,2.7060546357188584e-12,1.777622296343024e-12,1.0553982241471498e-12,6.835933476745707e-13,5.11283472372643e-13,3.210151066429075e-13,2.274011635251345e-13,1.5078975143836077e-13,9.866639365075323e-14,6.30164334425504e-14,4.079722405715874e-14,2.483514598742e-14,1.4028907647798807e-14,8.692419410158886e-15,3.965353107789154e-15,2.947174164668359e-15,2.1857084569116916e-15,2.300058180783134e-15,6.430533532262545e-09,3.721089896476248e-09,2.139149053173921e-09,1.231266499728297e-09,6.627046271839398e-10,3.595679729501738e-10,1.862760076669158e-10,1.0126150513588723e-10,4.756523514398561e-11,2.4442650088226438e-11,1.0799842079211123e-11,5.11537784668684e-12,2.421784747538102e-12,1.1593864280597436e-12,5.617739177622016e-13,2.960771517781437e-13,1.6446703719236566e-13,9.579786903077813e-14,5.047681540762203e-14
0.0,42,42.0,0.0,30.0,0.0,0.0,0.0,0.0,-13.0,0.0,2.0,0.0,0.0,0.0,3.840481759462263e-11,2.979524551082193e-11,2.385783169933495e-11,1.6199565747081425e-11,1.2897227395213808e-11,8.660307817267701e-12,6.051345978884903e-12,3.900391287052583e-12,2.4948089556485015e-12,1.7174390418457047e-12,1.103279588305834e-12,7.166190419384394e-13,4.712310646357507e-13,3.3638581260638086e-13,2.2534953689388833e-13,1.4160832828186713e-13,9.233798485948583e-14,6.096455924562298e-14,3.64126097508558e-14,2.376440665634361e-14,1.4562741801242858e-14,7.108961042350007e-15,4.383692774286609e-15,4.042701657722494e-15,1.7444481876556297e-15,-1.0320596732734812e-15,6.55521888173296e-09,3.882583365521443e-09,2.2599138959919496e-09,1.2701773650025514e-09,6.614401349577786e-10,3.5029161326566204e-10,1.836683126645168e-10,9.730981606441477e-11,4.583215103721349e-11,2.2514890161299813e-11,1.0964205904923642e-11,4.992890203804015e-12,2.27995311364324e-12,1.1509218164620882e-12,5.928034255931626e-13,2.842094471745765e-13,1.5380600337233305e-13,8.69614260587644e-14,4.585198568314692e-14
0.0,43,43.0,0.0,30.0,0.0,0.0,0.0,0.0,-13.0,0.0,2.0,0.0,0.0,0.0,3.9503832249801515e-11,3.0717809115205354e-11,2.2814373427503556e-11,1.6817529963543025e-11,1.2397481479334757e-11,8.155496365684558e-12,5.608205309756228e-12,3.88076031040805e-12,2.537261065824133e-12,1.5819151734778684e-12,1.0514341907077867e-12,7.282735228972006e-13,4.4687576236879386e-13,3.144794180082667e-13,2.0292410464235368e-13,1.460771840567429e-13,8.872369012725492e-14,5.97587749976417e-14,3.7412293661519336e-14,2.2742725589439085e-14,1.3728924167249081e-14,8.79983369672558e-15,5.624723684911523e-15,1.3524107455653276e-15,1.3783862705304381e-15,7.743181922462535e-16,6.453838385764622e-09,3.963964387870086e-09,2.1500986896605214e-09,1.2659825066591774e-09,6.78395547247576e-10,3.4823643574290137e-10,1.8648356532746852e-10,9.383125929838432e-11,4.7179468166966506e-11,2.2226866136230725e-11,1.0981053230387484e-11,4.886671441990818e-12,2.326801017787211e-12,1.1556870142838986e-12,5.542752462287887e-13,2.850370363891117e-13,1.5737167381972487e-13,1.0516750492222617e-13,3.874208803269127e-14
0.0,44,44.0,0.0,30.0,0.0,0.0,0.0,0.0,-13.0,0.0,2.0,0.0,0.0,0.0,3.814855185128766e-11,3.033856775304705e-11,2.2631354759983348e-11,1.6599047742428274e-11,1.2391433100443796e-11,8.264601897218671e-12,5.919099829737615e-12,3.6197447988537107e-12,2.473809485764136e-12,1.6125407636454444e-12,1.0461193448509172e-12,6.63073540354989e-13,4.3626112298183036e-13,2.988395349484702e-13,2.1105309170198839e-13,1.428015118704726e-13,8.83733757230672e-14,6.332311273783151e-14,3.651166701365782e-14,2.409966838141071e-14,1.3824415335579694e-14,8.471261197889577e-15,5.9048399854950646e-15,4.294104727659259e-15,2.749125899677762e-15,1.1735599544701214e-15,6.613135178556645e-09,3.829004262305818e-09,2.3214210567752035e-09,1.1959752088041078e-09,6.62246390993374e-10,3.404333116047306e-10,1.8138311870672394e-10,9.112734072382153e-11,4.693962814084089e-11,2.1592593867211706e-11,1.1049944522095956e-11,4.961799843252833e-12,2.1931209164493536e-12,1.0621752131240988e-12,5.319791166546082e-13,2.5820836319958435e-13,1.6229029195208323e-13,7.836138346889289e-14,3.772731458564688e-14
0.0,45,45.0,0.0,30.0,0.0,0.0,0.0,0.0,-13.0,0.0,2.0,0.0,0.0,0.0,3.6219994563005196e-11,2.961069484365069e-11,2.2364138169717504e-11,1.665482806463437e-11,1.2019790884016741e-11,8.084019762124957e-12,5.5237908114458935e-12,3.5889898212998336e-12,2.2254642342250115e-12,1.5421127199795863e-12,9.629221715272534e-13,6.838159469253142e-13,4.455186473538349e-13,3.0190378895635433e-13,1.974552501349077e-13,1.2842181500691866e-13,9.088208974908e-14,5.858538127696492e-14,3.441820155006142e-14,2.399647490182787e-14,1.2808127717364189e-14,9.48723513191028e-15,5.518525243294036e-15,2.8560133118308115e-15,2.6397141104791692e-15,1.7765287455003645e-15,6.207184854169999e-09,3.892675668814824e-09,2.3290609312647695e-09,1.2565511223424905e-09,6.607304189270454e-10,3.470803558489378e-10,1.760807820503444e-10,8.972083416746824e-11,4.5134427960420016e-11,2.1525283544923517e-11,1.029379390576565e-11,5.070036481609072e-12,2.185448916554329e-12,1.1037944033676003e-12,5.272584448318908e-13,2.7061406869325505e-13,1.4199087094557936e-13,1.0087691440113329e-13,3.8145383992577316e-14
0.0,46,46.0,0.0,30.0,0.0,0.0,0.0,0.0,-13.0,0.0,2.0,0.0,0.0,0.0,3.8108303338002174e-11,3.021519651040592e-11,2.1432247641331468e-11,1.6506351166677918e-11,1.1741877719039763e-11,8.142188166250787e-12,5.338901031006519e-12,3.6467776354156e-12,2.3459490896754955e-12,1.4588173675362647e-12,9.60404162176027e-13,6.351082182866997e-13,4.389346363173592e-13,3.0651226278536506e-13,1.9402894243735356e-13,1.2557389714270864e-13,8.423448710272676e-14,5.661734526364116e-14,3.4422794190910267e-14,2.2695391360028425e-14,1.310623217074096e-14,7.20839694209683e-15,6.106599411473753e-15,3.642784834264683e-15,1.5572389702683117e-15,1.2842982795884074e-15,6.593381776420225e-09,3.8206343540576675e-09,2.1034738243811712e-09,1.2642381997420564e-09,6.743663584592039e-10,3.271908923384266e-10,1.6833268576834172e-10,9.299696549521838e-11,4.4227501696597813e-11,2.1479830825309344e-11,1.011252522890214e-11,4.774386079970153e-12,2.3988731494732795e-12,1.0415539803926493e-12,5.094704503137547e-13,2.5927610480138087e-13,1.3843892164095443e-13,7.439073111321267e-14,4.230511768742602e-14
0.0,47,47.0,0.0,30.0,0.0,0.0,0.0,0.0,-13.0,0.0,2.0,0.0,0.0,0.0,3.635287245671997e-11,2.8226420355778373e-11,2.1330594361100022e-11,1.6111447148924045e-11,1.1216350472790105e-11,7.450973459199451e-12,5.276234408480895e-12,3.5364975010439043e-12,2.2153479002262943e-12,1.5180678500878798e-12,9.829287816443287e-13,6.465279178913232e-13,4.2289062528001865e-13,2.906348019113453e-13,1.8778604593902367e-13,1.2349954296633247e-13,8.638033301926283e-14,5.750898356480245e-14,3.271678118078747e-14,2.142348326227276e-14,1.3201155141699593e-14,9.953992559954096e-15,5.734572239947983e-15,3.655096395930938e-15,8.504221508988321e-16,1.0887815502695396e-15,6.566622196700154e-09,3.7298838224526e-09,2.13045426929935e-09,1.2755839437923057e-09,6.42792760908269e-10,3.4747192431663e-10,1.7692196636501876e-10,8.873564056264174e-11,4.2684515494074596e-11,2.1973015491017412e-11,9.882783317440216e-12,4.691054369386312e-12,2.23407485626447e-12,1.0013472375304685e-12,5.215395363847115e-13,2.620202475455557e-13,1.4244496907113118e-13,8.804340481886605e-14,7.385784325305022e-14
0.0,48,48.0,0.0,30.0,0.0,0.0,0.0,0.0,-13.0,0.0,2.0,0.0,0.0,0.0,3.530105773452637e-11,2.6331832613861343e-11,2.2287047118687784e-11,1.5726269097994296e-11,1.1411506008611459e-11,7.49142592316852e-12,5.685916048861948e-12,3.60607831170198e-12,2.3880354264090385e-12,1.3914172017632566e-12,9.016243426395559e-13,6.480421478390204e-13,3.83929103181715e-13,2.7985647549044976e-13,1.889100584131724e-13,1.2145280016867194e-13,8.18854673717836e-14,5.741187721671487e-14,3.301606749726358e-14,2.2500907487971445e-14,1.50627141954937e-14,8.99314992636566e-15,5.141458475887028e-15,3.7163865311857166e-15,1.2447211110151281e-15,1.9284894684807908e-15,6.546294907678656e-09,3.8561698598949854e-09,2.2753902538042537e-09,1.2153534932030588e-09,6.183988896695476e-10,3.5559045409561047e-10,1.7263014304191398e-10,8.694061496760921e-11,4.2336888126473285e-11,1.9973271824960687e-11,9.863940865074114e-12,4.4251463269419065e-12,2.0737722204482917e-12,9.11033387844403e-13,4.910414740560507e-13,2.387242953891494e-13,1.4273325725245296e-13,7.356555373169129e-14,5.1943363784399977e-14
0.0,49,49.0,0.0,30.0,0.0,0.0,0.0,0.0,-13.0,0.0,2.0,0.0,0.0,0.0,3.406869833030944e-11,2.7173043637319485e-11,2.10656269671114e-11,1.547408962305875e-11,1.0335763209075978e-11,7.935053876316696e-12,5.074343030635946e-12,3.214977548223994e-12,2.1755221494519674e-12,1.4652370792085908e-12,8.592136543018229e-13,6.218058340936261e-13,4.039145818546735e-13,2.684099598827831e-13,1.7855695852401804e-13,1.2382329849104789e-13,8.170128321191411e-14,5.465873949671074e-14,3.180671737649506e-14,2.071132537365977e-14,1.3103319797315782e-14,9.176360495686288e-15,6.137772957659373e-15,2.83067457934129e-15,4.609739989028936e-15,4.906019477188745e-16,6.765776847348445e-09,3.8426888771672435e-09,2.1257147533957935e-09,1.2434747211164262e-09,6.541717965546869e-10,3.5386650504706377e-10,1.5998686855454587e-10,8.569360340845586e-11,4.2259565242152244e-11,2.0706110618677967e-11,1.0089236268087215e-11,4.452900148158186e-12,2.064882117923766e-12,9.49929525738581e-13,4.5457580422354757e-13,2.2685549325622329e-13,1.4283990414749234e-13,8.753525069834484e-14,3.878700107875547e-14
0.0,50,50.0,0.0,30.0,0.0,0.0,0.0,0.0,-13.0,0.0,2.0,0.0,0.0,0.0,3.2219583926276635e-11,2.784658934800562e-11,1.9686848972052907e-11,1.5579974170191853e-11,1.119960827863849e-11,7.51659995465861e-12,5.213588098175636e-12,3.2383368866667823e-12,2.0565309620611137e-12,1.3466113562734765e-12,8.757517530279233e-13,5.849626685437897e-13,4.1287419827663406e-13,2.6056551888971164e-13,1.6423721571891365e-13,1.1735390248945057e-13,7.791280615512274e-14,5.207866656509348e-14,3.3563354663863844e-14,2.0374269217115262e-14,1.2431613882720314e-14,7.249296433258023e-15,3.250604634838884e-15,2.8037029327411422e-15,1.2951197366871024e-15,2.223254672510178e-16,6.407374701015123e-09,4.113086771612403e-09,2.2110617286978184e-09,1.1885814390997643e-09,6.242476401572297e-10,3.450235752581238e-10,1.627295064094105e-10,8.498547324389796e-11,4.165513588550738e-11,2.0015119105919927e-11,9.157242285426818e-12,4.358455915704171e-12,2.02133721157313e-12,8.68055411972378e-13,4.569564677227444e-13,2.2139688240915253e-13,1.3943058700952817e-13,7.579840714956566e-14,4.702658016282607e-14
0.0,51,51.0,0.0,30.0,0.0,0.0,0.0,0.0,-13.0,0.0,2.0,0.0,0.0,0.0,3.392544919004096e-11,2.777847877959374e-11,2.0893761852297986e-11,1.4341813564641952e-11,1.0781856765281842e-11,7.458774029288759e-12,4.848299757524729e-12,3.3265691374182674e-12,2.0509580340955936e-12,1.3645119228518167e-12,8.770886026497181e-13,6.073126932062054e-13,4.0112370012301315e-13,2.513101981689668e-13,1.7681834406671847e-13,1.2275948450258524e-13,7.241441604243529e-14,5.087173470693687e-14,3.087348860193268e-14,1.9589874998193252e-14,1.1922417745040305e-14,8.705320076760208e-15,5.539248876005727e-15,4.138589464461848e-15,9.84446437893096e-16,1.8559682938246114e-15,6.613257093755745e-09,3.843359554229616e-09,1.974025709994987e-09,1.191724987798944e-09,6.183317987634256e-10,3.3713727749035053e-10,1.719176640251062e-10,8.564351542254271e-11,4.156857982988313e-11,2.0015322196209222e-11,9.084234635658282e-12,4.41665890903591e-12,2.0616355097737714e-12,9.211751116831128e-13,4.688673341843232e-13,2.2386558763641557e-13,1.330469529431457e-13,8.220377877478719e-14,3.3125031010614475e-14
0.0,52,52.0,0.0,30.0,0.0,0.0,0.0,0.0,-13.0,0.0,2.0,0.0,0.0,0.0,3.6218635910721104e-11,2.63558191191556e-11,1.936137529246647e-11,1.541068406874082e-11,1.051763197813721e-11,7.447069793485359e-12,5.0141614783696315e-12,3.294107711937652e-12,1.9695266874533694e-12,1.3042866225964643e-12,8.269923116683993e-13,5.857779985128458e-13,3.635554708163652e-13,2.6446054845480766e-13,1.7138542885209002e-13,1.0810428713275221e-13,7.555316593485752e-14,4.912380851428637e-14,3.078148109312671e-14,2.0314090590320947e-14,1.1474747471479555e-14,6.060934291207926e-15,5.071466175013347e-15,2.4625812140196554e-15,3.1190977671639844e-16,2.6050450336984096e-15,6.6509456022237555e-09,3.74880389439999e-09,2.1634825157825122e-09,1.1484755667432403e-09,6.334025990432999e-10,3.1802448102240667e-10,1.584516305416477e-10,7.873181024966246e-11,4.0008057442381344e-11,1.917225732527611e-11,9.275477564464388e-12,4.191439590798039e-12,1.9909493564782796e-12,8.994067538282044e-13,4.681510406146288e-13,2.2853825216251023e-13,1.231014191907267e-13,6.154686412526769e-14,3.948297488733271e-14
0.0,53,53.0,0.0,30.0,0.0,0.0,0.0,0.0,-13.0,0.0,2.0,0.0,0.0,0.0,3.1655127585410947e-11,2.578344570127695e-11,1.921504855942885e-11,1.5157954126544414e-11,1.0137646224874357e-11,7.12218981449835e-12,4.869947911376267e-12,3.0803455959317066e-12,1.90770510625567e-12,1.3295639276169465e-12,7.878491610839027e-13,5.645712412530514e-13,3.674888425728518e-13,2.3995904463213246e-13,1.6096880430322966e-13,1.0777300586292101e-13,7.340693444708843e-14,4.7790655248212704e-14,3.143897376388253e-14,1.9839782873926827e-14,1.0916368108718342e-14,6.832119634148186e-15,3.3534558735052614e-15,3.177262988978498e-15,4.1206807457249005e-15,1.1507965048797205e-15,6.8081683711811155e-09,3.762764523770911e-09,2.028890043136106e-09,1.1226675863984755e-09,5.953615473942956e-10,3.247745837735913e-10,1.6529950990473255e-10,8.207884647113072e-11,3.868258975857704e-11,1.8667482126830808e-11,9.125605325639081e-12,4.227295904716815e-12,1.92008076712277e-12,9.055607002831705e-13,4.603511834446453e-13,2.3208510698932703e-13,1.3322293092707547e-13,6.58855659076792e-14,2.9096327002912376e-14
0.0,54,54.0,0.0,30.0,0.0,0.0,0.0,0.0,-13.0,0.0,2.0,0.0,0.0,0.0,3.3746991193325455e-11,2.557613512930225e-11,1.9214070177586244e-11,1.5193874401425396e-11,1.0077423907035509e-11,6.7020391320535414e-12,4.615585018028585e-12,2.977375736330494e-12,1.903192321455768e-12,1.2477522636073714e-12,8.066412136288107e-13,5.412774281482309e-13,3.6858855816296565e-13,2.336504939386781e-13,1.5142392283689195e-13,1.0958745825815317e-13,6.765257690744076e-14,4.7376743351532596e-14,2.9025798826009226e-14,1.8914304613988523e-14,1.1098472812766343e-14,7.404798119127362e-15,4.69830668929541e-15,1.3897879504546657e-15,-1.334883859617042e-15,1.355684188486105e-15,6.816246775717471e-09,3.770265876179815e-09,2.076308833676841e-09,1.1430471162084006e-09,6.255173518945253e-10,3.310547540480461e-10,1.5947955864218683e-10,8.025222186532725e-11,4.034799508735085e-11,1.8453090600508456e-11,8.511973483799099e-12,4.1658959601939165e-12,1.8677011950257874e-12,8.24993587336545e-13,4.227732019121866e-13,2.0005196066730049e-13,1.098914033193558e-13,6.888398577747254e-14,3.553805805177715e-14
