Line_number,Fiducial,Easting,Northing,Height,Elevation,tx_pitch,tx_roll,tx_yaw,txrx_dx,txrx_dy,txrx_dz,rx_pitch,rx_roll,rx_yaw,S0Z_time_7.292e-05,S0Z_time_7.642e-05,S0Z_time_8.092e-05,S0Z_time_8.642e-05,S0Z_time_9.341e-05,S0Z_time_1.024e-04,S0Z_time_1.139e-04,S0Z_time_1.284e-04,S0Z_time_1.464e-04,S0Z_time_1.689e-04,S0Z_time_1.969e-04,S0Z_time_2.324e-04,S0Z_time_2.779e-04,S0Z_time_3.349e-04,S0Z_time_4.069e-04,S0Z_time_4.979e-04,S0Z_time_6.119e-04,S0Z_time_7.559e-04,S0Z_time_9.373e-04,S0Z_time_1.166e-03,S0Z_time_1.454e-03,S0Z_time_1.818e-03,S0Z_time_2.276e-03,S0Z_time_2.855e-03,S0Z_time_3.574e-03,S0Z_time_4.454e-03,S0Z_time_5.530e-03,S0Z_time_6.849e-03,S0Z_time_8.463e-03,S0Z_time_1.044e-02,S1Z_time_1.273e-05,S1Z_time_1.623e-05,S1Z_time_2.073e-05,S1Z_time_2.623e-05,S1Z_time_3.323e-05,S1Z_time_4.222e-05,S1Z_time_5.373e-05,S1Z_time_6.822e-05,S1Z_time_8.622e-05,S1Z_time_1.087e-04,S1Z_time_1.367e-04,S1Z_time_1.722e-04,S1Z_time_2.177e-04,S1Z_time_2.747e-04,S1Z_time_3.467e-04,S1Z_time_4.377e-04,S1Z_time_5.517e-04,S1Z_time_6.957e-04,S1Z_time_8.772e-04,S1Z_time_1.106e-03,S1Z_time_1.394e-03
0.0,0,0.0,0.0,30.0,0.0,0.0,0.0,0.0,-13.0,0.0,2.0,0.0,0.0,0.0,3.081336230700123e-10,2.8881561406929494e-10,2.579782989309846e-10,2.2798249937404148e-10,2.0331108715165538e-10,1.7625484877497664e-10,1.5104996222925686e-10,1.2639754587211836e-10,1.0355941066745723e-10,8.275075965151756e-11,6.319583263771352e-11,4.665657616153043e-11,3.262851740519152e-11,2.182619313468051e-11,1.4030963746785206e-11,8.547222426552383e-12,4.977322726731837e-12,2.7728804815000528e-12,1.470130604713802e-12,7.600841612977625e-13,3.7384265049022014e-13,1.7786447689445966e-13,8.096984325997998e-14,3.659865167529937e-14,1.630898570814378e-14,6.479892776168819e-15,2.9383773843280904e-15,1.2425114984880941e-15,6.39707398743123e-16,4.345407457532517e-16,7.272408658358637e-09,3.887355865929784e-09,2.0432813107242403e-09,1.113707984789818e-09,6.36634547145703e-10,3.884777438533847e-10,2.6284494929941056e-10,1.9219448019952474e-10,1.457706385216859e-10,1.0954398505055429e-10,7.999017431752663e-11,5.579502267270182e-11,3.68801257754004e-11,2.3226334905385848e-11,1.389980726688607e-11,7.886084829769671e-12,4.251802639113571e-12,2.183096728266979e-12,1.0618432305547194e-12,4.929156242947778e-13,2.223679232688909e-13
0.0,1,1.0,0.0,30.0,0.0,0.0,0.0,0.0,-13.0,0.0,2.0,0.0,0.0,0.0,2.997242712119589e-10,2.8002125555011325e-10,2.4881451284391573e-10,2.1865305791814633e-10,1.9428627422109707e-10,1.6809330098855024e-10,1.4450559774153956e-10,1.2186061316164657e-10,1.0113771573174465e-10,8.214611496929773e-11,6.394511763916242e-11,4.820175654287872e-11,3.449293997435351e-11,2.363379311717141e-11,1.5569442513834844e-11,9.726121003875855e-12,5.807899538681567e-12,3.3140691733674736e-12,1.8002738101450472e-12,9.50125618844774e-13,4.768594429531694e-13,2.311633944649729e-13,1.0707928091344214e-13,4.901861882696598e-14,2.1966550943746985e-14,9.006630195789835e-15,4.028346094044602e-15,1.7540696666278803e-15,8.598148588360713e-16,4.696777448505668e-16,7.254295034330814e-09,3.870230790930812e-09,2.0320709957091283e-09,1.107914809347845e-09,6.324399728968695e-10,3.8202350856641247e-10,2.5328961184605835e-10,1.8176667156467826e-10,1.3722704493313004e-10,1.0417655368591731e-10,7.757079961056893e-11,5.542959292752751e-11,3.7615662162995466e-11,2.4342354299005088e-11,1.4977736084923494e-11,8.735024666155063e-12,4.840773201037786e-12,2.550896614024229e-12,1.2721759863024853e-12,6.054080936684885e-13,2.769015437482222e-13
0.0,2,2.0,0.0,30.0,0.0,0.0,0.0,0.0,-13.0,0.0,2.0,0.0,0.0,0.0,2.9546649134553003e-10,2.7534630746298116e-10,2.4360198179984487e-10,2.1284391073992297e-10,1.8810384213745447e-10,1.619194559432354e-10,1.3891739180495277e-10,1.1739718184912313e-10,9.816965916807892e-11,8.068658890785681e-11,6.377178696070296e-11,4.891453180498129e-11,3.569329728199961e-11,2.4964538560505124e-11,1.680116960336255e-11,1.073057947724047e-11,6.553620747544644e-12,3.82191104329344e-12,2.1227254052798785e-12,1.1422486674361215e-12,5.844172518951297e-13,2.8834496002974576e-13,1.3580815870287239e-13,6.29653460717131e-14,2.8437906587284756e-14,1.1960468381512347e-14,5.312510144423325e-15,2.3584701614795514e-15,1.1100582088985566e-15,5.282173448675957e-16,7.23545314488047e-09,3.852743011316971e-09,2.0208084290888176e-09,1.1027646813096161e-09,6.305900220507435e-10,3.7991339156513143e-10,2.487025105120299e-10,1.7511173928517435e-10,1.3051006498601003e-10,9.908336084848651e-11,7.464188617321846e-11,5.433376253261709e-11,3.7685951404919667e-11,2.4958946394504735e-11,1.572717912984884e-11,9.39587353375381e-12,5.335600142434343e-12,2.8781240041721384e-12,1.468701639835499e-12,7.14940502485053e-13,3.320066695788172e-13
0.0,3,3.0,0.0,30.0,0.0,0.0,0.0,0.0,-13.0,0.0,2.0,0.0,0.0,0.0,2.9388700226709974e-10,2.734541545539321e-10,2.4123531445823423e-10,2.0981702370617577e-10,1.8444287859870547e-10,1.5780482323935894e-10,1.3468567936227318e-10,1.1355734718668792e-10,9.51980226824612e-11,7.882144287741591e-11,6.301015970800956e-11,4.902788800362053e-11,3.637708486805622e-11,2.5900245525423317e-11,1.7760181618323388e-11,1.1567237527586866e-11,7.208690077008941e-12,4.287957001288056e-12,2.430405711033033e-12,1.3317896894342473e-12,6.938896129313738e-13,3.4811089348773637e-13,1.6659379778256033e-13,7.821177647263722e-14,3.564628976088677e-14,1.5314592470334333e-14,6.788817640912229e-15,3.0534490057694054e-15,1.3940223335613263e-15,6.143046804686908e-16,7.21584229767496e-09,3.834884032930319e-09,2.0094949743354077e-09,1.0977748903874622e-09,6.295616668546732e-10,3.7991479253950023e-10,2.4727908958529675e-10,1.7154834962846398e-10,1.2582218323285652e-10,9.477706844862776e-11,7.166447153420524e-11,5.283053263792531e-11,3.7297688039828055e-11,2.5196101903211108e-11,1.6207107200241697e-11,9.889914782885342e-12,5.739110257462797e-12,3.161693811392074e-12,1.647707550570665e-12,8.188503875444905e-13,3.8627996881255006e-13
0.0,4,4.0,0.0,30.0,0.0,0.0,0.0,0.0,-13.0,0.0,2.0,0.0,0.0,0.0,2.939125340739051e-10,2.7329455924491995e-10,2.407378155448322e-10,2.0876441514282352e-10,1.827452740028779e-10,1.554859611600024e-10,1.3186475912310488e-10,1.1061378690537482e-10,9.258295892619285e-11,7.688906831047428e-11,6.192520451348655e-11,4.872851455457475e-11,3.666663987369873e-11,2.651491372605386e-11,1.8484086276083815e-11,1.2249885916860104e-11,7.773681594278248e-12,4.708048067783717e-12,2.7186030120732522e-12,1.5151932049797254e-12,8.03067313031031e-13,4.0927910356067466e-13,1.9888105304126082e-13,9.452014567904969e-14,4.350263168291276e-14,1.9035118914819458e-14,8.450731619100035e-15,3.835823687147832e-15,1.714353902283157e-15,7.291328624178255e-16,7.1954391618292695e-09,3.816636932127548e-09,1.998151527649298e-09,1.0928827930725761e-09,6.288190007168426e-10,3.808364339166202e-10,2.476556657147023e-10,1.7021387491556168e-10,1.2299274523791108e-10,9.150184081879116e-11,6.896311286318449e-11,5.117078545953358e-11,3.6612496981779625e-11,2.515112215858132e-11,1.6471359149955985e-11,1.0241299734362595e-11,6.0585239087573916e-12,3.4017854553894456e-12,1.8073256022270126e-12,9.153802284568106e-13,4.3859537799512464e-13
0.0,5,5.0,0.0,30.0,0.0,0.0,0.0,0.0,-13.0,0.0,2.0,0.0,0.0,0.0,2.9484909970234975e-10,2.741488335390216e-10,2.4138372291034454e-10,2.090019904866631e-10,1.824372548374884e-10,1.545636169277229e-10,1.302953821906414e-10,1.0862393044568687e-10,9.052245776694326e-11,7.512901312457805e-11,6.072821900021692e-11,4.8171425328656534e-11,3.666470244922955e-11,2.6872477968528905e-11,1.900903501029959e-11,1.279521709815449e-11,8.253067474583766e-12,5.081077104136611e-12,2.9844735312690412e-12,1.6898857941745228e-12,9.101676796337253e-13,4.70815229976177e-13,2.321468208479549e-13,1.1165322263115463e-13,5.191102246572198e-14,2.3083422199098358e-14,1.0288048793991963e-14,4.701593426969763e-15,2.072593916753574e-15,8.720439642936491e-16,7.17422564005031e-09,3.797994770726948e-09,1.9867821491746048e-09,1.0881038889954147e-09,6.28221522744964e-10,3.8213682981537306e-10,2.489640066136122e-10,1.703308402088633e-10,1.2166116673333068e-10,8.928807812517447e-11,6.673722720419348e-11,4.9548849132195134e-11,3.576219109362751e-11,2.4903511595931002e-11,1.656605445093766e-11,1.0473422294146339e-11,6.303116645616034e-12,3.6006234761870535e-12,1.9470168456399234e-12,1.0034778557558428e-12,4.881209067501173e-13
0.0,6,6.0,0.0,30.0,0.0,0.0,0.0,0.0,-13.0,0.0,2.0,0.0,0.0,0.0,2.9628776110473493e-10,2.7557287193806947e-10,2.426936945445588e-10,2.1003090440877488e-10,1.8304289781713203e-10,1.546386472153029e-10,1.2972457390141657e-10,1.075051249930092e-10,8.908188704867237e-11,7.368784891160834e-11,5.957925740979053e-11,4.748619623724066e-11,3.645998050346388e-11,2.7028392963541345e-11,1.936786385666156e-11,1.322028064972784e-11,8.653442190803347e-12,5.408004753080132e-12,3.2266007615433943e-12,1.854117857246305e-12,1.0138041814967284e-12,5.318443220148751e-13,2.659157560591989e-13,1.2938267706719473e-13,6.07730841555921e-14,2.741806064888629e-14,1.2287743600903771e-14,5.6460230686776345e-15,2.469238825874252e-15,1.0415147222006539e-15,7.1521834981129635e-09,3.778959318780754e-09,1.975388059958803e-09,1.083451644507281e-09,6.27752512221671e-10,3.83608700419119e-10,2.5072121569328925e-10,1.7131643425901706e-10,1.214257794060519e-10,8.802590091253963e-11,6.507436148089274e-11,4.810432486459671e-11,3.485578808500904e-11,2.4520562402276483e-11,1.6530229621887926e-11,1.060730411938783e-11,6.482681706650018e-12,3.761582032364454e-12,2.0671625204329764e-12,1.082621741612177e-12,5.343124970208156e-13
0.0,7,7.0,0.0,30.0,0.0,0.0,0.0,0.0,-13.0,0.0,2.0,0.0,0.0,0.0,2.980061558317485e-10,2.773143847035924e-10,2.443788237148882e-10,2.115239704004653e-10,1.842162167440016e-10,1.5538039482791377e-10,1.298901533311947e-10,1.0710565671170253e-10,8.823382429750922e-11,7.26317873077861e-11,5.858734525554221e-11,4.6777253463760526e-11,3.612975240926498e-11,2.7031887671274457e-11,1.9590072665840485e-11,1.3541254464235502e-11,8.982296603298819e-12,5.6910923129259724e-12,3.4446320460569245e-12,2.0068079580073677e-12,1.1129380775934233e-12,5.91648337308665e-13,2.9976863991811774e-13,1.4749507745905755e-13,6.999141798825859e-14,3.199632444226199e-14,1.4434755334497897e-14,6.6637309739914245e-15,2.9039201163011744e-15,1.2360757124623044e-15,7.129293929433618e-09,3.759536277200427e-09,1.963974883174862e-09,1.0789319267815515e-09,6.274205040946522e-10,3.851898019742041e-10,2.526898839802951e-10,1.727865681811345e-10,1.2193258870386844e-10,8.753783473817456e-11,6.397478894052673e-11,4.692306744107345e-11,3.398035046871475e-11,2.406060517175555e-11,1.6397606191933025e-11,1.0661337534016003e-11,6.606619793013186e-12,3.8885404372299265e-12,2.16874686268207e-12,1.1526881675123344e-12,5.768767517208036e-13
0.0,8,8.0,0.0,30.0,0.0,0.0,0.0,0.0,-13.0,0.0,2.0,0.0,0.0,0.0,2.998924302140677e-10,2.7924070118283935e-10,2.4627822260623196e-10,2.1328407817317274e-10,1.8572882358528812e-10,1.5654573311583822e-10,1.3056650259606392e-10,1.0725770479036616e-10,8.789830383511027e-11,7.196626079733397e-11,5.781444172382538e-11,4.6122718788859645e-11,3.573985747944428e-11,2.692728693586134e-11,1.9702480440895122e-11,1.3773109140184175e-11,9.247261887393557e-12,5.933323768514138e-12,3.63897934803792e-12,2.1474031419432597e-12,1.2068268110328403e-12,6.496549500762134e-13,3.3334490444473615e-13,1.657958506198493e-13,7.947227911066357e-14,3.6775464798131976e-14,1.6712678333121098e-14,7.748790745587985e-15,3.3755998545004305e-15,1.4549443945834023e-15,7.105538417326817e-09,3.739732679515813e-09,1.9525527175820046e-09,1.0745488981931398e-09,6.272332182517079e-10,3.8686978064768473e-10,2.547678412064158e-10,1.745132163366785e-10,1.2291026747910316e-10,8.763395095576626e-11,6.338203182405034e-11,4.6043034291459916e-11,3.3199945881691013e-11,2.357371977238576e-11,1.6198081788022403e-11,1.065172703043485e-11,6.683536402427119e-12,3.985451170461482e-12,2.2531107506037945e-12,1.2138508196368141e-12,6.157109482212111e-13
0.0,9,9.0,0.0,30.0,0.0,0.0,0.0,0.0,-13.0,0.0,2.0,0.0,0.0,0.0,3.018949844156996e-10,2.8128742911216326e-10,2.4830888451604996e-10,2.1520115117479737e-10,1.874414573325765e-10,1.5797110276588286e-10,1.315806943723454e-10,1.0780889017216789e-10,8.797529159936993e-11,7.165757076866872e-11,5.728375140888429e-11,4.557478093112207e-11,3.534366920434556e-11,2.6754156887501414e-11,1.9729792718789585e-11,1.3929730148780188e-11,9.455733869528947e-12,6.138002607628653e-12,3.810572402557584e-12,2.275757008383418e-12,1.294976025358455e-12,7.054222263642134e-13,3.663410785127058e-13,1.8411147019705085e-13,8.91275563969603e-14,4.1713670478103006e-14,1.91043478974489e-14,8.894849009396078e-15,3.88272402648559e-15,1.6981545686015979e-15,7.0808994047080226e-09,3.7195562654845758e-09,1.941134311912577e-09,1.0703083204909364e-09,6.271948987379307e-10,3.8865185773524505e-10,2.569183464834986e-10,1.763734322519193e-10,1.2417087797727655e-10,8.81446779670691e-11,6.321136969707798e-11,4.5464695223211864e-11,3.255574665409352e-11,2.3101069984545258e-11,1.5958400709210042e-11,1.0593077318215142e-11,6.7211945337057764e-12,4.05609362398392e-12,2.3217658730338597e-12,1.2664985365719343e-12,6.508375489898673e-13
0.0,10,10.0,0.0,30.0,0.0,0.0,0.0,0.0,-13.0,0.0,2.0,0.0,0.0,0.0,3.0399261988391424e-10,2.834262142711005e-10,2.5043144092620585e-10,2.1721819730378067e-10,1.8927513263703043e-10,1.5955433257877127e-10,1.3281101171765717e-10,1.086361849358714e-10,8.836633887652749e-11,7.165202953044348e-11,5.699033575873916e-11,4.516239531095448e-11,3.498142941919895e-11,2.6546745506806507e-11,1.9694779577594183e-11,1.402415016443702e-11,9.614757649474976e-12,6.308504781060261e-12,3.960661388642844e-12,2.392024262599198e-12,1.377096646446482e-12,7.586221934547959e-13,3.985068967840426e-13,2.022901850586814e-13,9.887610005249801e-14,4.677083885987817e-14,2.1592330428417117e-14,1.0095254632076609e-14,4.4233250229329274e-15,1.9661839225509865e-15,7.055360575659027e-09,3.6990156601709923e-09,1.929733681813979e-09,1.0662180464265374e-09,6.273084085643849e-10,3.9054029598383735e-10,2.591321193494137e-10,1.7830736219031903e-10,1.2559465165278559e-10,8.893482343222534e-11,6.33714896791853e-11,4.5163252664630645e-11,3.2068241231965346e-11,2.2674119701961547e-11,1.570210259817628e-11,1.0498799792808758e-11,6.726649477862333e-12,4.103976152221559e-12,2.3762657499651856e-12,1.311163657985379e-12,6.823485834368484e-13
0.0,11,11.0,0.0,30.0,0.0,0.0,0.0,0.0,-13.0,0.0,2.0,0.0,0.0,0.0,3.0617826586989477e-10,2.8564629211866283e-10,2.526291729031387e-10,2.1930815395370459e-10,1.911882396652167e-10,1.61235813721881e-10,1.3417758256354306e-10,1.0964825705132771e-10,8.898627605029293e-11,7.189023900379009e-11,5.6911650207901026e-11,4.4895727964210645e-11,3.468059111209251e-11,2.6333317210258985e-11,1.9618097962941287e-11,1.406869160647625e-11,9.731046510695986e-12,6.4481558674961886e-12,4.090669921578889e-12,2.496571387339363e-12,1.4530662578577502e-12,8.090248366165869e-13,4.2964043247273594e-13,2.2020165758449343e-13,1.0864445966888092e-13,5.190916553629189e-14,2.415932862764843e-14,1.1343190490835461e-14,4.995093553983491e-15,2.259297163197178e-15,7.028906916178662e-09,3.678120670596776e-09,1.9183654934128527e-09,1.062287417679427e-09,6.275768575183395e-10,3.9253787952251e-10,2.6140931699291423e-10,1.802894037188601e-10,1.2711088495699845e-10,8.990523484515162e-11,6.377810747664111e-11,4.51000302539295e-11,3.1741137233700685e-11,2.2314485010270238e-11,1.544912004696947e-11,1.0381238864285275e-11,6.706419045236661e-12,4.132336455356501e-12,2.4181285985612247e-12,1.3484606524550677e-12,7.10367633312428e-13
0.0,12,12.0,0.0,30.0,0.0,0.0,0.0,0.0,-13.0,0.0,2.0,0.0,0.0,0.0,3.0845079251617776e-10,2.879447533821026e-10,2.5489620888220544e-10,2.2145961125818023e-10,1.931606703207788e-10,1.6298312468294046e-10,1.3563121661664681e-10,1.1078171981646128e-10,8.976756025626157e-11,7.231616949805348e-11,5.701639806043898e-11,4.4771300181066e-11,3.445718167138473e-11,2.6135796269173198e-11,1.951794111275609e-11,1.4074958170476913e-11,9.811034677727979e-12,6.5601913520901135e-12,4.202096435549726e-12,2.589904174853658e-12,1.5228939917591086e-12,8.564830505119413e-13,4.595830781666798e-13,2.3773588767779406e-13,1.1836713627711395e-13,5.709356366369008e-14,2.678850932546941e-14,1.2631798317878774e-14,5.59544451310202e-15,2.5768995977315865e-15,7.001524711052376e-09,3.656882479191609e-09,1.907044923950477e-09,1.0585265906288502e-09,6.280041579957193e-10,3.946463317403754e-10,2.637522141527558e-10,1.8231071929649875e-10,1.2868100539847523e-10,9.09880206081414e-11,6.436070375998844e-11,4.5231478858806224e-11,3.1566017782860374e-11,2.2034622610100744e-11,1.521538571273721e-11,1.0251573086053609e-11,6.666600207192623e-12,4.144189076340166e-12,2.448802220489817e-12,1.37903764347829e-12,7.350296499975211e-13
0.0,13,13.0,0.0,30.0,0.0,0.0,0.0,0.0,-13.0,0.0,2.0,0.0,0.0,0.0,3.108112341016432e-10,2.9032180976198274e-10,2.572313948811998e-10,2.2366870884525168e-10,1.951838205628273e-10,1.6478002130514445e-10,1.3714347987797258e-10,1.1199511085322469e-10,9.066008623092683e-11,7.288187727176965e-11,5.727103019972009e-11,4.477691406863488e-11,3.4317855812969514e-11,2.5969881211557915e-11,1.9409704586841535e-11,1.4053704252366737e-11,9.860904430357009e-12,6.647759600406959e-12,4.296456885844059e-12,2.6726126616999033e-12,1.586688934557368e-12,9.009186269566267e-13,4.882147263764623e-13,2.5480174101943427e-13,1.2798647951538484e-13,6.229192429179618e-14,2.9463758546611535e-14,1.3954289425776769e-14,6.221590650063925e-15,2.917133299831474e-15,6.973201556085094e-09,3.6353137287912015e-09,1.8957877098746934e-09,1.0549461064255228e-09,6.285949644779888e-10,3.968670856807828e-10,2.661628743654634e-10,1.8436970265885107e-10,1.3028585326752058e-10,9.213949426054802e-11,6.506439467418178e-11,4.551533807302242e-11,3.152687641905415e-11,2.1839193454044397e-11,1.501267117975302e-11,1.0119607593778485e-11,6.6129021079145055e-12,4.14237935392742e-12,2.469657573723306e-12,1.4035425621440415e-12,7.564743789373243e-13
0.0,14,14.0,0.0,30.0,0.0,0.0,0.0,0.0,-13.0,0.0,2.0,0.0,0.0,0.0,3.132612280239582e-10,2.927787006272126e-10,2.596353685769173e-10,2.259348825982916e-10,1.9725477502824658e-10,1.6661924994703426e-10,1.3869906377939398e-10,1.1326280950894477e-10,9.162871567782922e-11,7.354911288846414e-11,5.764391718340855e-11,4.489578401282202e-11,3.4262222821967516e-11,2.5845598635384785e-11,1.930579521265973e-11,1.4014648298405462e-11,9.886566735768642e-12,6.713935930617919e-12,4.375257853266004e-12,2.745332730046678e-12,1.6446326435620282e-12,9.42309299970856e-13,5.154492064598264e-13,2.7132530750429725e-13,1.3745236117146777e-13,6.747523609421854e-14,3.216986805684266e-14,1.5304037597729984e-14,6.870624334076141e-15,3.2768156668111077e-15,6.943926409497645e-09,3.6134285488746633e-09,1.8846102251345424e-09,1.051556694559956e-09,6.29354420807312e-10,3.992017456030612e-10,2.68642789263077e-10,1.8646731702043294e-10,1.31917122726985e-10,9.333323138173605e-11,6.584891030522617e-11,4.5914209168450245e-11,3.160395987871814e-11,2.17267956332714e-11,1.48487297329597e-11,9.993569285900524e-12,6.55060686905348e-12,4.129619438727818e-12,2.481997436635474e-12,1.4226032425490061e-12,7.748478346448225e-13
0.0,15,15.0,0.0,30.0,0.0,0.0,0.0,0.0,-13.0,0.0,2.0,0.0,0.0,0.0,3.1580247141951144e-10,2.9531688283033834e-10,2.621093018500406e-10,2.2825881423250917e-10,1.9937317061980952e-10,1.684982003170341e-10,1.402904563121887e-10,1.1456991197580504e-10,9.265003880644257e-11,7.42890168762548e-11,5.810759752210699e-11,4.5109641211074365e-11,3.428509906910548e-11,2.576816306558276e-11,1.9215632905884717e-11,1.3966295347252752e-11,9.89360114657935e-12,6.7617284554102415e-12,4.439988120228107e-12,2.80872211034579e-12,1.6969564557955832e-12,9.80676963093737e-13,5.412299195058533e-13,2.8724822267579237e-13,1.467217330757386e-13,7.261759054503948e-14,3.489265942267832e-14,1.667465361083804e-14,7.539598723900041e-15,3.65169221254264e-15,6.913689679050737e-09,3.5912425643587256e-09,1.8735295338804776e-09,1.048369216313568e-09,6.302879269989268e-10,4.0165223722616175e-10,2.7119309820898433e-10,1.8860510704601482e-10,1.335720861702662e-10,9.45543159220935e-11,6.668620555511665e-11,4.639712692587223e-11,3.177666971812724e-11,2.1691765674455063e-11,1.4727708436094865e-11,9.879979168123078e-12,6.48448920275183e-12,4.108497565159819e-12,2.4870691035599326e-12,1.4368187109221754e-12,7.903069393414297e-13
0.0,16,16.0,0.0,30.0,0.0,0.0,0.0,0.0,-13.0,0.0,2.0,0.0,0.0,0.0,3.1843659346009924e-10,2.979377849835131e-10,2.6465444021623384e-10,2.3064154440808734e-10,2.0153963852386493e-10,1.7041645694359448e-10,1.4191448970607484e-10,1.1590835440298108e-10,9.370923309056633e-11,7.508083732484168e-11,5.863963009516728e-11,4.540082527767876e-11,3.4378459161281806e-11,2.57389837799794e-11,1.9145835637079324e-11,1.391581432851231e-11,9.887173586739494e-12,6.794067855144003e-12,4.49211832024161e-12,2.8634474285914155e-12,1.7439239318746498e-12,1.016077256660274e-12,5.655256192143214e-13,3.0252601442861723e-13,1.5575814280710692e-13,7.769610241352795e-14,3.7619054095186527e-14,1.8060042957858352e-14,8.225597394586145e-15,4.0368945903530736e-15,6.8824833331287145e-09,3.5687729075023648e-09,1.8625634111306106e-09,1.0453946683203454e-09,6.314009874071189e-10,4.042207847167032e-10,2.738148552548592e-10,1.9078452385930422e-10,1.352505967944678e-10,9.579505093693292e-11,6.755770407266894e-11,4.693977730746058e-11,3.2025514401780364e-11,2.1725825158683918e-11,1.4650741683250033e-11,9.783633890544766e-12,6.418728201165578e-12,4.081462976593809e-12,2.4860739100672432e-12,1.4467579733676829e-12,8.03023951954499e-13
0.0,17,17.0,0.0,30.0,0.0,0.0,0.0,0.0,-13.0,0.0,2.0,0.0,0.0,0.0,3.2116516745488486e-10,3.0064277674745856e-10,2.6727198342857376e-10,2.330841494885694e-10,2.0375510709256464e-10,1.723745207183371e-10,1.4357024754121905e-10,1.1727419989475302e-10,9.479741961331463e-11,7.591030292537693e-11,5.922254959558142e-11,4.5753515552897554e-11,3.453297902184729e-11,2.5756679960483045e-11,1.910054341066028e-11,1.38689916244724e-11,9.87195284411928e-12,6.81378161070404e-12,4.533101226539748e-12,2.9101785742923765e-12,1.7858182616003587e-12,1.0485907226154547e-12,5.883263451777833e-13,3.171264965952945e-13,1.6453124684631156e-13,8.269077439320223e-14,4.033709989162339e-14,1.9454449229225418e-14,8.925784376702624e-15,4.427469736899399e-15,6.850301025679481e-09,3.5460382387106247e-09,1.8517303407873035e-09,1.0426441998557599e-09,6.326991330690758e-10,4.069098273445428e-10,2.765091973084454e-10,1.930068101887666e-10,1.369535279688819e-10,9.705200293610971e-11,6.845173508654812e-11,4.752392091785319e-11,3.233324377663426e-11,2.1819444217241537e-11,1.4616627243407044e-11,9.707694900235466e-12,6.356837193467677e-12,4.050794846170412e-12,2.4801702133762715e-12,1.4529627210850106e-12,8.13188891045367e-13
0.0,18,18.0,0.0,30.0,0.0,0.0,0.0,0.0,-13.0,0.0,2.0,0.0,0.0,0.0,3.2398975094264697e-10,3.034331996789179e-10,2.6996308892370953e-10,2.355876625777539e-10,2.060205369127295e-10,1.743732005500415e-10,1.452578769838044e-10,1.1866585816425637e-10,9.590963013487251e-11,7.676802666198204e-11,5.984332469421998e-11,4.615430759809441e-11,3.4739155508628574e-11,2.5818005594100483e-11,1.9081824977221925e-11,1.3830262201465942e-11,9.852042511029248e-12,6.823557918311394e-12,4.564368504031229e-12,2.949586966992905e-12,1.8229339854092785e-12,1.0783156426762803e-12,6.096395730516287e-13,3.310282159081133e-13,1.730163351368057e-13,8.758432985484961e-14,4.303596483344885e-14,2.0852485606643737e-14,9.637431828859732e-15,4.818863626237502e-15,6.817138229419683e-09,3.523058775350312e-09,1.8410495014860265e-09,1.0401291237267442e-09,6.341878917442259e-10,4.0972193633395477e-10,2.792774127437973e-10,1.9527307296121337e-10,1.386820453963707e-10,9.832409655197404e-11,6.936141163011475e-11,4.8136441092676297e-11,3.268535548327702e-11,2.196287493638456e-11,1.462249976765272e-11,9.653863192759146e-12,6.3016266741416375e-12,4.018565116236623e-12,2.4704694346937366e-12,1.4559511330260044e-12,8.210094039219679e-13
0.0,19,19.0,0.0,30.0,0.0,0.0,0.0,0.0,-13.0,0.0,2.0,0.0,0.0,0.0,3.269119171782265e-10,3.063104017502949e-10,2.7272890456434044e-10,2.3815308292888604e-10,2.0833685125711203e-10,1.7641336078614477e-10,1.4697796272708177e-10,1.2008298429842449e-10,9.704334572222725e-11,7.764812645678223e-11,6.04926032121495e-11,4.659233811956768e-11,3.4988044438193484e-11,2.5918627699270138e-11,1.909011393132931e-11,1.3802806308966403e-11,9.830938582208281e-12,6.825906097346449e-12,4.5873225252445774e-12,2.9823450354161883e-12,1.855572084004845e-12,1.1053625493281198e-12,6.294866771473631e-13,3.4421895964992333e-13,1.811938659831929e-13,9.236203109330852e-14,4.5705908571966225e-14,2.2249156428853115e-14,1.0357927685745879e-14,5.207282967655043e-15,6.782992375038345e-09,3.4998563258311937e-09,1.830540747503793e-09,1.0378609156513357e-09,6.358727816260903e-10,4.1265975392589966e-10,2.8212094696854544e-10,1.975843829379359e-10,1.404373214839258e-10,9.961146139518444e-11,7.028300737408221e-11,4.876829457500698e-11,3.307016576071124e-11,2.214686504167344e-11,1.4664441282898224e-11,9.622609151082943e-12,6.255205119914314e-12,3.986603945010343e-12,2.4580266384099454e-12,1.4562209390250577e-12,8.267083381898441e-13
0.0,20,20.0,0.0,30.0,0.0,0.0,0.0,0.0,-13.0,0.0,2.0,0.0,0.0,0.0,3.2993327184458527e-10,3.0927575972395817e-10,2.7557059726039854e-10,2.407814056581126e-10,2.1070494143483304e-10,1.7849584108052508e-10,1.4873122700270868e-10,1.2152583749281212e-10,9.819750391775091e-11,7.854712692897196e-11,6.116392544928572e-11,4.705913073388387e-11,3.527168697393298e-11,2.6053736583022e-11,1.91246317267134e-11,1.3788693206489403e-11,9.811516473168546e-12,6.823119792983352e-12,4.60332379175072e-12,3.009125128488658e-12,1.8840373891073947e-12,1.1298502708241409e-12,6.478997995785568e-13,3.5669433841170015e-13,1.8904900469087142e-13,9.70114938657907e-14,4.8338239954163206e-14,2.363987018963578e-14,1.1084769104423681e-14,5.589902112155796e-15,6.747862995503593e-09,3.4764543261838275e-09,1.820224588465715e-09,1.0358512036079692e-09,6.377593130986954e-10,4.157259564345948e-10,2.850413788796269e-10,1.9994184717625616e-10,1.4222046039933373e-10,1.0091477906719713e-10,7.121478856757114e-11,4.941352711203423e-11,3.347861052642699e-11,2.2363095493880435e-11,1.473799374510435e-11,9.613426977817233e-12,6.2190149556052075e-12,3.956473874831556e-12,2.4438279735935318e-12,1.4542508210089639e-12,8.305196703939799e-13
0.0,21,21.0,0.0,30.0,0.0,0.0,0.0,0.0,-13.0,0.0,2.0,0.0,0.0,0.0,3.3305545865305215e-10,3.123306894272897e-10,2.7848936998244384e-10,2.434736470317043e-10,2.1312569172960617e-10,1.8062144953628722e-10,1.50518405717753e-10,1.2299493249616235e-10,9.937185842844035e-11,7.946313680077876e-11,6.185300696045879e-11,4.7548294122271916e-11,3.558330158188372e-11,2.6218491809344197e-11,1.9183768608173423e-11,1.3789052055158182e-11,9.796046161326815e-12,6.817247661277823e-12,4.613675577413853e-12,3.0305969409434405e-12,1.908637339480379e-12,1.1519032722166122e-12,6.649191935722429e-13,3.684564647987307e-13,1.9657116039767933e-13,1.0152250370814644e-13,5.092526714679632e-14,2.5020444849792675e-14,1.1815548907885353e-14,5.964918770128685e-15,6.711751874889285e-09,3.452877876847919e-09,1.8101221690870634e-09,1.0341117504267224e-09,6.398529905118026e-10,4.1892323544671845e-10,2.880403898818005e-10,2.0234664648327006e-10,1.440325079311437e-10,1.022349414337967e-10,7.215621635777145e-11,5.006843268161594e-11,3.390390476405472e-11,2.26043997743405e-11,1.4838560188569992e-11,9.625088145340155e-12,6.1938964158594624e-12,3.9294560006425366e-12,2.4287773988749477e-12,1.4504999352280855e-12,8.326835451814527e-13
0.0,22,22.0,0.0,30.0,0.0,0.0,0.0,0.0,-13.0,0.0,2.0,0.0,0.0,0.0,3.362801589578563e-10,3.1547664822561047e-10,2.8148646899291217e-10,2.462308597665334e-10,2.156000022979945e-10,1.8279097998284393e-10,1.5234021156166356e-10,1.2449086642763012e-10,1.0056658731172718e-10,8.039526316944085e-11,6.255713650044542e-11,4.8055164239472264e-11,3.5917313277336124e-11,2.6408322697582384e-11,1.9265406188566867e-11,1.3804252121892436e-11,9.786230879074943e-12,6.810074269404486e-12,4.619607772412401e-12,3.0474232314817067e-12,1.9296812880802404e-12,1.1716499992187073e-12,6.805910690490552e-13,3.795127510999169e-13,2.037535199250717e-13,1.0588683596868807e-13,5.346024460004886e-14,2.6387106086358082e-14,1.2547941762923096e-14,6.331485886332822e-15,6.674663201279506e-09,3.4291537780270586e-09,1.800255248829637e-09,1.0326544325764534e-09,6.421593109729054e-10,4.2225429023154936e-10,2.911197362012556e-10,2.0480004613397733e-10,1.4587448439031982e-10,1.0357289008690105e-10,7.310742796088933e-11,5.073088074922759e-11,3.434115025116253e-11,2.2864823801591316e-11,1.496169654313145e-11,9.655875230217288e-12,6.180170169908795e-12,3.90654895520564e-12,2.413684743723931e-12,1.4454058023022795e-12,8.334410946199041e-13
0.0,23,23.0,0.0,30.0,0.0,0.0,0.0,0.0,-13.0,0.0,2.0,0.0,0.0,0.0,3.3960908926332257e-10,3.1871513382296273e-10,2.845631851823789e-10,2.490541398735399e-10,2.181288041716598e-10,1.8500523186480573e-10,1.541973346551223e-10,1.2601424400776896e-10,1.017820668385364e-10,8.134321305116301e-11,6.327469987893592e-11,4.857644869639757e-11,3.626928007167059e-11,2.6619109370742958e-11,1.9367175736976455e-11,1.3834078149259458e-11,9.78326317244603e-12,6.803112133781471e-12,4.622261778491825e-12,3.0602540898371426e-12,1.9474797963027583e-12,1.1892219208905439e-12,6.949659275593818e-13,3.898748461216083e-13,2.1059258253127062e-13,1.1009807966252525e-13,5.593731930416315e-14,2.7736479052625832e-14,1.3279695154976536e-14,6.689558095966936e-15,6.6366037235643536e-09,3.4053105626441413e-09,1.7906461808862655e-09,1.0314912172136264e-09,6.446837598621414e-10,4.257218259251074e-10,2.9428122816576974e-10,2.0730339076244303e-10,1.4774741455112514e-10,1.0492955350109181e-10,7.406891538474096e-11,5.139980457845334e-11,3.47869491376838e-11,2.313957905727041e-11,1.5103305883997106e-11,9.703784544797417e-12,6.1777296039606486e-12,3.888479715628691e-12,2.3992565734194057e-12,1.439381061439906e-12,8.330295394771728e-13
0.0,24,24.0,0.0,30.0,0.0,0.0,0.0,0.0,-13.0,0.0,2.0,0.0,0.0,0.0,3.4304399886752824e-10,3.220476821594207e-10,2.877208528120357e-10,2.5194462822719546e-10,2.2071306686089223e-10,1.8726502524365743e-10,1.5609045553009827e-10,1.2756565371845374e-10,1.0301875014105471e-10,8.230703413935698e-11,6.400482091696713e-11,4.910990591662024e-11,3.663576275782363e-11,2.6847271951294163e-11,1.9486653683413645e-11,1.3877890944405835e-11,9.787891810937648e-12,6.7976043992668184e-12,4.622677900370486e-12,3.0697202771799207e-12,1.962343580475487e-12,1.2047529921911874e-12,7.080973393150042e-13,3.9955772464002877e-13,2.170877034628848e-13,1.1415146474429348e-13,5.83514774323748e-14,2.90655743217248e-14,1.4008628023995017e-14,7.039692248043842e-15,6.597582912190575e-09,3.381378526494694e-09,1.7813178899545815e-09,1.0306341387672341e-09,6.474318039477843e-10,4.2932855405777726e-10,2.9752671646776826e-10,2.0985809212617042e-10,1.496523467530101e-10,1.0630583175054597e-10,7.504133689665492e-11,5.207482831433716e-11,3.523905582189633e-11,2.342493171259733e-11,1.5259751746115228e-11,9.766692060189665e-12,6.186134851619235e-12,3.875724112929977e-12,2.386090697463265e-12,1.4328096707008047e-12,8.316778912328048e-13
0.0,25,25.0,0.0,30.0,0.0,0.0,0.0,0.0,-13.0,0.0,2.0,0.0,0.0,0.0,3.4658666863307793e-10,3.2547586586741264e-10,2.909608477716412e-10,2.54903509630889e-10,2.233538009011052e-10,1.8957120977396063e-10,1.5802025902079332e-10,1.2914566737160774e-10,1.0427710857163915e-10,8.328695391177759e-11,6.474710165662792e-11,4.96540738147503e-11,3.7014171063892795e-11,2.7089793572776262e-11,1.962150055146945e-11,1.393476718133034e-11,9.800493568467114e-12,6.7945367070833665e-12,4.6217861658609585e-12,3.076426259850206e-12,1.974581972167845e-12,1.2183793058858708e-12,7.200410916448171e-13,4.0857893406619006e-13,2.2324065637150974e-13,1.1804369272893245e-13,6.069849159885686e-14,3.037176885363154e-14,1.4732637769265275e-14,7.382836095414331e-15,6.557613124022144e-09,3.3573897555241413e-09,1.7722938484778205e-09,1.0300952757981647e-09,6.504088832951563e-10,4.33077193667545e-10,3.0085808400095874e-10,2.1246561530450095e-10,1.51590361323765e-10,1.077026007926138e-10,7.602541330058742e-11,5.275600547320028e-11,3.569608184493869e-11,2.371806005741741e-11,1.54279084811488e-11,9.842481785523357e-12,6.204702418927481e-12,3.868534401160918e-12,2.3746745993944705e-12,1.426043108885542e-12,8.296034148344254e-13
0.0,26,26.0,0.0,30.0,0.0,0.0,0.0,0.0,-13.0,0.0,2.0,0.0,0.0,0.0,3.5023891111830427e-10,3.290012938464907e-10,2.9428458642815317e-10,2.5793201121646165e-10,2.2605205764793554e-10,1.919246688871615e-10,1.59987444916247e-10,1.307548482621167e-10,1.0555760824766764e-10,8.42832850804037e-11,6.550144146344158e-11,5.0208051264656366e-11,3.740260806873177e-11,2.734419910751098e-11,1.976955198995705e-11,1.400361569686632e-11,9.821144913055571e-12,6.7946562769270274e-12,4.6204010045089185e-12,3.0809435287145886e-12,1.984500902222968e-12,1.2302387626867489e-12,7.308546266689556e-13,4.1695799378459303e-13,2.290552248852015e-13,1.217727712946424e-13,6.297486852925134e-14,3.1652782990953785e-14,1.5449714588088908e-14,7.720130727652168e-15,6.5167097713673175e-09,3.333378150236587e-09,1.7635980512133805e-09,1.029886728544204e-09,6.536204030651402e-10,4.369704723631727e-10,3.04277241634064e-10,2.151274662843418e-10,1.5356257124516716e-10,1.0912072206372942e-10,7.702187561762631e-11,5.3443642210541817e-11,3.615725700951741e-11,2.401690291684751e-11,1.5605165696923976e-11,9.929138981937916e-12,6.2325861326757764e-12,3.8669711706146025e-12,2.365387623273663e-12,1.4193970414811224e-12,8.270088940067344e-13
0.0,27,27.0,0.0,30.0,0.0,0.0,0.0,0.0,-13.0,0.0,2.0,0.0,0.0,0.0,3.540025719321086e-10,3.3262561200643975e-10,2.976935254500881e-10,2.6103140117297117e-10,2.2880892799728308e-10,1.9432632091144898e-10,1.6199273468409094e-10,1.323937606776739e-10,1.0686070471271082e-10,8.529637379678585e-11,6.626791577786245e-11,5.0771328965028485e-11,3.7799726053601535e-11,2.7608507082245024e-11,1.9928871369681534e-11,1.408327005128245e-11,9.849689850589121e-12,6.798496057712496e-12,4.619219788793288e-12,3.0838046934656566e-12,1.992400515860938e-12,1.2404706486330035e-12,7.405966850006543e-13,4.24715934663758e-13,2.345368322387147e-13,1.2533785422424652e-13,6.517779683913873e-14,3.2906654604125785e-14,1.615796095856199e-14,8.05274317508163e-15,6.474891495016489e-09,3.3093794471534873e-09,1.7552549880745349e-09,1.0300205973634459e-09,6.570717260441187e-10,4.4101112732826533e-10,3.0778612656782416e-10,2.1784518213755088e-10,1.555701182831754e-10,1.1056105109579858e-10,7.803144209480359e-11,5.413818230562512e-11,3.662224317673342e-11,2.43200137402475e-11,1.5789401605390447e-11,1.0024812518490033e-11,6.268846876547167e-12,3.870937121231405e-12,2.3585064440295168e-12,1.4131487879123419e-12,8.240806642906391e-13
0.0,28,28.0,0.0,30.0,0.0,0.0,0.0,0.0,-13.0,0.0,2.0,0.0,0.0,0.0,3.5787953204679947e-10,3.36350504998026e-10,3.011891626093606e-10,2.642029882110746e-10,2.3162554104021368e-10,1.9677711860307967e-10,1.6403687495776263e-10,1.3406297779238907e-10,1.081868457290265e-10,8.632657408702275e-11,6.704669808442744e-11,5.134366302222904e-11,3.820460059027894e-11,2.7881167912608653e-11,2.009777309043224e-11,1.4172558837854224e-11,9.885801364692969e-12,6.806401883871691e-12,4.618824922656934e-12,3.085498702752065e-12,1.9985725779762983e-12,1.249215062518025e-12,7.493270793240745e-13,4.3187496031949904e-13,2.396922154085874e-13,1.2873908855980645e-13,6.730509472439633e-14,3.4131711546207856e-14,1.6855613527749316e-14,8.381737424628376e-15,6.432180340903536e-09,3.2854312370829224e-09,1.7472896151989848e-09,1.0305089621675645e-09,6.607681664684068e-10,4.4520190652776013e-10,3.1138670233095576e-10,2.20620323989911e-10,1.576141671635575e-10,1.1202444311708534e-10,7.905481070030062e-11,5.484013533166031e-11,3.7090993817047006e-11,2.4626428866552306e-11,1.597893735531136e-11,1.0127851586418693e-11,6.312510026693931e-12,3.880210617376276e-12,2.3542131674846575e-12,1.4075357952351994e-12,8.209873368937095e-13
0.0,29,29.0,0.0,30.0,0.0,0.0,0.0,0.0,-13.0,0.0,2.0,0.0,0.0,0.0,3.618717107999576e-10,3.4017769868475667e-10,3.047730383912561e-10,2.6744812182274975e-10,2.3450306314951324e-10,1.9927804811197985e-10,1.661206388282773e-10,1.357630871605625e-10,1.0953647676685522e-10,8.737423746149974e-11,6.783801198912455e-11,5.192498346956532e-11,3.861662531160824e-11,2.8160997748233464e-11,2.0274824761040186e-11,1.4270356266398633e-11,9.929034959097383e-12,6.8185608176982215e-12,4.6196889530414945e-12,3.0864673964077682e-12,2.0032978431244006e-12,1.2566121796696334e-12,7.571065338830768e-13,4.384582081860013e-13,2.445291472357533e-13,1.3197747105926351e-13,6.935515758072193e-14,3.5326543537537605e-14,1.7541064638039603e-14,8.707985643376427e-15,6.3886019398123764e-09,3.2615729798096574e-09,1.7397273241743792e-09,1.0313638628675803e-09,6.647149854675347e-10,4.4954557043297387e-10,3.150809598325057e-10,2.2345447249599894e-10,1.5969589953052748e-10,1.1351175562978938e-10,8.009265890972484e-11,5.555003392644201e-11,3.756365122602313e-11,2.493555399888795e-11,1.6172481631784915e-11,1.023682215786652e-11,6.362610605585095e-12,3.894477422736315e-12,2.352605330922111e-12,1.4027552010827263e-12,8.178791190840652e-13
0.0,30,30.0,0.0,30.0,0.0,0.0,0.0,0.0,-13.0,0.0,2.0,0.0,0.0,0.0,3.659810693649349e-10,3.4410896312498954e-10,3.084467381969874e-10,2.707681932261149e-10,2.3744269766184717e-10,2.0183012798523445e-10,1.6824482588131766e-10,1.3749469401779037e-10,1.1091004652416806e-10,8.84397106395615e-11,6.864210347335906e-11,5.2515330137113926e-11,3.903542705698363e-11,2.8447114062480377e-11,2.045883511575482e-11,1.4375616052776712e-11,9.978873681305494e-12,6.835029186235966e-12,4.622182069555201e-12,3.0871034642632793e-12,2.0068435540839522e-12,1.2628013701473504e-12,7.639965405948992e-13,4.4448958723572914e-13,2.4905620703576497e-13,1.3505471594826448e-13,7.132690580500591e-14,3.648997449087562e-14,1.821288107911491e-14,9.03211690268939e-15,6.344185689411718e-09,3.237846014705827e-09,1.7325939093292578e-09,1.0325972808263477e-09,6.689173882750267e-10,4.5404489452789525e-10,3.188709191478692e-10,2.2634922536189745e-10,1.6181650868956404e-10,1.1502384873818414e-10,8.114564626077517e-11,5.626840993589307e-11,3.804047347767704e-11,2.524706989810602e-11,1.6369072257474417e-11,1.0350508256848318e-11,6.418226948154891e-12,3.913359493046393e-12,2.353707081468938e-12,1.3989644661062834e-12,8.148876349699609e-13
0.0,31,31.0,0.0,30.0,0.0,0.0,0.0,0.0,-13.0,0.0,2.0,0.0,0.0,0.0,3.7020961453064846e-10,3.481461158815607e-10,3.122118949399695e-10,2.7416463682587597e-10,2.404456851339558e-10,2.0443440850077307e-10,1.7041026167488257e-10,1.3925842293994226e-10,1.1230801139321424e-10,8.952333710534919e-11,6.945922612045852e-11,5.311480915456399e-11,3.946079951964366e-11,2.8738876672070324e-11,2.0648833152266857e-11,1.448739176179192e-11,1.003476467049658e-11,6.85575917583887e-12,4.6265813264124305e-12,3.087749777533413e-12,2.009461206040566e-12,1.2679202098116164e-12,7.700591975282387e-13,4.499936699359149e-13,2.5328259755149227e-13,1.3797313560623215e-13,7.32197332316072e-14,3.762103612645921e-14,1.8869818240772093e-14,9.35449797326104e-15,6.298964937797621e-09,3.2142935666912578e-09,1.7259155329907725e-09,1.0342211213128913e-09,6.733805232426008e-10,4.587026727682409e-10,3.227586318766084e-10,2.293061964502819e-10,1.6397719559671737e-10,1.1656158414682817e-10,8.221441741619506e-11,5.699578230061047e-11,3.852178405181598e-11,2.5560856419780945e-11,1.6568019373738526e-11,1.0467902508654768e-11,6.478504158049038e-12,3.936440139647309e-12,2.3574808723972106e-12,1.396282978038163e-12,8.121261568089105e-13
0.0,32,32.0,0.0,30.0,0.0,0.0,0.0,0.0,-13.0,0.0,2.0,0.0,0.0,0.0,3.7455940268694393e-10,3.5229102552940474e-10,3.160701918786756e-10,2.7763893202142265e-10,2.435133040675638e-10,2.0709197142348854e-10,1.7261779710350127e-10,1.410549184376688e-10,1.1373083862469428e-10,9.062546005345354e-11,7.028963429232775e-11,5.372356450583068e-11,3.989265278575611e-11,2.903583607375821e-11,2.084404267174024e-11,1.4604846601983e-11,1.0096147739369e-11,6.880623189077456e-12,4.633080948351161e-12,3.0886999776235987e-12,2.011384678455113e-12,1.2721034332288454e-12,7.753570093385248e-13,4.549956182449128e-13,2.5721800401365017e-13,1.4073553529857062e-13,7.503345679093627e-14,3.8718943534873997e-14,1.9510828526744984e-14,9.675239482684531e-15,6.252977167634056e-09,3.1909607469285276e-09,1.719718688617537e-09,1.03624719697154e-09,6.781094826305766e-10,4.6352172207392567e-10,3.2674618399609855e-10,2.3232701606683552e-10,1.661791662087276e-10,1.1812582361393098e-10,8.32996047847178e-11,5.773265190546189e-11,3.900793822400205e-11,2.5876932974774302e-11,1.6768853057579116e-11,1.0588189702747685e-11,6.542668879180536e-12,3.963285244144607e-12,2.363839114511813e-12,1.3947944766516425e-12,8.096901665870435e-13
0.0,33,33.0,0.0,30.0,0.0,0.0,0.0,0.0,-13.0,0.0,2.0,0.0,0.0,0.0,3.790325439557893e-10,3.5654561527856386e-10,3.200233655749981e-10,2.811926052237049e-10,2.466468719757604e-10,2.0980393016444541e-10,1.7486830789601248e-10,1.4288484496171648e-10,1.1517900832826558e-10,9.17464254501281e-11,7.113358088918292e-11,5.434176021478908e-11,4.033097595951851e-11,2.9337689737260764e-11,2.1043855253161064e-11,1.4727255361994624e-11,1.0162476795089963e-11,6.9094354727791266e-12,4.641803148636546e-12,3.09020015306866e-12,2.0128287996893264e-12,1.2754818800203251e-12,7.799526410013591e-13,4.59521126615773e-13,2.6087248963292474e-13,1.4334512245360216e-13,7.676826803533148e-14,3.978307314475063e-14,2.013506356505124e-14,9.994220504645322e-15,6.206264179886612e-09,3.1678945476055372e-09,1.7140301617308783e-09,1.0386872123431674e-09,6.831093051180816e-10,4.685048878616332e-10,3.3083569917159174e-10,2.354133321111645e-10,1.6842363010969877e-10,1.197174274226231e-10,8.440183044864299e-11,5.847950031397478e-11,3.949930149632358e-11,2.6195413033856078e-11,1.6971276924952363e-11,1.071072635065812e-11,6.610036976557864e-12,3.9934604944125635e-12,2.3726553330489692e-12,1.3945501194107958e-12,8.076581776738681e-13
0.0,34,34.0,0.0,30.0,0.0,0.0,0.0,0.0,-13.0,0.0,2.0,0.0,0.0,0.0,3.8363120644000646e-10,3.609118666662996e-10,3.240732089076168e-10,2.8482723197926056e-10,2.498477466744761e-10,2.1257143027338217e-10,1.7716269435578732e-10,1.4474888665934407e-10,1.166530145863393e-10,9.288658463730589e-11,7.199131752740134e-11,5.496956979553238e-11,4.077581019818272e-11,2.964424618355274e-11,2.1247803739112547e-11,1.4854000789479967e-11,1.0233235061099347e-11,6.9419707802516835e-12,4.652808975737356e-12,3.092451405277047e-12,2.013988374664224e-12,1.2781814831745358e-12,7.83908625395855e-13,4.635963686053567e-13,2.6425642105258656e-13,1.4580543036647945e-13,7.842468716184791e-14,4.081294335832632e-14,2.0741870341229723e-14,1.0311125123806292e-14,6.158872276039606e-09,3.1451438301319804e-09,1.7088769885880972e-09,1.0415527495003337e-09,6.883849799668425e-10,4.736550505703141e-10,3.3502934249147156e-10,2.3856681185404184e-10,1.7071180023493943e-10,1.2133725321585216e-10,8.55217074751485e-11,5.923679049134909e-11,3.9996236436629176e-11,2.651647021814051e-11,1.7175128331972616e-11,1.0835018512774897e-11,6.680015663591109e-12,4.026544825868416e-12,2.3837744962974033e-12,1.3955719979563873e-12,8.060927555709428e-13
0.0,35,35.0,0.0,30.0,0.0,0.0,0.0,0.0,-13.0,0.0,2.0,0.0,0.0,0.0,3.8835762058142446e-10,3.653918232973087e-10,3.2822157410116814e-10,2.8854443913469044e-10,2.531173277071629e-10,2.1539565018155881e-10,1.7950188136708334e-10,1.4664774709901507e-10,1.181533659691266e-10,9.404629630148978e-11,7.286309580962682e-11,5.5607170490691356e-11,4.122722978314032e-11,2.9955396198160154e-11,2.145553755199805e-11,1.498456630211446e-11,1.0307945112279339e-11,6.977980031356313e-12,4.666108802642696e-12,3.0956130935436567e-12,2.015037675786049e-12,1.2803223410026822e-12,7.872870319035808e-13,4.672479373904326e-13,2.6738041707132157e-13,1.4812025565294632e-13,8.000352008564241e-14,4.180819794344216e-14,2.133078184626427e-14,1.062548539662983e-14,6.110852437570912e-09,3.1227593060538866e-09,1.704286412566097e-09,1.0448552548799479e-09,6.939414527722779e-10,4.789751330970767e-10,3.39329324590871e-10,2.417891441663934e-10,1.7304489348213533e-10,1.2298615536602392e-10,8.665984080662053e-11,6.000496840864901e-11,4.04990952211068e-11,2.684031366625081e-11,1.738034514873505e-11,1.096069954460074e-11,6.752101475983039e-12,4.062140396549256e-12,2.397022290976615e-12,1.3978569214260825e-12,8.050416847564794e-13
0.0,36,36.0,0.0,30.0,0.0,0.0,0.0,0.0,-13.0,0.0,2.0,0.0,0.0,0.0,3.932140836314922e-10,3.699875946268001e-10,3.324703757538294e-10,2.9234590700318074e-10,2.5645705783794845e-10,2.1827780211889052e-10,1.818868186454928e-10,1.4858214908500104e-10,1.1968058569421713e-10,9.522592783146442e-11,7.374916892464003e-11,5.6254740534887964e-11,4.1685329225898765e-11,3.02710902870208e-11,2.1666800583987127e-11,1.5118526524296574e-11,1.0386174711251254e-11,7.017203083013345e-12,4.681672169454962e-12,3.0998065547841113e-12,2.0161303733473905e-12,1.2820179055046325e-12,7.90149107399147e-13,4.705027739692522e-13,2.7025531419695767e-13,1.5029360831771068e-13,8.150581900032931e-14,4.276859212505624e-14,2.190150315343385e-14,1.0936726183887228e-14,6.062260501336562e-09,3.100793509975247e-09,1.7002858382546983e-09,1.0486060274168825e-09,6.997836327397589e-10,4.844681090400531e-10,3.437379061165245e-10,2.4508204207252236e-10,1.7542413200593803e-10,1.2466498492635842e-10,8.781682793464227e-11,6.078446492525387e-11,4.100821592424043e-11,2.716717063755887e-11,1.7586938680372356e-11,1.108750889084692e-11,6.8258753107952936e-12,4.099879510597412e-12,2.41221321536201e-12,1.401380299510225e-12,8.045392354837908e-13
0.0,37,37.0,0.0,30.0,0.0,0.0,0.0,0.0,-13.0,0.0,2.0,0.0,0.0,0.0,3.9820296424172974e-10,3.747013597893422e-10,3.368215938593354e-10,2.9623337151502264e-10,2.598684245724677e-10,2.212191331445934e-10,1.8431848119098125e-10,1.5055283461710228e-10,1.212352116128143e-10,9.642585617559971e-11,7.464979317738773e-11,5.69124582291246e-11,4.21502147872137e-11,3.059132140197395e-11,2.1881411986010328e-11,1.5255536785304487e-11,1.0467539359115786e-11,7.0593788253368866e-12,4.6994367793878775e-12,3.1051191091807777e-12,2.0173998639074343e-12,1.2833743102506217e-12,7.925549031575197e-13,4.733880798823128e-13,2.728921431893578e-13,1.5232967296590048e-13,8.293284671900528e-14,4.36939812044865e-14,2.2453894023087527e-14,1.1244208411795792e-14,6.013157329389942e-09,3.079300763770115e-09,1.6969027832991174e-09,1.0528162081020425e-09,7.059164014297526e-10,4.9013701163482e-10,3.48257402476161e-10,2.4844724553321343e-10,1.7785074501567954e-10,1.2637459013196503e-10,8.89932595234595e-11,6.157569765422002e-11,4.152392118128303e-11,2.7497274625725546e-11,1.7794972086685864e-11,1.1215272636792482e-11,6.900995550292897e-12,4.139428943935964e-12,2.4291574411793424e-12,1.4060999819516065e-12,8.046074904027888e-13
0.0,38,38.0,0.0,30.0,0.0,0.0,0.0,0.0,-13.0,0.0,2.0,0.0,0.0,0.0,4.033267071813443e-10,3.795353714793711e-10,3.412772768266596e-10,3.0020862634752464e-10,2.6335296168435224e-10,2.242209262475756e-10,1.8679786989820546e-10,1.525605650087316e-10,1.2281779614633165e-10,9.764646833223912e-11,7.556522927230652e-11,5.758050201911893e-11,4.262199913762673e-11,3.0916111985327224e-11,2.2099249892883245e-11,1.5395322406534275e-11,1.0551702370552201e-11,7.104252882026426e-12,4.719316526761662e-12,3.1116081855114353e-12,2.018959943452395e-12,1.2844898514430736e-12,7.945629017012146e-13,4.75931213807989e-13,2.753021115755414e-13,1.542327794781112e-13,8.428604493996938e-14,4.458431145292672e-14,2.298794919727244e-14,1.154726832996027e-14,5.963608971632337e-09,3.0583371313758233e-09,1.694164828080349e-09,1.0574967711087984e-09,7.123446229220498e-10,4.959849432690952e-10,3.5289018880962276e-10,2.5188652438707475e-10,1.8032597092563136e-10,1.281158173748603e-10,9.018972009575546e-11,6.23790726918176e-11,4.2046518283959064e-11,2.7830857572460094e-11,1.800454355432482e-11,1.1343886203799073e-11,6.9771900926445005e-12,4.180492129603035e-12,2.4476664585458264e-12,1.4119599384133186e-12,8.052576963047268e-13
0.0,39,39.0,0.0,30.0,0.0,0.0,0.0,0.0,-13.0,0.0,2.0,0.0,0.0,0.0,4.0858783818661023e-10,3.844919598888653e-10,3.45839544503368e-10,3.042735250375227e-10,2.6691225073866273e-10,2.2728450148812532e-10,1.8932601228337965e-10,1.5460612115309666e-10,1.2442890624927324e-10,9.888816159707372e-11,7.649574330145244e-11,5.825905106294752e-11,4.310079819075235e-11,3.1245504465051524e-11,2.2320237935480144e-11,1.5537668350484167e-11,1.0638373166619113e-11,7.151583225535423e-12,4.74120850117644e-12,3.119305426119158e-12,2.020905765719104e-12,1.2854546272479845e-12,7.962296568727344e-13,4.781595733401221e-13,2.7749658806365763e-13,1.5600738138186035e-13,8.556700643745969e-14,4.543961297424462e-14,2.3503777511309254e-14,1.184525121973181e-14,5.913686819559101e-09,3.0379603634772027e-09,1.6920995633815171e-09,1.062658516654189e-09,7.190731553561212e-10,5.020150854641481e-10,3.576387051170085e-10,2.554016813942669e-10,1.82851059737089e-10,1.2988951255848038e-10,9.140678884343543e-11,6.319498618568472e-11,4.2576300086724103e-11,2.8168145061890448e-11,1.8215773463031928e-11,1.147329933795959e-11,7.054247927815978e-12,4.222809638694291e-12,2.4675575653251742e-12,1.4188936904716824e-12,8.064916113466918e-13
0.0,40,40.0,0.0,30.0,0.0,0.0,0.0,0.0,-13.0,0.0,2.0,0.0,0.0,0.0,4.1398896894296306e-10,3.895735367058101e-10,3.5051059120900124e-10,3.084299830836946e-10,2.705479226122146e-10,2.3041121716455257e-10,1.9190396329480127e-10,1.5669030391610271e-10,1.2606912343889405e-10,1.0015134366849565e-10,7.744160745640776e-11,5.894828597652e-11,4.358672939133799e-11,3.1579554443558423e-11,2.254433428181591e-11,1.5682409600682582e-11,1.0727304360230794e-11,7.20114402526635e-12,4.764998964385815e-12,3.1282206587646706e-12,2.0233150240420116e-12,1.2863503331702352e-12,7.976094588339677e-13,4.801004646471796e-13,2.794870857552721e-13,1.5765804016947818e-13,8.677745104947157e-14,4.625999420691992e-14,2.4001580842882445e-14,1.213753874545247e-14,5.863467749230242e-09,3.0182298314246227e-09,1.6907345362556927e-09,1.0683120657840158e-09,7.261068638109979e-10,5.082307092188711e-10,3.6250546148157386e-10,2.5899455533829007e-10,1.8542727555835287e-10,1.3169652273482387e-10,9.264504058614661e-11,6.402382575876987e-11,4.311354632444254e-11,2.8509353628565996e-11,1.842879482837369e-11,1.1603503373787579e-11,7.132010734166162e-12,4.266158354887937e-12,2.488657294785989e-12,1.4268274339265362e-12,8.083028228807008e-13
0.0,41,41.0,0.0,30.0,0.0,0.0,0.0,0.0,-13.0,0.0,2.0,0.0,0.0,0.0,4.19532802196914e-10,3.947825991746148e-10,3.552926887838717e-10,3.126799800474591e-10,2.7426165901595895e-10,2.3360247099741934e-10,1.9453280618278668e-10,1.5881393463146449e-10,1.277390439079958e-10,1.0143643268604637e-10,7.840310051278628e-11,5.96483895817614e-11,4.4079910940050465e-11,3.191832594347933e-11,2.2771522895710677e-11,1.5829422484994664e-11,1.08182880967605e-11,7.2527280372437105e-12,4.790568336116932e-12,3.1383456491324796e-12,2.026249296494211e-12,1.287250205357947e-12,7.987540335975883e-13,4.817809635994061e-13,2.8128524199053957e-13,1.5918941391403104e-13,8.791920522904342e-14,4.7045637732274116e-14,2.4481633766472064e-14,1.2423569726477667e-14,5.813034251452227e-09,2.99920644977343e-09,1.6900971943846608e-09,1.0744678572933634e-09,7.334506344934275e-10,5.146351856219786e-10,3.6749304333093865e-10,2.6266702415072034e-10,1.8805589919153156e-10,1.335376979346978e-10,9.390504687203142e-11,6.486597182035583e-11,4.3658525095709355e-11,2.8854689522959557e-11,1.8643746374426656e-11,1.173452064469067e-11,7.210364832548635e-12,4.310349693174098e-12,2.5108038955073397e-12,1.4356828133463134e-12,8.106780155263538e-13
0.0,42,42.0,0.0,30.0,0.0,0.0,0.0,0.0,-13.0,0.0,2.0,0.0,0.0,0.0,4.252221369916078e-10,4.001217342174792e-10,3.6018818965744344e-10,3.1702556166150834e-10,2.7805519402733964e-10,2.368597013300222e-10,1.9721365341244863e-10,1.6097785567474188e-10,1.2943927872208078e-10,1.027438572535234e-10,7.93805081442458e-11,6.035954757036201e-11,4.458046159150759e-11,3.2261888190738205e-11,2.3001806687147423e-11,1.5978617038359376e-11,1.0911152010241004e-11,7.30614782205473e-12,4.8177952534350085e-12,3.149657572278679e-12,2.0297554980329983e-12,1.2882190992934074e-12,7.997122843605047e-13,4.832277723975992e-13,2.829027935080857e-13,1.6060624869834317e-13,8.899418484505327e-14,4.7796797070482776e-14,2.4944264603795078e-14,1.2702854550732949e-14,5.762474547011018e-09,2.980952586890872e-09,1.6902148292968042e-09,1.0811361470139035e-09,7.411093902064852e-10,5.212319966482743e-10,3.7260411668841756e-10,2.6642100803161237e-10,1.9073823073376605e-10,1.354138931137862e-10,9.518737719781131e-11,6.572179879491697e-11,4.421149436806875e-11,2.920434844868665e-11,1.8860767674703328e-11,1.186639584587968e-11,7.28923372068642e-12,4.355227162115359e-12,2.533848987345876e-12,1.4453793310084783e-12,8.135981733514525e-13
0.0,43,43.0,0.0,30.0,0.0,0.0,0.0,0.0,-13.0,0.0,2.0,0.0,0.0,0.0,4.310598740172325e-10,4.055936226140557e-10,3.6519952993936297e-10,3.21468841954742e-10,2.8193031564179324e-10,2.4018438834763327e-10,1.9994764760907628e-10,1.6318293109646042e-10,1.3117045409364164e-10,1.0407405647912581e-10,8.037412311943313e-11,6.108194904999736e-11,4.508850077825998e-11,3.2610313521332957e-11,2.3235202239056762e-11,1.612993041818783e-11,1.100575506663766e-11,7.361236048946088e-12,4.846559786805506e-12,3.1621221630370816e-12,2.0338673890052763e-12,1.28931368827503e-12,8.005300795480071e-13,4.844670758298027e-13,2.8435154633281343e-13,1.6191337157665257e-13,9.000438086374679e-14,4.8513794172380394e-14,2.5389838377599083e-14,1.2974983763811553e-14,5.711882684642356e-09,2.963531963147771e-09,1.691114518894043e-09,1.0883270097159057e-09,7.490881070718769e-10,5.280247460650438e-10,3.778414333758941e-10,2.702584725455082e-10,1.9347559215555907e-10,1.3732597015136975e-10,9.649260031647789e-11,6.659167629271976e-11,4.4772703427075697e-11,2.955851591956277e-11,1.9079995887257662e-11,1.1999189122060927e-11,7.36857131991154e-12,4.4006635177055295e-12,2.5576585192202627e-12,1.4558363889204282e-12,8.170397039231952e-13
0.0,44,44.0,0.0,30.0,0.0,0.0,0.0,0.0,-13.0,0.0,2.0,0.0,0.0,0.0,4.370490210655172e-10,4.112010432357005e-10,3.7032923253548625e-10,3.260120054019066e-10,2.8588886735288826e-10,2.435780553201771e-10,2.0273596253064978e-10,1.6543004729861362e-10,1.3293321172248286e-10,1.0542748005061919e-10,8.138424542662009e-11,6.181578697094712e-11,4.560414889844996e-11,3.2963676090243916e-11,2.3471735820971964e-11,1.628332132978188e-11,1.1101983490460487e-11,7.417845111435e-12,4.876745906463e-12,3.1756965239546807e-12,2.038607096022551e-12,1.2905827642714803e-12,8.012500902405145e-13,4.855244010981952e-13,2.856433404047479e-13,1.63115684014244e-13,9.095184751246311e-14,4.919701735024281e-14,2.5818742001004274e-14,1.323963157081013e-14,5.661358619268952e-09,2.9470095362995514e-09,1.6928230698215827e-09,1.0960503438841728e-09,7.573918324771576e-10,5.350171703840274e-10,3.832078361398038e-10,2.741814316795449e-10,1.962693298306894e-10,1.3927479985246565e-10,9.782128559839162e-11,6.747597023768333e-11,4.534239423177274e-11,2.9917367987414173e-11,1.930156369352892e-11,1.2132970642391197e-11,7.448355996716432e-12,4.446557708392305e-12,2.5821131505396687e-12,1.4669749754224528e-12,8.209754755188449e-13
0.0,45,45.0,0.0,30.0,0.0,0.0,0.0,0.0,-13.0,0.0,2.0,0.0,0.0,0.0,4.4319269857619777e-10,4.1694687733016745e-10,3.7557991029097016e-10,3.3065730910590335e-10,2.899327497704492e-10,2.470422698740536e-10,2.055798040653924e-10,1.6772011374288656e-10,1.3472820919001171e-10,1.068045883534156e-10,8.241118236061701e-11,6.256125844702242e-11,4.612752766542051e-11,3.332205113786524e-11,2.3711440433511777e-11,1.6438765384209124e-11,1.1199746909272006e-11,7.475846246341034e-12,4.908243296703419e-12,3.1903315846008555e-12,2.0439866083136875e-12,1.2920676229566928e-12,8.019116776481876e-13,4.864244847769385e-13,2.867900094274973e-13,1.6421815498124835e-13,9.183869251809311e-14,4.984691942938665e-14,2.6231371875613184e-14,1.3496555099166191e-14,5.611008267875623e-09,2.9314513737650523e-09,1.6953669602986581e-09,1.1043158796332062e-09,7.660257042144629e-10,5.42213149802716e-10,3.887062636815735e-10,2.7819195085618803e-10,1.9912081700145235e-10,1.412612639169274e-10,9.917400441326319e-11,6.837504396043486e-11,4.5920802663074285e-11,3.028107216871745e-11,1.952559812619018e-11,1.2267816431178663e-11,7.528585370086441e-12,4.492831766787598e-12,2.6071081700919912e-12,1.4787190172992945e-12,8.253757619043119e-13
0.0,46,46.0,0.0,30.0,0.0,0.0,0.0,0.0,-13.0,0.0,2.0,0.0,0.0,0.0,4.494941452624261e-10,4.228341128526122e-10,3.809542691625754e-10,3.3540708502049725e-10,2.940639222856069e-10,2.505786452990587e-10,2.0848041125444944e-10,1.7005406368243476e-10,1.365561203961736e-10,1.0820585263291508e-10,8.34552485969096e-11,6.331856499129383e-11,4.665876045942523e-11,3.3685514631913634e-11,2.395435366392753e-11,1.6596251291892777e-11,1.1298974801418867e-11,7.535128315685968e-12,4.940948614814671e-12,3.2059742181981943e-12,2.0500092197657356e-12,1.2938025148153262e-12,8.025508295795415e-13,4.871911499481333e-13,2.878033367526857e-13,1.6522581310064086e-13,9.266706902297168e-14,5.0464015943525407e-14,2.6628123936283672e-14,1.3745590308358448e-14,5.5609435402381954e-09,2.9169245116358873e-09,1.6987722841134736e-09,1.113133190026325e-09,7.749949707695408e-10,5.496167190857945e-10,3.9433975558316926e-10,2.822921498985349e-10,2.020314561700379e-10,1.4328625685002343e-10,1.0055133150463374e-10,6.928925925871011e-11,4.6508159664705363e-11,3.0649788454868964e-11,1.975222003724896e-11,1.2403805238858798e-11,7.609271879245006e-12,4.539427764921242e-12,2.6325530556170223e-12,1.4909964247437283e-12,8.302090917963245e-13
0.0,47,47.0,0.0,30.0,0.0,0.0,0.0,0.0,-13.0,0.0,2.0,0.0,0.0,0.0,4.559567238014999e-10,4.288658488391319e-10,3.864551114226806e-10,3.4026374222107743e-10,2.9828440479122494e-10,2.5418884189614263e-10,2.1143905734109202e-10,1.7243285491188753e-10,1.3841763602928202e-10,1.0963175519855557e-10,8.451676626973172e-11,6.408791268817784e-11,4.719797264962177e-11,3.4054143152337086e-11,2.4200516168685868e-11,1.675577778740683e-11,1.1399613294176945e-11,7.595596380723993e-12,4.974766286898895e-12,3.2225690306959866e-12,2.0566708936466916e-12,1.2958151449551812e-12,8.032001434484362e-13,4.878471959779799e-13,2.886950083374227e-13,1.6614373745623776e-13,9.343916880462766e-14,5.10488832360218e-14,2.7009386069965923e-14,1.3986645413723776e-14,5.511282341574115e-09,2.903496800395035e-09,1.703064696569068e-09,1.1225117060565708e-09,7.843050127100754e-10,5.572320783438758e-10,4.0011145712662195e-10,2.864842059507235e-10,2.05002681412176e-10,1.4535068779813697e-10,1.019538463338427e-10,7.021897742344386e-11,4.710469228280019e-11,3.1023670331707315e-11,1.9981544013461093e-11,1.2541016259460516e-11,7.690439062357876e-12,4.586304916926514e-12,2.658370765303598e-12,1.5037398604146746e-12,8.354430024180889e-13
