Line_number,Fiducial,Easting,Northing,Height,Elevation,tx_pitch,tx_roll,tx_yaw,txrx_dx,txrx_dy,txrx_dz,rx_pitch,rx_roll,rx_yaw,S0Z_time_1.431e-04,S0Z_time_1.801e-04,S0Z_time_2.266e-04,S0Z_time_2.846e-04,S0Z_time_3.581e-04,S0Z_time_4.506e-04,S0Z_time_5.671e-04,S0Z_time_7.136e-04,S0Z_time_8.981e-04,S0Z_time_1.131e-03,S0Z_time_1.423e-03,S0Z_time_1.791e-03,S0Z_time_2.255e-03,S0Z_time_2.838e-03,S0Z_time_3.573e-03,S0Z_time_4.498e-03,S0Z_time_5.662e-03,S1Z_time_1.409e-05,S1Z_time_1.610e-05,S1Z_time_1.909e-05,S1Z_time_2.360e-05,S1Z_time_2.960e-05,S1Z_time_3.709e-05,S1Z_time_4.609e-05,S1Z_time_5.759e-05,S1Z_time_7.209e-05,S1Z_time_9.060e-05,S1Z_time_1.141e-04,S1Z_time_1.431e-04,S1Z_time_1.801e-04,S1Z_time_2.266e-04,S1Z_time_2.846e-04,S1Z_time_3.581e-04,S1Z_time_4.506e-04,S1Z_time_5.671e-04,S1Z_time_7.136e-04,S1Z_time_8.981e-04,S1Z_time_1.131e-03
0.0,0,0.0,0.0,30.0,0.0,0.0,0.0,0.0,-13.0,0.0,2.0,0.0,0.0,0.0,1.1082135259466493e-10,5.85511541408531e-11,2.986631250965463e-11,1.6389323843992084e-11,1.0137267459396795e-11,5.7774916713273524e-12,3.55794053025325e-12,1.890261822096593e-12,1.0624480274461418e-12,6.571866004205786e-13,3.810058002569435e-13,2.0901792896486935e-13,1.165046362408295e-13,6.384588591491549e-14,2.720921518541439e-14,3.364826247316618e-14,1.2324777916193473e-14,6.676734010271232e-09,5.620937505031124e-09,4.067943422026321e-09,2.854914475509379e-09,2.0200561320556436e-09,1.2712734372945421e-09,8.221324357666964e-10,5.449515952060906e-10,3.2210798589239026e-10,1.9185823962547644e-10,1.190970612857514e-10,6.888772581680547e-11,3.9055911674430724e-11,2.3070332809611944e-11,1.2803405146541388e-11,7.369743111814134e-12,4.327726944062045e-12,2.5944719933712136e-12,1.5296544192708033e-12,8.469999900191471e-13,3.630812380839755e-13
0.0,1,1.0,0.0,30.0,0.0,0.0,0.0,0.0,-13.0,0.0,2.0,0.0,0.0,0.0,1.02893151169575e-10,5.816964678154456e-11,2.98462142299861e-11,1.7052613654593056e-11,9.274895256280932e-12,5.4182698898654635e-12,3.0822622831224067e-12,1.83828483738839e-12,1.0647863887093333e-12,5.937518618200167e-13,3.826945566546563e-13,2.2231738422700801e-13,1.282044830509166e-13,8.36430335920609e-14,5.006378032460755e-14,6.061326727824029e-15,8.885853038471573e-15,6.609771431559897e-09,5.554411312916501e-09,4.069135639711404e-09,2.8465916561454576e-09,1.949241902415441e-09,1.2959549459930527e-09,8.283403600863988e-10,4.995898755917267e-10,3.2538494581597404e-10,1.836048999913686e-10,1.143017488598144e-10,6.337694631982838e-11,3.832041542249883e-11,2.181534916565469e-11,1.3441105317600772e-11,7.314001201533992e-12,4.423340427983068e-12,2.280221902241746e-12,1.4011075614946384e-12,6.836410487258126e-13,2.904558732494649e-13
0.0,2,2.0,0.0,30.0,0.0,0.0,0.0,0.0,-13.0,0.0,2.0,0.0,0.0,0.0,1.085079053053686e-10,5.655641580106138e-11,2.9744064933978534e-11,1.6138898870497385e-11,9.12043349109133e-12,5.136719358025915e-12,3.3286750646316888e-12,1.7924340602099919e-12,1.0271093903062414e-12,5.923960380862787e-13,3.7125244186071297e-13,2.1642186222076115e-13,1.3234613600565625e-13,6.920438839921509e-14,2.9840290175687004e-14,1.1859584141392685e-14,1.0092387793823724e-14,7.443670548396923e-09,5.14371921203414e-09,4.2690136670467435e-09,2.8035607339695793e-09,1.9975667129761497e-09,1.280353343493889e-09,8.569144157251843e-10,5.361222793719365e-10,3.2619397971458e-10,1.9236640524426826e-10,1.11553242065806e-10,6.546159391745107e-11,3.815660540648737e-11,2.0996590813385606e-11,1.2577708600191089e-11,7.042790252648526e-12,3.940591961894712e-12,2.4389118086326103e-12,1.2109277709190821e-12,1.0017991131957586e-12,3.2583629411213197e-13
0.0,3,3.0,0.0,30.0,0.0,0.0,0.0,0.0,-13.0,0.0,2.0,0.0,0.0,0.0,1.0587613930644851e-10,5.318105909480346e-11,2.6732049705158436e-11,1.4836160553678752e-11,8.914858478358937e-12,5.13198486692706e-12,3.066273521038832e-12,1.7392141935617286e-12,9.892872655338672e-13,6.117312968055159e-13,3.816981924650272e-13,1.7399630089059175e-13,1.2997317889652345e-13,4.0372723086681593e-14,4.138951226226452e-14,1.0118262622528511e-14,1.7514839376654746e-14,6.810207527483615e-09,5.657229686675006e-09,4.295780208058857e-09,2.7720922861089674e-09,1.9825310310501356e-09,1.2730143905387347e-09,8.452079336966413e-10,5.40201929722836e-10,3.3921408183473617e-10,1.941742127362872e-10,1.1290215249401433e-10,6.271764955626061e-11,3.7961988502707515e-11,2.0464198966270777e-11,1.1184045622962406e-11,6.69081003487506e-12,4.371514185524589e-12,2.221220026513575e-12,1.6248279132826193e-12,7.43360717250514e-13,3.337577688482904e-13
0.0,4,4.0,0.0,30.0,0.0,0.0,0.0,0.0,-13.0,0.0,2.0,0.0,0.0,0.0,1.0747380285505031e-10,5.3091299566881325e-11,2.7447661404008637e-11,1.5605268813320416e-11,8.595522626652326e-12,4.9494807322570216e-12,2.6570313925664425e-12,1.5785859793979458e-12,9.49092791081997e-13,5.451713222455809e-13,3.710216030732718e-13,1.892865627030202e-13,1.1866941388226278e-13,7.588855303335716e-14,2.2782110745268537e-14,2.0507045775903263e-14,2.690865652504674e-14,6.645533216560417e-09,5.58582866148187e-09,4.242989537124718e-09,2.778551742730328e-09,1.9819420915818025e-09,1.2923183787061743e-09,8.742519017385638e-10,5.364889103842919e-10,3.3329588187422684e-10,1.9474574971702075e-10,1.0733431025780697e-10,6.205275185081714e-11,3.6166739176650935e-11,1.9932239685726084e-11,1.1727448309387285e-11,6.836954012645393e-12,4.0565727302369175e-12,2.1656298540794737e-12,1.0603273075473026e-12,5.917353143628462e-13,6.128957089085883e-13
0.0,5,5.0,0.0,30.0,0.0,0.0,0.0,0.0,-13.0,0.0,2.0,0.0,0.0,0.0,1.0038492238007236e-10,5.182297876396362e-11,2.6931129699314794e-11,1.3732167639419759e-11,8.194495265425333e-12,4.5167311954947464e-12,2.818668717843019e-12,1.540381552718295e-12,9.707120633404975e-13,5.370732279055918e-13,3.504984288124268e-13,2.0441578326761848e-13,1.0731924592611878e-13,6.086764664086436e-14,5.432531153327256e-14,1.3402507729202733e-14,5.521022168710726e-15,6.779691766732593e-09,5.543542009350366e-09,4.027609896171886e-09,2.966580267321536e-09,2.049581622564726e-09,1.2507999088993434e-09,8.115051194061457e-10,5.294240368265589e-10,3.26967535770434e-10,1.8628376781132337e-10,1.0575049032775708e-10,6.122916670303788e-11,3.3898020728832445e-11,2.0035306478722512e-11,1.1160419894813004e-11,6.313152025154602e-12,3.944792249976437e-12,2.1939516706560878e-12,1.1268465423376879e-12,7.189849797570714e-13,3.55753189272164e-13
0.0,6,6.0,0.0,30.0,0.0,0.0,0.0,0.0,-13.0,0.0,2.0,0.0,0.0,0.0,1.0178777219854324e-10,4.9781235889846585e-11,2.7181310978176905e-11,1.416481472967256e-11,8.206250355400693e-12,4.560027646737645e-12,2.6294063913130334e-12,1.5868521071150892e-12,9.405525731908142e-13,5.378635992349325e-13,3.4211473829387614e-13,1.8862551805647566e-13,1.2441006868389776e-13,5.930672672520157e-14,3.202837908396487e-14,2.6410973944466243e-15,2.3822295383615046e-14,6.80832739594561e-09,5.2150857417566025e-09,4.373216811383569e-09,2.845667435361935e-09,2.030814102498295e-09,1.2796565558716796e-09,8.465682620145812e-10,5.382094765757782e-10,3.3738370709656695e-10,1.8867509391781316e-10,1.0335963981308703e-10,6.222206894373022e-11,3.555405282843025e-11,1.887524078709301e-11,1.0817268336252198e-11,5.8562079321416784e-12,3.399819566989036e-12,2.1783205190136594e-12,1.0992809211269633e-12,5.090308658458624e-13,2.7429275531089904e-13
0.0,7,7.0,0.0,30.0,0.0,0.0,0.0,0.0,-13.0,0.0,2.0,0.0,0.0,0.0,1.0130168893055204e-10,5.1063483975655775e-11,2.561814393818191e-11,1.4454859775466574e-11,8.497152073640055e-12,4.597106149751125e-12,2.566278319162896e-12,1.4616403095784805e-12,8.592825515717657e-13,5.061885090063782e-13,3.34406656571734e-13,1.7046083738929287e-13,1.135526516139974e-13,6.196581002505715e-14,4.02789152292987e-14,1.3700103726222153e-14,6.046456732383534e-15,6.7186463822286725e-09,5.6546875114012004e-09,4.221669891225741e-09,3.148153420816437e-09,2.0990179456546215e-09,1.364322852338809e-09,8.798655678321681e-10,5.469387210433429e-10,3.245384980299008e-10,1.922788970192056e-10,1.1229474669483455e-10,6.18757356018827e-11,3.342380631113432e-11,1.880588193492056e-11,1.0497773651802496e-11,5.820285661803543e-12,3.1423060702066353e-12,2.05856630071481e-12,1.0572478487222434e-12,7.368808657060675e-13,3.8407760819391033e-13
0.0,8,8.0,0.0,30.0,0.0,0.0,0.0,0.0,-13.0,0.0,2.0,0.0,0.0,0.0,9.928437596252891e-11,5.0598956235665556e-11,2.4358016620867165e-11,1.366651167885789e-11,7.4121113562498e-12,4.171598792087053e-12,2.660723422821287e-12,1.3827216450869088e-12,8.370917977630374e-13,4.694845858556624e-13,3.161541512244081e-13,1.6118113816935227e-13,1.1789197000217271e-13,7.714693845162358e-14,3.4169878275465064e-14,2.0717091245982316e-14,7.841908586466512e-15,6.874371043297121e-09,5.409744572534575e-09,4.3053881615240975e-09,3.0232954846994246e-09,2.1410640375046395e-09,1.2619651574410509e-09,8.796566921019579e-10,5.528216326860443e-10,3.2830702805486394e-10,1.8478502514430435e-10,1.0876829513368125e-10,6.081020448815797e-11,3.304761713762173e-11,1.707585602625652e-11,1.0575661697172474e-11,5.907965262904973e-12,3.111064040589495e-12,1.7548575544960674e-12,9.906223364396231e-13,5.72748215302871e-13,3.5428819183696103e-13
0.0,9,9.0,0.0,30.0,0.0,0.0,0.0,0.0,-13.0,0.0,2.0,0.0,0.0,0.0,1.021428958246298e-10,5.009609183673948e-11,2.328194699017044e-11,1.3776010585040753e-11,7.206623230727277e-12,4.0336781075925825e-12,2.301413951378288e-12,1.3912731173054385e-12,8.043144880687356e-13,4.3946486733918925e-13,3.266566255648395e-13,1.70153035194177e-13,1.0871938575936924e-13,5.6593516651960904e-14,2.6851218728330278e-14,1.6922403762260665e-14,6.17239298252642e-15,7.1158091471957496e-09,5.625048724051415e-09,4.2880714901485524e-09,2.9191691262295234e-09,1.989877857726667e-09,1.3435671016172773e-09,8.16690263754799e-10,5.488013133359974e-10,3.1852690445231886e-10,1.8900270534932887e-10,1.0760097831182652e-10,5.923880065377879e-11,3.4385344956160977e-11,1.811944059953069e-11,9.970979631435743e-12,5.459282545918865e-12,3.1163665916899905e-12,1.9647185766616626e-12,1.0189982758623402e-12,4.07002265284204e-13,3.4021634948826273e-13
0.0,10,10.0,0.0,30.0,0.0,0.0,0.0,0.0,-13.0,0.0,2.0,0.0,0.0,0.0,9.732629006722796e-11,4.915768403525231e-11,2.2718498305349835e-11,1.3318667910705117e-11,6.836218016494611e-12,3.8363696017409804e-12,2.3531635792682516e-12,1.3586746515549672e-12,8.551155732272356e-13,4.744239577539163e-13,2.712968653048609e-13,1.4983168461534703e-13,1.240891748992141e-13,5.962731019079117e-14,1.6621728713236203e-14,2.6396314149582124e-14,1.1309082729773817e-14,6.831505382674538e-09,5.57581828874801e-09,4.361538986488644e-09,2.9644251180274448e-09,2.038751348176353e-09,1.3222892238840793e-09,8.523033821237202e-10,5.653814428025988e-10,3.380962524020246e-10,1.8763662375941625e-10,1.0589611790974122e-10,5.714098766397929e-11,3.3304221219731067e-11,1.6792199693983005e-11,9.588885295137508e-12,5.254093367529492e-12,3.221301418312134e-12,1.6732981103541064e-12,9.186334019022745e-13,4.486304658978083e-13,2.9410218738276874e-13
0.0,11,11.0,0.0,30.0,0.0,0.0,0.0,0.0,-13.0,0.0,2.0,0.0,0.0,0.0,9.971229470171921e-11,4.675265379516349e-11,2.3626585084059874e-11,1.2487851378025507e-11,6.667329338398137e-12,3.962617810080197e-12,2.2591779717601606e-12,1.2511026894724945e-12,7.742084459359074e-13,4.4313955588753607e-13,2.9379004869787967e-13,1.5661924820122224e-13,9.954412058088477e-14,4.7699439346325186e-14,4.0106444397637344e-14,2.9919473580559085e-14,1.2641962903175531e-14,7.194059749996332e-09,5.406852133760119e-09,4.110725161194698e-09,2.9706440072345167e-09,2.1887699533982756e-09,1.3300289594177314e-09,8.653451805914568e-10,5.274612920334688e-10,3.199890354935897e-10,1.9043603885036449e-10,1.0825144348807973e-10,5.473478252260137e-11,3.124378881917537e-11,1.705687664721823e-11,9.994952487670639e-12,5.355152569781501e-12,3.209850288590721e-12,1.5225876800248639e-12,9.719007918469575e-13,6.468921462692952e-13,1.3001568796599359e-13
0.0,12,12.0,0.0,30.0,0.0,0.0,0.0,0.0,-13.0,0.0,2.0,0.0,0.0,0.0,9.78277534272384e-11,4.921733002490123e-11,2.3068582006216407e-11,1.2075999673427742e-11,6.568129795282339e-12,3.59444352905568e-12,2.055033565367544e-12,1.257407964890633e-12,7.638963886039672e-13,4.184107939731565e-13,2.8125170911271343e-13,1.577332482916109e-13,8.696546307680313e-14,5.98621686873726e-14,2.792499424212896e-14,3.246605477108753e-15,-1.474027557088141e-14,6.9195992970188756e-09,5.474175413852159e-09,4.1337299501247545e-09,2.9087637112473623e-09,1.995034228771671e-09,1.3194160007499684e-09,8.351742397609611e-10,5.438522762419763e-10,3.2964665899292834e-10,1.8797077516400441e-10,1.0295269269396703e-10,5.8106215593660513e-11,3.132189228809258e-11,1.7444622154424874e-11,8.82346083861683e-12,5.311137723263952e-12,2.8981461888224283e-12,1.5682467213381753e-12,1.0757095333026337e-12,6.402879854186528e-13,2.157677565207814e-13
0.0,13,13.0,0.0,30.0,0.0,0.0,0.0,0.0,-13.0,0.0,2.0,0.0,0.0,0.0,9.613083625498588e-11,4.664123273029544e-11,2.184738032549155e-11,1.1773490816453726e-11,6.424988985224251e-12,3.5894956355053823e-12,2.0615012643140628e-12,1.247331435601171e-12,7.17742297995753e-13,4.1075942522499114e-13,2.977595424657287e-13,1.5767954339635164e-13,1.1976656553967624e-13,6.934234782106647e-14,4.3615338256770736e-15,1.434488932923693e-14,2.0043534539855607e-14,7.2311503740705765e-09,5.693810520196177e-09,4.358429120186184e-09,2.967656659442373e-09,2.0669035644181285e-09,1.2396266956086855e-09,8.99035854533052e-10,5.409750814877728e-10,3.270139383789732e-10,1.8826145110079053e-10,9.85311056110742e-11,5.5351239716544184e-11,3.0780033582376693e-11,1.657373250165552e-11,8.871115820721316e-12,4.910772757027752e-12,2.7025984182491723e-12,1.6172756681200839e-12,8.223949252824848e-13,5.889331473706239e-13,3.323732198152333e-13
0.0,14,14.0,0.0,30.0,0.0,0.0,0.0,0.0,-13.0,0.0,2.0,0.0,0.0,0.0,9.60267041255147e-11,4.830517451439496e-11,2.2030383598727436e-11,1.2447079342769426e-11,6.593614239110511e-12,3.49956793248029e-12,2.072905671423037e-12,1.07079111574537e-12,7.065417132826332e-13,4.1243987078634296e-13,2.339083527402491e-13,1.5435340747053762e-13,9.785654424912984e-14,3.7316211794109335e-14,2.6725900400909812e-14,1.7568805060593408e-14,3.3047922942237784e-17,6.8707333978886084e-09,5.765653350208732e-09,4.383568908158352e-09,2.9972268172742884e-09,2.070863423894724e-09,1.2693833229069657e-09,8.743715186492171e-10,5.251103425986681e-10,3.225597463319488e-10,1.8207625359302975e-10,1.003701551539835e-10,5.5774492683767056e-11,3.103259565367141e-11,1.4690754225927568e-11,8.969912446137144e-12,4.983770167483903e-12,2.805834121899538e-12,1.4871093523118292e-12,7.293144432099294e-13,6.719198935302615e-13,4.478026321970437e-13
0.0,15,15.0,0.0,30.0,0.0,0.0,0.0,0.0,-13.0,0.0,2.0,0.0,0.0,0.0,9.439152099905367e-11,4.42167923990668e-11,2.1598121826749664e-11,1.1569666621237565e-11,6.202777131738412e-12,3.3220162067832246e-12,1.9547547021398635e-12,1.1453581976668707e-12,6.41364752376793e-13,3.81096580133756e-13,2.557232750952652e-13,1.3732012830700396e-13,8.455936927625296e-14,7.393605951786633e-14,3.84237391836716e-14,4.079467955052553e-14,1.2018233790688939e-14,7.038157758093858e-09,5.637586393482184e-09,4.159912945245102e-09,3.1303777121293685e-09,2.0188499700653e-09,1.3449653135056427e-09,8.766899702408567e-10,5.338667069674831e-10,3.2923421256564956e-10,1.731472515903596e-10,1.0160055694072471e-10,5.590324729838323e-11,2.856657794474517e-11,1.6440009898152598e-11,8.640208152170573e-12,4.578948259709039e-12,2.722698686111845e-12,1.5805588427263594e-12,7.928846464710906e-13,5.024110232325632e-13,1.9502474332399605e-13
0.0,16,16.0,0.0,30.0,0.0,0.0,0.0,0.0,-13.0,0.0,2.0,0.0,0.0,0.0,9.736371076699589e-11,4.272064772762644e-11,2.1440384807899004e-11,1.181858761194032e-11,5.873388535097696e-12,3.330203296378127e-12,1.9150530087966406e-12,1.074466921835401e-12,6.914389843490402e-13,3.8004258642003694e-13,2.663679355249585e-13,1.3265544481468286e-13,1.0080442010299994e-13,4.721001280776201e-14,2.3959695676616548e-14,1.077929349052792e-14,-2.1854149209100786e-14,7.19576851856619e-09,5.597136626674254e-09,4.357280430191473e-09,3.0281170107930563e-09,2.075105444857323e-09,1.298763353736415e-09,8.624267620916721e-10,5.363348561376532e-10,3.17856210517254e-10,1.7936130795536512e-10,9.43516154431122e-11,5.114767179115709e-11,2.9094625104368723e-11,1.5563173744609843e-11,8.771421925539805e-12,4.610153868644411e-12,2.588614040030615e-12,1.4732082450818342e-12,7.111866584886045e-13,3.251116522180552e-13,2.1899024110177102e-13
0.0,17,17.0,0.0,30.0,0.0,0.0,0.0,0.0,-13.0,0.0,2.0,0.0,0.0,0.0,9.829769968711797e-11,4.6307034854709707e-11,2.050374034049713e-11,1.0921481048969607e-11,5.801111894873311e-12,3.2407137396281915e-12,1.8317516676919816e-12,1.0308779674018194e-12,6.477800060977966e-13,3.7852494941618095e-13,2.5735052021609853e-13,1.6429136616969273e-13,9.987826760178335e-14,5.3841792251043554e-14,2.346656645542674e-14,2.180759495159674e-14,1.6371582230633072e-14,7.256156658945162e-09,5.713078248387267e-09,4.241754625484089e-09,3.182890557776863e-09,2.1988355400124145e-09,1.374674101546986e-09,8.612984942730349e-10,5.257007377320612e-10,3.187360860707025e-10,1.8088544064322786e-10,1.001284941851513e-10,5.4395912453263627e-11,2.8430401707187813e-11,1.525180498353881e-11,8.324173052723832e-12,4.8831349635894195e-12,2.4681038767571568e-12,1.183318681369853e-12,6.88307685784333e-13,8.34668974618309e-13,1.569498766025671e-13
0.0,18,18.0,0.0,30.0,0.0,0.0,0.0,0.0,-13.0,0.0,2.0,0.0,0.0,0.0,9.151060703249733e-11,4.180051294365896e-11,2.1392918189830384e-11,1.0801087762504664e-11,5.783436561644543e-12,3.065815757798322e-12,1.7616820323934552e-12,1.014123916572989e-12,6.408328715251074e-13,3.6309371428453983e-13,2.46453584026792e-13,1.085711782538717e-13,6.816804639460115e-14,3.733314980600759e-14,2.8968158755978115e-14,1.6120520115885885e-14,-4.900548961365877e-16,6.878966865455674e-09,5.85081316382805e-09,4.3424034883739745e-09,3.079245131786271e-09,2.0841221846358293e-09,1.4370331344333738e-09,8.967459972766085e-10,5.345936938566497e-10,3.1557578498908013e-10,1.807351737661014e-10,9.510475783066395e-11,5.493813994046724e-11,2.8430947360700038e-11,1.5061940607025145e-11,8.267494855077725e-12,4.216705831485138e-12,2.255999588976309e-12,1.2651406510073434e-12,7.957151685872092e-13,5.357091486256108e-13,3.263165907161858e-13
0.0,19,19.0,0.0,30.0,0.0,0.0,0.0,0.0,-13.0,0.0,2.0,0.0,0.0,0.0,9.59970045552671e-11,4.280548717742616e-11,2.098888917643748e-11,1.068525757705079e-11,5.716823199987397e-12,2.9269565120991804e-12,1.764398637280386e-12,1.0001529493038447e-12,5.985838057917261e-13,3.5245973055958004e-13,2.468648374453431e-13,1.289249508586083e-13,9.442640502868102e-14,4.601721439067575e-14,2.4117462780463864e-14,2.975211650782683e-14,1.011826279717242e-14,6.733616649977141e-09,6.061153549768209e-09,4.368341754867153e-09,3.0169860759842282e-09,2.1806616360789303e-09,1.3433708155800957e-09,8.38567061791377e-10,5.186907680560754e-10,3.2426053302973543e-10,1.7414350631657632e-10,1.0246667255459087e-10,5.479362598180127e-11,2.8698926938950435e-11,1.4588857420354166e-11,7.749287052636355e-12,3.992844222435036e-12,2.441446794923456e-12,1.3231319356470808e-12,6.668474947857249e-13,4.3552727367896773e-13,1.0832248117077573e-13
0.0,20,20.0,0.0,30.0,0.0,0.0,0.0,0.0,-13.0,0.0,2.0,0.0,0.0,0.0,8.875029210013799e-11,4.192065060799917e-11,1.989550243900764e-11,1.0246745237565043e-11,5.141603013178311e-12,2.897694096556935e-12,1.618898697027833e-12,9.29554071810891e-13,5.934679748735719e-13,3.4379010066063115e-13,2.3328321067417114e-13,9.845058069077931e-14,1.1722767208846936e-13,5.654547020115716e-14,4.4131560963082484e-14,1.8258917682067713e-14,2.5112484205356032e-14,7.0333955851497526e-09,5.984505468074827e-09,4.2798614566340354e-09,3.1480365157694998e-09,1.9517302406493724e-09,1.3619790399546465e-09,8.961951438059646e-10,5.392782564692182e-10,3.2219105771317014e-10,1.7568443729143525e-10,9.719283038939326e-11,5.4795859918059174e-11,2.7815690750809425e-11,1.4729672937465962e-11,7.363539149842169e-12,4.1184809218189014e-12,2.122102888241745e-12,1.3163564465436666e-12,9.215013523646525e-13,5.078284408731706e-13,6.343142046993442e-14
0.0,21,21.0,0.0,30.0,0.0,0.0,0.0,0.0,-13.0,0.0,2.0,0.0,0.0,0.0,8.997984406068898e-11,4.251228866839825e-11,1.8718569990288518e-11,1.0573885063358775e-11,5.093416825321034e-12,2.757425346492286e-12,1.597980191019666e-12,9.249349739950931e-13,5.838398314534529e-13,3.2301776580535763e-13,2.1843302241965967e-13,1.2206621475768405e-13,6.470522626599638e-14,4.380198197922151e-14,2.4045210578075277e-14,2.3478428090181743e-14,-3.15308564187338e-15,7.194683832035852e-09,5.6646924518558394e-09,4.4797383120925165e-09,3.1802449240044915e-09,2.0964882417787895e-09,1.3458457217414272e-09,8.762183372329264e-10,5.052081924997465e-10,3.07412286016352e-10,1.738283411303597e-10,9.495789474725404e-11,5.3409007127791354e-11,2.747956049824547e-11,1.3810937798482643e-11,7.386730072669175e-12,4.191426285478916e-12,2.152199316564092e-12,1.1199719171530093e-12,8.189066731407049e-13,5.832219674155283e-13,2.65823050356933e-13
0.0,22,22.0,0.0,30.0,0.0,0.0,0.0,0.0,-13.0,0.0,2.0,0.0,0.0,0.0,8.980443774097879e-11,4.4092028773287935e-11,1.9269867970863694e-11,9.867405666748873e-12,5.098200104316731e-12,2.7074682772358617e-12,1.6067810697495995e-12,9.068903098034001e-13,5.735345622798067e-13,3.199602386880862e-13,2.2786600671781394e-13,1.1044764687005886e-13,9.159494127129781e-14,4.346766151299214e-14,2.460495028158677e-14,7.56250062335973e-15,1.6413309003116446e-14,6.775744356698235e-09,5.865688056721644e-09,4.399743437628711e-09,3.1414755003471524e-09,2.068405553123451e-09,1.3888670320421859e-09,8.765684827968334e-10,5.267078482739184e-10,2.990878218070821e-10,1.728041655070535e-10,9.817524072968763e-11,5.189229217815198e-11,2.6207770652609192e-11,1.4529465141242726e-11,7.149824678442942e-12,3.9392381203088215e-12,2.092161846679973e-12,1.236365181123303e-12,6.603787280173017e-13,3.675912312395673e-13,1.3110586284764034e-13
0.0,23,23.0,0.0,30.0,0.0,0.0,0.0,0.0,-13.0,0.0,2.0,0.0,0.0,0.0,9.051416669714718e-11,4.278303217182382e-11,1.9953176673793818e-11,9.988454804236062e-12,5.0605205243098186e-12,2.6653348892040635e-12,1.6427277848035679e-12,8.652896741807587e-13,5.285454438035487e-13,3.140712971298822e-13,2.106552987831428e-13,1.1362610495199935e-13,9.031929344393518e-14,4.619183870328774e-14,3.9896675770871965e-14,1.8297036276365568e-14,1.3996743889723701e-14,7.065806935023862e-09,5.873801861097871e-09,4.1441446789613026e-09,3.1784951616690843e-09,2.027168744568899e-09,1.3619355333256717e-09,8.801980571354195e-10,5.298660505647549e-10,3.112956840910438e-10,1.6652602669621157e-10,9.709826103420105e-11,5.3339339519388516e-11,2.6213483645198916e-11,1.3696016696638433e-11,7.30766663005294e-12,4.096111803133373e-12,2.0968697668611317e-12,1.3015384480174725e-12,6.527340115080023e-13,4.4275015201282855e-13,9.394916332165171e-14
0.0,24,24.0,0.0,30.0,0.0,0.0,0.0,0.0,-13.0,0.0,2.0,0.0,0.0,0.0,8.365483734352026e-11,4.213330751753309e-11,1.8880472209756048e-11,9.460999573906747e-12,4.772598456280734e-12,2.5919969461805635e-12,1.4763982701459267e-12,8.072037761555635e-13,5.266390531591799e-13,3.159469393974051e-13,1.9516096154749617e-13,1.276063164272949e-13,9.120520536548423e-14,5.072929656786242e-14,1.2897747805296335e-14,2.485819542760609e-14,4.054305322892353e-15,7.2831816679646976e-09,5.59503089231438e-09,4.496041146872094e-09,3.0943046921640405e-09,2.03676354935183e-09,1.3255326974505554e-09,8.332208791373622e-10,5.231479168341074e-10,3.3066382020509735e-10,1.6214276806280138e-10,9.838310828948736e-11,4.840738804751988e-11,2.5981040422794904e-11,1.299414667357263e-11,6.990550673367209e-12,3.53751927597057e-12,2.0209946500476555e-12,1.3136356857780694e-12,6.620591737530753e-13,3.8302756368836944e-13,2.3704233360580084e-13
0.0,25,25.0,0.0,30.0,0.0,0.0,0.0,0.0,-13.0,0.0,2.0,0.0,0.0,0.0,8.878756542376767e-11,4.062110233818084e-11,1.8478536772575986e-11,9.563915014066546e-12,4.9120360249778736e-12,2.6037633552115365e-12,1.483882389614857e-12,8.723379060954774e-13,4.87068291864259e-13,2.911440365677337e-13,2.00603983199319e-13,1.1619387817426503e-13,8.60236614704838e-14,2.4939518509997033e-14,3.497074660803497e-14,1.0335476045740293e-14,7.119441072092446e-15,7.098730940123194e-09,5.652675653941191e-09,4.448435979504038e-09,3.062050506653644e-09,2.1231825340014717e-09,1.3148153422571883e-09,8.267786558895746e-10,5.299641888972714e-10,2.984307489739205e-10,1.7478444729650052e-10,9.39378967677187e-11,4.7558873230815e-11,2.5699895863881372e-11,1.3139642449991531e-11,7.2005274668666626e-12,3.85175224701133e-12,1.9436029273780453e-12,9.969160220130242e-13,6.061947407423948e-13,1.3810732820576053e-13,1.568989042337602e-13
0.0,26,26.0,0.0,30.0,0.0,0.0,0.0,0.0,-13.0,0.0,2.0,0.0,0.0,0.0,9.109480238834495e-11,4.0246045954967314e-11,1.93808962795091e-11,8.766857443642691e-12,4.642797612735082e-12,2.266553840021693e-12,1.421494423999136e-12,8.193474915124573e-13,5.390051614474623e-13,2.727746706284189e-13,1.8959100694734413e-13,1.1734775807500561e-13,8.16474936827667e-14,4.8055627386710096e-14,1.7313235928978403e-14,9.308963186886804e-15,-7.960547486502928e-16,7.248178461930833e-09,5.856360914037421e-09,4.43698681155227e-09,3.119191748633088e-09,1.9310192724268702e-09,1.3252547156678788e-09,8.035558472367246e-10,5.360220187832514e-10,2.904632272489356e-10,1.6878118345522034e-10,9.358001674432122e-11,5.065081110712937e-11,2.4983046895981568e-11,1.3157678846959606e-11,6.983535317629661e-12,3.711837956753573e-12,1.971216882258475e-12,1.0975579441491405e-12,6.071464604824157e-13,6.075927429157794e-13,1.552080046974911e-13
0.0,27,27.0,0.0,30.0,0.0,0.0,0.0,0.0,-13.0,0.0,2.0,0.0,0.0,0.0,8.447130978576186e-11,4.126739910022836e-11,1.836413773730365e-11,9.530353099074815e-12,4.310011590495718e-12,2.3770747800470825e-12,1.403930360213171e-12,7.776715315261549e-13,4.8456434470739e-13,2.3163176861811756e-13,1.9151716025262058e-13,1.0409501778837787e-13,7.567903099403247e-14,2.9247747753328095e-14,6.77841189922754e-15,2.1425890944856478e-14,1.447523743184917e-14,6.957267801216403e-09,6.085133608942831e-09,4.411454438743128e-09,3.104123391620346e-09,1.9903653317529166e-09,1.338022075187684e-09,7.891080343657662e-10,5.077136512281499e-10,3.07459605781706e-10,1.7175999265196807e-10,9.273511781625414e-11,5.044929960869838e-11,2.4963951620288476e-11,1.31074950855987e-11,6.581371521078111e-12,3.758071284135505e-12,1.9109416636398978e-12,9.948820609371041e-13,5.608487011288841e-13,3.0941926914678304e-13,7.68999423026409e-14
0.0,28,28.0,0.0,30.0,0.0,0.0,0.0,0.0,-13.0,0.0,2.0,0.0,0.0,0.0,8.015220137448145e-11,3.874678309230163e-11,1.8790105726736785e-11,9.183320273707625e-12,4.306712655326985e-12,2.437949984335081e-12,1.4295336014394889e-12,7.513259992833011e-13,4.550677563809808e-13,2.4824531054582513e-13,1.836004087232264e-13,1.1453400616536245e-13,5.2171694692209066e-14,5.025823142690085e-14,1.6959383922767345e-14,5.9430379267631586e-15,3.2500974449997075e-15,7.337283517929535e-09,5.8586680787738935e-09,4.275222671862573e-09,3.047169516285825e-09,2.0972379414361717e-09,1.37394409772172e-09,9.036826954442799e-10,5.219874922426841e-10,3.0719660609393375e-10,1.7220785141039617e-10,9.01340822541005e-11,4.5626105287827416e-11,2.5088690434286925e-11,1.3102711566770754e-11,6.69507129922382e-12,3.247312740544294e-12,1.884060373571739e-12,1.2414892312479597e-12,5.983039849346286e-13,2.5791742544573615e-13,2.307865134850199e-13
0.0,29,29.0,0.0,30.0,0.0,0.0,0.0,0.0,-13.0,0.0,2.0,0.0,0.0,0.0,8.660186689484247e-11,4.0923678443168007e-11,1.76524383609069e-11,8.639283971704157e-12,4.322166073896157e-12,2.1453108327983772e-12,1.3084959758283091e-12,7.341313916515483e-13,4.411567865565876e-13,2.7368009777014887e-13,1.8626525205368507e-13,9.976885135675887e-14,7.685920083904122e-14,3.6982723375605725e-14,2.6642362732280253e-14,1.8606542077943572e-14,-6.0897312486372935e-15,7.488614115963523e-09,5.667042194753575e-09,4.621754071872715e-09,3.18674794144449e-09,2.081339752476691e-09,1.249646632150153e-09,8.391088931665216e-10,4.900267812830801e-10,3.0537987645335064e-10,1.7261473775412004e-10,8.805588703559675e-11,4.6923624621951774e-11,2.4762420803115552e-11,1.275116989739314e-11,6.271188536243251e-12,3.1843667023773056e-12,1.7842375871940127e-12,1.1070144749563108e-12,4.552253323756861e-13,2.8885507683952314e-13,1.3700379206161904e-13
0.0,30,30.0,0.0,30.0,0.0,0.0,0.0,0.0,-13.0,0.0,2.0,0.0,0.0,0.0,8.170908507796325e-11,3.8449281184469405e-11,1.7580639802098528e-11,8.594818472815636e-12,4.279450607519272e-12,2.3204848938807935e-12,1.3474440536572033e-12,6.830611150088906e-13,4.532762737207757e-13,2.638877723302427e-13,1.8631873849399767e-13,1.0645032006770925e-13,7.042291890743297e-14,4.794651186810125e-14,2.824293888592661e-14,2.0305452305228632e-15,1.1891541218174125e-14,7.164945610041748e-09,6.105320624409604e-09,4.665601188954259e-09,3.0732456168384427e-09,2.114940107029526e-09,1.3974834682194827e-09,8.412592225682176e-10,4.878750004602104e-10,2.891044593121646e-10,1.664548637349992e-10,8.734102243505252e-11,4.527456466024679e-11,2.3022198296544457e-11,1.2891172860460457e-11,6.232840133636876e-12,3.2060329573478033e-12,1.7863335107697293e-12,1.1926309527038322e-12,4.2588428368461806e-13,4.414768638025908e-13,1.1311740800556522e-13
0.0,31,31.0,0.0,30.0,0.0,0.0,0.0,0.0,-13.0,0.0,2.0,0.0,0.0,0.0,8.348278355252616e-11,3.903029040635674e-11,1.7145264765839606e-11,8.754707097701855e-12,4.303291989197147e-12,2.174882813036124e-12,1.2839500691035897e-12,7.257792244449642e-13,4.325044956048436e-13,2.674921638209445e-13,1.8458071155337316e-13,9.048276744233185e-14,7.442108075703911e-14,3.5763494563469536e-14,2.6836742819095074e-14,-4.982472405875423e-15,-6.903054483481383e-15,7.114246229443508e-09,5.492836836439312e-09,4.3214199428688645e-09,3.225694619792101e-09,2.0950975506972355e-09,1.301552643858998e-09,7.886863515988308e-10,5.013348934015132e-10,2.9909962790632665e-10,1.6518642495435568e-10,8.539245793255563e-11,4.59123088397666e-11,2.461208131831315e-11,1.2133741509218333e-11,6.326367494242701e-12,3.1460136039076544e-12,1.679097736963994e-12,9.796286991939402e-13,3.9073917755026774e-13,4.168288400922054e-13,2.641299864621037e-13
0.0,32,32.0,0.0,30.0,0.0,0.0,0.0,0.0,-13.0,0.0,2.0,0.0,0.0,0.0,8.269350006992921e-11,3.8763707798979393e-11,1.6492881888777274e-11,8.154148094748842e-12,4.161599443812687e-12,2.2133549999183815e-12,1.1825625565761402e-12,6.777064176726204e-13,4.0318561803724866e-13,2.2137945365374814e-13,1.6734069858310118e-13,8.199367023950494e-14,7.54518463565597e-14,4.233326400864866e-14,2.9871543970364916e-14,1.4993123240771876e-14,3.820411580551177e-15,7.697192522712626e-09,5.693506914763017e-09,4.7764643277463385e-09,3.131468529861468e-09,2.1146595747689574e-09,1.296201340783925e-09,8.33238724059314e-10,5.059509763952358e-10,2.836087942786874e-10,1.6714844875182947e-10,8.633868283173671e-11,4.6565296815282847e-11,2.409236350183893e-11,1.2074220203811658e-11,5.735133003620898e-12,3.0105780115210426e-12,1.5684665908192362e-12,7.969023433708515e-13,5.820957945652654e-13,1.6135308164754902e-13,2.2163508626726435e-13
0.0,33,33.0,0.0,30.0,0.0,0.0,0.0,0.0,-13.0,0.0,2.0,0.0,0.0,0.0,7.86385904913738e-11,3.5528488412035955e-11,1.5514181745615667e-11,8.154411793184539e-12,3.7904215260394025e-12,2.0742356361050223e-12,1.1753287831767255e-12,6.299021478624993e-13,4.079184970887505e-13,2.4731497406315523e-13,1.7650213070930302e-13,9.601905421668353e-14,6.437258169975055e-14,3.289481178551026e-14,1.3284291020848059e-14,2.0036398397135486e-14,1.1154261192557556e-14,7.087208449192804e-09,6.108304588866844e-09,4.439549656536256e-09,3.1413127953977903e-09,2.059424478933235e-09,1.314216983817376e-09,8.339729380568554e-10,4.787043074375652e-10,2.9328337230624e-10,1.617441283487257e-10,8.598371227986982e-11,4.6961668141350955e-11,2.2726673306280783e-11,1.1045765854762759e-11,5.578149988251704e-12,3.1053664447413573e-12,1.4625499723053403e-12,8.171290090634906e-13,5.166365782144137e-13,-5.447718717052587e-14,1.987337350657757e-13
0.0,34,34.0,0.0,30.0,0.0,0.0,0.0,0.0,-13.0,0.0,2.0,0.0,0.0,0.0,7.79851495142808e-11,3.540479980631831e-11,1.608227903785369e-11,7.494395707915051e-12,3.932612051894767e-12,1.905038776701608e-12,1.1384418099902623e-12,6.684537036914878e-13,4.036183843005543e-13,2.1701105791613833e-13,1.5725176238896637e-13,9.667520517180098e-14,5.74827319550361e-14,4.094730794412584e-14,9.853662615730425e-15,1.9509948674099163e-14,2.1466105337562565e-14,7.258639878532067e-09,6.103575955900837e-09,4.398268994522851e-09,3.0975389466290485e-09,2.0551857625782268e-09,1.385695354299029e-09,8.153965579634129e-10,5.008236816628267e-10,2.9138355020368906e-10,1.677292647325444e-10,8.604766861178066e-11,4.7023396781857595e-11,2.3474772561889656e-11,1.086813799600068e-11,5.9027232458705144e-12,2.943332121643566e-12,1.7509795583272325e-12,9.16846699360125e-13,4.519778482189692e-13,3.714006097690981e-13,2.93477035607281e-13
0.0,35,35.0,0.0,30.0,0.0,0.0,0.0,0.0,-13.0,0.0,2.0,0.0,0.0,0.0,8.189420902668197e-11,3.834511452411337e-11,1.6664721792130002e-11,8.11071963465335e-12,4.0774543509751735e-12,1.987296206131174e-12,1.1290556532930565e-12,6.135373737443245e-13,4.096869828746279e-13,2.16179852643561e-13,1.728475016126032e-13,7.814605198329567e-14,8.266596581865162e-14,3.308610314809154e-14,4.040362875582744e-14,2.4346246602765638e-14,1.1328109453685123e-14,7.279742156666866e-09,6.099483020788035e-09,4.457253936218505e-09,3.1733109655504504e-09,2.056461815885018e-09,1.274961222475843e-09,8.239629626170508e-10,4.959999993520531e-10,2.778737017189448e-10,1.6389033013432572e-10,8.572785586787505e-11,4.353196836987607e-11,2.257573456551771e-11,1.131294731946765e-11,5.811038753662602e-12,2.8427732827623423e-12,1.3924907698379825e-12,9.094585188163028e-13,2.598870021624849e-13,2.456972334217013e-13,4.1444137219482363e-14
0.0,36,36.0,0.0,30.0,0.0,0.0,0.0,0.0,-13.0,0.0,2.0,0.0,0.0,0.0,7.547021739336265e-11,3.448318004170555e-11,1.54993459143797e-11,8.191847550550818e-12,3.79095289457644e-12,1.912506940934067e-12,1.1157559380852258e-12,5.934666449833931e-13,3.6397772403768833e-13,2.0921745753732594e-13,1.3924917704576893e-13,8.257543446381863e-14,4.518710074061831e-14,3.8682905011915365e-14,9.831855287290843e-15,1.1653510127900236e-14,7.41800107881887e-15,6.8766605352555e-09,6.2070647499059766e-09,4.660366283245204e-09,3.1796017105273876e-09,2.0174479998133877e-09,1.3260368999061176e-09,8.150556176256805e-10,5.285469075722308e-10,2.787700580757626e-10,1.5654400567569294e-10,8.449519414512516e-11,4.1736529286651e-11,2.2500037420479643e-11,1.0585531058594388e-11,5.5913360842069944e-12,3.0322798976326144e-12,1.598583862053001e-12,8.0185478941459e-13,4.1429674854705524e-13,2.0245950099812108e-13,-2.372357308505976e-14
0.0,37,37.0,0.0,30.0,0.0,0.0,0.0,0.0,-13.0,0.0,2.0,0.0,0.0,0.0,7.97261503441488e-11,3.544580209909515e-11,1.565167469618268e-11,7.559150804911482e-12,3.823231529174637e-12,1.84993359027882e-12,1.058945843569565e-12,6.017930954890977e-13,3.743992812418079e-13,2.03497643115966e-13,1.585480792011349e-13,8.792127712573322e-14,5.411242107404908e-14,3.5474135692960025e-14,8.869682586904812e-16,2.639443309918235e-14,7.665042838229895e-15,7.131822673632771e-09,6.060965302469473e-09,4.548193659524107e-09,3.1623371125564036e-09,2.0409699089554463e-09,1.3121800326239036e-09,8.040005625692767e-10,4.748006563205787e-10,2.7374033655962094e-10,1.6376227682478728e-10,8.14439198873439e-11,4.566063656165168e-11,2.2801940371279133e-11,1.1264715914259269e-11,5.340602418216806e-12,2.703854523196286e-12,1.334073563081136e-12,7.494154962368502e-13,2.3147640714755143e-13,2.8105427999248266e-13,2.7355526505463563e-13
0.0,38,38.0,0.0,30.0,0.0,0.0,0.0,0.0,-13.0,0.0,2.0,0.0,0.0,0.0,7.628473089511137e-11,3.361991604117493e-11,1.5272072923575436e-11,7.342122791057016e-12,3.711653807722625e-12,1.8409324954139222e-12,1.0122836364750044e-12,5.827559483100751e-13,3.6350242925443587e-13,2.068022756470709e-13,1.488314289309625e-13,7.640953761405736e-14,7.071013890785615e-14,4.074147125043177e-14,1.5828536587808195e-14,6.225704497403882e-15,1.740155773979375e-14,7.47147995585387e-09,6.224584306335636e-09,4.394669962001329e-09,3.3659323439562335e-09,2.072690168960997e-09,1.3008206546027792e-09,8.061524580734107e-10,4.6389572083379463e-10,2.775177075705124e-10,1.4787976910831987e-10,8.268613380227525e-11,4.0709388430800526e-11,2.1484627290912328e-11,1.0752865094350934e-11,5.3879299917240394e-12,2.5062876447095532e-12,1.3363700163334002e-12,7.550939862533336e-13,2.749227791910264e-13,1.0848691048773118e-13,1.6963122845820526e-13
0.0,39,39.0,0.0,30.0,0.0,0.0,0.0,0.0,-13.0,0.0,2.0,0.0,0.0,0.0,7.527827988347728e-11,3.3620814362217467e-11,1.4330104731384245e-11,6.885245834448848e-12,3.3592128344112064e-12,1.7599234942299704e-12,9.583039968721088e-13,5.62179261617137e-13,3.51812094150093e-13,1.9051509622236465e-13,1.6343080631430729e-13,8.076719721640802e-14,5.81986594393313e-14,2.0989140778410055e-14,3.117945843419666e-14,4.291010230792252e-15,7.565332981379056e-15,7.6470552726687e-09,6.002839607456459e-09,4.4496372333142445e-09,3.219960101718149e-09,2.0113250447456714e-09,1.2846993583411172e-09,7.8971461006283e-10,4.864901519184146e-10,2.7690351282244806e-10,1.4600571594549172e-10,8.09695340065769e-11,4.378024946922977e-11,2.141131471799931e-11,1.0360912077409767e-11,5.164952986428719e-12,2.7061556282198924e-12,1.357250001497233e-12,8.412045786006324e-13,4.478654940480888e-13,2.656088332956115e-13,5.2879370172976696e-14
0.0,40,40.0,0.0,30.0,0.0,0.0,0.0,0.0,-13.0,0.0,2.0,0.0,0.0,0.0,7.17642161104602e-11,3.2841020473685114e-11,1.4062868191242577e-11,6.813437880478794e-12,3.4412572431944776e-12,1.7144321354006671e-12,1.0307275242441338e-12,5.830815440406936e-13,3.4280737175871527e-13,1.8106674360810467e-13,1.4135326502452927e-13,6.932808732355474e-14,6.084810367450377e-14,3.78837029374344e-14,3.4659594284014536e-14,-1.2645475246485158e-14,1.3157972572514167e-14,7.558158381925122e-09,6.009277618460495e-09,4.469182286458867e-09,2.894491044720233e-09,2.015986195948131e-09,1.2875048930846241e-09,8.121662063110688e-10,4.740383999108705e-10,2.5900286089494977e-10,1.5700511128059937e-10,7.737933961553072e-11,4.163420645481296e-11,2.0918210550927547e-11,1.0662055841485565e-11,5.504911537227924e-12,2.6699516096547266e-12,1.3216423111673457e-12,6.485082389052224e-13,2.935008596594955e-13,3.6900280538827187e-13,8.461561099653059e-14
0.0,41,41.0,0.0,30.0,0.0,0.0,0.0,0.0,-13.0,0.0,2.0,0.0,0.0,0.0,7.206734231129585e-11,3.2640618042688754e-11,1.4222987706290742e-11,7.113772480145928e-12,3.592571249038301e-12,1.6875470261160416e-12,9.756915944069328e-13,5.156663379876399e-13,3.323541636453275e-13,1.9443475966270497e-13,1.4031519685982957e-13,7.361244699309495e-14,4.5747669548810315e-14,1.756925559337262e-14,7.336586136929243e-15,4.170348164267302e-16,-5.572892389089928e-15,7.523837081542425e-09,6.331759574799954e-09,4.605992182406507e-09,2.971395706382984e-09,1.9639030426745654e-09,1.2653543979162331e-09,7.568860650129374e-10,4.517400136633126e-10,2.7172278429698573e-10,1.4299176243022968e-10,7.922864975572164e-11,4.227383314770403e-11,2.053802350213749e-11,9.218384921304148e-12,4.839948318663739e-12,2.69340562437883e-12,1.3805853707888336e-12,7.426396315503312e-13,5.44665332434299e-13,1.6452640540611457e-13,1.7193307711713375e-13
0.0,42,42.0,0.0,30.0,0.0,0.0,0.0,0.0,-13.0,0.0,2.0,0.0,0.0,0.0,7.173048218609944e-11,3.271525732953163e-11,1.3869147410516104e-11,7.035713765838016e-12,3.450308486296628e-12,1.6108285675887118e-12,8.695268545329916e-13,5.144690405976354e-13,2.9761793150352683e-13,2.0148974876694827e-13,1.4815599362516485e-13,6.692982750900995e-14,5.168390088777506e-14,2.3971930206071185e-14,2.0687795632636536e-14,-3.4447601894979077e-15,-5.2136124630280594e-15,7.852099856113006e-09,6.066184407106491e-09,4.873600339990253e-09,3.1606460722657266e-09,2.0955911740842823e-09,1.266988600018049e-09,7.955808525767398e-10,4.5942495692198005e-10,2.7339853684688647e-10,1.547869937441836e-10,7.879186016945801e-11,3.9479123585786246e-11,2.0361693988585182e-11,1.0151749351108396e-11,5.021944145257212e-12,2.4126446614844362e-12,1.2895569187226102e-12,6.617619569552211e-13,4.862805565622729e-13,2.1443710807366528e-13,8.786495465957523e-14
0.0,43,43.0,0.0,30.0,0.0,0.0,0.0,0.0,-13.0,0.0,2.0,0.0,0.0,0.0,6.973395487181694e-11,3.1421050533125354e-11,1.366920518777324e-11,6.704307561407621e-12,3.2045230808634842e-12,1.6747260757299906e-12,9.875282976402504e-13,5.184639867080442e-13,3.1106041866650305e-13,1.6755710203723752e-13,1.3116579202723013e-13,7.391258166051155e-14,5.342631860716164e-14,3.224400600745968e-14,1.2786317041798329e-14,6.450835622437293e-15,1.4251056075041935e-14,7.799176540490982e-09,6.013722679552252e-09,4.534506661126943e-09,3.4081608552807303e-09,2.0577510928335315e-09,1.2828529325681208e-09,7.831413209762593e-10,4.553706522214489e-10,2.6681727268646033e-10,1.4787441355800747e-10,7.503781577832349e-11,4.001385177541195e-11,1.908590348123719e-11,9.837637459106863e-12,4.9282759083201e-12,2.512452967049745e-12,1.1675771410641493e-12,6.473495817512197e-13,3.4130822828877916e-13,1.596140369344026e-14,2.3690352839660296e-13
0.0,44,44.0,0.0,30.0,0.0,0.0,0.0,0.0,-13.0,0.0,2.0,0.0,0.0,0.0,7.051679714421677e-11,3.317228583914948e-11,1.3627506323156778e-11,6.745028905263544e-12,3.088055230123331e-12,1.6215086118073855e-12,8.999998636076772e-13,4.851339601728447e-13,3.1933966971366833e-13,1.6463286400992664e-13,1.3235480883684152e-13,7.006221009599016e-14,4.746164092186949e-14,1.483112350104393e-14,2.021918902973763e-14,-7.427168976502504e-15,1.5579941287189419e-15,7.745636086979201e-09,6.2086888346756905e-09,4.605813329706818e-09,3.2572456292523887e-09,2.0108946182577134e-09,1.2616251536503117e-09,8.221100705059398e-10,4.530743320734e-10,2.5265689381183095e-10,1.4491042280443303e-10,7.505988146177855e-11,4.0124977570080015e-11,1.945609077290966e-11,9.912895934178569e-12,5.057751072628638e-12,2.4784207605122166e-12,1.1316082362336356e-12,5.778310616842069e-13,3.943356806556094e-13,1.6868062413297477e-13,-3.3268626805875614e-14
0.0,45,45.0,0.0,30.0,0.0,0.0,0.0,0.0,-13.0,0.0,2.0,0.0,0.0,0.0,7.058184034771565e-11,2.968489083166768e-11,1.2891661854036745e-11,6.493498528074443e-12,3.2413502595259144e-12,1.4960606252626138e-12,9.038123588386482e-13,4.862321215650463e-13,3.0974775246138676e-13,1.6905955924724756e-13,1.310223855134558e-13,6.215140311586852e-14,5.407443073824697e-14,2.775092012373033e-14,1.0879708875861256e-14,1.9045287304598028e-14,-6.530259921048166e-15,7.597382128401833e-09,6.229475028874487e-09,4.704114684239983e-09,2.9820465733281445e-09,1.9295480601220396e-09,1.2803742040957553e-09,7.483372185093584e-10,4.5195724879837635e-10,2.573362689448563e-10,1.4087289956332708e-10,7.822399999066144e-11,3.8710490265761544e-11,1.9599907517699113e-11,9.50124263715921e-12,5.019858494225389e-12,2.326186048337465e-12,1.064802153549607e-12,7.323777901981185e-13,2.6386476737172613e-13,1.3229046397681693e-13,8.656237572621674e-14
0.0,46,46.0,0.0,30.0,0.0,0.0,0.0,0.0,-13.0,0.0,2.0,0.0,0.0,0.0,6.774579275414257e-11,2.9725138563349936e-11,1.373068936533562e-11,6.31808745148818e-12,3.090814159708957e-12,1.4932346439293554e-12,8.64828251904067e-13,4.67635568544817e-13,2.9112693757452995e-13,1.526831048764293e-13,1.3654820754943126e-13,6.701292662203596e-14,7.051372723260433e-14,3.8400879002420476e-14,2.2863869265745076e-14,-5.635416811494352e-15,7.4673748537843e-15,8.008268730800711e-09,6.145119868527363e-09,4.569831574501715e-09,3.37761143029021e-09,2.116190836384882e-09,1.2884483523952598e-09,7.802014531295272e-10,4.4749931442292246e-10,2.6386442031345456e-10,1.407255772116939e-10,7.327559908307648e-11,3.890200820853692e-11,1.875723950308389e-11,9.775765403112928e-12,4.548611871488573e-12,2.2262826405584026e-12,1.252016636337188e-12,6.156907896802365e-13,3.134418429864522e-13,2.4821197171176954e-13,-3.7548446369701977e-14
0.0,47,47.0,0.0,30.0,0.0,0.0,0.0,0.0,-13.0,0.0,2.0,0.0,0.0,0.0,6.597772747611645e-11,3.121105723758894e-11,1.3056486723661449e-11,6.222471628337332e-12,3.0563356468644e-12,1.4406766263999058e-12,8.265023558155029e-13,4.4898252845196744e-13,2.977195773288731e-13,1.5925527570695517e-13,1.2727572298832133e-13,7.757356232549578e-14,5.813779852925992e-14,3.6169832329425503e-14,1.966602534497536e-14,1.1945226051885089e-14,9.211964320274294e-15,7.497444985044216e-09,6.045741881209566e-09,4.576011663207163e-09,3.064989064042984e-09,2.014329838450268e-09,1.1492944291808957e-09,7.648169782806806e-10,4.4805262102982767e-10,2.6401629339137294e-10,1.361761751760133e-10,7.302074937630683e-11,3.420308173327313e-11,1.8770541988960557e-11,9.2125517713032e-12,4.541701380721017e-12,2.347772931361807e-12,1.2850666900638734e-12,4.900228521439016e-13,3.370501905403598e-13,7.947914058853134e-14,-2.760338915180509e-14
0.0,48,48.0,0.0,30.0,0.0,0.0,0.0,0.0,-13.0,0.0,2.0,0.0,0.0,0.0,6.997075459408947e-11,2.928017167202651e-11,1.2298017401692226e-11,6.240344243795234e-12,2.9307222774764034e-12,1.4009188366045804e-12,8.505966515324644e-13,4.3829699994529945e-13,2.696131202800608e-13,1.6775339698210086e-13,1.2775986333252192e-13,6.403550524419088e-14,3.808130265562634e-14,1.6536057182630755e-14,1.1381844524788471e-14,-6.905128458508462e-16,1.367327728262681e-15,6.9703173829689335e-09,6.130845556902929e-09,4.724208624172199e-09,3.171408691352565e-09,2.092892663527414e-09,1.2348495029959464e-09,7.80347762295213e-10,4.3516254369724047e-10,2.446761251742914e-10,1.389227695562706e-10,6.820830769992182e-11,3.57563910718999e-11,1.837440773003403e-11,9.227727779638453e-12,4.4186093050348645e-12,2.148157400575282e-12,1.0887910196531104e-12,5.952032515883654e-13,3.1572836372699675e-13,2.5678550051984387e-14,1.0194096210760287e-13
0.0,49,49.0,0.0,30.0,0.0,0.0,0.0,0.0,-13.0,0.0,2.0,0.0,0.0,0.0,6.68377473526431e-11,3.0027573424918706e-11,1.2461654644612019e-11,6.146708839190055e-12,2.8256769482546315e-12,1.402562874565284e-12,8.106201842451479e-13,3.939933418207292e-13,2.655974962239591e-13,1.4299057750926136e-13,1.1106376200725674e-13,6.081825341436333e-14,6.625768574271748e-14,1.5770231838544244e-14,9.441806827039506e-15,1.3580544503731144e-14,1.1653463545284952e-14,7.949170489831565e-09,6.04059268703923e-09,4.511557580736233e-09,3.1970295733622878e-09,2.063088327810872e-09,1.2373170601074567e-09,7.590090202449858e-10,4.4741654129117474e-10,2.521532050929212e-10,1.3631757262108272e-10,6.978067663460513e-11,3.769414219439232e-11,1.7758469164449083e-11,8.641397155803325e-12,4.464620180011568e-12,2.1911961752188717e-12,1.1004157742351258e-12,5.300491354702771e-13,2.3062508612949833e-13,1.340314150204172e-13,8.172606588012986e-14
0.0,50,50.0,0.0,30.0,0.0,0.0,0.0,0.0,-13.0,0.0,2.0,0.0,0.0,0.0,6.621169387009742e-11,2.7998508551603458e-11,1.2549525832086543e-11,5.969248826260741e-12,2.7831849544618198e-12,1.3593522479494568e-12,8.130720696073776e-13,4.25640657622913e-13,2.5281932782929317e-13,1.360155329788028e-13,1.1803879881433359e-13,7.599685418936861e-14,3.838886352999025e-14,2.5355247393041823e-14,3.2146497964622857e-15,2.0063888193965712e-14,1.0383584111849509e-14,7.651464908632906e-09,6.0233046070267685e-09,4.69361675935886e-09,2.978675055316797e-09,1.9962971761532397e-09,1.2184177767524391e-09,7.541071626922026e-10,4.2260259266128366e-10,2.53598422703862e-10,1.2968836046301368e-10,6.839882271702424e-11,3.705643514999988e-11,1.6999248647851867e-11,8.829870038083577e-12,4.092435073807007e-12,1.9783048417890467e-12,1.1227743729265328e-12,6.67271349474563e-13,1.9004153221791983e-13,7.600736250766186e-14,1.118416317678486e-13
0.0,51,51.0,0.0,30.0,0.0,0.0,0.0,0.0,-13.0,0.0,2.0,0.0,0.0,0.0,6.140749241400592e-11,2.88260336620715e-11,1.2222010621687435e-11,5.754764435015325e-12,2.7204714601532184e-12,1.3653325619199112e-12,7.834176795790401e-13,3.97299753408713e-13,2.5865868913966623e-13,1.3606803224201242e-13,1.1290917364047127e-13,7.238635609632119e-14,4.43093150349092e-14,3.2475318069282524e-14,2.096847322833768e-14,9.76751506667988e-15,-1.0260491403371836e-14,8.068571701673585e-09,6.341719531324448e-09,4.6112922073221635e-09,3.128723839154441e-09,1.9748617094058923e-09,1.1805211090752424e-09,7.189228887304719e-10,4.1095893508234863e-10,2.2113788311719172e-10,1.3518060689971982e-10,7.023443872816062e-11,3.453876455922159e-11,1.644193510120126e-11,8.440401892180287e-12,3.998260852637778e-12,2.193566901284076e-12,1.1592554245061096e-12,5.685714175485852e-13,3.0205265442938136e-13,7.952173687857223e-14,4.08923006548122e-13
0.0,52,52.0,0.0,30.0,0.0,0.0,0.0,0.0,-13.0,0.0,2.0,0.0,0.0,0.0,5.711061629492817e-11,2.7744627810716863e-11,1.1696162779636984e-11,5.6605130819294126e-12,2.813116786966518e-12,1.3424490686735973e-12,7.829791957466648e-13,4.2067890176534333e-13,2.395144613503299e-13,1.4270113989201904e-13,1.2591023247000552e-13,6.673134717484352e-14,6.54669705513153e-14,3.438633030465631e-14,2.0410211797254933e-14,1.5456504581792913e-14,6.279359810208015e-15,7.591528103638254e-09,6.4719039057171415e-09,4.411954260869937e-09,3.151190457959539e-09,1.9446343174168605e-09,1.164413598138364e-09,7.641481906623649e-10,4.5368628888474736e-10,2.3354392394338555e-10,1.2405084091534048e-10,6.552005063900581e-11,3.389425835687816e-11,1.718501889757987e-11,8.087707748405987e-12,4.25273260856468e-12,1.9530883236860054e-12,9.555305512809336e-13,4.240353589902318e-13,1.4504547170082545e-13,1.7325287426412004e-13,8.838809519344679e-14
0.0,53,53.0,0.0,30.0,0.0,0.0,0.0,0.0,-13.0,0.0,2.0,0.0,0.0,0.0,6.290533746417489e-11,2.882958555485468e-11,1.1459364528499747e-11,5.573146101054943e-12,2.6219599037201852e-12,1.3116590927154733e-12,7.31024039489802e-13,3.9774779762589086e-13,2.490851845637342e-13,1.3385363337235285e-13,1.049070495300963e-13,6.81428056425659e-14,5.2484831409447697e-14,1.920664630825501e-14,1.5454036145124654e-14,1.6748548440097914e-14,1.4646976664364216e-14,8.070503285780261e-09,5.991859365880545e-09,4.7791132740986455e-09,3.2355172467712866e-09,2.0484629371522637e-09,1.203636014934268e-09,7.3777553485982e-10,4.264960832507588e-10,2.336617122930825e-10,1.30934220424795e-10,6.611193273443862e-11,3.218150422603891e-11,1.6419210537891657e-11,8.348071623241357e-12,3.970709927014247e-12,1.85485818255428e-12,9.930858958877158e-13,5.677946025010287e-13,1.517957156611136e-13,1.6296501366445652e-13,2.4909814278727355e-13
0.0,54,54.0,0.0,30.0,0.0,0.0,0.0,0.0,-13.0,0.0,2.0,0.0,0.0,0.0,6.146052827051052e-11,2.668787991740268e-11,1.1976284690593196e-11,5.9738557595934365e-12,2.5801883924677043e-12,1.3529481776036085e-12,7.39569401135603e-13,3.8069715553760434e-13,2.564685761071109e-13,1.177610772491644e-13,1.225015315004859e-13,4.567136092015356e-14,4.2090519798688366e-14,8.1456033813651e-15,2.5152182024109297e-14,1.636059056693617e-14,1.3675294638248785e-14,7.931688117038724e-09,6.683795489801266e-09,4.58047853744837e-09,3.2181662675612945e-09,2.1055226400927958e-09,1.1758759031016326e-09,7.592552518808473e-10,4.057180404904659e-10,2.3481986837214305e-10,1.2350473591618123e-10,6.299044215330095e-11,3.4398095686175144e-11,1.6390924000077333e-11,8.129388382437474e-12,3.85697212346287e-12,1.985033443341503e-12,9.67191570749784e-13,5.53697312720916e-13,1.4610618796713532e-13,2.686283795640952e-14,1.5530087921271972e-13
0.0,55,55.0,0.0,30.0,0.0,0.0,0.0,0.0,-13.0,0.0,2.0,0.0,0.0,0.0,5.7848262471820045e-11,2.5713047693491555e-11,1.1336213349870275e-11,5.620672597952351e-12,2.4897753233731616e-12,1.2515793219241772e-12,6.998612999755021e-13,3.381994612223406e-13,2.2254720682119113e-13,1.3094873652953838e-13,1.062350607344635e-13,5.295825858923566e-14,4.8620331895544917e-14,2.5380726798404563e-14,2.6609844002478487e-14,-8.967189465513435e-15,5.398330417425746e-15,8.021393937504292e-09,6.047004245881168e-09,4.520959308947037e-09,3.279940063584969e-09,1.98777700740442e-09,1.2261636453739372e-09,7.112666528014196e-10,4.230220808327432e-10,2.2548023646887176e-10,1.2268564832432256e-10,6.387621649909989e-11,3.2268778601949834e-11,1.5328368521958914e-11,7.837122039441886e-12,3.748364460129875e-12,1.8534841721691326e-12,1.1351583860610814e-12,4.229401242117953e-13,2.4392354547976447e-13,-3.237230934037157e-14,1.3114500528841647e-13
0.0,56,56.0,0.0,30.0,0.0,0.0,0.0,0.0,-13.0,0.0,2.0,0.0,0.0,0.0,5.6856570721554e-11,2.5364212911823854e-11,1.054583768672224e-11,5.263919540809284e-12,2.3980582978423594e-12,1.197837819302971e-12,6.730089933578616e-13,3.6099908785478854e-13,2.2399224801596002e-13,1.1007053276496595e-13,1.1088295867231814e-13,5.1029744773442846e-14,2.2444442393608686e-14,2.4632394166975688e-14,1.0489393336454869e-14,1.0705901192133541e-15,8.699088474751347e-15,8.001616144402783e-09,6.395247260165797e-09,4.55786734647192e-09,3.056045492404305e-09,1.9862981772285576e-09,1.1894470269776095e-09,6.879035096149482e-10,3.972561886867528e-10,2.1402455666770807e-10,1.2180294705077543e-10,6.097509789401952e-11,3.308408758536852e-11,1.621350340587308e-11,7.619638930806778e-12,3.3238624449188764e-12,1.8971943941153584e-12,9.680545288491714e-13,4.2746773968378666e-13,1.8311833651423316e-13,1.1927157276827025e-13,2.1626203769444116e-13
0.0,57,57.0,0.0,30.0,0.0,0.0,0.0,0.0,-13.0,0.0,2.0,0.0,0.0,0.0,5.945098650223804e-11,2.516906681414269e-11,1.0396698827946423e-11,5.46678443133125e-12,2.337793856783929e-12,1.169918304068962e-12,6.467962515292512e-13,3.5441785839748324e-13,2.1656443968979586e-13,1.357027381644358e-13,1.0498137952729821e-13,6.171254238021117e-14,4.9344694837036295e-14,3.173230123399622e-14,1.8000947172595526e-14,8.008424159361913e-15,5.766721231434481e-15,7.722338189053662e-09,6.444824756597946e-09,4.4126756204464005e-09,3.001416012356044e-09,1.9101607479487573e-09,1.12997038439209e-09,7.078180875298424e-10,4.0566711292357574e-10,2.0529267033974688e-10,1.1928915351325978e-10,6.279934908259531e-11,3.009341466837609e-11,1.5930630101551922e-11,8.079521883372304e-12,3.6446945313576186e-12,1.840743882076551e-12,9.13282956625695e-13,4.702792263850206e-13,2.9668371909571053e-13,3.326801168112284e-13,7.309395608952793e-14
0.0,58,58.0,0.0,30.0,0.0,0.0,0.0,0.0,-13.0,0.0,2.0,0.0,0.0,0.0,5.604664123398155e-11,2.3199591333504176e-11,1.0676116435924584e-11,5.318312067992864e-12,2.4314982290203632e-12,1.1535809651850319e-12,6.125218199042806e-13,3.019513161247418e-13,2.2552389590027363e-13,1.2088920974957077e-13,1.1777841972169647e-13,4.399668039948835e-14,3.8630746792400196e-14,2.870534557557335e-14,-6.030602203592882e-17,1.3402539661434899e-14,-1.8453166484798162e-14,7.639266977664564e-09,6.3385828709231505e-09,4.686371601388789e-09,3.0671159052032725e-09,1.8900882395569265e-09,1.156832235954682e-09,7.019296950764911e-10,3.896955100461152e-10,2.0307114525358433e-10,1.1393142827489944e-10,6.136352400709905e-11,2.979616099681589e-11,1.521166388342293e-11,7.47805303818191e-12,3.488755859093436e-12,1.7687405296203727e-12,1.096163064973095e-12,2.8637007767878606e-13,2.7274243882647226e-13,1.8020422137082558e-13,1.7538730352504682e-13
0.0,59,59.0,0.0,30.0,0.0,0.0,0.0,0.0,-13.0,0.0,2.0,0.0,0.0,0.0,5.341989612106726e-11,2.344645025474313e-11,9.741410168449137e-12,4.959201174501005e-12,2.282835076219876e-12,1.1372963628691404e-12,6.381262717981123e-13,2.96357940405855e-13,2.1702057244205952e-13,1.1142990919218426e-13,1.1387081414934724e-13,4.552947062231983e-14,2.9718983760884337e-14,8.930752761406471e-15,3.661617375788991e-14,4.934255650238776e-15,8.480487659693981e-15,7.96668210722696e-09,6.5809715801801234e-09,4.640485512382453e-09,3.0204038095843693e-09,1.9050653260949486e-09,1.1203876092491353e-09,6.621043123223009e-10,3.891991394333912e-10,2.1452916516644012e-10,1.1268032196641955e-10,5.673502231670918e-11,2.963030450849588e-11,1.5176328015674497e-11,7.426656820208201e-12,3.68915193452419e-12,1.670512784783233e-12,7.725887246072562e-13,3.95591324231459e-13,2.0262048546475924e-13,9.767340100539188e-14,4.596536835408648e-14
0.0,60,60.0,0.0,30.0,0.0,0.0,0.0,0.0,-13.0,0.0,2.0,0.0,0.0,0.0,5.209756532236574e-11,2.3189069809106275e-11,9.662265635587531e-12,5.036410909298555e-12,2.3059776137992116e-12,1.016108298688616e-12,6.217715598057563e-13,3.166466898537558e-13,1.9348508822313853e-13,1.2134838630583027e-13,8.286742613842703e-14,5.254469960147412e-14,4.048180113784225e-14,7.102417770114667e-15,1.8286694802392355e-14,3.598539296207426e-15,-1.2029393597722475e-14,7.77897708312049e-09,6.160812181849284e-09,4.877576954919922e-09,3.1351309665260487e-09,1.8388124640872656e-09,1.156222396293811e-09,6.847220652854122e-10,3.800923227368563e-10,2.211848824271468e-10,1.1039082095283744e-10,5.576705967604459e-11,2.9302205183253106e-11,1.4119446691950971e-11,7.002363922644701e-12,3.6286741362612656e-12,1.6006456152582753e-12,9.866729430103048e-13,3.85369607022196e-13,1.9791249608203736e-13,1.2324169545065962e-13,1.9256650752336025e-13
0.0,61,61.0,0.0,30.0,0.0,0.0,0.0,0.0,-13.0,0.0,2.0,0.0,0.0,0.0,5.090019276678856e-11,2.2331897875250778e-11,9.903919724741245e-12,4.74724146760132e-12,2.029720445785808e-12,1.044676004071236e-12,6.121689807517595e-13,3.026354588996871e-13,1.906168549903043e-13,1.0160567843971688e-13,1.0215724179138406e-13,6.557216721911573e-14,3.9515897942925414e-14,1.4265072832991415e-14,2.7039297996706977e-15,8.009398019381588e-15,1.3514572832692946e-14,7.847607618463723e-09,6.432678470207045e-09,4.52192408463824e-09,2.98300103993899e-09,1.964902890816246e-09,1.128244480977257e-09,6.616274985304277e-10,3.6693253371709614e-10,2.056089704221154e-10,1.12359192966509e-10,5.7071207237276095e-11,2.8635983475759054e-11,1.3561251155449113e-11,6.873812392206032e-12,3.3086244657808744e-12,1.7348401348439521e-12,8.731739636160316e-13,4.496707703480004e-13,2.9452883448383175e-13,1.8104960597807633e-13,-3.5166806099662564e-14
0.0,62,62.0,0.0,30.0,0.0,0.0,0.0,0.0,-13.0,0.0,2.0,0.0,0.0,0.0,5.027258637808819e-11,2.2971606860485553e-11,9.277847931276033e-12,4.587898218986712e-12,2.1410577229285152e-12,1.060853756734225e-12,6.075270778722755e-13,2.8230010467873254e-13,2.0558238654463737e-13,1.1230697537887887e-13,9.74841747067474e-14,3.694584005728124e-14,3.1204946646588416e-14,1.8652763262242283e-14,7.750356314720017e-15,-1.1978826510226201e-14,1.3926468516712683e-14,7.834764323718606e-09,6.55628724795925e-09,4.52443599039686e-09,3.0705714828529224e-09,1.7505390742314751e-09,1.1694549878344987e-09,6.586199680414936e-10,3.658248803682269e-10,2.057809230777372e-10,1.054790191647896e-10,5.594521307969711e-11,2.709216035783627e-11,1.4126347531531542e-11,6.425729621483725e-12,3.0555197839612355e-12,1.7940595376477003e-12,7.911210203160689e-13,3.5507757243133106e-13,2.3014666680958764e-13,2.4164523624501188e-15,-2.711011985341099e-15
0.0,63,63.0,0.0,30.0,0.0,0.0,0.0,0.0,-13.0,0.0,2.0,0.0,0.0,0.0,5.102119345525925e-11,2.276236516717072e-11,9.687566423784866e-12,4.6518106234097385e-12,2.1551285450698992e-12,9.533313896905305e-13,5.610485471504935e-13,2.970782019199005e-13,1.7268043454727238e-13,9.719541976931896e-14,1.0496018169212694e-13,3.9589771322200577e-14,4.7376914876091765e-14,2.0083513283034167e-14,9.757802950233229e-15,7.427188398385463e-15,2.609245746062026e-14,8.024423623646578e-09,6.0683122877855115e-09,4.830467017598541e-09,3.013977752791387e-09,1.8522232590294275e-09,1.0712418806002457e-09,6.302320283489095e-10,3.5591837014630284e-10,1.927095234169353e-10,1.0641462022541343e-10,5.383279866926486e-11,2.624952369314336e-11,1.2917420678538388e-11,6.38207250854574e-12,3.2858804951559152e-12,1.5014826591973385e-12,8.583581800904584e-13,3.1143799288739546e-13,2.2213621427505552e-13,-7.03661423178197e-14,1.7601696237331162e-13
