Line_number,Fiducial,Easting,Northing,Height,Elevation,tx_pitch,tx_roll,tx_yaw,txrx_dx,txrx_dy,txrx_dz,rx_pitch,rx_roll,rx_yaw,S0Z_time_1.431e-04,S0Z_time_1.801e-04,S0Z_time_2.266e-04,S0Z_time_2.846e-04,S0Z_time_3.581e-04,S0Z_time_4.506e-04,S0Z_time_5.671e-04,S0Z_time_7.136e-04,S0Z_time_8.981e-04,S0Z_time_1.131e-03,S0Z_time_1.423e-03,S0Z_time_1.791e-03,S0Z_time_2.255e-03,S0Z_time_2.838e-03,S0Z_time_3.573e-03,S0Z_time_4.498e-03,S0Z_time_5.662e-03,S1Z_time_1.409e-05,S1Z_time_1.610e-05,S1Z_time_1.909e-05,S1Z_time_2.360e-05,S1Z_time_2.960e-05,S1Z_time_3.709e-05,S1Z_time_4.609e-05,S1Z_time_5.759e-05,S1Z_time_7.209e-05,S1Z_time_9.060e-05,S1Z_time_1.141e-04,S1Z_time_1.431e-04,S1Z_time_1.801e-04,S1Z_time_2.266e-04,S1Z_time_2.846e-04,S1Z_time_3.581e-04,S1Z_time_4.506e-04,S1Z_time_5.671e-04,S1Z_time_7.136e-04,S1Z_time_8.981e-04,S1Z_time_1.131e-03
0.0,0,0.0,0.0,30.0,0.0,0.0,0.0,0.0,-13.0,0.0,2.0,0.0,0.0,0.0,1.1218405566755488e-10,7.685343514157072e-11,4.986693098960298e-11,3.184175128817925e-11,1.925530098137465e-11,1.1129655254971014e-11,6.198487475811909e-12,3.2809557337887457e-12,1.6970875417585774e-12,8.297315771954665e-13,4.1774766211630853e-13,1.8629423150147664e-13,9.054101108583371e-14,3.7904404483299215e-14,1.519365100290195e-14,7.19822612515055e-15,2.89084502448385e-15,4.084975263269484e-09,3.010232227709585e-09,2.0404751669903705e-09,1.250256634054549e-09,7.616524177758444e-10,4.883317696082348e-10,3.4279405164450326e-10,2.5538449539700763e-10,1.9754576610587504e-10,1.5339179835177064e-10,1.1629976761899747e-10,8.556125579406102e-11,6.014252448723557e-11,4.033892585286274e-11,2.5963765352736705e-11,1.5841453704152514e-11,9.212208670872549e-12,5.095199511911134e-12,2.6916814332434923e-12,1.3500824034134909e-12,6.423450269692134e-13
0.0,1,1.0,0.0,30.0,0.0,0.0,0.0,0.0,-13.0,0.0,2.0,0.0,0.0,0.0,1.0902849947644659e-10,7.670568009122428e-11,5.127895845456935e-11,3.371108593434247e-11,2.099865554830249e-11,1.2502738309395915e-11,7.15925394126615e-12,3.898378737645341e-12,2.067300732926833e-12,1.0371279141206107e-12,5.284711644611478e-13,2.4261732080810336e-13,1.179423618961166e-13,5.085973447311232e-14,2.1022565842786844e-14,9.78120477352252e-15,3.9729621966819794e-15,4.0664802649812756e-09,2.9944192695189477e-09,2.0289976946116636e-09,1.2435794532239976e-09,7.572207233727579e-10,4.826950466322266e-10,3.343321105583221e-10,2.4496123428438767e-10,1.8758014770488405e-10,1.4604871457297216e-10,1.1232484969924218e-10,8.43652208091538e-11,6.075012768754349e-11,4.1806930421010485e-11,2.7616339401904975e-11,1.7307943677871424e-11,1.0335165747908569e-11,5.864062141439932e-12,3.176881327944146e-12,1.6310919723581798e-12,7.930414458731882e-13
0.0,2,2.0,0.0,30.0,0.0,0.0,0.0,0.0,-13.0,0.0,2.0,0.0,0.0,0.0,1.055495731619568e-10,7.56759114017952e-11,5.1833579700308324e-11,3.493113725916884e-11,2.2319619635003292e-11,1.3637552143162011e-11,8.0054099996639e-12,4.471149722581706e-12,2.425976332978213e-12,1.2459290909271862e-12,6.437792884381236e-13,3.02973711636095e-13,1.481065841530623e-13,6.540816047140312e-14,2.7714555905596722e-14,1.2789645041152146e-14,5.254885560037019e-15,4.047616042085744e-09,2.97840449220632e-09,2.017496648911475e-09,1.2373893385898673e-09,7.546507648260231e-10,4.8080599746579e-10,3.3077357490264243e-10,2.3909212246581696e-10,1.8054854177734196e-10,1.3975044217014422e-10,1.080737553730405e-10,8.232647177338778e-11,6.043244895424439e-11,4.2489698184765595e-11,2.869497359897639e-11,1.8404541627113026e-11,1.12474241738596e-11,6.529141400500964e-12,3.617692749452337e-12,1.8975107415067814e-12,9.420018166013637e-13
0.0,3,3.0,0.0,30.0,0.0,0.0,0.0,0.0,-13.0,0.0,2.0,0.0,0.0,0.0,1.0229047491351175e-10,7.417667124974748e-11,5.178442852657814e-11,3.56442963843739e-11,2.3283510928053117e-11,1.4552740214429296e-11,8.734592103285109e-12,4.991002578637844e-12,2.7655695708466903e-12,1.4511338069924355e-12,7.608589381054822e-13,3.6600619067568556e-13,1.804377767332831e-13,8.132029140108382e-14,3.519153426805103e-14,1.6200653482881115e-14,6.733227421566098e-15,4.0283755558840115e-09,2.9622208245899434e-09,2.0059932513276222e-09,1.231347430596812e-09,7.526998532907821e-10,4.805694608769098e-10,3.299941826702822e-10,2.3649022818724963e-10,1.7623305142624082e-10,1.3494409814396208e-10,1.0414214485804316e-10,7.992721421930531e-11,5.951796386999036e-11,4.259548887033366e-11,2.931811453921113e-11,1.9185020549286822e-11,1.1965157242745794e-11,7.089315206375273e-12,4.008116951315192e-12,2.1435447374220745e-12,1.0857078615404806e-12
0.0,4,4.0,0.0,30.0,0.0,0.0,0.0,0.0,-13.0,0.0,2.0,0.0,0.0,0.0,9.957816038074722e-11,7.252298729299472e-11,5.133430487674519e-11,3.5969174968121766e-11,2.3952175519856627e-11,1.5272981275962446e-11,9.351399487659844e-12,5.454537060354256e-12,3.0812724124141704e-12,1.6489916939109242e-12,8.773633307140958e-13,4.3048037580778873e-13,2.1435243677794843e-13,9.835439906059343e-14,4.336205885039875e-14,1.998413950860027e-14,8.400585011598555e-15,4.00874949993384e-09,2.9458692131506766e-09,1.9945176246063534e-09,1.2254383578815787e-09,7.509967347224612e-10,4.81007777189184e-10,3.3063097165869276e-10,2.3597130712833136e-10,1.7407680060184423e-10,1.3169226623434207e-10,1.0088693875421487e-10,7.752817915522701e-11,5.826702363360372e-11,4.22919695284329e-11,2.958678836823734e-11,1.970270880915666e-11,1.2510649020128628e-11,7.549606899346396e-12,4.346277960080867e-12,2.3662013009760143e-12,1.221488350350611e-12
0.0,5,5.0,0.0,30.0,0.0,0.0,0.0,0.0,-13.0,0.0,2.0,0.0,0.0,0.0,9.755934520916434e-11,7.09462389646573e-11,5.0650403370952106e-11,3.600524015435589e-11,2.4380357469548842e-11,1.58241643287664e-11,9.864253381236343e-12,5.8616731472370764e-12,3.370398709852401e-12,1.836840850859667e-12,9.914124331352281e-13,4.953182646811902e-13,2.493033379232259e-13,1.162681607330686e-13,5.2127304213271083e-14,2.4104817806892502e-14,1.0246376902699949e-14,3.988739797187991e-09,2.9293499884501735e-09,1.9830789906884517e-09,1.2196869912283632e-09,7.494719548246692e-10,4.817424041271471e-10,3.3194089911901136e-10,2.3666314755613206e-10,1.7345760952294606e-10,1.2981523404303415e-10,9.845906235848507e-11,7.537994297735963e-11,5.688926307084233e-11,4.171821629501342e-11,2.9585786608591236e-11,2.0005902930527935e-11,1.2907655468292695e-11,7.918426590792777e-12,4.633132099604524e-12,2.5645553125069533e-12,1.3472969559317239e-12
0.0,6,6.0,0.0,30.0,0.0,0.0,0.0,0.0,-13.0,0.0,2.0,0.0,0.0,0.0,9.624641020320865e-11,6.959882696461615e-11,4.986987524279669e-11,3.583811915794751e-11,2.461591295268595e-11,1.623093344744184e-11,1.0283257859867721e-11,6.214486097462977e-12,3.6318500888766872e-12,2.0129145176531518e-12,1.1015565916751086e-12,5.596105929650112e-13,2.847942253091742e-13,1.3482742613343178e-13,6.138575613530817e-14,2.852401241981952e-14,1.225759346053851e-14,3.968354088555182e-09,2.9126706911654735e-09,1.9716821719281583e-09,1.2141070718155016e-09,7.481307338250286e-10,4.826581152347288e-10,3.335734329608365e-10,2.380136844937917e-10,1.7384405515612588e-10,1.2902753212178243e-10,9.685519671671724e-11,7.362940535847448e-11,5.554683858581272e-11,4.0991893713105956e-11,2.938770046337158e-11,2.0136947882741636e-11,1.3178849430608345e-11,8.205661941135561e-12,4.871551729106241e-12,2.738902542717804e-12,1.4617683522439964e-12
0.0,7,7.0,0.0,30.0,0.0,0.0,0.0,0.0,-13.0,0.0,2.0,0.0,0.0,0.0,9.556811024522255e-11,6.856233863795202e-11,4.909983609653157e-11,3.554239091502686e-11,2.470134109627136e-11,1.651586917869883e-11,1.0618864354107184e-11,6.516336193175147e-12,3.865675379905903e-12,2.1761581338829056e-12,1.206723441125999e-12,6.226137597502732e-13,3.2038744530857e-13,1.5381255063972809e-13,7.10367961192773e-14,3.320119470328885e-14,1.4419465568285928e-14,3.947600663151042e-09,2.895843067037104e-09,1.960335104767406e-09,1.2087044925128607e-09,7.469847510198049e-10,4.837335273560845e-10,3.3538667768418443e-10,2.397134611366614e-10,1.748481784818847e-10,1.2903578891651547e-10,9.597845936649954e-11,7.233516148187546e-11,5.435390098340984e-11,4.0210987016565956e-11,2.905610183366437e-11,2.0133092223045857e-11,1.3344810527452303e-11,8.42141927301902e-12,5.065599911782839e-12,2.8901079304071315e-12,1.5642820665628501e-12
0.0,8,8.0,0.0,30.0,0.0,0.0,0.0,0.0,-13.0,0.0,2.0,0.0,0.0,0.0,9.541401396004728e-11,6.786169335513517e-11,4.841685003147043e-11,3.518186756663572e-11,2.467504240990691e-11,1.6699579818730517e-11,1.0881180816622515e-11,6.7712379864260285e-12,4.072711440242869e-12,2.3260715809736416e-12,1.3061612967719785e-12,6.837370843533392e-13,3.5570623466223756e-13,1.730226649205408e-13,8.098337855669573e-14,3.8095243767924563e-14,1.6716057315188015e-14,3.9264870242627125e-09,2.878879903762482e-09,1.9490488804785802e-09,1.2034841504253068e-09,7.460402153623818e-10,4.849714894783266e-10,3.37333729466292e-10,2.4160732646100334e-10,1.7621714393590358e-10,1.295910836791589e-10,9.569168208814056e-11,7.149079093236769e-11,5.337899217944074e-11,3.945292527300639e-11,2.8646735482266203e-11,2.0027666599468247e-11,1.3423992028814526e-11,8.575314953126816e-12,5.219915705407585e-12,3.0192675381344892e-12,1.6548844969801709e-12
0.0,9,9.0,0.0,30.0,0.0,0.0,0.0,0.0,-13.0,0.0,2.0,0.0,0.0,0.0,9.566636049026373e-11,6.748231110276593e-11,4.7868596076417726e-11,3.4808736770870894e-11,2.4571743637318755e-11,1.6801081299872663e-11,1.1079737318236537e-11,6.983440105671465e-12,4.254295791762728e-12,2.4625764731900365e-12,1.3993855019849176e-12,7.425255169959246e-13,3.9043328107816424e-13,1.9227812865226018e-13,9.113396453730521e-14,4.3165461412287535e-14,1.9130780941485417e-14,3.905020342578029e-09,2.8617938936870695e-09,1.9378361148785155e-09,1.1984524971968618e-09,7.452998570309761e-10,4.86376701460451e-10,3.394040025837858e-10,2.436261219319265e-10,1.7780090405208643e-10,1.3050620123742748e-10,9.585465401950763e-11,7.104982070995702e-11,5.2651819215421016e-11,3.877391844553414e-11,2.820722937743584e-11,1.9850810835088382e-11,1.3433111378831503e-11,8.676206643696761e-12,5.3392264654477155e-12,3.1276127401317577e-12,1.7340892984827324e-12
0.0,10,10.0,0.0,30.0,0.0,0.0,0.0,0.0,-13.0,0.0,2.0,0.0,0.0,0.0,9.621876575960648e-11,6.738652175550115e-11,4.7478028740521145e-11,3.4462883090674414e-11,2.442223180447651e-11,1.68380788101999e-11,1.1223504380035608e-11,7.157184676753633e-12,4.412048122452651e-12,2.5859044792037116e-12,1.4861296004990842e-12,7.986414121246462e-13,4.2430702166779725e-13,2.114214358497193e-13,1.0140382920625638e-13,4.837238346204414e-14,2.164682929918937e-14,3.883208270403098e-09,2.8445977417693457e-09,1.9267098998984762e-09,1.1936175250447557e-09,7.447657304471751e-10,4.879513515513586e-10,3.415974964925759e-10,2.45743153874191e-10,1.7951774668827558e-10,1.3165239158441683e-10,9.634484524768374e-11,7.094709264680597e-11,5.217281919878196e-11,3.8209906077881323e-11,2.777633102731532e-11,1.962959429743822e-11,1.3387555829197254e-11,8.732211740270924e-12,5.428025204524202e-12,3.216520668601964e-12,1.8026526078026114e-12
0.0,11,11.0,0.0,30.0,0.0,0.0,0.0,0.0,-13.0,0.0,2.0,0.0,0.0,0.0,9.69844942080316e-11,6.752676173686898e-11,4.724906829533848e-11,3.417207833119936e-11,2.425280929225142e-11,1.6827012351351672e-11,1.1320992145744823e-11,7.296601492616868e-12,4.547718124716703e-12,2.6965042339916896e-12,1.5663012510660418e-12,8.518472500858847e-13,4.571168335227855e-13,2.303169198551235e-13,1.1171583799899033e-13,5.367841739150413e-14,2.4247524876754883e-14,3.8610595316944366e-09,2.8273046227746866e-09,1.9156835011938715e-09,1.188988108642394e-09,7.444404751790366e-10,4.896958347473298e-10,3.4391554984501703e-10,2.47950068812576e-10,1.8132687801912545e-10,1.32947415351347e-10,9.706543256462071e-11,7.111411153678246e-11,5.192322282689027e-11,3.777919304261575e-11,2.738346112104095e-11,1.93877315701755e-11,1.3301599118642713e-11,8.750852370711515e-12,5.490418949957777e-12,3.2875295500123172e-12,1.861399307079357e-12
0.0,12,12.0,0.0,30.0,0.0,0.0,0.0,0.0,-13.0,0.0,2.0,0.0,0.0,0.0,9.789790156012006e-11,6.785472918648267e-11,4.7172601489790197e-11,3.39531268679416e-11,2.4084845066904337e-11,1.6782900559118375e-11,1.1380321733685591e-11,7.405684567701106e-12,4.663092289008849e-12,2.7949664605159452e-12,1.6399426634093535e-12,9.01989903692578e-13,4.886978638814766e-13,2.4884964893676403e-13,1.2200078813550888e-13,5.904832124833209e-14,2.6916591155113438e-14,3.8385842283832455e-09,2.809928563940039e-09,1.9047704378952386e-09,1.1845734972364974e-09,7.443274913301353e-10,4.916099996281197e-10,3.463585509572841e-10,2.50245076070398e-10,1.8320978647960418e-10,1.3434209368963835e-10,9.794540456333816e-11,7.148831118713422e-11,5.18738808289202e-11,3.748615157176406e-11,2.7048939412085007e-11,1.9145190097582512e-11,1.3188398543441059e-11,8.739202338320926e-12,5.530113323709165e-12,3.342319294415111e-12,1.9111248596611876e-12
0.0,13,13.0,0.0,30.0,0.0,0.0,0.0,0.0,-13.0,0.0,2.0,0.0,0.0,0.0,9.891219081251819e-11,6.832680111209256e-11,4.7231862343359645e-11,3.3813699378051054e-11,2.393463484820866e-11,1.6719091145194063e-11,1.140922523628125e-11,7.488303668978407e-12,4.759946790380555e-12,2.881967356782708e-12,1.7071958275331227e-12,9.489864048143226e-13,5.189258788504473e-13,2.6692387164971627e-13,1.321974180264534e-13,6.444953220046089e-14,2.9638357404794097e-14,3.81579396415143e-09,2.792484661059472e-09,1.8939846539979557e-09,1.1803830817151022e-09,7.444307082297386e-10,4.936938516200325e-10,3.489259824658187e-10,2.526279746582314e-10,1.8515893926179188e-10,1.3580879598854417e-10,9.893572779547382e-11,7.201743634189597e-11,5.1991998777137e-11,3.7325224928116665e-11,2.6784876044373484e-11,1.8917922746272972e-11,1.3059841353500887e-11,8.703968082460951e-12,5.55047686848184e-12,3.3826611172843774e-12,1.9525605855154926e-12
0.0,14,14.0,0.0,30.0,0.0,0.0,0.0,0.0,-13.0,0.0,2.0,0.0,0.0,0.0,9.999569682387024e-11,6.890655175472158e-11,4.7406698096475924e-11,3.375447889519774e-11,2.3813620202115245e-11,1.6647027360287364e-11,1.1414978106423588e-11,7.548217196034909e-12,4.840030858573477e-12,2.9582292714231418e-12,1.7682731334167339e-12,9.92811033281227e-13,5.477122647675656e-13,2.8446128332083966e-13,1.42252185311124e-13,6.985235536774423e-14,3.2397910035720307e-14,3.7927018879155056e-09,2.7749891691145242e-09,1.883340654275742e-09,1.1764263446145708e-09,7.447543201338752e-10,4.959477597095756e-10,3.516169255163772e-10,2.550984709995799e-10,1.871715789581338e-10,1.3733290878035736e-10,1.0000424747020423e-10,7.266059699225406e-11,5.2245649128306547e-11,3.72846279607113e-11,2.6596525211186495e-11,1.871784228452333e-11,1.292633913112734e-11,8.651487703717627e-12,5.554630191733809e-12,3.4103557877277106e-12,1.9863777447138992e-12
0.0,15,15.0,0.0,30.0,0.0,0.0,0.0,0.0,-13.0,0.0,2.0,0.0,0.0,0.0,1.011280214535124e-10,6.956531474707207e-11,4.7676595925352976e-11,3.377128573704569e-11,2.3728907443900845e-11,1.657610470335719e-11,1.1404291807283734e-11,7.589068873082698e-12,4.9050657941601935e-12,3.0244961903707688e-12,1.8234338723008336e-12,1.0334836639679177e-12,5.749992062361421e-13,3.013992807090535e-13,1.521189005792476e-13,7.523003049292344e-14,3.518120256697907e-14,3.769322719623446e-09,2.7574595302336503e-09,1.8728535812985793e-09,1.1727128904576884e-09,7.453026136954718e-10,4.98372414100763e-10,3.544304416259426e-10,2.576558634750412e-10,1.8924665909504759e-10,1.3890711720911831e-10,1.0113081523535587e-10,7.338739486290175e-11,5.260635996550113e-11,3.734939307555797e-11,2.6483845222527904e-11,1.8553051896618777e-11,1.279665405006596e-11,8.587665890727538e-12,5.5455211049390314e-12,3.4271777378736254e-12,2.0132084025724686e-12
0.0,16,16.0,0.0,30.0,0.0,0.0,0.0,0.0,-13.0,0.0,2.0,0.0,0.0,0.0,1.02296670821993e-10,7.028160278830508e-11,4.802258390905756e-11,3.385695383405153e-11,2.3683977915560422e-11,1.6513649432933895e-11,1.1383199855399395e-11,7.61436414847774e-12,4.956748102031254e-12,3.081520446575112e-12,1.872966675268813e-12,1.0710594518078058e-12,6.00755051645298e-13,3.17689283631149e-13,1.6175828224868763e-13,8.055870042887633e-14,3.7975133560249985e-14,3.745672785705213e-09,2.7399143834410225e-09,1.8625392501473585e-09,1.1692524954260389e-09,7.460798923664021e-10,5.009687162641058e-10,3.573657547361166e-10,2.6029917161173557e-10,1.9138352305642635e-10,1.4052787787493966e-10,1.0230329668382856e-10,7.417616451543173e-11,5.3050254509132935e-11,3.750363783238481e-11,2.6443042968889085e-11,1.8428280818192242e-11,1.2677807908113313e-11,8.517876694691275e-12,5.525966841640446e-12,3.43483361591254e-12,2.0336685877501346e-12
0.0,17,17.0,0.0,30.0,0.0,0.0,0.0,0.0,-13.0,0.0,2.0,0.0,0.0,0.0,1.0349441873936612e-10,7.103998661282754e-11,4.842823357511787e-11,3.4002842194003915e-11,2.3679476294345426e-11,1.64650159315014e-11,1.1356964302774053e-11,7.627430809345849e-12,4.996749525272866e-12,3.130056716672805e-12,1.9171774089790636e-12,1.105619998477042e-12,6.249699086422833e-13,3.3329514532938377e-13,1.711374749201964e-13,8.581730836495718e-14,4.07675988504968e-14,3.7217700707519297e-09,2.72237357807763e-09,1.852414162525808e-09,1.1660551511617056e-09,7.470904662039621e-10,5.037376880261908e-10,3.6042229962413336e-10,2.6302733298058095e-10,1.9358145525245517e-10,1.4219341086039907e-10,1.0351460716177484e-10,7.501200071767157e-11,5.355822258573229e-11,3.773208793052996e-11,2.64679501811368e-11,1.8345446778942048e-11,1.2575091535764109e-11,8.446865660308778e-12,5.498660880498126e-12,3.4349362390967677e-12,2.0483762063071722e-12
0.0,18,18.0,0.0,30.0,0.0,0.0,0.0,0.0,-13.0,0.0,2.0,0.0,0.0,0.0,1.0471738615471145e-10,7.182982596833365e-11,4.8880017139159496e-11,3.419995362825398e-11,2.371398364075949e-11,1.643377876841185e-11,1.1330019116709078e-11,7.631372174603065e-12,5.026710803263922e-12,3.170859737741545e-12,1.9563816094708774e-12,1.137266110157856e-12,6.476515466317089e-13,3.4819164736875483e-13,1.8022955405138718e-13,9.098744955322647e-14,4.354752200426905e-14,3.6976342827819526e-09,2.7048581973270266e-09,1.8424955149143587e-09,1.1631310968555313e-09,7.483386752195151e-10,5.066804239194885e-10,3.635997108095323e-10,2.6583935014088265e-10,1.95839614919208e-10,1.4390265508202186e-10,1.0476067171906956e-10,7.588494346245365e-11,5.411552714887785e-11,3.8020975225619763e-11,2.6551150617403638e-11,1.8304266546855505e-11,1.2492167344980349e-11,8.378674583556619e-12,5.466152039287475e-12,3.428990727937001e-12,2.0579609392153722e-12
0.0,19,19.0,0.0,30.0,0.0,0.0,0.0,0.0,-13.0,0.0,2.0,0.0,0.0,0.0,1.0596372217304618e-10,7.264407697751223e-11,4.9367247652764547e-11,3.443969074554057e-11,2.3784711257941653e-11,1.6421986437222358e-11,1.1305956399413121e-11,7.629021539280553e-12,5.048229029842608e-12,3.2046830038541533e-12,1.9909002954619572e-12,1.1661121557358008e-12,6.688216980892031e-13,3.623630710595337e-13,1.890130266342822e-13,9.605319901141476e-14,4.6304865469761365e-14,3.673286926462251e-09,2.687390590223468e-09,1.832801207224281e-09,1.1604908410516673e-09,7.498289243990556e-10,5.097980816792486e-10,3.6689779879507316e-10,2.687343744739447e-10,1.9815710438544954e-10,1.4565478718767545e-10,1.0603911139827804e-10,7.67884830345008e-11,5.471114304933915e-11,3.8358461155077515e-11,2.6684835068764223e-11,1.8302850440956253e-11,1.2431243486400391e-11,8.316601645023715e-12,5.430807629322525e-12,3.418388478208001e-12,2.0630661389882524e-12
0.0,20,20.0,0.0,30.0,0.0,0.0,0.0,0.0,-13.0,0.0,2.0,0.0,0.0,0.0,1.0723274402748037e-10,7.347828135669144e-11,4.9881783294241025e-11,3.4714309617295883e-11,2.388808023078981e-11,1.6430443772264672e-11,1.1287553248558746e-11,7.62290478177138e-12,5.062840346321818e-12,3.232276690719561e-12,2.0210579744848934e-12,1.1922819153579229e-12,6.885128398483239e-13,3.7580184488477596e-13,1.974713308945427e-13,1.0100093088366157e-13,4.9030624275435324e-14,3.648751378332641e-09,2.6699944073245925e-09,1.8233498526619335e-09,1.1581451756998979e-09,7.515657181564984e-10,5.130918968942212e-10,3.70316534401781e-10,2.717117450631352e-10,2.0053306088416326e-10,1.4744904304843356e-10,1.0734845098374202e-10,7.771841970400271e-11,5.533702426598705e-11,3.87347315856434e-11,2.6861400073847023e-11,1.833823673044287e-11,1.2393292832503711e-11,8.263200263230282e-12,5.394772295280381e-12,3.4044052598747458e-12,2.064344178167716e-12
0.0,21,21.0,0.0,30.0,0.0,0.0,0.0,0.0,-13.0,0.0,2.0,0.0,0.0,0.0,1.0852440360445474e-10,7.432976791184662e-11,5.041762619724863e-11,3.5017141529009554e-11,2.4020174843981108e-11,1.64589952545496e-11,1.1276831957315763e-11,7.61521545954478e-12,5.07200050112553e-12,3.254383977582995e-12,2.047181792969705e-12,1.2159057081311167e-12,7.06765505232702e-13,3.885072772161979e-13,2.0559233642489244e-13,1.0581913932459842e-13,5.17168041109334e-14,3.6240529588876783e-09,2.6526946347703564e-09,1.814160786573429e-09,1.1561051839426876e-09,7.535536884722968e-10,5.165632084926161e-10,3.738560457388628e-10,2.747710028653556e-10,2.0296673137681045e-10,1.4928468482660688e-10,1.0868767486586184e-10,7.867204528146335e-11,5.5987414273541015e-11,3.914188654515057e-11,2.707382794172045e-11,1.8406841349164417e-11,1.2378291008645234e-11,8.220313229363487e-12,5.359931657765967e-12,3.3882009825797478e-12,2.0624472946558765e-12
0.0,22,22.0,0.0,30.0,0.0,0.0,0.0,0.0,-13.0,0.0,2.0,0.0,0.0,0.0,1.0983897340043808e-10,7.519705492434186e-11,5.0970501186251293e-11,3.5342650283001e-11,2.4177074447161094e-11,1.6506788793309664e-11,1.1275143907664063e-11,7.607804152103245e-12,5.077065827512883e-12,3.2717356567174044e-12,2.069601016975634e-12,1.2371185255206713e-12,7.236261381536386e-13,4.0048439029884854e-13,2.1336784757849888e-13,1.104982659481917e-13,5.435638588410069e-14,3.5992189977118517e-09,2.6355176223921246e-09,1.8052540712506029e-09,1.154382241973237e-09,7.557976146376322e-10,5.202134855460082e-10,3.77516624833269e-10,2.779118940104144e-10,2.0545752181955493e-10,1.511610264447736e-10,1.100560001819029e-10,7.964758615216014e-11,5.665825552311725e-11,3.957371941746302e-11,2.731589413927902e-11,1.8504814282560927e-11,1.2385452197842704e-11,8.189134745721201e-12,5.327886569316005e-12,3.3708198627390264e-12,2.058016046615592e-12
0.0,23,23.0,0.0,30.0,0.0,0.0,0.0,0.0,-13.0,0.0,2.0,0.0,0.0,0.0,1.1117687247245933e-10,7.607942276642236e-11,5.153746440287331e-11,3.5686382706376933e-11,2.4355078181620867e-11,1.657250709245739e-11,1.1283267241874137e-11,7.60218172073936e-12,5.079276740869307e-12,3.285043397512441e-12,2.088646298621494e-12,1.2560588783408643e-12,7.391454610039261e-13,4.1174287300830985e-13,2.2079311545699117e-13,1.1503053549789563e-13,5.69432791454263e-14,3.574278889355424e-09,2.618491103024418e-09,1.796650494175388e-09,1.1529880147399389e-09,7.583024343907787e-10,5.24044349820808e-10,3.8129873886333616e-10,2.811343694232724e-10,2.080050243213884e-10,1.5307747342814846e-10,1.114527762174934e-10,8.064384295033814e-11,5.734671581448441e-11,4.0025452087450686e-11,2.7582247741070815e-11,1.8628305350298965e-11,1.2413447303783523e-11,8.170291441203733e-12,5.299940664687476e-12,3.3531905988467787e-12,2.051667236878506e-12
0.0,24,24.0,0.0,30.0,0.0,0.0,0.0,0.0,-13.0,0.0,2.0,0.0,0.0,0.0,1.1253857719814737e-10,7.697662059843336e-11,5.21165664369374e-11,3.6044857662561517e-11,2.455084161273322e-11,1.665456023934559e-11,1.1301509457080415e-11,7.5995347107785e-12,5.079745196504086e-12,3.294992279625883e-12,2.1046484353507556e-12,1.2728680837546192e-12,7.533772964623507e-13,4.2229616654942435e-13,2.2786636603360066e-13,1.1940979946190846e-13,5.947226696210677e-14,3.549264138955683e-09,2.6016442016382074e-09,1.7883715582004758e-09,1.1519344452860236e-09,7.610732471330852e-10,5.280575915656029e-10,3.852030415312915e-10,2.844385834660701e-10,2.1060902848096543e-10,1.5503355776050702e-10,1.1287745095583765e-10,8.165996917859846e-11,5.805082712300736e-11,4.049346876025023e-11,2.7868405265301916e-11,1.877364914189104e-11,1.246059485751419e-11,8.163933586104497e-12,5.277101412139455e-12,3.336126679978876e-12,2.04398274164693e-12
0.0,25,25.0,0.0,30.0,0.0,0.0,0.0,0.0,-13.0,0.0,2.0,0.0,0.0,0.0,1.1392458057202269e-10,7.788867298598537e-11,5.270657788123777e-11,3.641542665288989e-11,2.4761445240870514e-11,1.6751238200727316e-11,1.1329807815772262e-11,7.600750308440469e-12,5.0794468624462255e-12,3.3022332749516802e-12,2.1179365355675714e-12,1.2876897627410749e-12,7.663777628051483e-13,4.3216069064623885e-13,2.345883530773079e-13,1.23631386607355e-13,6.193894484653984e-14,3.5242083975566674e-09,2.58500743404932e-09,1.7804394631933994e-09,1.1512337378408186e-09,7.641153103357216e-10,5.322551780503246e-10,3.892303816212596e-10,2.8782489195766454e-10,2.132695224928428e-10,1.570289613605562e-10,1.1432956885889064e-10,8.269534260783803e-11,5.876922147261068e-11,4.097507292136763e-11,2.817069064526726e-11,1.8937482366091898e-11,1.2525020019066531e-11,8.169828899606253e-12,5.260093188846744e-12,3.3203271890204483e-12,2.0355001966718974e-12
0.0,26,26.0,0.0,30.0,0.0,0.0,0.0,0.0,-13.0,0.0,2.0,0.0,0.0,0.0,1.1533537740383515e-10,7.881575761095634e-11,5.3306775265075146e-11,3.6796128453212716e-11,2.498441346343721e-11,1.686082541565592e-11,1.1367822425994747e-11,7.606447972085646e-12,5.079218161018976e-12,3.3073762982724166e-12,2.128835652817652e-12,1.300669375498417e-12,7.782047535781828e-13,4.413552097789691e-13,2.4096194435714787e-13,1.2769195946289236e-13,6.433965620112399e-14,3.4991474876362574e-09,2.5686126956766242e-09,1.7728770794577308e-09,1.1508983351735908e-09,7.674340304299376e-10,5.366392555486774e-10,3.9338180731641996e-10,2.912938490771472e-10,2.1598668802670658e-10,1.5906352789175684e-10,1.1580877964080891e-10,8.37494951865152e-11,5.950094468368582e-11,4.146827896617482e-11,2.8486146163133053e-11,1.9116807811190154e-11,1.2604780841320225e-11,8.18745299374709e-12,5.249379949067337e-12,3.3063785077531734e-12,2.0267060415718144e-12
0.0,27,27.0,0.0,30.0,0.0,0.0,0.0,0.0,-13.0,0.0,2.0,0.0,0.0,0.0,1.1677146204042411e-10,7.975813148618662e-11,5.391678015421207e-11,3.7185551721846225e-11,2.5217699919279284e-11,1.6981681810710723e-11,1.1415018709805605e-11,7.617014944744968e-12,5.079757871037052e-12,3.3109843146354832e-12,2.1376640420886256e-12,1.3119536815269213e-12,7.889176139983666e-13,4.499003313277231e-13,2.4699174825573927e-13,1.3158937626527947e-13,6.667142647162438e-14,3.4741194195921804e-09,2.5524932411916307e-09,1.7657079137346583e-09,1.1509408910402694e-09,7.710349495197578e-10,5.41212146025571e-10,3.976585660251726e-10,2.9484620261586594e-10,2.1876089144476877e-10,1.6113726500381438e-10,1.1731484772672836e-10,8.482207753550183e-11,6.02453292244949e-11,4.197164157288931e-11,2.8812431970198718e-11,1.930901838002418e-11,1.2697963610192188e-11,8.216072245734602e-12,5.2451946795685166e-12,3.2947572626753676e-12,2.0180310523667453e-12
0.0,28,28.0,0.0,30.0,0.0,0.0,0.0,0.0,-13.0,0.0,2.0,0.0,0.0,0.0,1.182333311865471e-10,8.071608892907513e-11,5.453644219704288e-11,3.758271317261305e-11,2.5459652041279658e-11,1.7112295605486647e-11,1.1470737574748969e-11,7.632643183900173e-12,5.081632671457414e-12,3.3135688304092867e-12,2.144730234083792e-12,1.321690065040855e-12,7.985769356049902e-13,4.578181212410603e-13,2.5268378576122804e-13,1.3532255849971183e-13,6.893189785571407e-14,3.449164399981556e-09,2.5366836560248183e-09,1.7589560688294689e-09,1.1513742387503638e-09,7.749237292190803e-10,5.459763399742528e-10,4.0206210022036014e-10,2.984828873294586e-10,2.2159267291117362e-10,1.6325033965120463e-10,1.1884765798548457e-10,8.591284225836006e-11,6.100190985704835e-11,4.248412088286198e-11,2.914772583335046e-11,1.9511892990509252e-11,1.2802750694434126e-11,8.254816500773086e-12,5.247572875159206e-12,3.285834724089106e-12,2.00984822582968e-12
0.0,29,29.0,0.0,30.0,0.0,0.0,0.0,0.0,-13.0,0.0,2.0,0.0,0.0,0.0,1.1972148803464006e-10,8.168993944579695e-11,5.5165756795544917e-11,3.7986954481806866e-11,2.5708964576084688e-11,1.7251313520687542e-11,1.1534252859027037e-11,7.653365700225615e-12,5.085285834550239e-12,3.3155869348848247e-12,2.15033012800382e-12,1.3300257104064362e-12,8.072444045579751e-13,4.651318186598601e-13,2.5804521025488264e-13,1.3889136469820254e-13,7.111926603878824e-14,3.4243248322342184e-09,2.5212198206704176e-09,1.7526461979753321e-09,1.1522113569626515e-09,7.79106132826646e-10,5.509344868071642e-10,4.065940401882341e-10,3.0220501648056536e-10,2.244827343333952e-10,1.6540306889108004e-10,1.204072165639789e-10,8.702163628085742e-11,6.177036896659515e-11,4.300497899250987e-11,2.9490630109388156e-11,1.972357405643705e-11,1.2917465139416396e-11,8.302740357827492e-12,5.256387565986954e-12,3.2798827245366665e-12,2.0024727152294254e-12
0.0,30,30.0,0.0,30.0,0.0,0.0,0.0,0.0,-13.0,0.0,2.0,0.0,0.0,0.0,1.212364460087162e-10,8.267999749020223e-11,5.580480899858146e-11,3.839785822717046e-11,2.5964629088381802e-11,1.7397553714669207e-11,1.1604816531512506e-11,7.679090792590179e-12,5.091048217012124e-12,3.3174399188919344e-12,2.1547442824497382e-12,1.3371066447133934e-12,8.149826549249952e-13,4.71865628916272e-13,2.630840749481277e-13,1.4229647150549467e-13,7.323222006513988e-14,3.39964531042e-09,2.5061388686252584e-09,1.7468034550051841e-09,1.1534653338091765e-09,7.835880069320304e-10,5.560893840495481e-10,4.1125619471458773e-10,3.060138719273055e-10,2.2743192674175847e-10,1.67595908066139e-10,1.2199364724462872e-10,8.81483965728545e-11,6.255050163809488e-11,4.353370232036346e-11,2.984008956967384e-11,1.9942534143752132e-11,1.3040596441347959e-11,8.358872837760289e-12,5.271383865652122e-12,3.277081021244557e-12,1.996163439091526e-12
0.0,31,31.0,0.0,30.0,0.0,0.0,0.0,0.0,-13.0,0.0,2.0,0.0,0.0,0.0,1.227787315528651e-10,8.368657887063691e-11,5.645373657123879e-11,3.881518146221979e-11,2.62258841824036e-11,1.755000617555619e-11,1.1681692726667658e-11,7.7096331428231e-12,5.0991507218777225e-12,3.319473385625204e-12,2.1582355482322918e-12,1.3430766855163487e-12,8.218550941958912e-13,4.780445742801322e-13,2.6780914554314426e-13,1.4553926313981613e-13,7.526988612269096e-14,3.3751726064698987e-09,2.49147913864573e-09,1.741453441295687e-09,1.1551493303733602e-09,7.88375263406091e-10,5.614439663823864e-10,4.160505406992633e-10,3.099108932645643e-10,2.3044123754459027e-10,1.6982943777230553e-10,1.236071843852213e-10,8.929314631317027e-11,6.334219331697727e-11,4.406994445234076e-11,3.0195321384816554e-11,2.0167537450118812e-11,1.317081173846206e-11,8.422255983630396e-12,5.292211495542981e-12,3.2775259070870344e-12,1.9911259700937296e-12
0.0,32,32.0,0.0,30.0,0.0,0.0,0.0,0.0,-13.0,0.0,2.0,0.0,0.0,0.0,1.2434888594052176e-10,8.471000055462404e-11,5.7112706632945275e-11,3.923880467123782e-11,2.6492169374463916e-11,1.770782455023893e-11,1.1764182034720025e-11,7.744741154744268e-12,5.109737484811379e-12,3.321978689407785e-12,2.1610471447034526e-12,1.3480763426295715e-12,8.279256826360096e-13,4.836943833352927e-13,2.722297538809043e-13,1.4862173028534112e-13,7.723177573579133e-14,3.350955651044993e-09,2.4772801218313854e-09,1.7366221503050926e-09,1.1572765444331424e-09,7.934738625787457e-10,5.670012953683909e-10,4.209792125612856e-10,3.138976665734015e-10,2.3351177801009846e-10,1.7210435058739742e-10,1.2524816362470646e-10,9.045599022534542e-11,6.414540512800463e-11,4.461348463380397e-11,3.05557571074951e-11,2.0397600089386393e-11,1.3306956214788402e-11,8.491973430968262e-12,5.318454215383539e-12,3.281239785198349e-12,1.987516337529381e-12
0.0,33,33.0,0.0,30.0,0.0,0.0,0.0,0.0,-13.0,0.0,2.0,0.0,0.0,0.0,1.2594746630062867e-10,8.575058195464698e-11,5.778190158573802e-11,3.9668693551073507e-11,2.676308420541826e-11,1.7870312614229227e-11,1.1851637607407936e-11,7.784120270034415e-12,5.122879151590891e-12,3.32519548878029e-12,2.1634012389541813e-12,1.3522417256257968e-12,8.33258660068147e-13,4.88841402454344e-13,2.7635568708925866e-13,1.5154637920254815e-13,7.911773862863704e-14,3.3270455080320725e-09,2.4635824038624246e-09,1.7323359103711518e-09,1.1598601752423927e-09,7.988897982525209e-10,5.727645504910515e-10,4.260444921263359e-10,3.1797591330405907e-10,2.366447712714314e-10,1.7442143821351496e-10,1.2691701141722085e-10,9.163710876512473e-11,6.496016362365654e-11,4.516419786548908e-11,3.0920995644602976e-11,2.0631951813847672e-11,1.344804595239592e-11,8.567170258248962e-12,5.349655515396088e-12,3.288181367805709e-12,1.9854454249483416e-12
0.0,34,34.0,0.0,30.0,0.0,0.0,0.0,0.0,-13.0,0.0,2.0,0.0,0.0,0.0,1.275750461078852e-10,8.680864664046006e-11,5.846151118433027e-11,4.0104871112778945e-11,2.7038353228007706e-11,1.803690785165127e-11,1.1943474634739135e-11,7.82745226388373e-12,5.1385857405930805e-12,3.329315176913354e-12,2.1654980489343136e-12,1.3557035055442414e-12,8.379182228848591e-13,4.935125160317511e-13,2.8019710605360454e-13,1.5431615149131732e-13,8.092792033651652e-14,3.303495342434937e-09,2.4504276025470474e-09,1.7286213262844328e-09,1.1629133899807177e-09,8.046290850487792e-10,5.787370219515231e-10,4.312487995094509e-10,3.221474797393598e-10,2.398415411029592e-10,1.7678157945061685e-10,1.2861423424223732e-10,9.283675132804984e-11,6.57865529577566e-11,4.572203338600037e-11,3.1290765801093435e-11,2.087000076675017e-11,1.359325587592358e-11,8.647065533821656e-12,5.385340282064083e-12,3.298256139709803e-12,1.9849837006876646e-12
0.0,35,35.0,0.0,30.0,0.0,0.0,0.0,0.0,-13.0,0.0,2.0,0.0,0.0,0.0,1.2923221535832153e-10,8.788452395581176e-11,5.915172850795797e-11,4.054739783552094e-11,2.7317796867096995e-11,1.820716396462207e-11,1.2039174646682797e-11,7.874410719650974e-12,5.15681871115905e-12,3.334484949651527e-12,2.1675154595607775e-12,1.3585859722879493e-12,8.419681605432194e-13,4.977350655306646e-13,2.8376448685273507e-13,1.569343545498698e-13,8.266272449897358e-14,3.2803603812404835e-09,2.4378583006859114e-09,1.7255052200200421e-09,1.1664492923670846e-09,8.106977484426828e-10,5.849221055064353e-10,4.365946853381255e-10,3.264143273826377e-10,2.431035016643596e-10,1.7918572925189667e-10,1.3034040811145495e-10,9.405522884709732e-11,6.66247083214137e-11,4.628699908300046e-11,3.166489685786753e-11,2.111130209120324e-11,1.3741904865372966e-11,8.730958961196348e-12,5.425032430319556e-12,3.3113267372273126e-12,1.9861660740785466e-12
0.0,36,36.0,0.0,30.0,0.0,0.0,0.0,0.0,-13.0,0.0,2.0,0.0,0.0,0.0,1.3091958059868972e-10,8.897855032867506e-11,5.985274829236717e-11,4.099635793238942e-11,2.7601307758087672e-11,1.8380733584686508e-11,1.2138285934670646e-11,7.924673012593603e-12,5.177501976684029e-12,3.3408122840952962e-12,2.169609116143219e-12,1.3610062200214064e-12,8.454714647318221e-13,5.015367606794482e-13,2.8706857904213564e-13,1.5940460239059225e-13,8.432277966116035e-14,3.257697866680068e-09,2.425917974146125e-09,1.7230145709070661e-09,1.1704808938161404e-09,8.171018177178733e-10,5.913232994935882e-10,4.4208482451500656e-10,3.3077852450649657e-10,2.464321483538794e-10,1.8163490899421515e-10,1.3209616879010198e-10,9.529290618824267e-11,6.747481002801442e-11,4.6859150020878576e-11,3.204329570218442e-11,2.1355530684266876e-11,1.3893439602867514e-11,8.818232929563623e-12,5.46826870175785e-12,3.3272229282018995e-12,1.988996719251437e-12
0.0,37,37.0,0.0,30.0,0.0,0.0,0.0,0.0,-13.0,0.0,2.0,0.0,0.0,0.0,1.3263776492373756e-10,9.009107023290192e-11,6.056476659751334e-11,4.145185013574553e-11,2.788883195547295e-11,1.8557352018844908e-11,1.2240421201140526e-11,7.977929209009389e-12,5.200531704663213e-12,3.3483696235321312e-12,2.171912941973556e-12,1.3630734829404122e-12,8.484899262182439e-13,5.049455791036834e-13,2.901203752216112e-13,1.617307661387924e-13,8.590891032940815e-14,3.2355670011839354e-09,2.4146509149602653e-09,1.7211764554449014e-09,1.175021087423943e-09,8.238473219671994e-10,5.979442040824955e-10,4.477220115997368e-10,3.352422389981697e-10,2.49829049856358e-10,1.841301980143638e-10,1.3388220298526245e-10,9.655019470577962e-11,6.83370779725325e-11,4.7438579791467264e-11,3.242592918098167e-11,2.1602458029672195e-11,1.4047418282576576e-11,8.908351133041144e-12,5.5146089682259315e-12,3.3457509305668998e-12,1.993453749674239e-12
0.0,38,38.0,0.0,30.0,0.0,0.0,0.0,0.0,-13.0,0.0,2.0,0.0,0.0,0.0,1.3438740800991667e-10,9.122243684063869e-11,6.128798115679203e-11,4.191398173915816e-11,2.8180354315584187e-11,1.8736822522314728e-11,1.234525335267868e-11,8.03388832030902e-12,5.225784832120611e-12,3.357199093490332e-12,2.174540016094693e-12,1.3648886340819254e-12,8.51083734529592e-13,5.07989653163901e-13,2.929310870884382e-13,1.6391693327550977e-13,8.742211196966382e-14,3.2140288832428548e-09,2.404102149228434e-09,1.720017986939596e-09,1.1800826250033686e-09,8.309402891825045e-10,6.047885227017628e-10,4.53509157796919e-10,3.3980773255150856e-10,2.532958414193293e-10,1.86672726403926e-10,1.3569924062783095e-10,9.782754523814796e-11,6.921176638321565e-11,4.802541379280704e-11,3.2812810540775013e-11,2.185193282566108e-11,1.4203494954678446e-11,9.000854755358606e-12,5.563643462846622e-12,3.36670186852254e-12,1.99949365972268e-12
0.0,39,39.0,0.0,30.0,0.0,0.0,0.0,0.0,-13.0,0.0,2.0,0.0,0.0,0.0,1.361691662204137e-10,9.237301243545009e-11,6.202259200996627e-11,4.2382864923491635e-11,2.847588735239641e-11,1.8919003337433584e-11,1.2452510168105104e-11,8.092282352475212e-12,5.253126293315275e-12,3.3673171052849355e-12,2.1775837421280435e-12,1.3665438510515985e-12,8.533110945391981e-13,5.106971447305249e-13,2.955121240540526e-13,1.659673745038551e-13,8.886352959848387e-14,3.1931464333441745e-09,2.39431734960138e-09,1.7195662551289228e-09,1.185678097347068e-09,8.383867484138893e-10,6.118600655331391e-10,4.594492894699526e-10,3.444773561875919e-10,2.568342193449527e-10,1.8926366901502873e-10,1.3754804828345718e-10,9.912544173718366e-11,7.009915888081702e-11,4.8619803835174155e-11,3.320398901809056e-11,2.210386500834749e-11,1.4361404990915597e-11,9.095357044693831e-12,5.614997397264066e-12,3.3898592299801728e-12,2.0070554755359544e-12
0.0,40,40.0,0.0,30.0,0.0,0.0,0.0,0.0,-13.0,0.0,2.0,0.0,0.0,0.0,1.379837127937475e-10,9.354316865950871e-11,6.276880219345065e-11,4.285861463844088e-11,2.877546291056555e-11,1.9103796558798355e-11,1.2561968405952765e-11,8.152868569626076e-12,5.2824150082166055e-12,3.3787187350835898e-12,2.181119238511908e-12,1.3681224450666638e-12,8.552278721320993e-13,5.130961100628356e-13,2.978750714116908e-13,1.678865170177326e-13,9.023443959142412e-14,3.172984309137042e-09,2.3853427421563707e-09,1.7198482659877678e-09,1.191819917874079e-09,8.461927349343667e-10,6.191627549196276e-10,4.655455480553771e-10,3.492535470360645e-10,2.6044593664882263e-10,1.919042406017887e-10,1.3942942366513972e-10,1.004443956437827e-10,7.099956389837155e-11,4.92219236829793e-11,3.3599541831593814e-11,2.2358212725023593e-11,1.452095194338164e-11,9.191536938642128e-12,5.6683334256271676e-12,3.415005251038089e-12,2.0160645774252463e-12
0.0,41,41.0,0.0,30.0,0.0,0.0,0.0,0.0,-13.0,0.0,2.0,0.0,0.0,0.0,1.3983173811447392e-10,9.473328665870936e-11,6.352681837191895e-11,4.3341347507599336e-11,2.907912607240357e-11,1.929113876441278e-11,1.267344777080123e-11,8.215430354024443e-12,5.31350871669225e-12,3.3913817964058565e-12,2.1852048834814233e-12,1.3696988437320888e-12,8.568872787526838e-13,5.152143579029384e-13,3.000316659199296e-13,1.696789229288152e-13,9.153623432196148e-14,3.1536088090005004e-09,2.377225007540989e-09,1.7208908819505932e-09,1.1985203098103286e-09,8.543642983158893e-10,6.267006325085714e-10,4.718011912256932e-10,3.541388262761363e-10,2.641327998094506e-10,1.9459569200461006e-10,1.4134419117967963e-10,1.0178494105732487e-10,7.191331051836192e-11,4.983196528478819e-11,3.399956799119195e-11,2.2614971812056927e-11,1.4681995910000836e-11,9.289132249593062e-12,5.72335239258696e-12,3.4419262088714227e-12,2.026436171448998e-12
0.0,42,42.0,0.0,30.0,0.0,0.0,0.0,0.0,-13.0,0.0,2.0,0.0,0.0,0.0,1.4171395005723902e-10,9.594375717551851e-11,6.429685136290476e-11,4.38311813790016e-11,2.9386930799234244e-11,1.9480993277970967e-11,1.2786805036355125e-11,8.279777000259576e-12,5.34626776681986e-12,3.4052705509059324e-12,2.1898839535866057e-12,1.3713387135052885e-12,8.583396020754113e-13,5.170793044119175e-13,3.019937674680643e-13,1.7134927164845786e-13,9.277040924258574e-14,3.135087763236114e-09,2.3700111763490424e-09,1.7227207628495157e-09,1.2057912970580763e-09,8.629075133040898e-10,6.344778679371526e-10,4.782195951365957e-10,3.5913579811702003e-10,2.678966665141408e-10,1.97339307274481e-10,1.4329319841644243e-10,1.0314763069641352e-10,7.284074477081982e-11,5.045013553845511e-11,3.440418347675158e-11,2.287416736040718e-11,1.484444340947595e-11,9.387932790314755e-12,5.779792763045714e-12,3.4704166510144116e-12,2.0380783995914936e-12
0.0,43,43.0,0.0,30.0,0.0,0.0,0.0,0.0,-13.0,0.0,2.0,0.0,0.0,0.0,1.4363107439251701e-10,9.71749806252123e-11,6.507911654501896e-11,4.432823525999361e-11,2.969893689206631e-11,1.9673343886783793e-11,1.290192852445941e-11,8.345742733371707e-12,5.3805579785359676e-12,3.4203390256081e-12,2.1951863016059505e-12,1.3730992047791257e-12,8.596319874988983e-13,5.187178287343655e-13,3.037733261852681e-13,1.7290234511390142e-13,9.393855202780113e-14,3.1174904121827743e-09,2.363748518805232e-09,1.7253643079416902e-09,1.2136446989213497e-09,8.718284933676442e-10,6.424987688632275e-10,4.848042575932841e-10,3.6424714968986e-10,2.7173944429713656e-10,2.0013640163045564e-10,1.4527731347519058e-10,1.0453303261339739e-10,7.378222641588438e-11,5.1076653498076925e-11,3.481351745003541e-11,2.3135846995416922e-11,1.500823869547541e-11,9.487773709802312e-12,5.837429082659454e-12,3.500282625371651e-12,2.0508950871791748e-12
0.0,44,44.0,0.0,30.0,0.0,0.0,0.0,0.0,-13.0,0.0,2.0,0.0,0.0,0.0,1.4558385524208926e-10,9.842736717891853e-11,6.587383416072935e-11,4.48326294618071e-11,3.001520793551261e-11,1.9868189823596203e-11,1.3018733061571453e-11,8.413185192926918e-12,5.41625270822491e-12,3.4365339242078735e-12,2.2011300276295708e-12,1.3750293007660113e-12,8.608082727957398e-13,5.20156132858518e-13,3.0538234493022674e-13,1.7434301487597303e-13,9.50423334143429e-14,3.1008872706544257e-09,2.3584844289675136e-09,1.7288475994831593e-09,1.2220921288689757e-09,8.811334067918977e-10,6.507677921471309e-10,4.915588019773541e-10,3.694756517239227e-10,2.756630899627168e-10,2.029883201440665e-10,1.472974230265646e-10,1.0594172760260266e-10,7.473812621385109e-11,5.171174796512223e-11,3.5227709250468835e-11,2.340007554742583e-11,1.5173356395725812e-11,9.588529220113032e-12,5.8960697656706715e-12,3.5313440013054603e-12,2.064788133410132e-12
0.0,45,45.0,0.0,30.0,0.0,0.0,0.0,0.0,-13.0,0.0,2.0,0.0,0.0,0.0,1.4757305557354426e-10,9.970133686730264e-11,6.66812295333911e-11,4.53444858415716e-11,3.0335809959016264e-11,2.0065541820882562e-11,1.3137155475046223e-11,8.481983579904528e-12,5.453234237897055e-12,3.4537971356437825e-12,2.207723105265767e-12,1.3771702507093003e-12,8.619088761519918e-13,5.21419609113734e-13,3.068328375488594e-13,1.7567623021733726e-13,9.608349939711441e-14,3.0853499782326254e-09,2.3542663038071505e-09,1.7331963483952405e-09,1.2311449975313906e-09,8.908284951823546e-10,6.59289555997048e-10,4.984869817878425e-10,3.7482415988668006e-10,2.7966960968809066e-10,2.0589643704848158e-10,1.4935443100127397e-10,1.0737430722957415e-10,7.570882366792476e-11,5.235565542583256e-11,3.564690599186442e-11,2.3666930840103696e-11,1.5339795338892446e-11,9.690106824480785e-12,5.95555445460886e-12,3.5634359885026105e-12,2.0796595566348773e-12
0.0,46,46.0,0.0,30.0,0.0,0.0,0.0,0.0,-13.0,0.0,2.0,0.0,0.0,0.0,1.495994577249521e-10,1.0099731971179441e-10,6.750153322020745e-11,4.5863928073232597e-11,3.066081060938659e-11,2.026541905715111e-11,1.325715064811539e-11,8.552036622227143e-12,5.491394606127797e-12,3.4720678551237148e-12,2.214964932925374e-12,1.3795560681728593e-12,8.629707360583835e-13,5.225327181844728e-13,3.0813678361851384e-13,1.7690700663112005e-13,9.706386446709974e-14,3.0709511351058674e-09,2.351141417694377e-09,1.738435842660986e-09,1.240814520139068e-09,9.009200942404495e-10,6.680688529008395e-10,5.055926856655352e-10,3.802956166780726e-10,2.837610597067859e-10,2.08862155576716e-10,1.5144925781029058e-10,1.0883137240352099e-10,7.66947052111304e-11,5.300861830676519e-11,3.607126062688977e-11,2.393650037062053e-11,1.5507573424503282e-11,9.792442103268672e-12,6.015751147497054e-12,3.5964099682404307e-12,2.0954132106088443e-12
0.0,47,47.0,0.0,30.0,0.0,0.0,0.0,0.0,-13.0,0.0,2.0,0.0,0.0,0.0,1.5166386395291239e-10,1.0231575588554773e-10,6.833498112117199e-11,4.639108190860789e-11,3.0990278678350645e-11,2.0467846831868386e-11,1.3378688121870442e-11,8.623260478653617e-12,5.5306359884450725e-12,3.4912843415061764e-12,2.222847787640083e-12,1.3822140760712388e-12,8.640273000900947e-13,5.235188799742713e-13,3.0930608061760233e-13,1.7804041415142182e-13,9.798530561026427e-14,3.057764123338497e-09,2.349156793001432e-09,1.7445908991806416e-09,1.2511117286175499e-09,9.11414656670257e-10,6.771106631790614e-10,5.128799427871905e-10,3.8589305378244774e-10,2.8793954748167406e-10,2.1188690824133013e-10,1.5358284000661035e-10,1.1031353241530183e-10,7.769616279936843e-11,5.367088352429749e-11,3.6500930382412755e-11,2.420887869796247e-11,1.5676723393744744e-11,9.895494074817749e-12,6.07655324418198e-12,3.630133752659509e-12,2.1119561915539706e-12
0.0,48,48.0,0.0,30.0,0.0,0.0,0.0,0.0,-13.0,0.0,2.0,0.0,0.0,0.0,1.5376709699909504e-10,1.0365709590343462e-10,6.918181456078951e-11,4.692607540935695e-11,3.1324283868972173e-11,2.0672854825601106e-11,1.3501749212285075e-11,8.695586669848468e-12,5.5708707236123965e-12,3.511385340819975e-12,2.231358165661848e-12,1.3851654815085921e-12,8.651085585301391e-13,5.244003790755537e-13,3.1035249458467003e-13,1.7908156518065856e-13,9.884975682189104e-14,3.0458629136745183e-09,2.3483590677318775e-09,1.7516858199029016e-09,1.2620474885543832e-09,9.223187770699471e-10,6.864201690070387e-10,5.203529285346122e-10,3.9161959479563567e-10,2.922072332866139e-10,2.149721574771231e-10,1.5575613030862912e-10,1.1182140436709442e-10,7.871359286704043e-11,5.4342701304778495e-11,3.6936075494873816e-11,2.448416539207871e-11,1.5847289367922826e-11,9.999241120447251e-12,6.137876625141126e-12,3.664491383284977e-12,2.1291999586343235e-12
0.0,49,49.0,0.0,30.0,0.0,0.0,0.0,0.0,-13.0,0.0,2.0,0.0,0.0,0.0,1.5591000067204672e-10,1.0502180083877758e-10,7.004228035565673e-11,4.7469039142912524e-11,3.16628967165013e-11,2.08804758226606e-11,1.3626324598014148e-11,8.768960099651135e-12,5.612021070221211e-12,3.5323112092068e-12,2.2404780000552557e-12,1.3884259652349045e-12,8.662411180317458e-13,5.251982860245713e-13,3.112876103741737e-13,1.8003560159810963e-13,9.96592039275106e-14,3.0353218582385224e-09,2.3487943612953587e-09,1.7597443531315485e-09,1.2736325212459488e-09,9.336392186551267e-10,6.960027687674774e-10,5.280159703620336e-10,3.9747845825886647e-10,2.9656633212610174e-10,2.1811939657778093e-10,1.5797009791493886e-10,1.1335561292582408e-10,7.974739559937327e-11,5.502432425153863e-11,3.737685819319295e-11,2.4762463426998352e-11,1.6019324033953293e-11,1.010367744441077e-11,6.199656843888316e-12,3.699382571855151e-12,2.1470611924477104e-12
0.0,50,50.0,0.0,30.0,0.0,0.0,0.0,0.0,-13.0,0.0,2.0,0.0,0.0,0.0,1.5809344044238476e-10,1.064103425638551e-10,7.091663087746291e-11,4.8020106342661374e-11,3.200618860372422e-11,2.1090744793473282e-11,1.3752412328409895e-11,8.843337208574216e-12,5.654018765912448e-12,3.5540047701266613e-12,2.2501857505751212e-12,1.3920062724598486e-12,8.674483100464837e-13,5.259323949763896e-13,3.121227825954903e-13,1.8090768105644886e-13,1.0041567953935414e-13,3.0262154697880265e-09,2.350508139766933e-09,1.7687896609812752e-09,1.2858774310159087e-09,9.453829416527573e-10,7.058640916088739e-10,5.358735538032496e-10,4.034729609447974e-10,3.0101911593272793e-10,2.2133015086686664e-10,1.602257290499706e-10,1.1491679033959045e-10,8.07979744757968e-11,5.571600663423292e-11,3.782344188940518e-11,2.5043877926008967e-11,1.619288637037883e-11,1.0208810028374567e-11,6.261846487696475e-12,3.734721875876431e-12,2.165462417441078e-12
0.0,51,51.0,0.0,30.0,0.0,0.0,0.0,0.0,-13.0,0.0,2.0,0.0,0.0,0.0,1.6031830405052802e-10,1.0782320401111953e-10,7.180512411793747e-11,4.8579413036518634e-11,3.23542318294379e-11,2.1303698252222183e-11,1.3880016199245281e-11,8.918684284890304e-12,5.696804449919147e-12,3.57641194069838e-12,2.2604573653266514e-12,1.3959127937733863e-12,8.687503285258037e-13,5.266211779391933e-13,3.128690882499711e-13,1.8170296247517788e-13,1.011212580135859e-13,3.0186181885000983e-09,2.3535450821974864e-09,1.7788442940190732e-09,1.2987927379707132e-09,9.575571331941676e-10,7.160100120989535e-10,5.439303285771223e-10,4.0960652135350023e-10,3.0556791599208747e-10,2.246059790526127e-10,1.625240276890551e-10,1.1650557666392946e-10,8.186573604080027e-11,5.6418003875506825e-11,3.827599054592091e-11,2.5328515186995755e-11,1.6368039821751393e-11,1.0314656034156387e-11,6.324412740372729e-12,3.77043768937909e-12,2.1843324147890927e-12
0.0,52,52.0,0.0,30.0,0.0,0.0,0.0,0.0,-13.0,0.0,2.0,0.0,0.0,0.0,1.6258550212688987e-10,1.0926087945232847e-10,7.270802375984203e-11,4.914709814972334e-11,3.2707099702439406e-11,2.1519373821569895e-11,1.4009144444708956e-11,8.994975945779944e-12,5.740326998807027e-12,3.5994821609207175e-12,2.271267117069307e-12,1.4001481269167536e-12,8.701643913968547e-13,5.272817552741893e-13,3.1353728197421343e-13,1.8242659082233833e-13,1.0177805030865217e-13,3.0126041376410273e-09,2.3579489497739077e-09,1.7899301741766487e-09,1.3123889163215264e-09,9.701692385242634e-10,7.264466648764694e-10,5.521911147662722e-10,4.158826633874321e-10,3.102151255538127e-10,2.2794847472447764e-10,1.6486601641993077e-10,1.181226201522762e-10,8.295108986194788e-11,5.71305722100318e-11,3.873466819423191e-11,2.5616481931860806e-11,1.6544850842877076e-11,1.0421240606522768e-11,6.387335164585133e-12,3.806471117024761e-12,2.2036064523346528e-12
0.0,53,53.0,0.0,30.0,0.0,0.0,0.0,0.0,-13.0,0.0,2.0,0.0,0.0,0.0,1.6489596882498695e-10,1.107238747932125e-10,7.362559925626521e-11,4.9723303588036356e-11,3.306486664339674e-11,2.1737809950298617e-11,1.4139808697284759e-11,9.072193791354343e-12,5.7845428155096715e-12,3.623168657566927e-12,2.282588319617813e-12,1.4047116120581362e-12,8.717049204742973e-13,5.279298818029601e-13,3.141377546667266e-13,1.8308368133781536e-13,1.0238819867728231e-13,3.008246869869863e-09,2.3637624598593838e-09,1.8020685870501801e-09,1.3266764383548305e-09,9.832269933317077e-10,7.371804592187862e-10,5.606609090585948e-10,4.223050201842352e-10,3.1496320259549135e-10,2.3135926795723676e-10,1.67252737405371e-10,1.1976857777216306e-10,8.405444863874213e-11,5.785396849159277e-11,3.9199638583937564e-11,2.590788473622143e-11,1.6723387746886703e-11,1.0528595028582786e-11,6.450603709099554e-12,3.842774787704249e-12,2.2232263576882536e-12
0.0,54,54.0,0.0,30.0,0.0,0.0,0.0,0.0,-13.0,0.0,2.0,0.0,0.0,0.0,1.6725066246829272e-10,1.1221270788178764e-10,7.455812591915207e-11,5.030817430710873e-11,3.342760828403301e-11,2.1959045741544467e-11,1.4272023171366566e-11,9.150325227389507e-12,5.829415103108183e-12,3.64742857203454e-12,2.29439393169501e-12,1.4095998350057866e-12,8.733837347622932e-13,5.285799475691219e-13,3.1468049613135293e-13,1.8367930339561105e-13,1.0295387115399517e-13,3.0056191063645335e-09,2.371027167171662e-09,1.8152801847144404e-09,1.3416658240767464e-09,9.967384569927108e-10,7.482180934572973e-10,5.6934489105488e-10,4.28877338094361e-10,3.198146727131326e-10,2.348400269953743e-10,1.696852534184452e-10,1.2144411581525476e-10,8.5176228430351e-11,5.85884501250671e-11,3.967106494381561e-11,2.6202829605058357e-11,1.690371980212174e-11,1.063675518479108e-11,6.514216937533691e-12,3.879311652546683e-12,2.243140459636555e-12
0.0,55,55.0,0.0,30.0,0.0,0.0,0.0,0.0,-13.0,0.0,2.0,0.0,0.0,0.0,1.696505662119036e-10,1.1372790882890721e-10,7.550588501710864e-11,5.090185837300929e-11,3.379540155791949e-11,2.2183120859086244e-11,1.4405804031281825e-11,9.229362447812922e-12,5.874913147328567e-12,3.672222978594122e-12,2.3066570568882792e-12,1.4148070944027837e-12,8.752102524880425e-13,5.292449920756762e-13,3.1517506222259784e-13,1.8421846422925774e-13,1.034772558253833e-13,3.0047924714285566e-09,2.3797833545735793e-09,1.829585000164851e-09,1.3573676964888445e-09,1.0107120465097122e-09,7.595665691875421e-10,5.782484296579854e-10,4.3560348079726435e-10,3.247721321177608e-10,2.3839245999673795e-10,1.7216464892789797e-10,1.2314991057520803e-10,8.631684897457705e-11,5.933427510172848e-11,4.0149109838759985e-11,2.6501421667191615e-11,1.7085916532352172e-11,1.0745760290061024e-11,6.5781804692101675e-12,3.916053802149774e-12,2.2633034216469852e-12
0.0,56,56.0,0.0,30.0,0.0,0.0,0.0,0.0,-13.0,0.0,2.0,0.0,0.0,0.0,1.7209668872022635e-10,1.1527002034004588e-10,7.646916388195433e-11,5.150450701798219e-11,3.4168324780394985e-11,2.2410075487090074e-11,1.4541168909396227e-11,9.309301564925974e-12,5.92101162538605e-12,3.69751681649326e-12,2.3193513491493645e-12,1.4203258303755841e-12,8.771916976599909e-13,5.299367306579447e-13,3.156305468318943e-13,1.8470609275713393e-13,1.0396055489242135e-13,3.0058372257340616e-09,2.3900699361491847e-09,1.8450024744600884e-09,1.373792842376506e-09,1.0251565709169996e-09,7.712332052365265e-10,5.873770895697033e-10,4.4248743355505194e-10,3.2983825072250993e-10,2.4201831681985246e-10,1.7469203121630337e-10,1.2488664907250648e-10,8.747673407467441e-11,6.009170211820465e-11,4.063393510804284e-11,2.680376496693151e-11,1.7270047182895204e-11,1.0855651847487755e-11,6.64250561882491e-12,3.952981328988665e-12,2.283675989597313e-12
0.0,57,57.0,0.0,30.0,0.0,0.0,0.0,0.0,-13.0,0.0,2.0,0.0,0.0,0.0,1.7459006486199962e-10,1.1683959805768465e-10,7.744825602319682e-11,5.2116274694605634e-11,3.454645771718132e-11,2.2639950325054754e-11,1.4678136544845556e-11,9.390141873626738e-12,5.967689953528079e-12,3.723278756374098e-12,2.332451333639879e-12,1.426147013342631e-12,8.793333074328849e-13,5.306655915487609e-13,3.1605555891537114e-13,1.8514702374420334e-13,1.0440597855150339e-13,3.0088220018737934e-09,2.4019243754118343e-09,1.8615514975666207e-09,1.390952278406406e-09,1.0400812659188812e-09,7.832256513656792e-10,5.967366379307425e-10,4.495333076065267e-10,3.350157753085432e-10,2.4571939084385526e-10,1.772685315180663e-10,1.266550298098757e-10,8.865631203454637e-11,6.086099076147306e-11,4.112570187175309e-11,2.7109962335384016e-11,1.745618032193303e-11,1.0966472801304963e-11,6.7072082194163905e-12,3.9900812534214e-12,2.3042246739477785e-12
0.0,58,58.0,0.0,30.0,0.0,0.0,0.0,0.0,-13.0,0.0,2.0,0.0,0.0,0.0,1.7713175642400636e-10,1.184372109139299e-10,7.844346124946191e-11,5.273731913069361e-11,3.4929881642468576e-11,2.287278660468506e-11,1.4816726518016925e-11,9.471885235196563e-12,6.014931681321431e-12,3.749481018560668e-12,2.3459326527480085e-12,1.4322604927330617e-12,8.816385370658326e-13,5.314407621416359e-13,3.1645820463662387e-13,1.8554598252746578e-13,1.0481573873528937e-13,3.0138135464242833e-09,2.4153826216291158e-09,1.879250463801391e-09,1.4088573222385332e-09,1.055495828524315e-09,7.955519017050185e-10,6.063330511469195e-10,4.5674534470705067e-10,3.403075327610923e-10,2.4949752081403995e-10,1.7989530616805752e-10,1.2845576354564036e-10,8.98560161264276e-11,6.16424017444443e-11,4.1624570593519876e-11,2.7420115327042802e-11,1.7644383551877912e-11,1.1078266855729277e-11,6.772307612107066e-12,4.0273465254551014e-12,2.3249213845131277e-12
0.0,59,59.0,0.0,30.0,0.0,0.0,0.0,0.0,-13.0,0.0,2.0,0.0,0.0,0.0,1.7972285284486904e-10,1.2006344149320451e-10,7.945508579590993e-11,5.3367801386605015e-11,3.5318679387885437e-11,2.310862611926525e-11,1.4956959060053518e-11,9.554535566251695e-12,6.062723937289615e-12,3.7760991580360685e-12,2.359772246858773e-12,1.438655306224191e-12,8.841092597615022e-13,5.322702429509924e-13,3.168460745846699e-13,1.8590757051423072e-13,1.0519204276430939e-13,3.020876473249775e-09,2.4304790673419203e-09,1.898117342627392e-09,1.4275196682627414e-09,1.0714104514451644e-09,8.08220307931343e-10,6.161725219506912e-10,4.64127921821453e-10,3.457164333693888e-10,2.533545927092038e-10,1.8257353775474827e-10,1.3028957407555927e-10,9.107628507832822e-11,6.24361971787949e-11,4.2130701188803036e-11,2.773432420970645e-11,1.783472331014614e-11,1.1191077934112285e-11,6.83782578594148e-12,4.064775109364911e-12,2.345743033833427e-12
0.0,60,60.0,0.0,30.0,0.0,0.0,0.0,0.0,-13.0,0.0,2.0,0.0,0.0,0.0,1.823644719747622e-10,1.217188864040726e-10,8.048344245649549e-11,5.400788591615565e-11,3.571293538405015e-11,2.334751125900763e-11,1.509885492032627e-11,9.638098419034574e-12,6.111056927818541e-12,3.803111828420229e-12,2.373948479002462e-12,1.4453199507966427e-12,8.867459591525029e-13,5.331609077983082e-13,3.1722623593092133e-13,1.8623625163920465e-13,1.0553708696754207e-13,3.0300730332880795e-09,2.447246530191811e-09,1.918169765377396e-09,1.446951467472664e-09,1.0878358570354176e-09,8.212395922214302e-10,6.262614667515764e-10,4.716855559779089e-10,3.512454741860033e-10,2.57292541629776e-10,1.8530443627420918e-10,1.3215719901621174e-10,9.231756357127301e-11,6.324264087377485e-11,4.2644253169193694e-11,2.8052687997646613e-11,1.8027264742399907e-11,1.1304949756262887e-11,6.903786651597731e-12,4.10236915427105e-12,2.3666711229714622e-12
0.0,61,61.0,0.0,30.0,0.0,0.0,0.0,0.0,-13.0,0.0,2.0,0.0,0.0,0.0,1.8505776084077941e-10,1.2340415666478875e-10,8.152885072145292e-11,5.4657740631309196e-11,3.611273569625105e-11,2.3589485048192217e-11,1.5242435278176207e-11,9.722580640005737e-12,6.159923489208552e-12,3.830500534922097e-12,2.3884412120120173e-12,1.452242617415576e-12,8.895479126958595e-13,5.341185688134177e-13,3.176052292958806e-13,1.8653633994153254e-13,1.05853050333232e-13,3.0414629065365876e-09,2.4657162621385877e-09,1.939425128261605e-09,1.4671654108937536e-09,1.1047833305663833e-09,8.346188600294579e-10,6.366065333315733e-10,4.794229092906905e-10,3.568977424425413e-10,2.613133537079201e-10,1.8808924028338336e-10,1.3405939058515775e-10,9.358030273873979e-11,6.4061998651624e-11,4.316538581426637e-11,2.8375304519449427e-11,1.8222071634279644e-11,1.1419925514876239e-11,6.970215433585513e-12,4.140134250711257e-12,2.3876913214161946e-12
0.0,62,62.0,0.0,30.0,0.0,0.0,0.0,0.0,-13.0,0.0,2.0,0.0,0.0,0.0,1.8780389646176382e-10,1.2511987809395324e-10,8.259163691710635e-11,5.5317536971885865e-11,3.651816805608365e-11,2.3834591181128182e-11,1.538772168759956e-11,9.807990095077423e-12,6.209318691246539e-12,3.858249384369515e-12,2.4032318459162028e-12,1.4594113915875713e-12,8.925133645666817e-13,5.35148044923845e-13,3.1798907005656854e-13,1.8681198838765986e-13,1.0614208825377467e-13,3.0551030223761877e-09,2.4859179890370265e-09,1.9619007117564155e-09,1.4881748158914975e-09,1.1222647526590578e-09,8.483676127559411e-10,6.472146089424337e-10,4.873447941594098e-10,3.626764190197981e-10,2.654190680425401e-10,1.9092921805257886e-10,1.3599691637470987e-10,9.486496066269912e-11,6.489453867198941e-11,4.369425836361464e-11,2.8702270513183036e-11,1.841920639006898e-11,1.153604763470104e-11,7.037138166598905e-12,4.178078770985284e-12,2.4087930507073857e-12
0.0,63,63.0,0.0,30.0,0.0,0.0,0.0,0.0,-13.0,0.0,2.0,0.0,0.0,0.0,1.9060408667316014e-10,1.2686669171478595e-10,8.367213434967432e-11,5.598744997955924e-11,3.6929321890142464e-11,2.4082874055603327e-11,1.553473604636223e-11,9.894335450668095e-12,6.259239489621436e-12,3.886344838457825e-12,2.418303322861293e-12,1.4668144222414587e-12,8.956396871462206e-13,5.362532326042477e-13,3.183832537390685e-13,1.8706717904391208e-13,1.0640632642551818e-13,3.0710474147092264e-09,2.507879983336255e-09,1.9856138161744996e-09,1.50999371460354e-09,1.1402926307301163e-09,8.624957603930823e-10,6.580928288603798e-10,4.954561786513995e-10,3.6858478197141245e-10,2.6961177866358305e-10,1.9382566871835769e-10,1.3797056011748452e-10,9.617200286231488e-11,6.574053175931219e-11,4.423103022273017e-11,2.9033681742571656e-11,1.8618730048691437e-11,1.165335760044352e-11,7.104581282871374e-12,4.216213289435076e-12,2.429969079451702e-12
