Line_number,Fiducial,Easting,Northing,Height,Elevation,tx_pitch,tx_roll,tx_yaw,txrx_dx,txrx_dy,txrx_dz,rx_pitch,rx_roll,rx_yaw,S0Z_time_1.431e-04,S0Z_time_1.801e-04,S0Z_time_2.266e-04,S0Z_time_2.846e-04,S0Z_time_3.581e-04,S0Z_time_4.506e-04,S0Z_time_5.671e-04,S0Z_time_7.136e-04,S0Z_time_8.981e-04,S0Z_time_1.131e-03,S0Z_time_1.423e-03,S0Z_time_1.791e-03,S0Z_time_2.255e-03,S0Z_time_2.838e-03,S0Z_time_3.573e-03,S0Z_time_4.498e-03,S0Z_time_5.662e-03,S1Z_time_1.409e-05,S1Z_time_1.610e-05,S1Z_time_1.909e-05,S1Z_time_2.360e-05,S1Z_time_2.960e-05,S1Z_time_3.709e-05,S1Z_time_4.609e-05,S1Z_time_5.759e-05,S1Z_time_7.209e-05,S1Z_time_9.060e-05,S1Z_time_1.141e-04,S1Z_time_1.431e-04,S1Z_time_1.801e-04,S1Z_time_2.266e-04,S1Z_time_2.846e-04,S1Z_time_3.581e-04,S1Z_time_4.506e-04,S1Z_time_5.671e-04,S1Z_time_7.136e-04,S1Z_time_8.981e-04,S1Z_time_1.131e-03
0.0,0,0.0,0.0,30.0,0.0,0.0,0.0,0.0,-13.0,0.0,2.0,0.0,0.0,0.0,1.1025387499879524e-10,5.793808205622009e-11,3.1395740317144995e-11,1.7516903239765985e-11,9.921966877908707e-12,5.6862955796892885e-12,3.309785681497147e-12,1.92171181242597e-12,1.1169713591867719e-12,6.436624975694317e-13,3.7554836418629716e-13,2.1654962864802239e-13,1.2377863600187388e-13,7.059559811438321e-14,3.8665338596679906e-14,2.1520609392829567e-14,1.1344988296853307e-14,7.121953828386016e-09,5.66605685268528e-09,4.2440204761785414e-09,2.9407062767428298e-09,1.977817174150397e-09,1.294847390129138e-09,8.457068946724596e-10,5.330224666934331e-10,3.2722616170411844e-10,1.9578042567834128e-10,1.1505433052701421e-10,6.771210114753267e-11,3.953766903751176e-11,2.3001121386716144e-11,1.3464561335461476e-11,7.803201784861163e-12,4.507177379554605e-12,2.5586729734598007e-12,1.4352838898045362e-12,7.951289593014744e-13,4.3730855545541326e-13
0.0,1,1.0,0.0,30.0,0.0,0.0,0.0,0.0,-13.0,0.0,2.0,0.0,0.0,0.0,1.0880449815588588e-10,5.667433509535382e-11,3.048050596786802e-11,1.691823818308054e-11,9.55595056567556e-12,5.471504125344305e-12,3.1871812814063096e-12,1.8530322710786573e-12,1.0793521814025495e-12,6.232021529403764e-13,3.6459404954579603e-13,2.1073650691629572e-13,1.207237528753676e-13,6.902203157222895e-14,3.785389437015127e-14,2.11186794914852e-14,1.1142606507118606e-14,7.127529985669892e-09,5.6737889558162135e-09,4.253996709752237e-09,2.951873890617931e-09,1.9879469236531202e-09,1.3022703887614796e-09,8.500568389324298e-10,5.346450543993255e-10,3.2698903966290445e-10,1.9457658078165404e-10,1.1357784788927023e-10,6.636819250488572e-11,3.848922832773018e-11,2.226546324241931e-11,1.2982738768855724e-11,7.507103534576502e-12,4.333749897317058e-12,2.4607579686460228e-12,1.3814597538326225e-12,7.667636484500991e-13,4.231369970221101e-13
0.0,2,2.0,0.0,30.0,0.0,0.0,0.0,0.0,-13.0,0.0,2.0,0.0,0.0,0.0,1.0750334464771586e-10,5.5520579401828616e-11,2.963417389822426e-11,1.6359155521620995e-11,9.21158556042849e-12,5.2682747634786e-12,3.0706361712005116e-12,1.7875069739973725e-12,1.043324732132327e-12,6.035432019183982e-13,3.540355445569821e-13,2.051146331343549e-13,1.177620196671478e-13,6.749136772991381e-14,3.706306924801928e-14,2.0725722000857587e-14,1.0944451521052549e-14,7.133094559819514e-09,5.681305123437526e-09,4.263422747584829e-09,2.9621507454421107e-09,1.9971038476323817e-09,1.3089269850063811e-09,8.539701841048346e-10,5.361407366926444e-10,3.2682313638234223e-10,1.9352625062581644e-10,1.1225740302610322e-10,6.514775885229294e-11,3.7525519887551314e-11,2.1582431909653352e-11,1.2531931891875307e-11,7.22835243368595e-12,4.16967423271395e-12,2.367802931781931e-12,1.3301801434620787e-12,7.396713973031078e-13,4.0951671125663654e-13
0.0,3,3.0,0.0,30.0,0.0,0.0,0.0,0.0,-13.0,0.0,2.0,0.0,0.0,0.0,1.0632625612884052e-10,5.4463579702469205e-11,2.8850153245590932e-11,1.583646049064656e-11,8.887317560870007e-12,5.07583515604175e-12,2.959774301698078e-12,1.724951166283283e-12,1.0088020148532734e-12,5.846456929502218e-13,3.438541350497124e-13,1.9967607274932326e-13,1.1488972373103087e-13,6.600214185007655e-14,3.6292189772673466e-14,2.0341487648069825e-14,1.075041398765434e-14,7.138740068419052e-09,5.688736310708946e-09,4.272469540230324e-09,2.971721696661732e-09,2.005434820848852e-09,1.3148943689823307e-09,8.574607012041632e-10,5.374826849738817e-10,3.266878968931556e-10,1.925928495662767e-10,1.1106709164696943e-10,6.403494126925061e-11,3.663771063660971e-11,2.094740906445988e-11,1.2109748155850168e-11,6.965716633471245e-12,4.01433223685824e-12,2.279488519633391e-12,1.2812990306117854e-12,7.137785687304856e-13,3.964194673417995e-13
0.0,4,4.0,0.0,30.0,0.0,0.0,0.0,0.0,-13.0,0.0,2.0,0.0,0.0,0.0,1.0525230851895237e-10,5.3491432244294294e-11,2.8122400206449286e-11,1.534720907478215e-11,8.581716836376668e-12,4.8934773837327674e-12,2.8542501328538505e-12,1.66519435448595e-12,9.75703549510771e-13,5.66472305763618e-13,3.3403231981512173e-13,1.9441333067933394e-13,1.1210335185767329e-13,6.455295753455394e-14,3.5540611059424005e-14,1.996573675395585e-14,1.0560388003769044e-14,7.1445381081500605e-09,5.696182386151352e-09,4.281268392100803e-09,2.980733036084743e-09,2.013062198959549e-09,1.320243125330655e-09,8.605477060344968e-10,5.386543848019175e-10,3.2655219093566857e-10,1.9174612703253214e-10,1.0998448049705085e-10,6.301555148170375e-11,3.581773855325883e-11,2.0356141974734005e-11,1.1713982101122677e-11,6.718066410865128e-12,3.8671572059674795e-12,2.195522180221636e-12,1.234680796765243e-12,6.890166828818919e-13,3.838195850779218e-13
0.0,5,5.0,0.0,30.0,0.0,0.0,0.0,0.0,-13.0,0.0,2.0,0.0,0.0,0.0,1.0426347390807226e-10,5.25934789973037e-11,2.7445383092833805e-11,1.488868422730551e-11,8.293463800096568e-12,4.72055016496275e-12,2.7537451209130113e-12,1.6080788501831731e-12,9.439546969573423e-13,5.489881208842187e-13,3.2455370934789276e-13,1.8931931690864058e-13,1.093995768550974e-13,6.314248189291706e-14,3.480771544998807e-14,1.959823865529109e-14,1.0374271014850435e-14,7.150545799275161e-09,5.7037209179301106e-09,4.289920996989777e-09,2.989300651315651e-09,2.020087266567572e-09,1.325036276374601e-09,8.63253108250721e-10,5.396467117985454e-10,3.263923842939429e-10,1.9096122744197576e-10,1.089902549928144e-10,6.207696181339897e-11,3.5058269267883704e-11,1.9804714855887514e-11,1.134259589937177e-11,6.484361572030593e-12,3.727627612186549e-12,2.1156352202614306e-12,1.1901991522777283e-12,6.653221971927275e-13,3.716933938604361e-13
0.0,6,6.0,0.0,30.0,0.0,0.0,0.0,0.0,-13.0,0.0,2.0,0.0,0.0,0.0,1.0334428648494406e-10,5.176021584910682e-11,2.6814050083608577e-11,1.4458376761003954e-11,8.021337319390786e-12,4.55645232472499e-12,2.657964731118404e-12,1.553458494579431e-12,9.134860702635232e-13,5.321604156372107e-13,3.154029335934905e-13,1.843873160887528e-13,1.0677524516129953e-13,6.176944121831042e-14,3.409291120700676e-14,1.9238771179389774e-14,1.0191963710483662e-14,7.156810062600238e-09,5.711413203223172e-09,4.298506679828368e-09,2.9975164147059034e-09,2.0265934931786017e-09,1.3293291966827546e-09,8.655995141719163e-10,5.40455740617351e-10,3.261907443909094e-10,1.9021783601696372e-10,1.0806786567065685e-10,6.120798499085564e-11,3.43526521601121e-11,1.928952506184751e-11,1.099370381553407e-11,6.263641181371101e-12,3.5952618579144985e-12,2.0395802319374485e-12,1.1477362523052065e-12,6.426362230079725e-13,3.6001886983100113e-13
0.0,7,7.0,0.0,30.0,0.0,0.0,0.0,0.0,-13.0,0.0,2.0,0.0,0.0,0.0,1.0248152532216336e-10,5.098319775516394e-11,2.6223798231583846e-11,1.4053969458918462e-11,7.76420515347043e-12,4.400627307486474e-12,2.566635885336026e-12,1.5011975375697688e-12,8.842330212674814e-13,5.159584826012388e-13,3.0656555803731484e-13,1.79610960472898e-13,1.0422736539336601e-13,6.043261710758648e-14,3.339563125201131e-14,1.8887120165537213e-14,1.0013369917679156e-14,7.163370517454791e-09,5.719308469475532e-09,4.3070876625785236e-09,3.005453148555529e-09,2.0326494178016272e-09,1.3331699910268035e-09,8.676090477814257e-10,5.410811257431409e-10,3.259341476378035e-10,1.8949942632549475e-10,1.0720318903096631e-10,6.039874915191948e-11,3.369487541631678e-11,1.8807262234846635e-11,1.0665559516682748e-11,6.055015156612006e-12,3.469613872017595e-12,1.967128835941791e-12,1.1071819577399313e-12,6.209042009466191e-13,3.4877538733668223e-13
0.0,8,8.0,0.0,30.0,0.0,0.0,0.0,0.0,-13.0,0.0,2.0,0.0,0.0,0.0,1.0166392165437481e-10,5.0254943795607766e-11,2.567044311224926e-11,1.3673323379964217e-11,7.521016029577086e-12,4.2525585572867756e-12,2.47950477220009e-12,1.4511696497244155e-12,8.561351918254997e-13,5.003534673093857e-13,2.9802800752209014e-13,1.74984205644543e-13,1.0175309774707973e-13,5.913084296930762e-14,3.271533195032009e-14,1.854307902757568e-14,9.838396494256743e-15,7.170261480103615e-09,5.727446842510429e-09,4.315712925749743e-09,3.0131684756524385e-09,2.038311119124717e-09,1.3366000937556522e-09,8.693026532588719e-10,5.415249179603175e-10,3.2561304552397306e-10,1.887926115914825e-10,1.0638421240094991e-10,5.964057282455115e-11,3.307952035178425e-11,1.835488924399984e-11,1.035654542392813e-11,5.857657343612098e-12,3.3502694002678188e-12,1.8980697039622957e-12,1.0684332030826923e-12,6.000755573923207e-13,3.3794354542607123e-13
0.0,9,9.0,0.0,30.0,0.0,0.0,0.0,0.0,-13.0,0.0,2.0,0.0,0.0,0.0,1.0088189437005405e-10,4.956884462022288e-11,2.515018898299607e-11,1.3314465662619934e-11,7.290792972462765e-12,4.111765613739479e-12,2.3963349611937645e-12,1.4032570494513793e-12,8.291361204769878e-13,4.853182225923392e-13,2.897774972001694e-13,1.705013086121831e-13,9.934974417215256e-14,5.78630008688012e-14,3.205149194537985e-14,1.820644835265176e-14,9.66695322366647e-15,7.177513361288606e-09,5.735861468573385e-09,4.324421063974557e-09,3.0207078081613818e-09,2.043624290572354e-09,1.3396549498773762e-09,8.706997155282273e-10,5.417907076639143e-10,3.2522064556314143e-10,1.88086593996552e-10,1.056007478440809e-10,5.892584360640442e-11,3.2501715673987395e-11,1.7929624237033415e-11,1.006516352084155e-11,5.670799752607684e-12,3.2368428682088417e-12,1.8322068281219627e-12,1.0313934441620081e-12,5.801033605928345e-13,3.2750504404979305e-13
0.0,10,10.0,0.0,30.0,0.0,0.0,0.0,0.0,-13.0,0.0,2.0,0.0,0.0,0.0,1.0012731471353607e-10,4.8919074142830723e-11,2.4659599572109347e-11,1.2975578371713158e-11,7.0726275887705936e-12,3.977800795556582e-12,2.316905772582299e-12,1.357349730490822e-12,8.031828965091965e-13,4.70827177412796e-13,2.8180197003894914e-13,1.661568079315e-13,9.70147392578229e-14,5.662801866589229e-14,3.1403611044681653e-14,1.7877035531882175e-14,9.498952712241333e-15,7.1851536533648786e-09,5.744580046280312e-09,4.333242414534374e-09,3.0281066739183062e-09,2.048625964445841e-09,1.3423647000554291e-09,8.718178873463974e-10,5.418830107983209e-10,3.2475226695748626e-10,1.8737270233136873e-10,1.0484417688644635e-10,5.82479031774071e-11,3.195709244915298e-11,1.752892345618685e-11,9.790027202501732e-12,5.4937276989643094e-12,3.1289747152136937e-12,1.7693580080828272e-12,9.959721669704206e-13,5.609439897296302e-13,3.1744259303885554e-13
0.0,11,11.0,0.0,30.0,0.0,0.0,0.0,0.0,-13.0,0.0,2.0,0.0,0.0,0.0,9.939329943240045e-11,4.830050673826134e-11,2.4195569719478093e-11,1.2654988104432691e-11,6.865675079279888e-12,3.8502463638525215e-12,2.2410108632505235e-12,1.3133447771371611e-12,7.782258546029661e-13,4.568562183901434e-13,2.7409004030827375e-13,1.6194550558498032e-13,9.474564177386242e-14,5.5424867407334134e-14,3.077120915823164e-14,1.7554654419193733e-14,9.334310289143666e-15,7.193207631115289e-09,5.7536259405012465e-09,4.3422006554407395e-09,3.035392533722518e-09,2.0533459358954726e-09,1.344754828653152e-09,8.72673047675893e-10,5.418068335451464e-10,3.2420483635675504e-10,1.8664400694929826e-10,1.0410722568295924e-10,5.760094030323415e-11,3.1441740466200214e-11,1.715046467213177e-11,9.529853878793284e-12,5.3257756450293605e-12,3.0263291154256445e-12,1.7093535291664473e-12,9.620844449027523e-13,5.425568254501023e-13,3.07739842384191e-13
0.0,12,12.0,0.0,30.0,0.0,0.0,0.0,0.0,-13.0,0.0,2.0,0.0,0.0,0.0,9.867403055940996e-11,4.7708640673248555e-11,2.3755298106767e-11,1.2351156187971033e-11,6.669149809262666e-12,3.728712075877755e-12,2.1684569949556593e-12,1.2711457563382354e-12,7.542183043079721e-13,4.433825824958325e-13,2.6663094249657276e-13,1.5786245040089434e-13,9.254012681803579e-14,5.4252558940945017e-14,3.01538252896656e-14,1.723912501567654e-14,9.172943909437172e-15,7.201698848691835e-09,5.763018995603543e-09,4.351314012863406e-09,3.0425862070718747e-09,2.0578079355750166e-09,1.3468467556216695e-09,8.732793409614848e-10,5.415673679237385e-10,3.2357649488071485e-10,1.858950009943526e-10,1.0338376893986426e-10,5.6979892704547425e-11,3.0952166554908876e-11,1.6792131205972354e-11,9.283458140877631e-12,5.166323584894662e-12,2.9285920155809413e-12,1.6520350072503336e-12,9.296505358356107e-13,5.249039664226187e-13,2.983813260405199e-13
0.0,13,13.0,0.0,30.0,0.0,0.0,0.0,0.0,-13.0,0.0,2.0,0.0,0.0,0.0,9.796459947415474e-11,4.71395280903221e-11,2.3336261284698965e-11,1.2062669376803484e-11,6.482321312074774e-12,3.6128330559360438e-12,2.0990629567812915e-12,1.2306621772378816e-12,7.311162895134985e-13,4.3038475962626974e-13,2.594144851281597e-13,1.5390292283378866e-13,9.039597852759323e-14,5.3110143723721246e-14,2.955101657946777e-14,1.6930273176729413e-14,9.014774060163833e-15,7.210649488468921e-09,5.772776129390833e-09,4.360596178218678e-09,3.0497029958507546e-09,2.062030594505576e-09,1.3486583654490028e-09,8.736492638753052e-10,5.4116978278005e-10,3.228662929291797e-10,1.8512133764831792e-10,1.0266866020091993e-10,5.638035808006809e-11,3.0485255259483395e-11,1.645199656824586e-11,9.049745367599446e-12,5.014793850998847e-12,2.8354694319183326e-12,1.5972543785028964e-12,8.985955132247297e-13,5.07949973563532e-13,2.8935241406016336e-13
0.0,14,14.0,0.0,30.0,0.0,0.0,0.0,0.0,-13.0,0.0,2.0,0.0,0.0,0.0,9.726087268031284e-11,4.658971155808274e-11,2.2936189154951538e-11,1.1788231004266307e-11,6.304510635498227e-12,3.5022679240917143e-12,2.0326586179729827e-12,1.1918090099010993e-12,7.088783738567944e-13,4.1784240394815037e-13,2.5243100898559215e-13,1.500624209577439e-13,8.831108331581611e-14,5.199670880060134e-14,2.896235739892743e-14,1.662793033987178e-14,8.85972366946453e-15,7.22008060018818e-09,5.782911764864318e-09,4.37005700757686e-09,3.056753574193422e-09,2.0660282383893927e-09,1.3502044732686844e-09,8.737937775722422e-10,5.406190839299853e-10,3.2207395394579336e-10,1.84319614255508e-10,1.0195758579930848e-10,5.5798514157533264e-11,3.003823212153467e-11,1.6128309766585797e-11,8.827705695354283e-12,4.870648251264317e-12,2.746685958804471e-12,1.5448730142802405e-12,8.688489271524016e-13,4.91661641632153e-13,2.80639269675768e-13
0.0,15,15.0,0.0,30.0,0.0,0.0,0.0,0.0,-13.0,0.0,2.0,0.0,0.0,0.0,9.655937673738251e-11,4.605616698772088e-11,2.2553042009312038e-11,1.1526652569846416e-11,6.1350869661239386e-12,3.396697134972405e-12,1.969084091059323e-12,1.1545062559578372e-12,6.874654486491765e-13,4.0573625306301694e-13,2.456713492783963e-13,1.4633664754718564e-13,8.628342359806313e-14,5.091137593388421e-14,2.8387438493409736e-14,1.633193327148681e-14,8.707718018669107e-15,7.230012257213278e-09,5.793438140462751e-09,4.379703056505559e-09,3.0637446966254065e-09,2.06981154250573e-09,1.3514972318156598e-09,8.737224312378789e-10,5.399200241590575e-10,3.211996921751796e-10,1.83487195395313e-10,1.0124693973097979e-10,5.523104737257321e-11,2.960862970064069e-11,1.5819481335340973e-11,8.616408305967468e-12,4.733385468770068e-12,2.6619834505435626e-12,1.494760943712776e-12,8.403444923251699e-13,4.76007796670351e-13,2.7222880921514034e-13
0.0,16,16.0,0.0,30.0,0.0,0.0,0.0,0.0,-13.0,0.0,2.0,0.0,0.0,0.0,9.585719991460856e-11,4.553625257632642e-11,2.2184989177475225e-11,1.1276845757247379e-11,5.973464486006625e-12,3.295821488691322e-12,1.908188988331826e-12,1.1186785647673132e-12,6.668405604304996e-13,3.940480541679319e-13,2.3912680133861323e-13,1.4272149813736738e-13,8.431107197369351e-14,4.9853299866783036e-14,2.7825866172789483e-14,1.604212383052117e-14,8.558684657240963e-15,7.240463648911101e-09,5.8043655280883745e-09,4.389537989533854e-09,3.0706797643999802e-09,2.073388072858882e-09,1.352546484580421e-09,8.734434879099411e-10,5.390770489231371e-10,3.202440726084351e-10,1.8262206814923715e-10,1.0053371681548308e-10,5.467508960872328e-11,2.9194256359956645e-11,1.5524070130796747e-11,8.414996006848613e-12,4.602538673895516e-12,2.5811198452724044e-12,1.4467961686156662e-12,8.130198006701873e-13,4.609591171088662e-13,2.641086635996144e-13
0.0,17,17.0,0.0,30.0,0.0,0.0,0.0,0.0,-13.0,0.0,2.0,0.0,0.0,0.0,9.51519083314472e-11,4.502766335503671e-11,2.183038929111161e-11,1.1037814883670828e-11,5.819099429427349e-12,3.199360783860828e-12,1.8498317574749143e-12,1.0842548894709658e-12,6.469687556952337e-13,3.8276049649412797e-13,2.3278908946387065e-13,1.3921304997100156e-13,8.239218583219876e-14,4.8821666706881127e-14,2.7277261547294615e-14,1.575834874804756e-14,8.412553320637641e-15,7.251453122830972e-09,5.815702380310226e-09,4.399562893405049e-09,3.0775592807296473e-09,2.076762734572464e-09,1.3533600710715069e-09,8.729640470286281e-10,5.380942673923941e-10,3.192079038429199e-10,1.8172272388423785e-10,9.981542170730765e-11,5.412816234349112e-11,2.879316776822886e-11,1.5240770921091877e-11,8.222680089462509e-12,4.477673312378736e-12,2.5038681060156e-12,1.4008640573534388e-12,7.868160565450304e-13,4.4648797607525355e-13,2.562671407612932e-13
0.0,18,18.0,0.0,30.0,0.0,0.0,0.0,0.0,-13.0,0.0,2.0,0.0,0.0,0.0,9.444147457504783e-11,4.452839087938655e-11,2.1487772136873193e-11,1.0808649781230098e-11,5.6714873171825355e-12,3.1070525890828667e-12,1.7938790844519294e-12,1.0511681779832711e-12,6.278169406908858e-13,3.7185714939479915e-13,2.2665033856736893e-13,1.3580755174915502e-13,8.052500235335673e-14,4.781569241746837e-14,2.6741259806204314e-14,1.5480459420891653e-14,8.269255850897117e-15,7.262998186645431e-09,5.827455422556965e-09,4.409776516022943e-09,3.084381218621841e-09,2.0799381446173686e-09,1.3539440900457557e-09,8.722901604787827e-10,5.369754412774827e-10,3.1809215659126215e-10,1.8078806182088976e-10,9.908999155822306e-11,5.3588127512421947e-11,2.8403641015132033e-11,1.4968402784265955e-11,8.038735458599367e-12,4.35838504277669e-12,2.430015259044668e-12,1.3568568061125767e-12,7.616778328080097e-13,4.325683024123981e-13,2.486931886843997e-13
0.0,19,19.0,0.0,30.0,0.0,0.0,0.0,0.0,-13.0,0.0,2.0,0.0,0.0,0.0,9.372421701711427e-11,4.403668758804526e-11,2.1155822044603627e-11,1.0588519109241676e-11,5.53016035240391e-12,3.0186511144170675e-12,1.7402053537248085e-12,1.0193550945777424e-12,6.093537544853826e-13,3.6132240552821943e-13,2.207030483316135e-13,1.3250141411332203e-13,7.87078338725371e-14,4.683462140635096e-14,2.62175095376042e-14,1.520831171842773e-14,8.128726119994238e-15,7.275115477209392e-09,5.839629702137134e-09,4.420175447690342e-09,3.091141319710935e-09,2.0829149427455447e-09,1.3543031261977618e-09,8.714269404052582e-10,5.35723985933827e-10,3.168979021581312e-10,1.7981731046882148e-10,9.835573038004183e-11,5.305314440745029e-11,2.802415120037599e-11,1.470589831321288e-11,7.862496027865958e-12,4.2442978041111134e-12,2.359361513807514e-12,1.3146729577091864e-12,7.375528461192573e-13,4.191754580241822e-13,2.4137635901577455e-13
0.0,20,20.0,0.0,30.0,0.0,0.0,0.0,0.0,-13.0,0.0,2.0,0.0,0.0,0.0,9.299874827577181e-11,4.355103536503495e-11,2.0833362738321274e-11,1.037666409278407e-11,5.394684966315512e-12,2.933926168353424e-12,1.6886921575515776e-12,9.887557682716643e-13,5.915494537471613e-13,3.51141428646002e-13,2.1494006959639684e-13,1.2929120079463727e-13,7.69390635841402e-14,4.587772520348106e-14,2.5705672086664472e-14,1.4941765801053402e-14,7.9908999558378e-15,7.287820702244498e-09,5.8522286030689105e-09,4.430754257331902e-09,3.0978333384171475e-09,2.0856920518771304e-09,1.3544404452868707e-09,8.703786580689775e-10,5.343429797513805e-10,3.1562626644619185e-10,1.7880996370031265e-10,9.76112533997822e-11,5.2521631954136255e-11,2.765335033488192e-11,1.4452293613751514e-11,7.693350377617804e-12,4.13506199973444e-12,2.2917194520035635e-12,1.274216969526925e-12,7.14391749952831e-13,4.0628612936896803e-13,2.3430677130162984e-13
0.0,21,21.0,0.0,30.0,0.0,0.0,0.0,0.0,-13.0,0.0,2.0,0.0,0.0,0.0,9.226393147500568e-11,4.307011786227924e-11,2.0519343565273487e-11,1.0172392679267114e-11,5.264659505191407e-12,2.8526621889642714e-12,1.6392278475114108e-12,9.593135646986682e-13,5.743758078879299e-13,3.4130010554948857e-13,2.093545827432453e-13,1.261736203724651e-13,7.521714155690593e-14,4.4944301219376334e-14,2.5205420950629634e-14,1.4680685949766366e-14,7.855715071025723e-15,7.3011285588294896e-09,5.86525383363076e-09,4.44150559349717e-09,3.1044492426493068e-09,2.0882668970582998e-09,1.3543581621204574e-09,8.691488336389258e-10,5.328351789473768e-10,3.1427839602506115e-10,1.7776572880856536e-10,9.68554399257017e-11,5.1992235754956724e-11,2.7290048381066358e-11,1.4206719071891268e-11,7.53073767110974e-12,4.030352787121175e-12,2.226913276013e-12,1.2353988234905354e-12,6.921479438751212e-13,3.938782311495083e-13,2.274750779789693e-13
0.0,22,22.0,0.0,30.0,0.0,0.0,0.0,0.0,-13.0,0.0,2.0,0.0,0.0,0.0,9.151884314110447e-11,4.259279616876377e-11,2.021282701130652e-11,9.975074101339733e-12,5.1397120515598386e-12,2.774657340341693e-12,1.5917071225755494e-12,9.309748785885076e-13,5.578060033947134e-13,3.317850018253337e-13,2.0394007786599928e-13,1.231455185904921e-13,7.35405810371518e-14,4.4033671577806444e-14,2.4716441208160934e-14,1.442494040542717e-14,7.723110994160076e-15,7.3150526319212885e-09,5.878705392031254e-09,4.45242025777649e-09,3.1109793798702688e-09,2.090635590382239e-09,1.3540573852604122e-09,8.677403172025678e-10,5.312030356946677e-10,3.1285543355711507e-10,1.7668448437472839e-10,9.608739344804665e-11,5.1463799335798866e-11,2.693319625614052e-11,1.3968390858704706e-11,7.374143823571795e-12,3.929868465846243e-12,2.1647781089679296e-12,1.1981336721054e-12,6.707773977251276e-13,3.8193082048928223e-13,2.208724302461505e-13
0.0,23,23.0,0.0,30.0,0.0,0.0,0.0,0.0,-13.0,0.0,2.0,0.0,0.0,0.0,9.076274174132534e-11,4.2118087445943285e-11,1.9912977407804803e-11,9.784133831557384e-12,5.019498373741779e-12,2.6997226672899764e-12,1.546030649021911e-12,9.036889443566651e-13,5.418145563268798e-13,3.225833210103309e-13,1.986903365425417e-13,1.2020387118437858e-13,7.190795501678011e-14,4.314518201660918e-14,2.4238428981221723e-14,1.4174401217218095e-14,7.593029003741963e-15,7.329605275440999e-09,5.892581514483773e-09,4.463487256635918e-09,3.117412615488889e-09,2.0927930878713455e-09,1.3535383418045819e-09,8.661553615043229e-10,5.294487181162143e-10,3.1135850046690823e-10,1.7556624616156e-10,9.530640788117062e-11,5.093533908564903e-11,2.6581870624925883e-11,1.3736603135794153e-11,7.223097917625418e-12,3.83332895770925e-12,2.1051593403706066e-12,1.1623415155558384e-12,6.502384894153005e-13,3.704240201147649e-13,2.1449044492848875e-13
0.0,24,24.0,0.0,30.0,0.0,0.0,0.0,0.0,-13.0,0.0,2.0,0.0,0.0,0.0,8.999504101515117e-11,4.164514618375185e-11,1.9619050735491587e-11,9.599048911922233e-12,4.903699998389669e-12,2.6276813026638894e-12,1.5021047082946995e-12,8.774076626414631e-13,5.263772320833341e-13,3.1368286687244756e-13,1.9359941504417383e-13,1.173457771786758e-13,7.031789304483646e-14,4.2278200851378466e-14,2.377109092753878e-14,1.3928944099374608e-14,7.465412064644148e-15,7.3447974779603406e-09,5.906878609148008e-09,4.474693836444681e-09,3.12373644910061e-09,2.094733323191743e-09,1.3528004851286104e-09,8.643956870427478e-10,5.27574131114741e-10,3.0978868520429413e-10,1.7441113957522513e-10,9.451193901384026e-11,5.040602243197106e-11,2.6235260315273327e-11,1.3510720920817086e-11,7.077168857157199e-12,3.7404743740995644e-12,2.047912012426427e-12,1.1279469056900842e-12,6.304918551543433e-13,3.593389492779315e-13,2.083211724156842e-13
0.0,25,25.0,0.0,30.0,0.0,0.0,0.0,0.0,-13.0,0.0,2.0,0.0,0.0,0.0,8.921528737441576e-11,4.1173247765921405e-11,1.933038543264593e-11,9.419343639743798e-12,4.792022400963607e-12,2.5583677228142803e-12,1.4598408695738136e-12,8.520854409186698e-13,5.11470971655173e-13,3.0507200852498006e-13,1.8866162883897385e-13,1.1456845261584658e-13,6.876907826302219e-14,4.1432117997417506e-14,2.331414376176746e-14,1.3688448295550207e-14,7.340204767031813e-15,7.3606387146672915e-09,5.921591178787341e-09,4.486025505527901e-09,3.1299371129731917e-09,2.0964493221606694e-09,1.3518425880610716e-09,8.624625402089901e-10,5.255809373271891e-10,3.081470358127457e-10,1.732193775018283e-10,9.370358037368283e-11,4.9875148844579675e-11,2.5892654198245887e-11,1.3290173570661316e-11,6.935962250646437e-12,3.651063666407159e-12,1.9929002432197494e-12,1.0948786733996692e-12,6.115002509806064e-13,3.486576613360279e-13,2.0235706571342854e-13
0.0,26,26.0,0.0,30.0,0.0,0.0,0.0,0.0,-13.0,0.0,2.0,0.0,0.0,0.0,8.842314075697276e-11,4.070177406622113e-11,1.9046394119079768e-11,9.244585590160342e-12,4.68419330918447e-12,2.4916270474141157e-12,1.4191556843642384e-12,8.276790465811548e-13,4.970738236765709e-13,2.9673964811975733e-13,1.8387153826154565e-13,1.1186922468273533e-13,6.726024464641147e-14,4.060634404541852e-14,2.2867313803716054e-14,1.3452796450211615e-14,7.217353267739289e-15,7.377136787040268e-09,5.9367117345342525e-09,4.497466046352769e-09,3.1359996562896376e-09,2.0979333012704616e-09,1.3506628236045058e-09,8.603567451568715e-10,5.234705777277193e-10,3.064345557970028e-10,1.7199124254210494e-10,9.288104283148464e-11,4.934213330783046e-11,2.555343038582066e-11,1.3074448839214448e-11,6.799117514006394e-12,3.5648733557299943e-12,1.939996683604335e-12,1.0630696764913528e-12,5.93228424585173e-13,3.3836308707766906e-13,1.965909506156504e-13
0.0,27,27.0,0.0,30.0,0.0,0.0,0.0,0.0,-13.0,0.0,2.0,0.0,0.0,0.0,8.761835841145901e-11,4.0230200827995636e-11,1.8766556152019146e-11,9.074381955097446e-12,4.5799611145099415e-12,2.427314380534343e-12,1.3799704008566964e-12,8.041474710917639e-13,4.831648816698505e-13,2.8867519088913056e-13,1.792239352373274e-13,1.0924552620437427e-13,6.579017443317443e-14,3.980030938740563e-14,2.2430336551892588e-14,1.3221874486483217e-14,7.096805234011148e-15,7.394297651491971e-09,5.952230702814156e-09,4.508997520393439e-09,3.1419080179623037e-09,2.0991767528568796e-09,1.3492588350039399e-09,8.580787500752379e-10,5.21244291573013e-10,3.046522025051256e-10,1.707270728449014e-10,9.204413737358139e-11,4.880649194396773e-11,2.5217046610176082e-11,1.286308746704588e-11,6.666305182331186e-12,3.481696338379697e-12,1.889082005233859e-12,1.0324565656263944e-12,5.756429964893892e-13,3.2843898302324065e-13,1.910159969779315e-13
0.0,28,28.0,0.0,30.0,0.0,0.0,0.0,0.0,-13.0,0.0,2.0,0.0,0.0,0.0,8.680078116990739e-11,3.975808660773597e-11,1.8490410935412872e-11,8.908376178268971e-12,4.479093386659282e-12,2.3652941902995067e-12,1.3422106961728473e-12,7.814518040081227e-13,4.697242259540476e-13,2.8086851732958685e-13,1.747138309615532e-13,1.0669489047622724e-13,6.435769572695574e-14,3.901346338897879e-14,2.2002956280852256e-14,1.2995571490029971e-14,6.978509789529062e-15,7.412125238136842e-09,5.968136327220951e-09,4.520600267777805e-09,3.1476450902776914e-09,2.100170519056708e-09,1.3476277966980335e-09,8.556286684974549e-10,5.18903135506411e-10,3.028008874129322e-10,1.6942725088479866e-10,9.119276055804573e-11,4.826782950946807e-11,2.4883031660070116e-11,1.265567826142068e-11,6.537224419485135e-12,3.401340763845647e-12,1.8400444175892465e-12,1.0029795663065448e-12,5.587123497244805e-13,3.1886988404690835e-13,1.8562569105235778e-13
0.0,29,29.0,0.0,30.0,0.0,0.0,0.0,0.0,-13.0,0.0,2.0,0.0,0.0,0.0,8.597032183236847e-11,3.928506308913135e-11,1.8217551909878073e-11,8.746244866048195e-12,4.381375486183935e-12,2.3054397247814686e-12,1.305806424900028e-12,7.595551158441123e-13,4.567328697500112e-13,2.733099573390794e-13,1.7033644444454141e-13,1.0421494641017571e-13,6.296168025866121e-14,3.824527360530182e-14,2.1584925660917522e-14,1.2773779598418731e-14,6.862417462708035e-15,7.430621260780532e-09,5.9844145669468295e-09,4.532252903467977e-09,3.1531927751869317e-09,2.1009048563080545e-09,1.3457664674611784e-09,8.530063162386761e-10,5.164480017253288e-10,3.0088147783430015e-10,1.680921946474366e-10,9.032688224463225e-11,4.772582852102209e-11,2.4550977761077702e-11,1.2451853626691997e-11,6.411600714253536e-12,3.3236289819401005e-12,1.7927792121655405e-12,9.745822752082409e-13,5.424065272448923e-13,3.096410597780622e-13,1.8041380883971583e-13
0.0,30,30.0,0.0,30.0,0.0,0.0,0.0,0.0,-13.0,0.0,2.0,0.0,0.0,0.0,8.51269553448665e-11,3.881082659725187e-11,1.794762115622076e-11,8.587694954489187e-12,4.286609270071522e-12,2.2476324620479256e-12,1.270691382560141e-12,7.384223488730473e-13,4.441727090714944e-13,2.659902661390203e-13,1.6608719184516837e-13,1.018034139706391e-13,6.160104129381082e-14,3.7495225037300675e-14,2.1176005398858257e-14,1.2556393895760642e-14,6.748480137147782e-15,7.449785019209393e-09,6.001048993223115e-09,4.5439323114427814e-09,3.158532034699796e-09,2.101369491829526e-09,1.3436712368528248e-09,8.502112445034842e-10,5.138796351784498e-10,2.9889479968691557e-10,1.6672235078270318e-10,8.944653525143834e-11,4.718023979879399e-11,2.4220533797229435e-11,1.2251285507110432e-11,6.289183751717377e-12,3.248396555910768e-12,1.7471883322300679e-12,9.472114694463219e-13,5.266971363826955e-13,3.0073847431554926e-13,1.7537439041504415e-13
0.0,31,31.0,0.0,30.0,0.0,0.0,0.0,0.0,-13.0,0.0,2.0,0.0,0.0,0.0,8.427071050051624e-11,3.8335130663196076e-11,1.768030455110429e-11,8.432461113471763e-12,4.1946118853985985e-12,2.1917615924713353e-12,1.2368030828453369e-12,7.180202150974609e-13,4.3202647603886566e-13,2.589006018271538e-13,1.6196167652199587e-13,9.945809987990408e-14,6.02747316742179e-14,3.6762819425855165e-14,2.07759638981495e-14,1.2343312312042457e-14,6.6366510041557115e-15,7.469613194870814e-09,6.0180206851213366e-09,4.555613638118542e-09,3.163642936548888e-09,2.1015536732569927e-09,1.3413381659285283e-09,8.472427696581252e-10,5.111986498022497e-10,2.968416410263964e-10,1.6531818936496634e-10,8.855180664452865e-11,4.6630874241861716e-11,2.389139928172543e-11,1.2053681706305065e-11,6.169745448645965e-12,3.1754913383235288e-12,1.7031799667366424e-12,9.208169275595795e-13,5.115572597135351e-13,2.9214874887085334e-13,1.7050171519835372e-13
0.0,32,32.0,0.0,30.0,0.0,0.0,0.0,0.0,-13.0,0.0,2.0,0.0,0.0,0.0,8.340166293463687e-11,3.785777950792962e-11,1.7415327418869302e-11,8.280303369769148e-12,4.1052146460966085e-12,2.137723531551314e-12,1.2040825476126587e-12,6.983171007146465e-13,4.2027769529720795e-13,2.5203250442341327e-13,1.5795567973995523e-13,9.717689357303718e-14,5.898174198289306e-14,3.604757458144422e-14,2.038457693774345e-14,1.213443552703871e-14,6.526884517315789e-15,7.490099641068702e-09,6.035308125979204e-09,4.567270286050273e-09,3.1685046960531662e-09,2.101446212408072e-09,1.3387630230314691e-09,8.441000001147138e-10,5.084055438354311e-10,2.947227561268874e-10,1.638801999641177e-10,8.764283041184068e-11,4.607759567476682e-11,2.356331899384222e-11,1.1858782550019014e-11,6.053078141937629e-12,3.104772606560003e-12,1.660668167115409e-12,8.953512611975263e-13,4.969613717809874e-13,2.8385912700987336e-13,1.6579027815951584e-13
0.0,33,33.0,0.0,30.0,0.0,0.0,0.0,0.0,-13.0,0.0,2.0,0.0,0.0,0.0,8.251992921942826e-11,3.7378622330290566e-11,1.7152450628645904e-11,8.131004931765639e-12,4.018261987984897e-12,2.085421461617389e-12,1.1724741087538799e-12,6.792829764945317e-13,4.089106432555338e-13,2.4537787628291987e-13,1.5406515197652694e-13,9.495776338509041e-14,5.772109882242753e-14,3.534902374694455e-14,2.000162736810887e-14,1.1929666878414635e-14,6.4191363490516924e-15,7.511235168852649e-09,6.052887101651751e-09,4.578873908789743e-09,3.1730957149128774e-09,2.1010355239755664e-09,1.3359413153697613e-09,8.407818607304779e-10,5.055007142685903e-10,2.925388699374946e-10,1.624088887842114e-10,8.671978131074844e-11,4.552031462504598e-11,2.323607820781149e-11,1.1666357861061503e-11,5.938992919481769e-12,3.0361102548102146e-12,1.6195724857612067e-12,8.707697566342435e-13,4.828852611734144e-13,2.758574422142633e-13,1.6123476697194287e-13
0.0,34,34.0,0.0,30.0,0.0,0.0,0.0,0.0,-13.0,0.0,2.0,0.0,0.0,0.0,8.162566189314805e-11,3.689754829846585e-11,1.689146709072206e-11,7.98437019954215e-12,3.933610497339761e-12,2.03476490087428e-12,1.1419252211591442e-12,6.608893135593623e-13,3.9791030989754373e-13,2.389289637636084e-13,1.5028620477739578e-13,9.279875295413232e-14,5.6491863197797645e-14,3.466671499139384e-14,1.9626904823454854e-14,1.1728912273872131e-14,6.3133633490171936e-15,7.533007329844682e-09,6.0707306017336196e-09,4.590394407632401e-09,3.1773936175051277e-09,2.100309659815064e-09,1.332868316990529e-09,8.372871150841694e-10,5.024844704975926e-10,2.902906827840374e-10,1.6090477666987963e-10,8.578286971081234e-11,4.495898290993251e-11,2.2909498447357747e-11,1.1476204217784356e-11,5.827318083236533e-12,2.9693840394910115e-12,1.579817635124825e-12,8.470302253516115e-13,4.693059575061405e-13,2.68132087527079e-13,1.5683004015898131e-13
0.0,35,35.0,0.0,30.0,0.0,0.0,0.0,0.0,-13.0,0.0,2.0,0.0,0.0,0.0,8.071904528356301e-11,3.641448215678887e-11,1.663219861059445e-11,7.840222945070858e-12,3.851128008412238e-12,1.9856692983269028e-12,1.1123862860788217e-12,6.431090041212849e-13,3.8726236294334923e-13,2.3267834004537674e-13,1.4661510311625683e-13,9.069797782512562e-14,5.529312899555298e-14,3.400021063316349e-14,1.9260205449165746e-14,1.1532080106886142e-14,6.209523504316666e-15,7.555400197322692e-09,6.08880872485089e-09,4.601799930855197e-09,3.1813752851119014e-09,2.0992563393825323e-09,1.3295390936838195e-09,8.336143859544917e-10,4.993570472549671e-10,2.879788752168458e-10,1.5936839781630579e-10,8.483233728039072e-11,4.439358892634862e-11,2.2583433706775e-11,1.1288142469681347e-11,5.717897734787991e-12,2.904482875087897e-12,1.5413331663687052e-12,8.24092863038664e-13,4.56201662909802e-13,2.606719870796962e-13,1.525711063051704e-13
0.0,36,36.0,0.0,30.0,0.0,0.0,0.0,0.0,-13.0,0.0,2.0,0.0,0.0,0.0,7.980029200645495e-11,3.5929380370753217e-11,1.6374493063251444e-11,7.698404648277933e-12,3.7706927654687455e-12,1.9380556531932034e-12,1.0838104842547276e-12,6.259162867840603e-13,3.769531141646406e-13,2.266188890085141e-13,1.4304825821856716e-13,8.865362224137736e-14,5.4124021551927267e-14,3.3349086690365624e-14,1.890133164353361e-14,1.1339081176117864e-14,6.107575901555563e-15,7.578394146960223e-09,6.107088589075947e-09,4.613056875928894e-09,3.1850168883975587e-09,2.0978629767909334e-09,1.3259485252848309e-09,8.297621742911764e-10,4.961186168953469e-10,2.856041129300121e-10,1.578002990479043e-10,8.386845338872534e-11,4.382415355211044e-11,2.2257767085861056e-11,1.1102015485901271e-11,5.610590474160176e-12,2.8413041774896363e-12,1.5040531666074985e-12,8.019201164262888e-13,4.435516876622597e-13,2.5346656932388747e-13,1.4845310443436603e-13
0.0,37,37.0,0.0,30.0,0.0,0.0,0.0,0.0,-13.0,0.0,2.0,0.0,0.0,0.0,7.886964003775795e-11,3.544222774274673e-11,1.6118221854003936e-11,7.558772975752861e-12,3.692192645105743e-12,1.8918501574671027e-12,1.056153618250204e-12,6.092866760650234e-13,3.669694876801257e-13,2.207437900877675e-13,1.395822208123499e-13,8.666393611038464e-14,5.298369630292171e-14,3.271293235706262e-14,1.8550091812840112e-14,1.1149828608048276e-14,6.007480690494909e-15,7.601965638702654e-09,6.125534248470676e-09,4.624129895076669e-09,3.188293918355472e-09,2.0961167048865436e-09,1.3220913257904661e-09,8.257288769390785e-10,4.927693011101835e-10,2.831670516964638e-10,1.5620103955484086e-10,8.289151211445328e-11,4.3250726578310386e-11,2.19324077918606e-11,1.0917686114538526e-11,5.5052682031719826e-12,2.779753251981218e-12,1.4679159737870371e-12,7.804765574491678e-13,4.3133638964810454e-13,2.4650574182204994e-13,1.4447128568355154e-13
0.0,38,38.0,0.0,30.0,0.0,0.0,0.0,0.0,-13.0,0.0,2.0,0.0,0.0,0.0,7.792735027293446e-11,3.495303443944583e-11,1.586327763561142e-11,7.421200389853581e-12,3.61552443478483e-12,1.846983860358352e-12,1.02937396345555e-12,5.931968958288434e-13,3.5729899007468687e-13,2.1504650402584556e-13,1.3621367477329706e-13,8.472723213307294e-14,5.187133751042887e-14,3.209134950359501e-14,1.8206300139054313e-14,1.0964237782923238e-14,5.909199049457117e-15,7.626087001338628e-09,6.144106616710814e-09,4.634981904444353e-09,3.191181215861911e-09,2.094004396693185e-09,1.3179620616630114e-09,8.215128033479009e-10,4.893091821439927e-10,2.8066834227815143e-10,1.5457119099641741e-10,8.1901829767891e-11,4.26733836031982e-11,2.1607288466760738e-11,1.0735035332533162e-11,5.401815025170012e-12,2.7197427231490693e-12,1.43286390830679e-12,7.597287642767866e-13,4.195371173529977e-13,2.3977986746022523e-13,1.4062099642097723e-13
0.0,39,39.0,0.0,30.0,0.0,0.0,0.0,0.0,-13.0,0.0,2.0,0.0,0.0,0.0,7.69737044999539e-11,3.4461833379139877e-11,1.5609572254565926e-11,7.285572876908896e-12,3.5405931637275855e-12,1.8033923533818613e-12,1.0034321272867835e-12,5.776248163604743e-13,3.479296822032926e-13,2.0952075945756191e-13,1.3293943113387416e-13,8.284188308523845e-14,5.078615705861806e-14,3.148395219974533e-14,1.786977635927497e-14,1.0782226263540667e-14,5.812693152220676e-15,7.650726221396973e-09,6.162763398682786e-09,4.645574097044043e-09,3.1936529999068514e-09,2.09151268453344e-09,1.3135551686590554e-09,8.171121914757477e-10,4.857383135803529e-10,2.7810863528205205e-10,1.5291133789658516e-10,8.089974284826232e-11,4.2092223326933745e-11,2.1282362802918785e-11,1.0553960567809782e-11,5.3001262334946325e-12,2.661192004065271e-12,1.398843020510822e-12,7.396452088003081e-13,4.0813615613856454e-13,2.3327974197011694e-13,1.3689766298189078e-13
0.0,40,40.0,0.0,30.0,0.0,0.0,0.0,0.0,-13.0,0.0,2.0,0.0,0.0,0.0,7.600900372302373e-11,3.396867793367136e-11,1.535703490221065e-11,7.151788784112895e-12,3.4673114825164034e-12,1.76101547492364e-12,9.782909161270987e-13,5.625493948319872e-13,3.388501525564037e-13,2.0416054026322238e-13,1.2975642242966406e-13,8.100631924145096e-14,4.9727393315410043e-14,3.0890366259277557e-14,1.7540345556324708e-14,1.0603713726982855e-14,5.7179261365763596e-15,7.67584673806015e-09,6.181459030871981e-09,4.655865959531258e-09,3.1956828945154765e-09,2.0886279771080936e-09,1.3088649674934483e-09,8.125252230723316e-10,4.820567307609316e-10,2.7548858594162906e-10,1.5122207827032582e-10,7.988560636870113e-11,4.150736519435969e-11,2.095760341414904e-11,1.0374374176995275e-11,5.200107381561022e-12,2.604026802228828e-12,1.365802853217793e-12,7.201961502011977e-13,3.971166775642993e-13,2.2699657265886001e-13,1.3329677819764592e-13
0.0,41,41.0,0.0,30.0,0.0,0.0,0.0,0.0,-13.0,0.0,2.0,0.0,0.0,0.0,7.503356678335843e-11,3.347363990525732e-11,1.5105610448912152e-11,7.019757755552942e-12,3.395599087945561e-12,1.7197970331610806e-12,9.539152095945007e-13,5.479506189424629e-13,3.300494920732035e-13,1.989600736334745e-13,1.2666169735827344e-13,7.921902593255074e-14,4.8694310054423153e-14,3.031022880453408e-14,1.721783795971286e-14,1.0428621899076791e-14,5.6248620742783004e-15,7.701407245831717e-09,6.200144631275379e-09,4.665815292775128e-09,3.1972439543291958e-09,2.085336474797317e-09,1.3038856786257098e-09,8.077500385078445e-10,4.782644608954109e-10,2.7280885881006595e-10,1.4950402443063227e-10,7.885979249177989e-11,4.0918947339709066e-11,2.0632999933066336e-11,1.019620206359377e-11,5.1016734279336465e-12,2.5481786598528126e-12,1.3336962184846494e-12,7.013535342567327e-13,3.864626915470124e-13,2.2092195825419435e-13,1.2981388990846916e-13
0.0,42,42.0,0.0,30.0,0.0,0.0,0.0,0.0,-13.0,0.0,2.0,0.0,0.0,0.0,7.404772923103694e-11,3.2976807743335354e-11,1.485525794178396e-11,6.889399758608783e-12,3.3253821898740517e-12,1.6796845462636835e-12,9.30271841741577e-13,5.33809453531924e-13,3.2151727030382265e-13,1.939138187954463e-13,1.236524157280583e-13,7.747854122786397e-14,4.768619543304089e-14,2.974318785012044e-14,1.690208875644757e-14,1.0256874491426443e-14,5.533465942562642e-15,7.7273615067221e-09,6.218767959470139e-09,4.675378236082088e-09,3.1983086887812466e-09,2.0816241834376023e-09,1.2986114364378893e-09,8.027847512953196e-10,4.743615329146699e-10,2.700701323568781e-10,1.4775780393494753e-10,7.782268942664767e-11,4.032712479302577e-11,2.030855730875234e-11,1.0019382422935864e-11,5.0047479502655675e-12,2.4935845262127495e-12,1.302478987832307e-12,6.830908980667099e-13,3.7615900117072614e-13,2.1504786978282232e-13,1.2644459164129633e-13
0.0,43,43.0,0.0,30.0,0.0,0.0,0.0,0.0,-13.0,0.0,2.0,0.0,0.0,0.0,7.305184240853887e-11,3.247828497081202e-11,1.460594924851654e-11,6.760644192704532e-12,3.256593017027037e-12,1.6406289988492523e-12,9.07329488817569e-13,5.20107789986712e-13,3.132435128288034e-13,1.8901645635296668e-13,1.2072584367662625e-13,7.578345373448121e-14,4.670236102262646e-14,2.9188901904349696e-14,1.6592937911031172e-14,1.0088397140875163e-14,5.4437035969508465e-15,7.753658173721226e-09,6.2372733873511885e-09,4.684509294835236e-09,3.1988490847786696e-09,2.0774769268267035e-09,1.2930363030584463e-09,7.976274624378907e-10,4.703479871139531e-10,2.672731034633138e-10,1.4598406063730615e-10,7.677470054590507e-11,3.973206791312878e-11,1.998429428172222e-11,9.84386460151999e-12,4.9092624224278696e-12,2.440186359882039e-12,1.2721098951911484e-12,6.653832799025919e-13,3.6619115997247784e-13,2.093666324102448e-13,1.2318451562707294e-13
0.0,44,44.0,0.0,30.0,0.0,0.0,0.0,0.0,-13.0,0.0,2.0,0.0,0.0,0.0,7.204627271211389e-11,3.197818879281097e-11,1.4357667831708226e-11,6.633429073078222e-12,3.1891693588831623e-12,1.602584613718591e-12,8.85058563245287e-13,5.068283982713248e-13,3.052186798535881e-13,1.8426287819879279e-13,1.1787934914036585e-13,7.413240050652681e-14,4.5742140887330527e-14,2.8647039587542504e-14,1.6290229994182547e-14,9.923117351444569e-15,5.3555417456173e-15,7.780240627302797e-09,6.255601880913993e-09,4.693161371216038e-09,3.198836627790248e-09,2.0728803582133084e-09,1.2871542820747198e-09,7.922762747172397e-10,4.662238846272746e-10,2.644184918149798e-10,1.4418345581857809e-10,7.571624368633052e-11,3.913396101636453e-11,1.966024201572891e-11,9.669608059555862e-12,4.815155549595648e-12,2.3879307588067084e-12,1.2425503518566951e-12,6.482071339090786e-13,3.565454315550358e-13,2.038709081740269e-13,1.2002932831166742e-13
0.0,45,45.0,0.0,30.0,0.0,0.0,0.0,0.0,-13.0,0.0,2.0,0.0,0.0,0.0,7.103140100279778e-11,3.147664886326362e-11,1.4110407639872608e-11,6.507700283004814e-12,3.123054140944894e-12,1.5655086379260058e-12,8.634311134890479e-13,4.939548814356954e-13,2.9743364590217674e-13,1.7964817795942628e-13,1.1511039755827414e-13,7.25240650574474e-14,4.4804890708048794e-14,2.81172792661598e-14,1.599381401964949e-14,9.760964438411218e-15,5.2689479248724106e-15,7.807046826648439e-09,6.273690993301967e-09,4.701285797582408e-09,3.198242321238707e-09,2.0678199710382565e-09,1.2809593323666564e-09,7.867293070256443e-10,4.6198931676920127e-10,2.615070441922222e-10,1.4235666937209711e-10,7.464775060254546e-11,3.853300117420789e-11,1.933644286825326e-11,9.496581426611218e-12,4.722372656467583e-12,2.336768616280287e-12,1.2137642727749632e-12,6.315402493950772e-13,3.472087513765824e-13,1.9855367954811961e-13,1.1697472849065776e-13
0.0,46,46.0,0.0,30.0,0.0,0.0,0.0,0.0,-13.0,0.0,2.0,0.0,0.0,0.0,7.000762214860474e-11,3.0973806180908365e-11,1.3864172103815345e-11,6.3834108893283025e-12,3.0581950306114753e-12,1.5293611421950005e-12,8.424207295568623e-13,4.814716324725203e-13,2.8987968053177356e-13,1.7516764193550322e-13,1.1241654779576012e-13,7.09571754696701e-14,4.3889986948437393e-14,2.7599308701948974e-14,1.5703543288934697e-14,9.601869474641873e-15,5.183890476164807e-15,7.834009177188746e-09,6.291474869163312e-09,4.708832371989984e-09,3.197036704105481e-09,2.062281109208774e-09,1.2744453822858514e-09,7.809847088310952e-10,4.5764441427508156e-10,2.585395386604735e-10,1.4050440102604288e-10,7.356966654699074e-11,3.7929397156073756e-11,1.9012949283521878e-11,9.324761641230495e-12,4.630865124178223e-12,2.28665480100647e-12,1.1857179135057885e-12,6.153616744750408e-13,3.3816869059626745e-13,1.9340823378550545e-13,1.1401644815596162e-13
0.0,47,47.0,0.0,30.0,0.0,0.0,0.0,0.0,-13.0,0.0,2.0,0.0,0.0,0.0,6.897534462753102e-11,3.046981214870974e-11,1.3618973219519093e-11,6.260520508980542e-12,2.9945440732249974e-12,1.4941048336008613e-12,8.220024534747679e-13,4.693637932899873e-13,2.8254843007210707e-13,1.7081674052113583e-13,1.0979544826407743e-13,6.943050259325094e-14,4.2996826061630677e-14,2.7092824715424775e-14,1.541927524284955e-14,9.445765238900084e-15,5.1003385242293995e-15,7.861054415924988e-09,6.308884260167081e-09,4.715749395263228e-09,3.19518986667859e-09,2.056248977206095e-09,1.2676063443962987e-09,7.750406748528802e-10,4.531893564663017e-10,2.5551678866380484e-10,1.3862737158709933e-10,7.248244995308359e-11,3.73233684966006e-11,1.8689822793736336e-11,9.15413316630467e-12,4.5405898718226265e-12,2.2375478595316126e-12,1.15837971724893e-12,5.996516438269053e-13,3.2941342185141825e-13,1.884281479850299e-13,1.1115025610564248e-13
0.0,48,48.0,0.0,30.0,0.0,0.0,0.0,0.0,-13.0,0.0,2.0,0.0,0.0,0.0,6.793499028068854e-11,2.9964827666419754e-11,1.337483072389415e-11,6.138994736213245e-12,2.932057352072206e-12,1.459704879059153e-12,8.021526952406354e-13,4.576172159103129e-13,2.754319001905313e-13,1.6659112003707454e-13,1.0724483324465557e-13,6.794285833380129e-14,4.212482373176063e-14,2.6597532862358575e-14,1.514087132047038e-14,9.292586166233109e-15,5.018261956421204e-15,7.888103515817984e-09,6.325846551316184e-09,4.721983708952453e-09,3.192671464408369e-09,2.0497086503481818e-09,1.2604361309856378e-09,7.688954600138196e-10,4.4862438036291124e-10,2.5243964702578293e-10,1.3672632419249537e-10,7.138657220144387e-11,3.671514466917324e-11,1.8367133115769413e-11,8.984687272761518e-12,4.451508878844845e-12,2.189409739455719e-12,1.1317201713377754e-12,5.84391510355787e-13,3.2093168685869323e-13,1.8360727483837202e-13,1.0837196431021985e-13
0.0,49,49.0,0.0,30.0,0.0,0.0,0.0,0.0,-13.0,0.0,2.0,0.0,0.0,0.0,6.688699408440842e-11,2.9459022360354104e-11,1.3131771337878053e-11,6.018804610476214e-12,2.8706946744949655e-12,1.4261287406198746e-12,7.828491531830857e-13,4.462184255389474e-13,2.6852243937563284e-13,1.6248659498823505e-13,1.0476251938334887e-13,6.649309401874967e-14,4.127341415132108e-14,2.6113147123178144e-14,1.4868196824122373e-14,9.142268300198133e-15,4.93763140328123e-15,7.915071610306973e-09,6.3422857974676005e-09,4.7274807334550685e-09,3.1894507298826852e-09,2.0426450855533066e-09,1.252928670548124e-09,7.625473947247027e-10,4.4394978976215093e-10,2.493090098621278e-10,1.3480202555950371e-10,7.028251745155584e-11,3.6104964349641903e-11,1.8044957332015204e-11,8.816421384880406e-12,4.363588744858742e-12,2.1422055319177517e-12,1.1057116726462427e-12,5.695636805515795e-13,3.127127657413269e-13,1.7893972901246356e-13,1.0567743696707649e-13
0.0,50,50.0,0.0,30.0,0.0,0.0,0.0,0.0,-13.0,0.0,2.0,0.0,0.0,0.0,6.583180398616258e-11,2.895257387739855e-11,1.2889828077190336e-11,5.899926128642709e-12,2.8104192801552077e-12,1.3933460209635865e-12,7.64070738882394e-13,4.3515458552445464e-13,2.618127232173305e-13,1.5849914070044056e-13,1.0234640235489234e-13,6.508009884049586e-14,4.044204933078158e-14,2.5639389604507423e-14,1.460112079062743e-14,8.994749246896646e-15,4.858418220128743e-15,7.941867938746535e-09,6.358122769229869e-09,4.732184505537379e-09,3.1854964829932253e-09,2.035043132975356e-09,1.2450779254325186e-09,7.559949005466413e-10,4.391659642979794e-10,2.46125820409912e-10,1.3285526722294103e-10,6.917078252330576e-11,3.5493074756121464e-11,1.7723379145357835e-11,8.64933848118987e-12,4.2768002837364836e-12,2.095903231961529e-12,1.0803284013765572e-12,5.551515533482472e-13,3.0474644798344394e-13,1.7441987412936098e-13,1.0306260211663599e-13
0.0,51,51.0,0.0,30.0,0.0,0.0,0.0,0.0,-13.0,0.0,2.0,0.0,0.0,0.0,6.476988077921775e-11,2.8445667244266036e-11,1.2649039621956709e-11,5.782339796136067e-12,2.7511975701487505e-12,1.3613283186158948e-12,7.45797506332644e-13,4.2441346408523887e-13,2.55295739453153e-13,1.5462488631771798e-13,9.999445368536022e-14,6.370279837151633e-14,3.963019843855909e-14,2.5175990252175647e-14,1.4339515868263158e-14,8.849968130756872e-15,4.780594469757482e-15,7.968395813224275e-09,6.373275007159608e-09,4.736037714471173e-09,3.1807771394374555e-09,2.026887548907166e-09,1.2368779108390285e-09,7.492365062677725e-10,4.342733684936865e-10,2.4289107277806353e-10,1.308868667523479e-10,6.805187681458566e-11,3.487973105241557e-11,1.7402488199334292e-11,8.483446545497409e-12,4.191118149084375e-12,2.0504735154760253e-12,1.055546202726093e-12,5.411394622976136e-13,2.970230049299119e-13,1.700423103086969e-13,1.0052346560502384e-13
0.0,52,52.0,0.0,30.0,0.0,0.0,0.0,0.0,-13.0,0.0,2.0,0.0,0.0,0.0,6.370169800454473e-11,2.793849428212281e-11,1.240944973881243e-11,5.666030213465422e-12,2.6929988553784653e-12,1.330049092256846e-12,7.280105851187285e-13,4.139834027109505e-13,2.489647737390515e-13,1.508601081383385e-13,9.77047177231975e-14,6.236015314747466e-14,3.883734716974825e-14,2.4722686575368342e-14,1.4083258199051984e-14,8.70786555197798e-15,4.704132906008782e-15,7.994552606844995e-09,6.387656882928058e-09,4.7389817360005664e-09,3.1752607177865763e-09,2.0181630103730638e-09,1.2283227153396356e-09,7.422708644223754e-10,4.2927256081700654e-10,2.396058156236432e-10,1.2889766894119176e-10,6.692632224257539e-11,3.4265195804117997e-11,1.7082379455582086e-11,8.318758063130666e-12,4.10652048845427e-12,2.0058895314992524e-12,1.031342475959707e-12,5.27512620882476e-13,2.8953316374710714e-13,1.6580186224044495e-13,9.805612711929611e-14
0.0,53,53.0,0.0,30.0,0.0,0.0,0.0,0.0,-13.0,0.0,2.0,0.0,0.0,0.0,6.262774186968512e-11,2.743125306785541e-11,1.2171106749769757e-11,5.5509856949840906e-12,2.6357951227115977e-12,1.299483533535593e-12,7.106921173945328e-13,4.038532861514839e-13,2.428133961054169e-13,1.472012232691344e-13,9.547530875017525e-14,6.105115731472741e-14,3.8062997142000284e-14,2.427922338131919e-14,1.3832227306134469e-14,8.568383545500143e-15,4.62900695818358e-15,8.020229763140609e-09,6.401179665881977e-09,4.740956663383702e-09,3.1689148454484303e-09,2.0088541318551164e-09,1.2194065230849765e-09,7.350967682726441e-10,4.2416420274481524e-10,2.362711557579724e-10,1.268885469608937e-10,6.579465319753188e-11,3.3649738477714975e-11,1.676315262156043e-11,8.155289557947277e-12,4.02298862386558e-12,1.9621267087555205e-12,1.0076960704446596e-12,5.142570707987242e-13,2.822680827723289e-13,1.6169356775895175e-13,9.565679792716245e-14
0.0,54,54.0,0.0,30.0,0.0,0.0,0.0,0.0,-13.0,0.0,2.0,0.0,0.0,0.0,6.1548511175274e-11,2.692414743426211e-11,1.1934063042723925e-11,5.437197916965323e-12,2.579560817565237e-12,1.269608447839556e-12,6.938251984593511e-13,3.9401251391232945e-13,2.3683544806252286e-13,1.4364478357977408e-13,9.330440822430668e-14,5.977483733896192e-14,3.7306665317152775e-14,2.384535252059595e-14,1.3586305985953462e-14,8.43146554151773e-15,4.55519071623841e-15,8.045312825791411e-09,6.413751593188821e-09,4.741901334815031e-09,3.161706763964623e-09,1.998945484618105e-09,1.2101236378484983e-09,7.27713169266539e-10,4.189490678424864e-10,2.3288826168599583e-10,1.2486040347265891e-10,6.465741649890614e-11,3.3033634974186995e-11,1.644491162232048e-11,7.993061166104573e-12,3.940506756419512e-12,1.919162575379295e-12,9.845871882241984e-13,5.013596330450677e-13,2.752193281763679e-13,1.5771266689499521e-13,9.332181988444571e-14
0.0,55,55.0,0.0,30.0,0.0,0.0,0.0,0.0,-13.0,0.0,2.0,0.0,0.0,0.0,6.046451724073636e-11,2.6417386502355046e-11,1.1698374619006644e-11,5.324661592345909e-12,2.5242726416688728e-12,1.2404021425014832e-12,6.773938207403623e-13,3.844509731794513e-13,2.310250303208745e-13,1.401874699382692e-13,9.119026214722511e-14,5.853025077150933e-14,3.656788344730754e-14,2.3420832642388293e-14,1.3345380204805374e-14,8.297056327452399e-15,4.482658916535975e-15,8.069681487332213e-09,6.425277941545222e-09,4.741753356631029e-09,3.1536033342022186e-09,1.9884216191152123e-09,1.2004685090449787e-09,7.201191949791448e-10,4.1362805086119914e-10,2.2945836708133904e-10,1.228141716899914e-10,6.351517134444572e-11,3.2417167189608165e-11,1.6127764110827945e-11,7.83209624295344e-12,3.8590616929712085e-12,1.8769765908546827e-12,9.619972927391098e-13,4.888078616696303e-13,2.68378851876671e-13,1.5385459138143894e-13,9.104768519544305e-14
0.0,56,56.0,0.0,30.0,0.0,0.0,0.0,0.0,-13.0,0.0,2.0,0.0,0.0,0.0,5.937628382138169e-11,2.5911184239767512e-11,1.1464100673871192e-11,5.21337416971888e-12,2.4699093648514204e-12,1.2118443219591907e-12,6.613828210005453e-13,3.7515901310162135e-13,2.2537649109522357e-13,1.368260867115226e-13,8.913117854939671e-14,5.731648507103715e-14,3.584619754437878e-14,2.300542895996591e-14,1.3109338999546447e-14,8.165102011109302e-15,4.411386927904259e-15,8.093209654971089e-09,6.4356610982489794e-09,4.7404491218396765e-09,3.144571042130893e-09,1.977267090968758e-09,1.190435759845643e-09,7.123141675400104e-10,4.082021768548248e-10,2.2598277419826797e-10,1.2075081638458698e-10,6.236848924367143e-11,3.180062259617959e-11,1.5811821011957076e-11,7.672420999780766e-12,3.77864259300671e-12,1.835549989271081e-12,9.399090233266064e-13,4.765900000240946e-13,2.6173897063649117e-13,1.5011495459483395e-13,8.883105634336252e-14
0.0,57,57.0,0.0,30.0,0.0,0.0,0.0,0.0,-13.0,0.0,2.0,0.0,0.0,0.0,5.828434700970013e-11,2.5405759039975727e-11,1.123130320621406e-11,5.103335554366521e-12,2.4164516497947615e-12,1.1839159894153847e-12,6.457778306004553e-13,3.6612742036163935e-13,2.1988441496126275e-13,1.3355755651387275e-13,8.712552508686359e-14,5.6132656477746626e-14,3.514116737216348e-14,2.259891302610064e-14,1.2878074382118805e-14,8.035549985274221e-15,4.341350738096139e-15,8.115765531084868e-09,6.444800629303967e-09,4.737923823694888e-09,3.134576006014025e-09,1.965466491026901e-09,1.1800202174960717e-09,7.042976225450087e-10,4.026726103165749e-10,2.2246285722030036e-10,1.1867133482787345e-10,6.121795392771451e-11,3.118429383790623e-11,1.5497196095857093e-11,7.514064167422749e-12,3.699240734018316e-12,1.7948656330607231e-12,9.183061151509272e-13,4.646949393895866e-13,2.5529234629015534e-13,1.4648954191688848e-13,8.666878554835486e-14
0.0,58,58.0,0.0,30.0,0.0,0.0,0.0,0.0,-13.0,0.0,2.0,0.0,0.0,0.0,5.7189255114199717e-11,2.4901333317684614e-11,1.1000046654199866e-11,4.994547849312502e-12,2.363881888784907e-12,1.1565993545738705e-12,6.305652286515597e-13,3.573473959729506e-13,2.1454361223828996e-13,1.3037891518875411e-13,8.517172674329269e-14,5.4977908937492474e-14,3.445236596014231e-14,2.2201062518822597e-14,1.2651481247724583e-14,7.908348893430408e-15,4.272526940160716e-15,8.137211705387627e-09,6.452593342156611e-09,4.734111464264761e-09,3.123583985984774e-09,1.953004479997635e-09,1.1692169459264846e-09,6.960693284484447e-10,3.9704066433397823e-10,2.1890006554330416e-10,1.165767576599871e-10,6.006416122807385e-11,3.056847833588521e-11,1.5184005576876445e-11,7.357056684057375e-12,3.62084929383818e-12,1.754907876450363e-12,8.97173324240473e-13,4.5311217983398243e-13,2.490319670405572e-13,1.4297430149984996e-13,8.455793307514845e-14
0.0,59,59.0,0.0,30.0,0.0,0.0,0.0,0.0,-13.0,0.0,2.0,0.0,0.0,0.0,5.6091568509534214e-11,2.439813311629954e-11,1.0770397553805374e-11,4.887015114550627e-12,2.312184051568957e-12,1.1298777470546079e-12,6.157320979101685e-13,3.488105332417207e-13,2.0934910886956862e-13,1.2728730700728144e-13,8.326826363258845e-14,5.3851413074344224e-14,3.3779379138495204e-14,2.1811661037335816e-14,1.2429457286007997e-14,7.783448596449116e-15,4.204892718450701e-15,8.157405255214994e-09,6.458933340667209e-09,4.728944858218393e-09,3.1115603971226287e-09,1.939865828154784e-09,1.158021280726708e-09,6.876293064294115e-10,3.913078097590824e-10,2.152959269887062e-10,1.1446814967737592e-10,5.890771891734621e-11,2.995347789879951e-11,1.4872367734680623e-11,7.201431404729279e-12,3.543463148508843e-12,1.7156624379165349e-12,8.764963573299079e-13,4.418317931828414e-13,2.429511297739288e-13,1.3956533542769983e-13,8.249578367533289e-14
0.0,60,60.0,0.0,30.0,0.0,0.0,0.0,0.0,-13.0,0.0,2.0,0.0,0.0,0.0,5.499185945210525e-11,2.3896387723917625e-11,1.0542424217572192e-11,4.78074314276195e-12,2.2613435435079208e-12,1.103735535116811e-12,6.012661832662714e-13,3.405087968376176e-13,2.0429613677652798e-13,1.242799800694681e-13,8.141366889638745e-14,5.2752365209108326e-14,3.312180509390979e-14,2.14304979088553e-14,1.2211902895350314e-14,7.660800140485795e-15,4.138425834217816e-15,8.176197849854655e-09,6.463712070017125e-09,4.722355632381479e-09,3.0984703272885193e-09,1.9260354605963113e-09,1.146428866540785e-09,6.789778507257366e-10,3.854756843889068e-10,2.1165205093988275e-10,1.1234661052958633e-10,5.774924650546005e-11,2.933959833480044e-11,1.456240255459375e-11,7.047222830388253e-12,3.467078684403861e-12,1.6771162809885854e-12,8.56261806223782e-13,4.3084438797129566e-13,2.370434233444063e-13,1.362588912604983e-13,8.047986045951205e-14
0.0,61,61.0,0.0,30.0,0.0,0.0,0.0,0.0,-13.0,0.0,2.0,0.0,0.0,0.0,5.3890711855674236e-11,2.3396329294732726e-11,1.031619643112595e-11,4.675739249974003e-12,2.2113470732834332e-12,1.0781580493443443e-12,5.871558526930976e-13,3.3243450292085194e-13,1.9938012466237841e-13,1.2135428189315704e-13,7.960652669212424e-14,5.167998642225542e-14,3.2479253945766936e-14,2.1057368006581723e-14,1.1998721099641695e-14,7.540355725603987e-15,4.073104610180846e-15,8.193435854405941e-09,6.466818349457256e-09,4.714274221984512e-09,3.0842785611141252e-09,1.911498508513895e-09,1.13443569691937e-09,6.701155494291707e-10,3.795461021487125e-10,2.0797013139171173e-10,1.102132753151228e-10,5.658937498543782e-11,2.8727149061480835e-11,1.425423138452029e-11,6.894466854424242e-12,3.3916936234369943e-12,1.6392575027943837e-12,8.364570864160405e-13,4.2014107627030883e-13,2.313027127795631e-13,1.3305135395604638e-13,7.850793550549795e-14
0.0,62,62.0,0.0,30.0,0.0,0.0,0.0,0.0,-13.0,0.0,2.0,0.0,0.0,0.0,5.278872102186393e-11,2.2898192473135694e-11,1.0091785165248529e-11,4.5720120797589446e-12,2.1621825294850507e-12,1.0531315109664555e-12,5.733900605295268e-13,3.2458030027639797e-13,1.9459668924267662e-13,1.1850765517591597e-13,7.784547026740817e-14,5.063352166015484e-14,3.1851347342999525e-14,2.0692071579504782e-14,1.1789817467370855e-14,7.422068675349994e-15,4.008907913874699e-15,8.208960428303773e-09,6.468138391132646e-09,4.704629864947386e-09,3.068949611668743e-09,1.8962403669032784e-09,1.1220381566516966e-09,6.610433057365395e-10,3.735210622678902e-10,2.0425194989998908e-10,1.080693150656356e-10,5.542874652315114e-11,2.8116442711091972e-11,1.3947976606125209e-11,6.7432005248665485e-12,3.317306860292308e-12,1.6020752297946775e-12,8.170703797180586e-13,4.097134422694697e-13,2.25723124365832e-13,1.299392381625042e-13,7.65780365720803e-14
0.0,63,63.0,0.0,30.0,0.0,0.0,0.0,0.0,-13.0,0.0,2.0,0.0,0.0,0.0,5.1686493320787074e-11,2.2402214018179068e-11,9.869262301489999e-12,4.4695714196763035e-12,2.113838865465416e-12,1.0286429645109543e-12,5.59958312975578e-13,3.169391524099725e-13,1.899416268813564e-13,1.157376337151271e-13,7.612918011649116e-14,4.9612238882761755e-14,3.123771808118399e-14,2.033441409472126e-14,1.1585100032567333e-14,7.305893406865039e-15,3.945815139137734e-15,8.222607613428913e-09,6.467555803686055e-09,4.693350596005293e-09,3.052447761440866e-09,1.8802467591091666e-09,1.1092330665841446e-09,6.517623596530587e-10,3.674027584345419e-10,2.0049937841361473e-10,1.0591593710709575e-10,5.4268014086074865e-11,2.7507794728576095e-11,1.3643761318195816e-11,6.5934618205776145e-12,3.2439183107317556e-12,1.5655595201894538e-12,7.980905806643486e-13,3.9955351251374184e-13,2.2029903156942536e-13,1.269191808765011e-13,7.468844936430725e-14
