Line_number,Fiducial,Easting,Northing,Height,Elevation,tx_pitch,tx_roll,tx_yaw,txrx_dx,txrx_dy,txrx_dz,rx_pitch,rx_roll,rx_yaw,S0Z_time_1.431e-04,S0Z_time_1.801e-04,S0Z_time_2.266e-04,S0Z_time_2.846e-04,S0Z_time_3.581e-04,S0Z_time_4.506e-04,S0Z_time_5.671e-04,S0Z_time_7.136e-04,S0Z_time_8.981e-04,S0Z_time_1.131e-03,S0Z_time_1.423e-03,S0Z_time_1.791e-03,S0Z_time_2.255e-03,S0Z_time_2.838e-03,S0Z_time_3.573e-03,S0Z_time_4.498e-03,S0Z_time_5.662e-03,S1Z_time_1.409e-05,S1Z_time_1.610e-05,S1Z_time_1.909e-05,S1Z_time_2.360e-05,S1Z_time_2.960e-05,S1Z_time_3.709e-05,S1Z_time_4.609e-05,S1Z_time_5.759e-05,S1Z_time_7.209e-05,S1Z_time_9.060e-05,S1Z_time_1.141e-04,S1Z_time_1.431e-04,S1Z_time_1.801e-04,S1Z_time_2.266e-04,S1Z_time_2.846e-04,S1Z_time_3.581e-04,S1Z_time_4.506e-04,S1Z_time_5.671e-04,S1Z_time_7.136e-04,S1Z_time_8.981e-04,S1Z_time_1.131e-03
0.0,0,0.0,0.0,30.0,0.0,0.0,0.0,0.0,-13.0,0.0,2.0,0.0,0.0,0.0,5.7487276613636374e-11,3.342400917102554e-11,2.346322205571757e-11,1.5826503100443675e-11,1.2392695582518218e-11,9.276277129632924e-12,7.142321225915204e-12,5.346221482360938e-12,4.375836842797958e-12,3.2524921846394067e-12,2.4145237943953928e-12,1.8607286777527516e-12,1.3115540207645518e-12,9.967348037224065e-13,6.718452983140492e-13,4.399593222943712e-13,3.066621211115443e-13,4.239116163377132e-09,3.2872025791354394e-09,2.089780190281679e-09,1.2621907392312441e-09,7.669874693429342e-10,4.7959590125847e-10,3.246739809105682e-10,2.0545087530239192e-10,1.3210448233037943e-10,8.31027923595798e-11,5.4400658882539636e-11,3.3471775161798246e-11,2.1649084015111632e-11,1.488216883603365e-11,1.0714251407225928e-11,7.797502563149331e-12,5.8458596248538294e-12,4.010768274838951e-12,3.010874860010876e-12,1.944356208940814e-12,1.5273316188583833e-12
0.0,1,1.0,0.0,30.0,0.0,0.0,0.0,0.0,-13.0,0.0,2.0,0.0,0.0,0.0,5.884725948334538e-11,3.734329719325128e-11,2.3453109384830217e-11,1.5741761045588235e-11,1.1884778885438995e-11,8.996929334934612e-12,6.626337676632224e-12,5.296833502192053e-12,3.91586506922185e-12,2.872321279605309e-12,2.2303593686057204e-12,1.6325934188758488e-12,1.22673407323819e-12,8.558224030378577e-13,6.041300961269295e-13,4.002880419828724e-13,2.8398147414158904e-13,4.168670642798386e-09,2.9864794299490254e-09,2.2376042890996214e-09,1.206517420089147e-09,7.765921480271218e-10,4.4810813837600634e-10,3.2287174273672244e-10,2.1739581177182678e-10,1.4434410757247835e-10,9.140616986001997e-11,5.930977912179231e-11,3.76942073152864e-11,2.378544248795123e-11,1.5636572720247827e-11,1.1418558746914758e-11,7.72232662516304e-12,5.622341301476503e-12,3.729380604467151e-12,2.674748224065057e-12,1.7980821625000026e-12,1.2564997819411652e-12
0.0,2,2.0,0.0,30.0,0.0,0.0,0.0,0.0,-13.0,0.0,2.0,0.0,0.0,0.0,6.788943109347536e-11,4.059331136222509e-11,2.6766940659942447e-11,1.6672000803701408e-11,1.1434333480975854e-11,8.499463159836265e-12,6.298877616208735e-12,4.627484821740616e-12,3.5681347060262563e-12,2.868015045287782e-12,2.152773696331856e-12,1.5488539782923437e-12,1.1564818516704282e-12,8.440898532644112e-13,5.55887648926416e-13,3.8807242441462494e-13,2.589528177776458e-13,4.091259834478632e-09,3.111126483259827e-09,1.9922053508810353e-09,1.2583038539769172e-09,7.578001262349888e-10,4.880425491505198e-10,3.123523556713198e-10,2.2094359333930407e-10,1.6386023927212335e-10,1.0417364637875384e-10,6.849383389181906e-11,4.284879165730058e-11,2.7597586222263437e-11,1.7630816298915344e-11,1.1222761893678428e-11,7.580267361187297e-12,5.227180797889159e-12,3.6988100222333035e-12,2.640952750504974e-12,1.7376313508587915e-12,1.2422694375374459e-12
0.0,3,3.0,0.0,30.0,0.0,0.0,0.0,0.0,-13.0,0.0,2.0,0.0,0.0,0.0,7.631294708527857e-11,4.5617119142423245e-11,2.857234407880874e-11,1.7578918845524914e-11,1.171304224254976e-11,8.162268518029607e-12,5.9698372647063144e-12,4.483795342251611e-12,3.213169376107789e-12,2.611153096573893e-12,1.908034150600962e-12,1.3653764380909545e-12,1.0736539836410193e-12,7.266818898644261e-13,5.387065736827919e-13,3.524320801506331e-13,2.478442130639872e-13,4.414433147228843e-09,2.9080805821909114e-09,2.0362963991679206e-09,1.2848747981238806e-09,7.691698217736466e-10,4.875166025746329e-10,3.382269953078792e-10,2.244748060876394e-10,1.5577461646120398e-10,1.0957612511615196e-10,7.799049438398494e-11,4.768382638136226e-11,2.942181859956247e-11,1.9874585633800347e-11,1.1971994707423579e-11,7.743901009682755e-12,4.9970438549845525e-12,3.605723173972606e-12,2.4755244559253614e-12,1.6418773356004681e-12,1.0904538405896834e-12
0.0,4,4.0,0.0,30.0,0.0,0.0,0.0,0.0,-13.0,0.0,2.0,0.0,0.0,0.0,7.510902934510964e-11,5.009914783578979e-11,3.251718225009903e-11,1.8979241447952633e-11,1.2294241692999554e-11,8.219736590051161e-12,5.896964914430035e-12,4.266025674866603e-12,3.2333560938809165e-12,2.343816571862666e-12,1.7313787615147852e-12,1.3358259198346012e-12,9.752349940626354e-13,6.735366926955195e-13,4.822626128276122e-13,3.3367359220970143e-13,2.30707997973259e-13,4.176988232963993e-09,3.0228869810253316e-09,1.943417864217683e-09,1.2537397812420918e-09,7.737184190008354e-10,5.16709249480058e-10,3.3628720269495766e-10,2.402008400903784e-10,1.7160131845000161e-10,1.1121146345012004e-10,8.024801599842068e-11,5.321940850298031e-11,3.3737870098154424e-11,2.1809443140568274e-11,1.3855063891238482e-11,8.032034573814297e-12,5.271927447934688e-12,3.5399027277678508e-12,2.2933759184149304e-12,1.4830843936516024e-12,1.0586052631382673e-12
0.0,5,5.0,0.0,30.0,0.0,0.0,0.0,0.0,-13.0,0.0,2.0,0.0,0.0,0.0,8.103367391266885e-11,4.9796359659131656e-11,3.3581001070330287e-11,2.1172587966783623e-11,1.2882231565996966e-11,8.415812313381488e-12,5.819575862914592e-12,4.1240296459146195e-12,3.0811564377309564e-12,2.2510463074974205e-12,1.6469851287189645e-12,1.2925819653080413e-12,9.289932159453164e-13,7.045821345880472e-13,4.47478890382042e-13,3.0218381355246476e-13,2.2061756298492073e-13,4.124351946563721e-09,3.14482797091526e-09,2.1523837066286787e-09,1.187349526536045e-09,7.410240269380113e-10,4.6153119898410214e-10,3.326404937439911e-10,2.3152915404988508e-10,1.6059621464480897e-10,1.222121532326756e-10,8.830360708387476e-11,5.592734522746923e-11,3.8841511321969544e-11,2.3929996248861377e-11,1.4432312274218253e-11,8.566167758304852e-12,5.41709972597839e-12,3.732004344977567e-12,2.2719315718032653e-12,1.5482613925463984e-12,1.0014435034454387e-12
0.0,6,6.0,0.0,30.0,0.0,0.0,0.0,0.0,-13.0,0.0,2.0,0.0,0.0,0.0,8.428620708057658e-11,5.7170994163228966e-11,3.685627780079965e-11,2.2407225835440597e-11,1.4094387058495147e-11,8.610223909321086e-12,5.742094259708924e-12,4.088162267965369e-12,2.8878534894699763e-12,2.1070136360585093e-12,1.509299390435103e-12,1.2033376956823467e-12,8.523878395063794e-13,5.817152108540682e-13,4.064417231746468e-13,3.1233046047186275e-13,2.057783529200775e-13,4.164492870652334e-09,2.872979842370897e-09,2.0025007669784597e-09,1.1949297330456145e-09,7.513551345834294e-10,4.842526657920407e-10,3.2905118657780754e-10,2.291610616928664e-10,1.7717061374333167e-10,1.260064369852969e-10,9.003667457427358e-11,6.316014373363689e-11,4.173551680911552e-11,2.688425188015582e-11,1.6265601225227884e-11,9.701838945499833e-12,5.7270064526928855e-12,3.4456137365602772e-12,2.3255941457138493e-12,1.4638353094698216e-12,1.0266153601181965e-12
0.0,7,7.0,0.0,30.0,0.0,0.0,0.0,0.0,-13.0,0.0,2.0,0.0,0.0,0.0,8.847012473774738e-11,5.916469491739017e-11,3.7663652463611634e-11,2.222941860137869e-11,1.398507734364758e-11,8.412003537867622e-12,5.87046810387353e-12,3.9893939687487284e-12,2.8681005168940034e-12,1.9918639277234698e-12,1.4500476521183178e-12,1.0882403080139126e-12,8.092866444610106e-13,5.549495153593163e-13,4.083337215802565e-13,2.827383202816965e-13,1.9223331922381266e-13,4.052461969174421e-09,2.996222582583706e-09,2.081268425442569e-09,1.2021795339509706e-09,7.579752736450166e-10,5.183151784283294e-10,3.4169657877268704e-10,2.4834250966032346e-10,1.772738715225625e-10,1.3146038534266834e-10,9.270064770598806e-11,6.353033073388136e-11,4.269758558886409e-11,2.7475965217940894e-11,1.7571130993301702e-11,1.0395026083753611e-11,6.189914915227743e-12,3.7345133967490024e-12,2.325070479809806e-12,1.5224863788761332e-12,9.037309241881901e-13
0.0,8,8.0,0.0,30.0,0.0,0.0,0.0,0.0,-13.0,0.0,2.0,0.0,0.0,0.0,9.496332254030068e-11,6.011135178648327e-11,3.89346374904545e-11,2.4638547727349515e-11,1.4617428928132056e-11,9.222450583058455e-12,5.950754674981262e-12,3.888462810256371e-12,2.8404581190973437e-12,1.9037269910073664e-12,1.4146114576323894e-12,1.0188960989592664e-12,7.810516404634395e-13,5.178139421548753e-13,3.844556748859287e-13,2.7171251762656817e-13,1.843455029463567e-13,4.0968040764948785e-09,3.1254163111641095e-09,1.9390375424045307e-09,1.2026897947732354e-09,7.458898258418945e-10,4.942424051962159e-10,3.1927914422491747e-10,2.507477757020442e-10,1.843934659353458e-10,1.285805226459507e-10,9.713422860878168e-11,6.743474523583699e-11,4.3925406308726456e-11,2.8942437145004752e-11,1.833037339694358e-11,1.1368916026735303e-11,6.844806523753136e-12,4.001652795184922e-12,2.3172591766339952e-12,1.4531956587234e-12,8.897868843855773e-13
0.0,9,9.0,0.0,30.0,0.0,0.0,0.0,0.0,-13.0,0.0,2.0,0.0,0.0,0.0,9.822627765814064e-11,6.200876548753104e-11,4.09809236157444e-11,2.5921438509779488e-11,1.559089174463938e-11,9.893241814945124e-12,6.34122944855674e-12,3.9766932709338915e-12,2.5585285188282915e-12,1.8736079240878215e-12,1.3277558689343718e-12,9.851242281910455e-13,7.314510176849667e-13,4.980140270464926e-13,3.561171612803837e-13,2.4751710657810624e-13,1.5950594616643867e-13,4.096427010930869e-09,2.9280098251408143e-09,1.927815085329981e-09,1.1688298833882508e-09,7.566222896865989e-10,5.042312964065438e-10,3.4830594649998936e-10,2.374204481773257e-10,1.7801748346282197e-10,1.3334553350154143e-10,9.884494130879313e-11,7.128872063657217e-11,4.7454325135806097e-11,3.225219202518488e-11,1.909138335192287e-11,1.2329356849845934e-11,7.511200821942874e-12,4.161224440046776e-12,2.5518074424687422e-12,1.5245147399039658e-12,9.12308867688042e-13
0.0,10,10.0,0.0,30.0,0.0,0.0,0.0,0.0,-13.0,0.0,2.0,0.0,0.0,0.0,1.0010328497394161e-10,6.371293494147298e-11,4.2266761358306024e-11,2.8671937637827163e-11,1.7289681914670594e-11,1.0076744018684714e-11,6.455727676660737e-12,4.440059702913679e-12,2.48709178298206e-12,1.9086493494958693e-12,1.2821437227240888e-12,9.508123826796555e-13,6.898832800612365e-13,4.612248245498208e-13,3.218975674207043e-13,2.2718778149163718e-13,1.5712419454660723e-13,3.827908188393977e-09,2.9944235940928406e-09,2.008563492909418e-09,1.2240738018499184e-09,7.622712490392164e-10,4.743394851847382e-10,3.423900472108189e-10,2.487656764588804e-10,1.860750021776248e-10,1.3374569372625415e-10,1.0183949171615434e-10,7.108590781940243e-11,4.881830949923262e-11,3.3165768413748595e-11,2.2168433536027092e-11,1.2575192710867047e-11,7.623863060750092e-12,4.4007578106585375e-12,2.514721838539412e-12,1.4536035640693173e-12,9.086668104471684e-13
0.0,11,11.0,0.0,30.0,0.0,0.0,0.0,0.0,-13.0,0.0,2.0,0.0,0.0,0.0,9.536414513061271e-11,6.678371642197964e-11,4.323614126349181e-11,2.7480108100499093e-11,1.861088650142412e-11,1.162695312148863e-11,6.7935572906524585e-12,4.254896940644999e-12,2.8286154451267166e-12,1.8300525116169715e-12,1.3012436354641517e-12,9.13622091546108e-13,6.648561593925775e-13,4.595866230023762e-13,3.223272216884541e-13,2.2469523975245945e-13,1.429167602401814e-13,3.9038164323386715e-09,3.0381435470673667e-09,2.04590634908398e-09,1.2241764915091419e-09,7.35276833086853e-10,5.136401552391136e-10,3.489841062111877e-10,2.4202117337582903e-10,1.8726622822313433e-10,1.3844360250692214e-10,1.0095878526109008e-10,7.044380010634524e-11,4.928842773040447e-11,3.2664779033451183e-11,2.3258944261914844e-11,1.3937074977821589e-11,8.642898248406242e-12,4.717916319335155e-12,2.8485973424936032e-12,1.4626240942306875e-12,9.035809037062265e-13
0.0,12,12.0,0.0,30.0,0.0,0.0,0.0,0.0,-13.0,0.0,2.0,0.0,0.0,0.0,9.557984039536177e-11,6.55093759785899e-11,4.3154384346145306e-11,2.9004414428315377e-11,1.9858710510731003e-11,1.1398071834436916e-11,7.299212936022806e-12,4.077812313195371e-12,2.922283928932667e-12,1.7838227265566797e-12,1.2555679970199186e-12,8.907468229844129e-13,5.989707329542524e-13,4.3785554172552525e-13,3.0022097634833334e-13,2.0458324913774626e-13,1.3455427581328468e-13,3.9737620386589294e-09,2.966136415139449e-09,2.0054870978749624e-09,1.2123769834987032e-09,7.661915850845532e-10,5.023641415029709e-10,3.42945371373764e-10,2.415628438909902e-10,1.8272137110662584e-10,1.298659209921236e-10,1.0211608805632617e-10,7.765228770918137e-11,5.274390881094467e-11,3.4793987270990474e-11,2.323610047337281e-11,1.5134224287747706e-11,8.636529881103179e-12,5.098551207254621e-12,2.681844290615964e-12,1.5608904151188702e-12,8.991697822709766e-13
0.0,13,13.0,0.0,30.0,0.0,0.0,0.0,0.0,-13.0,0.0,2.0,0.0,0.0,0.0,1.0109195401781075e-10,6.618221556530348e-11,4.6752352168997795e-11,3.0637697855443984e-11,2.062542701660916e-11,1.1749345390911177e-11,6.956112499530925e-12,4.1676329448061254e-12,2.7652051834344656e-12,1.842959263342785e-12,1.2027395097338877e-12,8.450182000902888e-13,5.820173212707378e-13,4.144806648030518e-13,2.7427000378667517e-13,2.0980540976501888e-13,1.3597887373405692e-13,3.806109295386039e-09,2.7133605149073824e-09,1.971018596426897e-09,1.1958479882573316e-09,7.504144286669536e-10,5.213497632326268e-10,3.473086380376537e-10,2.491752761029053e-10,1.91967857132184e-10,1.4048918416782113e-10,9.696481714099886e-11,7.501298284060487e-11,5.5215944945008105e-11,3.5659783432214284e-11,2.364639618457809e-11,1.500799198483155e-11,9.554679673985362e-12,5.552507032218924e-12,2.9439601102881857e-12,1.7552702955998913e-12,9.7999232488593e-13
0.0,14,14.0,0.0,30.0,0.0,0.0,0.0,0.0,-13.0,0.0,2.0,0.0,0.0,0.0,1.0129204453054912e-10,6.418101207453759e-11,4.7853880159650045e-11,2.973376171442381e-11,2.066932841868473e-11,1.3048788681925291e-11,7.966858923799248e-12,4.311147325442054e-12,2.787502177538455e-12,1.8313135412279417e-12,1.1758668843590522e-12,7.669887907493011e-13,5.521858966695577e-13,3.927382786140155e-13,2.59258132438492e-13,1.9803188322329013e-13,1.3045379860911896e-13,3.956433833077862e-09,2.801930864164697e-09,1.9108693300751793e-09,1.1722292340346262e-09,7.345735641783475e-10,5.043352286361474e-10,3.678355137886025e-10,2.5672465815509265e-10,1.8758923626167514e-10,1.4030317967951923e-10,1.0444940647350879e-10,7.305517328654506e-11,5.07886124362124e-11,3.7865060869840526e-11,2.3821057938995493e-11,1.6246045577631208e-11,9.781459398282626e-12,5.581818367081e-12,3.367364259952086e-12,1.8413471717257162e-12,9.93722777196772e-13
0.0,15,15.0,0.0,30.0,0.0,0.0,0.0,0.0,-13.0,0.0,2.0,0.0,0.0,0.0,1.0294802696969109e-10,7.057040517994259e-11,4.609703633815101e-11,3.1414584960846487e-11,1.981310579165601e-11,1.3270507983728498e-11,8.428474128015554e-12,4.815298336402054e-12,2.9572957546990587e-12,1.784378779584551e-12,1.153119355003344e-12,7.760179893746159e-13,5.155992393326235e-13,3.888733162409411e-13,2.6060563462973325e-13,1.8444442123558706e-13,1.2215906143562024e-13,3.820002183356329e-09,2.8199295248511754e-09,1.8267682381862796e-09,1.219956471775017e-09,7.606397986896356e-10,4.925871792096086e-10,3.42633725696943e-10,2.5624184043068427e-10,1.8564308721877743e-10,1.4171527785401558e-10,9.997066201443175e-11,7.974495102951401e-11,5.531921375913264e-11,3.709042577795145e-11,2.4350053694843e-11,1.6511544427968352e-11,9.664625061247233e-12,6.2493352130041534e-12,3.5050598773758262e-12,1.9689297873892318e-12,9.99327395930394e-13
0.0,16,16.0,0.0,30.0,0.0,0.0,0.0,0.0,-13.0,0.0,2.0,0.0,0.0,0.0,1.0530094139040148e-10,7.336827601820128e-11,4.756198004503617e-11,3.185592815528858e-11,2.2260753360826805e-11,1.3672235276179942e-11,8.516667791282433e-12,5.057726357014365e-12,2.9208516261677582e-12,1.907100020738259e-12,1.0970313079618333e-12,7.921510001385739e-13,5.176538993387222e-13,3.589207542405884e-13,2.450105193978759e-13,1.7349719422185084e-13,1.167170910238205e-13,4.078326293412347e-09,2.8131606972832333e-09,1.8968981589270417e-09,1.1754630913968495e-09,7.60521256727553e-10,5.001641369170574e-10,3.742864010212659e-10,2.741883430983398e-10,1.829420401830909e-10,1.3722803947772647e-10,1.0121494246437659e-10,7.749666525030022e-11,5.295969888311599e-11,3.8744780309561656e-11,2.7122857508878602e-11,1.7473696369749475e-11,1.0354606718153306e-11,6.1334878932312484e-12,3.3251659351016748e-12,2.0197277910324254e-12,1.0226027663880157e-12
0.0,17,17.0,0.0,30.0,0.0,0.0,0.0,0.0,-13.0,0.0,2.0,0.0,0.0,0.0,1.0417179033249364e-10,7.178954863924411e-11,4.692239808388376e-11,3.4069317369809897e-11,2.1215389123385042e-11,1.3785142751484932e-11,8.415555159030182e-12,5.281078957637612e-12,3.0787736321239213e-12,2.01619990668803e-12,1.1510467178985853e-12,7.630284141592187e-13,5.032998317481435e-13,3.5693813723219157e-13,2.384959938182125e-13,1.557405438576516e-13,1.1057952503813064e-13,3.916525340944364e-09,2.7026750530825073e-09,1.8373726729817532e-09,1.1613268241200763e-09,7.648604201098455e-10,5.042106100908343e-10,3.4009877590224665e-10,2.599640971417169e-10,2.029761705940218e-10,1.471145530541717e-10,1.0765970188006484e-10,7.671457057475908e-11,5.864915856973144e-11,3.857239189317594e-11,2.635859367322989e-11,1.7280659680277055e-11,1.0939620400507172e-11,6.808425772972029e-12,3.5669608459143515e-12,2.022241263043496e-12,1.1659106044532304e-12
0.0,18,18.0,0.0,30.0,0.0,0.0,0.0,0.0,-13.0,0.0,2.0,0.0,0.0,0.0,1.0283030390666941e-10,6.970513829726542e-11,4.921436028045267e-11,3.288726308388893e-11,2.2543659604658678e-11,1.3905529088095067e-11,9.430986638193234e-12,5.259234033597289e-12,3.246340146246786e-12,1.9403048088304823e-12,1.1943786558988786e-12,7.514258356556857e-13,4.957315435384524e-13,3.3524872811102677e-13,2.3797146297292283e-13,1.553580107940383e-13,1.0811734560541356e-13,3.756098454371543e-09,2.7920547122667927e-09,1.878916989990575e-09,1.2168936522467736e-09,7.466978232576324e-10,5.018605513775099e-10,3.661190801047796e-10,2.685964211732134e-10,1.859663616437803e-10,1.4226503447233616e-10,1.1034008891322244e-10,7.710288871818005e-11,5.52743670457729e-11,3.981189908930683e-11,2.7412395466027135e-11,1.886010863802933e-11,1.1632183018559627e-11,6.830095911834652e-12,3.9970947446778785e-12,2.2586194668309727e-12,1.208171632936641e-12
0.0,19,19.0,0.0,30.0,0.0,0.0,0.0,0.0,-13.0,0.0,2.0,0.0,0.0,0.0,1.0365640543226809e-10,7.446597886074088e-11,5.272028794935467e-11,3.393972870024149e-11,2.2764663283010632e-11,1.4367867920342693e-11,9.011353592850454e-12,5.67397922042643e-12,3.4513208800594813e-12,1.9749610494439053e-12,1.2431030926603378e-12,7.713301441670274e-13,4.81273207976769e-13,3.3298821791717327e-13,2.194316206412532e-13,1.498918533664368e-13,1.0374542190858108e-13,4.094283434307593e-09,2.6578087451252708e-09,1.8574694789251964e-09,1.219532883196537e-09,7.557938324774806e-10,5.08847192350641e-10,3.896106375202707e-10,2.710759208274379e-10,2.054627927347017e-10,1.4633441115522995e-10,1.0294519939098667e-10,7.734816655751528e-11,5.743671679079822e-11,3.982750322226828e-11,2.6704568794331037e-11,1.9403840594289345e-11,1.1764474153923821e-11,6.955664419137989e-12,4.33049732361743e-12,2.3797095377347176e-12,1.2102134591870836e-12
0.0,20,20.0,0.0,30.0,0.0,0.0,0.0,0.0,-13.0,0.0,2.0,0.0,0.0,0.0,1.0993954981778533e-10,7.561246456055112e-11,5.1363167481468525e-11,3.4700166534978634e-11,2.1904848566490717e-11,1.495636277427058e-11,9.557345546323503e-12,5.760998231428554e-12,3.4533129888699784e-12,2.096823797301128e-12,1.207383694833251e-12,7.143378950223563e-13,4.708568888776298e-13,3.1202690667057743e-13,2.1153104674690646e-13,1.3809911286453101e-13,9.513547080211533e-14,3.689937067024582e-09,2.82023607797852e-09,1.8552314724718758e-09,1.1951903468643469e-09,7.692461671954691e-10,4.986586711671767e-10,3.7388808026513017e-10,2.881967696734641e-10,1.9319537740569536e-10,1.5366339992825383e-10,1.095484860528076e-10,7.581837357175129e-11,5.785930906318597e-11,4.12364053284519e-11,2.765647609318212e-11,1.8750327861661673e-11,1.2652176705711539e-11,7.262311805119286e-12,4.5735941240111796e-12,2.542496677799405e-12,1.238777311952842e-12
0.0,21,21.0,0.0,30.0,0.0,0.0,0.0,0.0,-13.0,0.0,2.0,0.0,0.0,0.0,1.0953195031878721e-10,7.488311000287735e-11,5.324042365296824e-11,3.6222624911887036e-11,2.454216354886874e-11,1.4652258007978923e-11,1.0224759979353922e-11,6.150828639905632e-12,3.410755102825663e-12,2.201612209196846e-12,1.2109594937465407e-12,7.75516576404475e-13,4.670750327579032e-13,3.07976258164794e-13,2.0848011285809948e-13,1.3720223131647087e-13,8.787579640040854e-14,3.798411192947213e-09,2.642989200422081e-09,1.8866366723567437e-09,1.1294495172623955e-09,7.67892878874441e-10,5.276799472714559e-10,4.0061906614081367e-10,2.612748131677902e-10,2.07286833867965e-10,1.454418136720563e-10,1.1206293669551674e-10,8.002413763171617e-11,5.880628103138037e-11,4.21687431873196e-11,2.7743457226156567e-11,1.884436740061776e-11,1.2570517254195329e-11,7.481544345574455e-12,4.5467115929312116e-12,2.5897686059255206e-12,1.3075632598007128e-12
0.0,22,22.0,0.0,30.0,0.0,0.0,0.0,0.0,-13.0,0.0,2.0,0.0,0.0,0.0,1.0540081851443553e-10,7.601631265861736e-11,5.320761503873953e-11,3.3813896539911925e-11,2.4153470689374463e-11,1.55022399097795e-11,9.996328007962464e-12,6.416090425071929e-12,3.743694590454914e-12,2.1293266631158803e-12,1.2825820287087462e-12,7.609083053839993e-13,4.691901232501826e-13,3.1482183109985017e-13,1.9567387125451493e-13,1.2989268708418826e-13,8.921447953468887e-14,3.809605549747433e-09,2.708682719058097e-09,1.7786166583045072e-09,1.1753368425682312e-09,8.225010769083553e-10,5.344121944885849e-10,3.623298509679385e-10,2.724231661913e-10,2.0830767446438438e-10,1.5542042334663413e-10,1.0941886492708495e-10,8.645684934790212e-11,5.902099526375855e-11,4.126935845242234e-11,2.939564027821575e-11,1.923796580752504e-11,1.171909195953521e-11,7.695381628497102e-12,4.54886309355654e-12,2.5983946951251743e-12,1.4179066971425279e-12
0.0,23,23.0,0.0,30.0,0.0,0.0,0.0,0.0,-13.0,0.0,2.0,0.0,0.0,0.0,1.1412620302971748e-10,7.473958132325491e-11,5.1236397858465524e-11,3.5739429058766075e-11,2.4526248519588245e-11,1.6190462407066794e-11,1.044521902102246e-11,6.602761633412846e-12,3.802127880319865e-12,2.3300564684649564e-12,1.329744111417546e-12,7.811140825006051e-13,4.985737236347024e-13,2.965090575619282e-13,1.8983459152191174e-13,1.3452759375807264e-13,8.502029926353127e-14,3.8349736715673746e-09,2.7339877880770126e-09,1.7410678281304836e-09,1.1796846652533392e-09,7.834537781306919e-10,5.280219303312345e-10,3.9221833657385137e-10,2.9368065121998497e-10,2.1944336337760524e-10,1.5842569712215315e-10,1.1018536407936738e-10,8.239899931369036e-11,5.7438422853231623e-11,4.070061758079746e-11,2.8205685846643677e-11,1.9289825344159223e-11,1.272968162152408e-11,8.451508807666015e-12,4.807843913168185e-12,2.866453270434884e-12,1.4716916572695786e-12
0.0,24,24.0,0.0,30.0,0.0,0.0,0.0,0.0,-13.0,0.0,2.0,0.0,0.0,0.0,1.1578383699018706e-10,7.660204617436749e-11,5.3100025366928593e-11,3.5450436572591866e-11,2.4911236651000723e-11,1.5785172582795163e-11,1.0364201322973391e-11,6.590558162854107e-12,4.007945515556513e-12,2.360586127590816e-12,1.33316722728095e-12,7.58745265088306e-13,4.4232765129449273e-13,2.8801583130317027e-13,1.860317279521304e-13,1.2196840486832383e-13,7.98113311028711e-14,3.736643771260492e-09,2.661807934866112e-09,1.8213047484106572e-09,1.140910943390925e-09,8.09392968651138e-10,5.286340121821567e-10,3.613897480050627e-10,2.800476299531413e-10,2.0418759736411875e-10,1.5001945448099534e-10,1.1596350378768859e-10,8.895007746380482e-11,5.716595760018083e-11,4.11575312106567e-11,2.821162757805414e-11,1.8259464139727e-11,1.325775384260288e-11,7.871516933213096e-12,5.007617746642851e-12,2.921306650519494e-12,1.5243725164929148e-12
0.0,25,25.0,0.0,30.0,0.0,0.0,0.0,0.0,-13.0,0.0,2.0,0.0,0.0,0.0,1.1094926770894123e-10,7.186911715196644e-11,5.47136851096842e-11,3.899067004246267e-11,2.4355047856754947e-11,1.6613063954446362e-11,1.051694433008995e-11,6.573320599636847e-12,4.252380823070251e-12,2.406001269038845e-12,1.390671091735396e-12,8.098904342344857e-13,4.797159795835021e-13,2.7946350399379355e-13,1.8503663347572794e-13,1.275106002571797e-13,8.125237900620622e-14,3.597738643752926e-09,2.6819044929581914e-09,1.8891519584429933e-09,1.1791328379855543e-09,8.324667805986087e-10,5.425076143517057e-10,3.9561383235451367e-10,2.806030558634532e-10,2.0442789153716092e-10,1.6339127952920297e-10,1.1435563634756315e-10,8.203577636171002e-11,6.096539714954992e-11,4.13209081597613e-11,2.9783899020945475e-11,1.9865078516950534e-11,1.2729697368086387e-11,8.299903878062883e-12,4.784610141195321e-12,2.931522259841943e-12,1.5606784309277789e-12
0.0,26,26.0,0.0,30.0,0.0,0.0,0.0,0.0,-13.0,0.0,2.0,0.0,0.0,0.0,1.1586587797403814e-10,8.223138810527885e-11,5.43198681503935e-11,3.631432848990115e-11,2.5706498457529878e-11,1.6571651968107e-11,1.1201893339722137e-11,6.681134313217222e-12,4.132062147703673e-12,2.3902435958798212e-12,1.3724602071454116e-12,8.283995581075342e-13,4.737824074622351e-13,2.860705233274122e-13,1.8360878777897085e-13,1.1393274584195294e-13,7.639227437376545e-14,3.5759910625582926e-09,2.7951578611127098e-09,1.7667418981571851e-09,1.119285796124049e-09,7.647021276507744e-10,5.438812160663869e-10,3.863409740998983e-10,2.884978695251818e-10,2.0949605060835857e-10,1.563543324814052e-10,1.183035295889403e-10,8.718513126425487e-11,6.131924435160109e-11,4.374589588744248e-11,2.936902400176052e-11,2.0293835720564175e-11,1.3274849105072235e-11,8.3507009626317e-12,4.733704600662559e-12,2.956251040302579e-12,1.685048498790523e-12
0.0,27,27.0,0.0,30.0,0.0,0.0,0.0,0.0,-13.0,0.0,2.0,0.0,0.0,0.0,1.1460247156034626e-10,8.462834976022514e-11,5.625666451672572e-11,3.915739679670145e-11,2.6577759605433885e-11,1.5736600058955412e-11,1.1286823820952812e-11,7.016113357585677e-12,4.4204621072792156e-12,2.6050960249241987e-12,1.4437991806330871e-12,8.185456096727088e-13,4.745663479387051e-13,2.939962095423474e-13,1.7521942691355863e-13,1.1156810206926816e-13,7.271993367071342e-14,3.642198140456385e-09,2.568716550353013e-09,1.861223123635588e-09,1.1392774837941327e-09,8.130882930330004e-10,5.290953362871611e-10,3.9855853399276926e-10,2.9774688743500384e-10,2.1413699712274558e-10,1.5883199671994779e-10,1.194002513826246e-10,8.470854326918569e-11,6.021532239167219e-11,4.2409787441930766e-11,2.9876823109617774e-11,1.95834994939037e-11,1.390898272097825e-11,7.98548926604979e-12,5.205748782327361e-12,3.029641124499977e-12,1.670792762593142e-12
0.0,28,28.0,0.0,30.0,0.0,0.0,0.0,0.0,-13.0,0.0,2.0,0.0,0.0,0.0,1.1391269364081569e-10,8.273465801832943e-11,5.274595768867354e-11,3.845751533166372e-11,2.5436380496302893e-11,1.671394037238519e-11,1.0695992701392928e-11,6.93321894006986e-12,4.056079629770644e-12,2.6452978861408793e-12,1.5157067754386507e-12,8.771508851878965e-13,4.788449026834269e-13,2.8804616485986796e-13,1.8169919246029677e-13,1.1335887529709637e-13,7.467316559363142e-14,3.6262452847198566e-09,2.6417097931814906e-09,1.8046397890080578e-09,1.2160128592302362e-09,7.735147662630759e-10,5.398226896578651e-10,4.0545383943482706e-10,3.000420185305458e-10,2.2162068266278756e-10,1.6877300345763086e-10,1.2135845766266045e-10,8.560064135123201e-11,6.594161852545058e-11,4.264395095519347e-11,3.0521525054552035e-11,1.9749392258741738e-11,1.3155028254307456e-11,8.472105521690826e-12,5.577500018244908e-12,3.1198451036608395e-12,1.746703287551094e-12
0.0,29,29.0,0.0,30.0,0.0,0.0,0.0,0.0,-13.0,0.0,2.0,0.0,0.0,0.0,1.1521210587376308e-10,8.27737786601172e-11,5.443917491278639e-11,3.7505724719457975e-11,2.613061187458945e-11,1.6934170949601088e-11,1.1777047844306237e-11,7.480595246710785e-12,4.478766060926935e-12,2.667505646703696e-12,1.541531093521558e-12,8.938502691649243e-13,5.126397485791229e-13,2.9277002369355833e-13,1.7085805378182796e-13,1.1131507407210852e-13,7.050782711754973e-14,3.482571201043065e-09,2.5945882656040113e-09,1.7464178747146332e-09,1.1884860742885398e-09,7.925314562548169e-10,5.584072182085218e-10,4.186560308704469e-10,3.240072178381823e-10,2.263254474776111e-10,1.6944341967322204e-10,1.2539580770286885e-10,8.76965714819273e-11,6.43083571176537e-11,4.548263320974236e-11,3.0285196909066335e-11,2.218778953967308e-11,1.2783275359096228e-11,8.45174907155578e-12,5.1694278496161746e-12,3.280668931726502e-12,1.7964267620150827e-12
0.0,30,30.0,0.0,30.0,0.0,0.0,0.0,0.0,-13.0,0.0,2.0,0.0,0.0,0.0,1.1919418549633712e-10,8.520961568838199e-11,5.633238669095013e-11,4.175904237421166e-11,2.5665702770973868e-11,1.7928747665944325e-11,1.1057541096932621e-11,7.42785376623288e-12,4.478191346620391e-12,2.617798436594158e-12,1.492421904013584e-12,8.996259410878137e-13,5.303845599149541e-13,2.97903502577977e-13,1.687751087349108e-13,1.1346485078690592e-13,6.930783533524892e-14,3.611221405906378e-09,2.617428319183694e-09,1.9196621078750004e-09,1.1747153027172263e-09,7.741081997482329e-10,5.785420900685292e-10,3.8720787559167846e-10,3.1041281030226614e-10,2.2632690633344069e-10,1.7510869705898358e-10,1.2311530089536202e-10,8.697624746269462e-11,6.359193208067376e-11,4.2552690501973714e-11,3.225590022458853e-11,2.0480289129230555e-11,1.3886836355648166e-11,8.570939269721414e-12,5.496400753821014e-12,3.2184142610793616e-12,1.9299832227645287e-12
0.0,31,31.0,0.0,30.0,0.0,0.0,0.0,0.0,-13.0,0.0,2.0,0.0,0.0,0.0,1.1803241247359404e-10,8.319116358889113e-11,5.6615733236392806e-11,3.768814191362923e-11,2.6232329399379056e-11,1.7992785002286362e-11,1.1281319182222035e-11,7.409099167543684e-12,4.68334630184298e-12,2.830094879426267e-12,1.6047448834715485e-12,8.627385738361601e-13,5.186305730282432e-13,3.19595257179722e-13,1.7111688775335802e-13,1.0366243979678102e-13,6.72287624002109e-14,3.5033133904207437e-09,2.5142407787429725e-09,1.7771732490451285e-09,1.164053926221526e-09,8.067375233152677e-10,5.731548632053266e-10,4.0545927083535033e-10,3.1808237835955077e-10,2.3033444970899012e-10,1.6750975543171047e-10,1.283856394689701e-10,8.999074610610996e-11,6.335677119394729e-11,4.440665959676165e-11,3.134598114939398e-11,2.0916712795382422e-11,1.3996905840845331e-11,8.331022483320382e-12,5.672803703792386e-12,3.269137941397344e-12,1.893001759403752e-12
0.0,32,32.0,0.0,30.0,0.0,0.0,0.0,0.0,-13.0,0.0,2.0,0.0,0.0,0.0,1.3030610968314976e-10,8.877667130098236e-11,5.5771627973757464e-11,4.077233610111115e-11,2.6821399286852915e-11,1.8272505524431207e-11,1.110779971989086e-11,7.285723261805011e-12,4.7331342957925726e-12,2.765130799009865e-12,1.6498645913066573e-12,9.934753925774318e-13,5.729039304230751e-13,3.029849638226064e-13,1.8155524576791217e-13,1.0663232470926948e-13,6.74591326135944e-14,3.5324442564462255e-09,2.4571381371307946e-09,1.8412121567310817e-09,1.1415695592412044e-09,7.714801206407817e-10,5.916691667371314e-10,4.1966812456790425e-10,3.234741239164875e-10,2.386992670800664e-10,1.679928974922623e-10,1.2000045973402641e-10,9.596689943699632e-11,6.61333603057483e-11,4.7228424259053907e-11,3.0989914774254466e-11,2.176869352515575e-11,1.454087879444076e-11,8.822331820056607e-12,5.498220651527144e-12,3.333223387215e-12,1.895163100848068e-12
0.0,33,33.0,0.0,30.0,0.0,0.0,0.0,0.0,-13.0,0.0,2.0,0.0,0.0,0.0,1.165620616365053e-10,8.386350497288069e-11,5.9347449514464e-11,4.035973862331967e-11,2.7095909202828382e-11,1.7741972168585108e-11,1.1064646820374782e-11,7.62941307980907e-12,4.800120843659659e-12,2.818170261870899e-12,1.7256074972967286e-12,9.838701458478613e-13,5.398010085534366e-13,3.080985383204238e-13,1.8166046727475857e-13,1.0618672583701199e-13,6.216168734554697e-14,3.6138624091748604e-09,2.6257143718210557e-09,1.7245146999953412e-09,1.1488081944327386e-09,7.927690662775228e-10,5.869697700846396e-10,4.376958074044117e-10,3.2517581102060357e-10,2.4302985224394795e-10,1.6849362087403685e-10,1.255119597727207e-10,8.698843371595976e-11,6.718576764713257e-11,4.712374763606184e-11,3.250073346415528e-11,2.0918179780942644e-11,1.4082038190567091e-11,9.064418736910525e-12,5.850317652905273e-12,3.172205586931949e-12,1.9740403453566945e-12
0.0,34,34.0,0.0,30.0,0.0,0.0,0.0,0.0,-13.0,0.0,2.0,0.0,0.0,0.0,1.2700447845491769e-10,8.647710235023842e-11,6.067273397630633e-11,4.097639527936106e-11,2.647787557904201e-11,1.8366999492054397e-11,1.204886047550486e-11,8.070591958054663e-12,4.874580130300083e-12,3.0192238858317047e-12,1.667228998322015e-12,9.859507426738448e-13,5.445994775433337e-13,3.1382783460985745e-13,1.875556734097659e-13,9.896155410411894e-14,6.248219005479405e-14,3.4219068447856905e-09,2.4848695989423973e-09,1.8369947822404256e-09,1.216527147639442e-09,8.38491407405077e-10,5.774389562742468e-10,4.327626205306154e-10,3.2873993319261043e-10,2.4212313312760606e-10,1.7319535296938747e-10,1.3219294194615707e-10,8.75082075159554e-11,6.844179285195012e-11,4.8633535759681805e-11,3.212561936146633e-11,2.1925246821037305e-11,1.4043298741186102e-11,8.749193024247543e-12,5.873040387476125e-12,3.3147615617618516e-12,2.0930685020116718e-12
0.0,35,35.0,0.0,30.0,0.0,0.0,0.0,0.0,-13.0,0.0,2.0,0.0,0.0,0.0,1.2859338823289594e-10,8.865480007952922e-11,6.02635279356339e-11,4.140887787070797e-11,2.6979547670689447e-11,1.8084288147433135e-11,1.2460767374542774e-11,7.441208724325844e-12,4.803484055147413e-12,2.920412308545181e-12,1.7753479262683174e-12,1.0247661612380559e-12,5.700486871915734e-13,3.2264889199031553e-13,1.8501761992294705e-13,1.0696245901763276e-13,6.190719562891727e-14,3.425285307866598e-09,2.4440902352348592e-09,1.8297945553427814e-09,1.1867224582185338e-09,7.597732308130249e-10,5.827462408487418e-10,4.2749286774988485e-10,3.3760124372551735e-10,2.3994809293093465e-10,1.7625640933083451e-10,1.2898794471717863e-10,8.960673808746445e-11,6.414803845194012e-11,4.7492025437658905e-11,3.13363611036257e-11,2.2314805252864444e-11,1.3725724202912504e-11,9.116763026081946e-12,5.63286576977517e-12,3.3216587543825215e-12,1.9976528595791757e-12
0.0,36,36.0,0.0,30.0,0.0,0.0,0.0,0.0,-13.0,0.0,2.0,0.0,0.0,0.0,1.2910676691136748e-10,8.96127364715727e-11,6.176522067126875e-11,4.026223573178119e-11,2.979561356750391e-11,1.8120924420602857e-11,1.242814409835699e-11,7.8393417867253e-12,4.97979357494075e-12,3.0641907616510055e-12,1.7771110883639735e-12,1.0442060228598309e-12,5.869463543799612e-13,3.274220700654103e-13,1.795495688277364e-13,1.0417694605821056e-13,5.885527290332877e-14,3.3484114193145855e-09,2.4521232065175022e-09,1.7592663559363288e-09,1.1974624458266284e-09,8.264027973939546e-10,6.267335289180675e-10,4.268825430311578e-10,3.4405374074591723e-10,2.512432689881154e-10,1.8232765962084956e-10,1.2515462725331819e-10,9.708442197282144e-11,6.713738094059868e-11,4.759803665273526e-11,3.106291686754582e-11,2.1378369998955737e-11,1.4241337839337336e-11,9.546856438787946e-12,5.66108427316549e-12,3.2738509290291163e-12,2.032201179406796e-12
0.0,37,37.0,0.0,30.0,0.0,0.0,0.0,0.0,-13.0,0.0,2.0,0.0,0.0,0.0,1.393775169419605e-10,8.990890122919559e-11,6.031397609275301e-11,4.223363593431913e-11,2.6851045053165097e-11,1.870978710432168e-11,1.2201449511919224e-11,7.876354146305992e-12,4.994626757438362e-12,3.0314789716020953e-12,1.8212220925112607e-12,1.0442883285849459e-12,6.043914720699066e-13,3.327620108943504e-13,1.8114720388193407e-13,1.0618753804583263e-13,6.195995211744635e-14,3.5314349368796292e-09,2.5514174917403045e-09,1.753704319024731e-09,1.1510556216728893e-09,8.391662324734494e-10,5.803956651736865e-10,4.5944619269646444e-10,3.334810185868602e-10,2.601214224363224e-10,1.7875399262147393e-10,1.3421987497496172e-10,9.759612164673658e-11,6.742318142171356e-11,4.9802631060882876e-11,3.555712706602421e-11,2.2646509786149506e-11,1.4057000302733581e-11,8.934799730958039e-12,5.723008965192364e-12,3.486861396887301e-12,2.0102023956313775e-12
0.0,38,38.0,0.0,30.0,0.0,0.0,0.0,0.0,-13.0,0.0,2.0,0.0,0.0,0.0,1.2974219047451812e-10,9.328374604641744e-11,6.151547342039663e-11,4.268548828658425e-11,3.041591436211903e-11,1.7754964592416082e-11,1.2349879411063682e-11,8.029869079608388e-12,5.083875049269669e-12,3.131718086199247e-12,1.895636214992277e-12,1.0529318187339367e-12,6.125741937772977e-13,3.333310886154855e-13,1.8018674229224003e-13,1.0371767656484452e-13,5.671656208405781e-14,3.0712955145105915e-09,2.487566386684008e-09,1.7275793295838194e-09,1.2008166451684841e-09,8.588594381969388e-10,6.334670130261556e-10,4.658373503384713e-10,3.4817542579981967e-10,2.5430455698448644e-10,1.9485033055639487e-10,1.32810356566496e-10,9.703397992364334e-11,6.67736276969277e-11,4.8864660602951214e-11,3.259100458715496e-11,2.2437988243295284e-11,1.4654036181914613e-11,9.87749445580871e-12,5.657814923746226e-12,3.544943066654474e-12,2.0521550585759194e-12
0.0,39,39.0,0.0,30.0,0.0,0.0,0.0,0.0,-13.0,0.0,2.0,0.0,0.0,0.0,1.4255125285733767e-10,9.229665500807959e-11,6.074472802470564e-11,4.065538638664954e-11,2.8662354745702453e-11,1.972238220692741e-11,1.2438235041651719e-11,8.286143418575799e-12,5.127219115481484e-12,3.1088501619112067e-12,1.984113770349702e-12,1.0382325828330769e-12,6.159774552841297e-13,3.4722728918429005e-13,1.8355882375893394e-13,1.0649186173120583e-13,6.218886396656733e-14,3.292328521775265e-09,2.4383807356374813e-09,1.7309237442678044e-09,1.1749611234026237e-09,8.442910764052634e-10,6.080038953787545e-10,4.593204110866159e-10,3.7294432039730226e-10,2.5158065295524023e-10,1.9116765128332595e-10,1.3858479187832442e-10,1.0551691597180279e-10,6.832535879568095e-11,4.885321979393121e-11,3.276744253956574e-11,2.2561500308525296e-11,1.5098937307884746e-11,9.167452072739887e-12,5.819701420920822e-12,3.650184675308271e-12,2.0809881918487e-12
0.0,40,40.0,0.0,30.0,0.0,0.0,0.0,0.0,-13.0,0.0,2.0,0.0,0.0,0.0,1.3900252855394153e-10,9.197405384906121e-11,6.684361478519858e-11,4.270697223963101e-11,2.868926304158545e-11,1.9014365934994222e-11,1.2976419465094259e-11,8.45467680872364e-12,5.162888507135056e-12,3.2203034849879017e-12,1.9733513480937286e-12,1.1395573103132967e-12,6.541804807397702e-13,3.641730849298574e-13,1.8841235614882284e-13,1.0550512375291651e-13,5.997269856576775e-14,3.238370363605413e-09,2.2868916657661533e-09,1.709993279452556e-09,1.1755844411626325e-09,8.61192201964394e-10,6.311633870880635e-10,4.725800710271864e-10,3.535222957441271e-10,2.5433569475680515e-10,1.8402665943071656e-10,1.432396019335178e-10,9.632304304161682e-11,7.546353268025295e-11,4.991494639305309e-11,3.395999863523184e-11,2.287765366125861e-11,1.457876784528811e-11,9.654889420195612e-12,5.877025032276936e-12,3.4951670184766076e-12,2.128478740166285e-12
0.0,41,41.0,0.0,30.0,0.0,0.0,0.0,0.0,-13.0,0.0,2.0,0.0,0.0,0.0,1.5210961081015188e-10,9.221945353994821e-11,6.427501685869306e-11,4.5504228162857997e-11,2.8809063073305793e-11,2.0166195977083292e-11,1.3140715846803894e-11,8.247913105808707e-12,5.216075581113241e-12,3.349908532698413e-12,1.9266576431174365e-12,1.1797311281200537e-12,6.796159342947243e-13,3.7301327458627365e-13,2.0131281098125612e-13,1.0393699374836209e-13,6.143081550371647e-14,3.258995694750329e-09,2.3655124865738995e-09,1.7452007343528714e-09,1.1593073439991537e-09,8.585402378623708e-10,6.281846603985e-10,4.822545750818355e-10,3.668520790543489e-10,2.540142327897274e-10,1.8737936383307816e-10,1.330652130099446e-10,1.0467454473451816e-10,7.067120522276776e-11,4.921846715469339e-11,3.416824659173593e-11,2.2836725526892788e-11,1.522211557967319e-11,8.906441243957092e-12,5.9065928632247445e-12,3.4765913621896463e-12,2.2267143337177106e-12
0.0,42,42.0,0.0,30.0,0.0,0.0,0.0,0.0,-13.0,0.0,2.0,0.0,0.0,0.0,1.4478157933305156e-10,9.765753146837488e-11,6.977077596011447e-11,4.406112743965143e-11,3.0346539214973316e-11,1.8710477335892052e-11,1.2922442305043787e-11,8.886317389803541e-12,5.37285997606536e-12,3.2205025294268466e-12,1.941821991066993e-12,1.117852514404103e-12,6.739207996125029e-13,3.7646176534534475e-13,1.9952655047207005e-13,1.056076917968695e-13,6.060262080996544e-14,3.178787469369088e-09,2.523974849194172e-09,1.7323546734585466e-09,1.1862758937427649e-09,8.574415755640158e-10,6.456927048791242e-10,4.632592408748267e-10,3.676969397923853e-10,2.667225966776537e-10,1.9836695952851006e-10,1.4313621991991736e-10,1.1047277332375394e-10,7.268990166645575e-11,5.193938098251057e-11,3.7137625621864025e-11,2.336626967251043e-11,1.5885958204194622e-11,9.627952785505305e-12,6.126658470347866e-12,3.570547466941576e-12,2.0625105802880055e-12
0.0,43,43.0,0.0,30.0,0.0,0.0,0.0,0.0,-13.0,0.0,2.0,0.0,0.0,0.0,1.4023755069437079e-10,9.781080238652239e-11,6.68683715092985e-11,4.3261732338264945e-11,2.8632301895747658e-11,1.8649897382749782e-11,1.3791084715723627e-11,8.420055236527113e-12,4.9992067732159805e-12,3.3293761806682874e-12,2.01727856196744e-12,1.143235119989264e-12,7.013730293645467e-13,3.6913413180626576e-13,2.02567585289177e-13,1.0867492042432975e-13,6.037837008513447e-14,3.324911780992668e-09,2.471674030307103e-09,1.7324002057796143e-09,1.2842411706351551e-09,9.213195516301046e-10,6.179385648759401e-10,4.713056510849913e-10,3.588926197305092e-10,2.852210910935849e-10,1.9956729547532818e-10,1.4316369472369564e-10,1.0470585053654017e-10,7.348424093642124e-11,5.101866106325672e-11,3.385472643321388e-11,2.2753551194294632e-11,1.5068684295404223e-11,1.0078978662547835e-11,6.259078750495708e-12,3.7599157746142535e-12,2.1741384924275296e-12
0.0,44,44.0,0.0,30.0,0.0,0.0,0.0,0.0,-13.0,0.0,2.0,0.0,0.0,0.0,1.3492504255298664e-10,1.0444319079662005e-10,6.93610941121152e-11,4.477357772864061e-11,2.9599665094503576e-11,2.007056418568704e-11,1.3101631614121846e-11,8.291230783288427e-12,5.63315678284039e-12,3.2984071527935067e-12,2.067884269920622e-12,1.1673665470319796e-12,6.849685233501924e-13,3.9410914428341733e-13,2.0626950734573015e-13,1.0903193363441677e-13,5.6522806182049604e-14,3.175355814199599e-09,2.395566723385037e-09,1.7980023452960213e-09,1.283592236482714e-09,8.574064883651515e-10,6.703283910192546e-10,4.800089059376226e-10,3.83615133339423e-10,2.7303231943056797e-10,2.0691329732184212e-10,1.5452964506327705e-10,1.0077687951458688e-10,7.524930269546586e-11,5.4328205961744085e-11,3.6196907181613016e-11,2.5080290157773074e-11,1.5104488102047086e-11,1.0075267135432692e-11,6.199763469169991e-12,3.688400836244764e-12,2.0989925715320594e-12
0.0,45,45.0,0.0,30.0,0.0,0.0,0.0,0.0,-13.0,0.0,2.0,0.0,0.0,0.0,1.4938935250028936e-10,1.0626174290868198e-10,7.04804163564179e-11,4.6467339887429964e-11,3.005850831032141e-11,1.9306890937902273e-11,1.3126433283609468e-11,8.30854097853619e-12,5.381144984777508e-12,3.5100921338615553e-12,2.1533899702330304e-12,1.2692193930736457e-12,7.139774227221014e-13,3.8284579392026827e-13,2.126014689103325e-13,1.065346290869772e-13,6.324008220038267e-14,3.0857478942666964e-09,2.5128520635889482e-09,1.7297536680750886e-09,1.326882426288413e-09,8.925273798747251e-10,6.608172208712293e-10,5.127862081595147e-10,3.610415145940378e-10,2.8249877318719706e-10,2.0018825726601733e-10,1.5275304633947433e-10,1.0923731958099664e-10,7.638470589434405e-11,5.4446596879039037e-11,3.59245515025223e-11,2.2229553239717075e-11,1.512864563798897e-11,9.555868140538842e-12,6.234650854862611e-12,3.68401856119454e-12,2.1375451461516213e-12
0.0,46,46.0,0.0,30.0,0.0,0.0,0.0,0.0,-13.0,0.0,2.0,0.0,0.0,0.0,1.4675684784554411e-10,1.0070223712690546e-10,6.963948813032328e-11,4.7561196475866435e-11,3.087337342331476e-11,2.008889274620563e-11,1.3343336756562243e-11,8.30290479497386e-12,5.4110177695811835e-12,3.5769224401075438e-12,2.1682222820130044e-12,1.3301249099102617e-12,6.987224628214817e-13,4.2743972206493007e-13,2.1040582777526282e-13,1.1194178033567067e-13,6.202759067518587e-14,3.2217324492706676e-09,2.426127356794894e-09,1.7640289573741206e-09,1.3306624882762362e-09,8.770660163225993e-10,6.498110607660535e-10,5.116901615419401e-10,3.8055330840341326e-10,2.851809854977575e-10,2.239350096857678e-10,1.5941073395788272e-10,1.1117396789315293e-10,7.508078671947657e-11,5.354375002451922e-11,3.4287793829979505e-11,2.3435618668637708e-11,1.597903209540199e-11,9.643401898601891e-12,6.044328912150188e-12,3.755803554212877e-12,1.9986457793102844e-12
0.0,47,47.0,0.0,30.0,0.0,0.0,0.0,0.0,-13.0,0.0,2.0,0.0,0.0,0.0,1.53473139952806e-10,1.0404685178651441e-10,7.08044854640144e-11,4.9226985036305376e-11,3.068834242564566e-11,2.0436167921573847e-11,1.3134075292326127e-11,8.528871908377004e-12,5.413252717481822e-12,3.3866137414972348e-12,1.9984684727442486e-12,1.219915050429319e-12,7.434729826570052e-13,3.995782315238919e-13,2.1440434456566732e-13,1.1445350228551218e-13,6.261593343888838e-14,3.034279616270636e-09,2.4749636543253488e-09,1.6632862455757596e-09,1.3019389337570555e-09,9.320638022664897e-10,6.389118485328625e-10,5.170907062467051e-10,3.919253870161024e-10,2.785722907674483e-10,2.1198121777783404e-10,1.4691993233289031e-10,1.1341972519116531e-10,7.948043845735646e-11,5.3763075285442595e-11,3.379256402471758e-11,2.4261322638063087e-11,1.5695246810134275e-11,9.807360894226979e-12,5.9324860268106576e-12,3.6597464634940615e-12,2.175087215882276e-12
0.0,48,48.0,0.0,30.0,0.0,0.0,0.0,0.0,-13.0,0.0,2.0,0.0,0.0,0.0,1.5412262214910133e-10,1.064965058610049e-10,7.180882994154062e-11,4.7694006644292295e-11,3.0535779273861127e-11,2.0893937405640748e-11,1.3843769114486813e-11,8.947547753339134e-12,5.740162347439448e-12,3.248733112941865e-12,2.0524613710766023e-12,1.2642360977053554e-12,7.548313921337897e-13,4.2137132685092694e-13,2.1744822149545694e-13,1.2551496872201402e-13,5.861769548877096e-14,3.115854501162561e-09,2.4573969203319204e-09,1.7559087181695857e-09,1.238334454168674e-09,9.65091821381335e-10,6.876083686045472e-10,5.265795408725626e-10,4.0718491425175466e-10,2.861594718985445e-10,2.1679642587274036e-10,1.5414638420441583e-10,1.0801351277211748e-10,8.137080594363272e-11,5.532657703313158e-11,3.7332167360082434e-11,2.4626387391446673e-11,1.6607419047844173e-11,9.31537234198224e-12,6.197572245009116e-12,3.6141111220387848e-12,2.2380872187312814e-12
0.0,49,49.0,0.0,30.0,0.0,0.0,0.0,0.0,-13.0,0.0,2.0,0.0,0.0,0.0,1.6251832382063787e-10,1.0310968248151763e-10,7.462625404272316e-11,4.848957809338747e-11,3.259648289404395e-11,2.148643775475764e-11,1.386478992734118e-11,8.593318305514436e-12,5.5036442612677265e-12,3.5186304797455204e-12,2.1359354417353603e-12,1.316791672629369e-12,6.97531771593756e-13,4.2239217215550397e-13,2.2504464184391932e-13,1.188925868430741e-13,6.306868640597102e-14,2.9280311185625883e-09,2.4570920524377535e-09,1.7900340770621012e-09,1.3803665736269224e-09,9.62910959974096e-10,7.044048859842519e-10,5.136133824459512e-10,3.8827940270037215e-10,2.891585092667707e-10,2.3124160670032453e-10,1.543749524779468e-10,1.083825975872249e-10,8.207948844295063e-11,5.656143524826092e-11,3.7333009570530735e-11,2.5532038975635142e-11,1.6226313322905603e-11,9.79822985342011e-12,6.699159693668008e-12,3.5510632686215944e-12,2.212139957586904e-12
0.0,50,50.0,0.0,30.0,0.0,0.0,0.0,0.0,-13.0,0.0,2.0,0.0,0.0,0.0,1.6594949893437566e-10,1.1355213822936622e-10,7.024395114486319e-11,4.850966516469917e-11,3.124107399703978e-11,2.213592587144167e-11,1.394623630295795e-11,8.824587554205206e-12,5.766534716029687e-12,3.387353904252672e-12,2.104653260950157e-12,1.320560189999667e-12,7.886392161010738e-13,4.219549834697243e-13,2.321668426209526e-13,1.1786975239645357e-13,6.785892260090709e-14,3.203063507963725e-09,2.5041967458175712e-09,1.8875247934188017e-09,1.2887134392289876e-09,9.441929863137954e-10,6.665377244818784e-10,5.316601438171777e-10,4.1306948052728123e-10,3.118331828649083e-10,2.236887192459893e-10,1.5999736748017814e-10,1.1853928476597593e-10,8.191277919627127e-11,5.475158095429915e-11,3.77171907850915e-11,2.5307464320940456e-11,1.5719102033140313e-11,9.429133260487355e-12,6.4945515157181535e-12,3.717289436027723e-12,2.3110884407922765e-12
0.0,51,51.0,0.0,30.0,0.0,0.0,0.0,0.0,-13.0,0.0,2.0,0.0,0.0,0.0,1.6438151978081593e-10,1.0822213299442236e-10,7.716608477881636e-11,5.008271078483237e-11,3.220277536837703e-11,2.2444684638907815e-11,1.3503146133122059e-11,8.312875998033508e-12,5.6572185175085596e-12,3.68271009981817e-12,2.236101175189848e-12,1.313567682118952e-12,7.857767645321201e-13,4.218996069348961e-13,2.2544459746834205e-13,1.2166432518997513e-13,6.324673255386407e-14,3.0186457387836253e-09,2.398113194752247e-09,1.8748350112341853e-09,1.298331257997456e-09,9.399002879643853e-10,7.083850818832284e-10,5.432221494454989e-10,4.1794245932607347e-10,3.1372525904741275e-10,2.3706055784545333e-10,1.6009148640359722e-10,1.18487129774458e-10,8.151531623041619e-11,5.4796034416186896e-11,3.833008079072413e-11,2.3695144297811003e-11,1.622658794555749e-11,1.0346353570110013e-11,6.348270871452185e-12,3.771328975677723e-12,2.2954818069533586e-12
0.0,52,52.0,0.0,30.0,0.0,0.0,0.0,0.0,-13.0,0.0,2.0,0.0,0.0,0.0,1.6087875499942842e-10,1.0726599955671644e-10,7.404860299125485e-11,4.9156489864122444e-11,3.3812091750339045e-11,2.1915106625187465e-11,1.4558684837988786e-11,8.839907399848019e-12,5.672449476391213e-12,3.5925300282408935e-12,2.2519333650963224e-12,1.4035191222260857e-12,7.233651047125182e-13,4.2601965018999424e-13,2.4300013868776906e-13,1.267453662371235e-13,6.163181318239617e-14,2.984535732493102e-09,2.329152120605148e-09,1.7885448392986726e-09,1.3046947572857384e-09,9.972173699440907e-10,7.625860963085225e-10,5.599129443930749e-10,4.1741247729374803e-10,3.069196179540066e-10,2.2362670920060385e-10,1.643899948419128e-10,1.170078532151681e-10,8.609628385116025e-11,5.974385824439979e-11,3.751520440190877e-11,2.4067375717970933e-11,1.613313418733094e-11,9.845186956187712e-12,6.6275008344199504e-12,3.979007754644513e-12,2.3315147669528335e-12
0.0,53,53.0,0.0,30.0,0.0,0.0,0.0,0.0,-13.0,0.0,2.0,0.0,0.0,0.0,1.695757874155044e-10,1.1381537188028691e-10,7.795675248733689e-11,5.0518579324806566e-11,3.365957029317267e-11,2.1693724937094317e-11,1.4537752851350635e-11,8.490168273721456e-12,5.940810259811085e-12,3.722797299599267e-12,2.367386509017907e-12,1.2956991876933468e-12,7.938890366641799e-13,4.428469293182427e-13,2.3083651757037447e-13,1.3295959441841738e-13,6.764236848549931e-14,3.1705360410550898e-09,2.285321143360677e-09,1.7695978258155274e-09,1.3177414268055203e-09,9.78190667022127e-10,6.940838277520495e-10,5.503086417293523e-10,4.2167242401979733e-10,3.122754425299328e-10,2.3391028990414483e-10,1.6581525324136409e-10,1.1511491476488026e-10,8.392418746246023e-11,5.856384902096358e-11,3.877666335936057e-11,2.605894170244117e-11,1.8238575872490463e-11,1.1085157188213145e-11,6.439921620962309e-12,3.791946427050179e-12,2.29998832148888e-12
0.0,54,54.0,0.0,30.0,0.0,0.0,0.0,0.0,-13.0,0.0,2.0,0.0,0.0,0.0,1.6743650042135964e-10,1.1219197629093532e-10,7.78207732297863e-11,5.095745791186145e-11,3.423126428197323e-11,2.216051025280351e-11,1.5525919260175745e-11,8.782734313548206e-12,6.125726292360726e-12,3.404352923649107e-12,2.3265020497968886e-12,1.3205310315163708e-12,8.032737181339846e-13,4.770080755920122e-13,2.4893570058592957e-13,1.337690779141018e-13,7.040383559501734e-14,3.094568342303882e-09,2.370582051129264e-09,1.8510054354726889e-09,1.3713940517978297e-09,1.0175654230774354e-09,7.873097923035232e-10,5.599337997053208e-10,4.4301065320230644e-10,3.084655478023888e-10,2.5024296111688734e-10,1.7117409533908008e-10,1.1752322952080733e-10,8.455914870148419e-11,5.73510510096015e-11,3.662736122332844e-11,2.53041802563762e-11,1.742450406871272e-11,1.0271399572544593e-11,6.696316443218639e-12,4.0330334979751364e-12,2.3700439486317307e-12
0.0,55,55.0,0.0,30.0,0.0,0.0,0.0,0.0,-13.0,0.0,2.0,0.0,0.0,0.0,1.7173600608475319e-10,1.1133428042458026e-10,7.448527902817949e-11,5.146408067159772e-11,3.531470665874671e-11,2.2850195870915878e-11,1.4041097038991623e-11,8.923424264225438e-12,5.8949186699526305e-12,3.740422195461095e-12,2.3319603247977498e-12,1.3709539106457476e-12,8.052698843201305e-13,4.3943976734104703e-13,2.627636667818006e-13,1.319294555194526e-13,7.110731111943624e-14,3.0764926316084568e-09,2.470467797962617e-09,1.868196896628129e-09,1.4014151253958913e-09,1.0018125320043554e-09,7.681891942919635e-10,5.770558722405512e-10,4.3330106049152407e-10,3.3657441988320334e-10,2.42113000992039e-10,1.6639849830715185e-10,1.2285352761318666e-10,8.544398159146707e-11,5.960259014253701e-11,3.880956566338998e-11,2.729740976754522e-11,1.7194546917291754e-11,1.0398615786020484e-11,6.50776509639e-12,4.260341174204357e-12,2.4623812171415957e-12
0.0,56,56.0,0.0,30.0,0.0,0.0,0.0,0.0,-13.0,0.0,2.0,0.0,0.0,0.0,1.7465668389631867e-10,1.1979769098854663e-10,8.117074920045239e-11,4.989634382311395e-11,3.5070377705513724e-11,2.2372905630578117e-11,1.4644122063805577e-11,9.287078716293419e-12,5.705378611440809e-12,3.726844399723473e-12,2.1809782699382872e-12,1.3644380415715268e-12,8.454425862664911e-13,4.753046334799544e-13,2.497581944694427e-13,1.402312971173392e-13,6.825479442324694e-14,3.0096532600961385e-09,2.6100241469336643e-09,1.9108300418670818e-09,1.41326297792287e-09,1.0621552143683079e-09,7.881336658628977e-10,5.776414726438341e-10,4.349366725738363e-10,3.342098182144594e-10,2.461353479555641e-10,1.7986705376569345e-10,1.246752861818309e-10,9.243314281968114e-11,5.775872649555723e-11,4.301655147837888e-11,2.7951025645470398e-11,1.745589397185332e-11,1.0974079278690717e-11,6.626776065548777e-12,3.901188575699088e-12,2.302842337331565e-12
0.0,57,57.0,0.0,30.0,0.0,0.0,0.0,0.0,-13.0,0.0,2.0,0.0,0.0,0.0,1.776531900840341e-10,1.256672810069973e-10,8.099905365270888e-11,5.040680929246869e-11,3.371406256320641e-11,2.338614297146016e-11,1.4776114960313163e-11,9.178593362548848e-12,5.827205817576823e-12,3.61730880249009e-12,2.4401415311405315e-12,1.400019409330245e-12,8.250283507367807e-13,4.654879462704656e-13,2.530227903501654e-13,1.303631876894345e-13,7.146912671527254e-14,3.2161915713104973e-09,2.4284623848046082e-09,1.9089922979758307e-09,1.4511910015424382e-09,1.075640938226699e-09,7.687427213716697e-10,5.941221257356625e-10,4.531962411344007e-10,3.5311831663858643e-10,2.5548504870091785e-10,1.7701387544807514e-10,1.1967622519661786e-10,8.858384730544337e-11,5.936707237058018e-11,4.2282062702427006e-11,2.6407486838028167e-11,1.7113466112388313e-11,1.1002937992373975e-11,6.715267626225775e-12,3.9233119585560235e-12,2.4578187858333347e-12
0.0,58,58.0,0.0,30.0,0.0,0.0,0.0,0.0,-13.0,0.0,2.0,0.0,0.0,0.0,1.7237320461940847e-10,1.0837522038812632e-10,7.578521053075253e-11,5.365735343892492e-11,3.50599950464688e-11,2.183876297336945e-11,1.4072219046375522e-11,9.555188636430781e-12,6.309696629097483e-12,3.829284845248933e-12,2.2773677542295174e-12,1.4325205881295238e-12,8.1293123720078e-13,4.434405368564703e-13,2.639474549198747e-13,1.3994572801262002e-13,7.402923979670161e-14,3.1678218557576156e-09,2.46456304965647e-09,1.9499266810126736e-09,1.3853763486574678e-09,1.0200080771452597e-09,7.567580661981883e-10,5.967753376956946e-10,4.667586141489662e-10,3.5007579128157166e-10,2.436960522906808e-10,1.8261134459345556e-10,1.310699791144675e-10,9.231668615402565e-11,6.24024856673756e-11,4.044476690445495e-11,2.734504018163409e-11,1.7096319313206312e-11,1.0681348000819437e-11,7.094074514651347e-12,4.143095991386351e-12,2.3676000814353014e-12
0.0,59,59.0,0.0,30.0,0.0,0.0,0.0,0.0,-13.0,0.0,2.0,0.0,0.0,0.0,1.7567194309519462e-10,1.1905799431518132e-10,8.085758687945837e-11,5.5414436696059736e-11,3.6197095785553516e-11,2.3210790405523325e-11,1.5423004843925962e-11,9.446544078782441e-12,6.430523683516783e-12,3.873883825176391e-12,2.189147684077492e-12,1.3999566063577276e-12,8.331349722036019e-13,5.067538770698086e-13,2.649322321459892e-13,1.41111438698884e-13,7.529523183993546e-14,3.2139461317624286e-09,2.3281258855628646e-09,1.959574343413411e-09,1.3831332899513536e-09,1.0777511109502923e-09,8.045616720742816e-10,6.362199876788935e-10,5.071449868837496e-10,3.303038971341954e-10,2.5773490576538007e-10,1.8987052262926143e-10,1.297812891841177e-10,8.943468147917389e-11,6.579841071972744e-11,4.170645507786697e-11,2.7418615846511096e-11,1.788394188477045e-11,1.1028535449411866e-11,6.986312090634233e-12,3.951489190739012e-12,2.3298879321156414e-12
0.0,60,60.0,0.0,30.0,0.0,0.0,0.0,0.0,-13.0,0.0,2.0,0.0,0.0,0.0,1.8110233580436615e-10,1.2541483679834655e-10,8.364192248974623e-11,5.695607735149168e-11,3.559799354732093e-11,2.371255043587959e-11,1.5765252335030253e-11,9.739314247212062e-12,6.29865493524604e-12,3.70765599598511e-12,2.430154164631859e-12,1.4464313654590057e-12,8.377068608648381e-13,4.705239233730161e-13,2.687658274990672e-13,1.4567195102996968e-13,7.467841787284505e-14,3.10430067429448e-09,2.5773537009105864e-09,2.008301367792344e-09,1.4222619902067012e-09,1.0916729496079033e-09,8.160174954775522e-10,6.322899559317806e-10,4.725894265364057e-10,3.5959073589705816e-10,2.4983697501820806e-10,1.8731254819404933e-10,1.4408108961981474e-10,8.70848965369399e-11,6.302490965555854e-11,4.11477501369314e-11,2.8217320267378008e-11,1.8549262815056798e-11,1.1413406240194631e-11,7.218124582477417e-12,4.196743811405731e-12,2.4935368894531056e-12
0.0,61,61.0,0.0,30.0,0.0,0.0,0.0,0.0,-13.0,0.0,2.0,0.0,0.0,0.0,1.867628899383073e-10,1.2077846355730936e-10,8.395670855194632e-11,5.553192062810072e-11,3.6556571789773145e-11,2.4300134159188058e-11,1.500031784410413e-11,9.839964864525309e-12,6.053729968895249e-12,3.965825333620671e-12,2.3390451502565963e-12,1.4617588044590123e-12,8.26498057464808e-13,4.923445250537784e-13,2.7547074741151277e-13,1.503055686208384e-13,7.62828825958827e-14,3.1855607926727574e-09,2.500707722140591e-09,1.9635481195534215e-09,1.4589658510437424e-09,1.1236742233184899e-09,8.5282392818028e-10,6.506942508030082e-10,4.878876661665114e-10,3.719407445187096e-10,2.601150590698719e-10,1.9813346676039515e-10,1.3526908503336337e-10,9.161108311480345e-11,6.475216858379879e-11,4.3112224547322694e-11,2.8355361670261982e-11,1.8737735270270967e-11,1.1212734782584489e-11,6.773470446924402e-12,4.185632724151392e-12,2.367417729948765e-12
0.0,62,62.0,0.0,30.0,0.0,0.0,0.0,0.0,-13.0,0.0,2.0,0.0,0.0,0.0,1.8952291175183466e-10,1.2910673813440806e-10,8.068751618377167e-11,5.751095597928015e-11,3.727300959918224e-11,2.4116476694108046e-11,1.4813763556688593e-11,9.573939456334924e-12,6.10168187363075e-12,3.837517342388301e-12,2.40965229508351e-12,1.5144650995112697e-12,8.782073966616503e-13,4.914774854982036e-13,2.7100275702326956e-13,1.5385739334519013e-13,7.738587757752944e-14,3.23221907644091e-09,2.472280604369441e-09,2.004028175242736e-09,1.4684063402787668e-09,1.1271206791458563e-09,8.37081144090072e-10,6.478529509838529e-10,4.863064278686093e-10,3.48865487379803e-10,2.567569112103746e-10,1.9377314128043446e-10,1.3675587921161817e-10,9.266156309473083e-11,6.392014353409048e-11,4.432294294370208e-11,2.98384180517358e-11,1.8879116397565437e-11,1.1461715700824657e-11,7.062447327119877e-12,4.06629573867797e-12,2.463375157470388e-12
0.0,63,63.0,0.0,30.0,0.0,0.0,0.0,0.0,-13.0,0.0,2.0,0.0,0.0,0.0,1.9407569600748636e-10,1.2711503419439407e-10,8.401146405072474e-11,5.670720265290694e-11,3.781056220519571e-11,2.449483317794385e-11,1.6300111006716843e-11,9.914566754714955e-12,6.320035338418489e-12,4.021168763260304e-12,2.4092527455043707e-12,1.5032002118364792e-12,8.86266428599897e-13,5.122768658402116e-13,2.73957709211064e-13,1.5711940639469241e-13,7.382288576420147e-14,3.1353666494283647e-09,2.6290657643586914e-09,1.942945745866937e-09,1.5764193821037386e-09,1.1185682006020111e-09,8.285498188341649e-10,6.870847533265022e-10,4.897894489893608e-10,3.5941421102935993e-10,2.8169539106385266e-10,1.8660271708438193e-10,1.3600493453703645e-10,9.670986163576892e-11,6.453507900891949e-11,4.364965350347736e-11,3.0432587113881353e-11,1.9677313863363832e-11,1.2099721527345557e-11,6.962931918508454e-12,4.224081220778193e-12,2.4535237648018134e-12
