Line_number,Fiducial,Easting,Northing,Height,Elevation,tx_pitch,tx_roll,tx_yaw,txrx_dx,txrx_dy,txrx_dz,rx_pitch,rx_roll,rx_yaw,S0Z_time_7.292e-05,S0Z_time_7.642e-05,S0Z_time_8.092e-05,S0Z_time_8.642e-05,S0Z_time_9.341e-05,S0Z_time_1.024e-04,S0Z_time_1.139e-04,S0Z_time_1.284e-04,S0Z_time_1.464e-04,S0Z_time_1.689e-04,S0Z_time_1.969e-04,S0Z_time_2.324e-04,S0Z_time_2.779e-04,S0Z_time_3.349e-04,S0Z_time_4.069e-04,S0Z_time_4.979e-04,S0Z_time_6.119e-04,S0Z_time_7.559e-04,S0Z_time_9.373e-04,S0Z_time_1.166e-03,S0Z_time_1.454e-03,S0Z_time_1.818e-03,S0Z_time_2.276e-03,S0Z_time_2.855e-03,S0Z_time_3.574e-03,S0Z_time_4.454e-03,S0Z_time_5.530e-03,S0Z_time_6.849e-03,S0Z_time_8.463e-03,S0Z_time_1.044e-02,S1Z_time_1.273e-05,S1Z_time_1.623e-05,S1Z_time_2.073e-05,S1Z_time_2.623e-05,S1Z_time_3.323e-05,S1Z_time_4.222e-05,S1Z_time_5.373e-05,S1Z_time_6.822e-05,S1Z_time_8.622e-05,S1Z_time_1.087e-04,S1Z_time_1.367e-04,S1Z_time_1.722e-04,S1Z_time_2.177e-04,S1Z_time_2.747e-04,S1Z_time_3.467e-04,S1Z_time_4.377e-04,S1Z_time_5.517e-04,S1Z_time_6.957e-04,S1Z_time_8.772e-04,S1Z_time_1.106e-03,S1Z_time_1.394e-03
0.0,0,0.0,0.0,30.0,0.0,0.0,0.0,0.0,-13.0,0.0,2.0,0.0,0.0,0.0,3.0841806326895796e-10,2.8159781444262795e-10,2.5863826282276775e-10,2.1665084793150422e-10,2.038326766109354e-10,1.7066583597709009e-10,1.5255181856081978e-10,1.2369617743320933e-10,9.956294313451419e-11,8.252853492366459e-11,6.307778314518016e-11,4.735101381335174e-11,3.272780633771795e-11,2.092559680023543e-11,1.460250772790527e-11,8.529139219352547e-12,4.674250451694901e-12,2.683695222228862e-12,1.4926998416491793e-12,7.843504860151214e-13,3.6183918353040784e-13,1.6997427524779308e-13,8.020669553131876e-14,3.701121662305872e-14,1.841814210630452e-14,7.179572886125636e-15,3.487714978502111e-15,-6.868655063670296e-16,2.364366094279616e-16,-1.644434712961583e-16,7.227442886801172e-09,3.983652461855642e-09,2.1015529945984136e-09,1.075849764315845e-09,6.461152561652053e-10,3.9483098693686896e-10,2.730224110447638e-10,1.8338263420200063e-10,1.421663019169827e-10,1.0948923205993069e-10,8.007077066796116e-11,5.954600218665722e-11,3.740383936020598e-11,2.2689978694129976e-11,1.3552111796223166e-11,7.53913736861724e-12,4.371943366988316e-12,2.307003655136244e-12,1.0625194466831607e-12,4.847187229297267e-13,2.2577058184902978e-13
0.0,1,1.0,0.0,30.0,0.0,0.0,0.0,0.0,-13.0,0.0,2.0,0.0,0.0,0.0,3.198366848491172e-10,2.682356535783376e-10,2.4766089365705527e-10,2.2016373717781278e-10,1.9321541043301127e-10,1.639859108885894e-10,1.4441106557142537e-10,1.2220160142352735e-10,1.0431372657281763e-10,8.408476186333409e-11,6.479608989762561e-11,4.809279756086059e-11,3.482029643041222e-11,2.5238337160930044e-11,1.4826166878646707e-11,9.343942289316086e-12,5.659428602364858e-12,3.5193584969020244e-12,1.8160002161714786e-12,9.216844550949755e-13,4.3865012510360813e-13,2.3208570394230707e-13,1.04392694907686e-13,4.925085959343469e-14,2.1719290623867507e-14,1.0324220029325486e-14,4.540749315118536e-15,2.009902471839071e-15,1.5082684697024454e-15,1.234421723905378e-15,7.107740022631013e-09,3.901579714184322e-09,2.0354801294220717e-09,1.0735722722649148e-09,6.24461675598375e-10,3.7081826689362724e-10,2.641095187228804e-10,1.7519615381510338e-10,1.4179187842967333e-10,1.0933567826204295e-10,7.821052638255963e-11,5.3533993380365226e-11,3.695590388400019e-11,2.4039222391670607e-11,1.504411086469531e-11,8.530922496654009e-12,4.985439546857607e-12,2.577900558977953e-12,1.2249239173712507e-12,6.149217802777411e-13,2.7252389670899525e-13
0.0,2,2.0,0.0,30.0,0.0,0.0,0.0,0.0,-13.0,0.0,2.0,0.0,0.0,0.0,2.9110951924444467e-10,2.729195573337348e-10,2.493028137105744e-10,2.0562303496547016e-10,1.9246388982261498e-10,1.6385595682673867e-10,1.410135577435033e-10,1.2330085909165662e-10,9.95566699287557e-11,8.561903675964099e-11,6.240814002267622e-11,4.8710125067045386e-11,3.463252915921952e-11,2.474318362463624e-11,1.694891125708381e-11,1.1148845060973078e-11,6.9069384125352084e-12,3.8701781662044655e-12,2.185556861152759e-12,1.1104842359905753e-12,5.938923099344449e-13,2.8607054268959825e-13,1.3554003009477847e-13,6.279414789714762e-14,2.910562161370432e-14,1.2236944365039557e-14,4.892918509151551e-15,1.4137133927323744e-15,1.7845275430791745e-15,1.3444840740170496e-16,7.004720607837365e-09,3.921352837477918e-09,1.9812844397481983e-09,1.141663542518855e-09,6.170750204695338e-10,3.7865663298433333e-10,2.4586488814603527e-10,1.6800067144288165e-10,1.2722716634447393e-10,9.364169343030308e-11,7.104649949505517e-11,5.470494831310081e-11,3.7114880399826965e-11,2.4631197275023707e-11,1.5075494290335727e-11,9.141105307279558e-12,5.483756501875975e-12,2.924819807622165e-12,1.4816716647556998e-12,6.790810322547996e-13,3.0905838588729e-13
0.0,3,3.0,0.0,30.0,0.0,0.0,0.0,0.0,-13.0,0.0,2.0,0.0,0.0,0.0,2.934889081285324e-10,2.7528359559998997e-10,2.3586624161627037e-10,2.0727083931118532e-10,1.838141701899066e-10,1.6579602324607661e-10,1.308126907916253e-10,1.1371141556036833e-10,9.116134548283129e-11,8.257806787155093e-11,5.871545111654256e-11,4.7770275878039435e-11,3.377270257730136e-11,2.5535060726990485e-11,1.6996981895339537e-11,1.1653534748957575e-11,6.943328307474522e-12,4.199394941312759e-12,2.2943796834570162e-12,1.2824373627235375e-12,7.026839962285888e-13,3.443538337409633e-13,1.649433142011034e-13,8.020968103419445e-14,3.5365094387897275e-14,1.610748690111786e-14,6.614328799651609e-15,5.4512725346173885e-15,1.1567793592409158e-15,1.5396684067952667e-15,7.3202393349285754e-09,3.909108783635276e-09,1.97324715257665e-09,1.1329941787153495e-09,6.258657559664775e-10,3.7013859266682657e-10,2.508876539984811e-10,1.7046396666543736e-10,1.283442938311996e-10,9.237803521506135e-11,7.433805665462293e-11,5.380073671169247e-11,3.6697653452383664e-11,2.3391294203551507e-11,1.5852509988238002e-11,1.0090781977349766e-11,5.7961972531656225e-12,3.401892720571559e-12,1.6002137381822473e-12,8.292167335280564e-13,3.712857749963733e-13
0.0,4,4.0,0.0,30.0,0.0,0.0,0.0,0.0,-13.0,0.0,2.0,0.0,0.0,0.0,2.977969866137344e-10,2.8711889611751023e-10,2.34362951716938e-10,2.0648085720452554e-10,1.7103524452852062e-10,1.5133633343882005e-10,1.2833879177646097e-10,1.1678681699096839e-10,9.232623385538685e-11,7.107579526714315e-11,6.099697696239657e-11,4.765303679526591e-11,3.9991612692902234e-11,2.6293830601395177e-11,1.7978033103853144e-11,1.205769191216583e-11,7.700656496506022e-12,4.548794310801518e-12,2.80623048156377e-12,1.489429661027569e-12,8.10554062034685e-13,4.175352685092828e-13,1.888576113502922e-13,9.042655181253226e-14,4.299112969137396e-14,1.9219181225528443e-14,8.13316163307657e-15,4.024764496233549e-15,3.325804284540697e-15,1.973852833991344e-15,7.135632030486731e-09,3.8481396057410675e-09,1.9773680537392095e-09,1.0702031830217249e-09,6.38737883198836e-10,3.8962231507191826e-10,2.501500290258092e-10,1.7099231757309475e-10,1.2923543686234064e-10,9.236726245154706e-11,6.676844548219206e-11,5.2185468107093714e-11,3.697949144702093e-11,2.436514342940902e-11,1.6900721261801672e-11,1.0503961643257323e-11,6.079553668838246e-12,3.4364609042301958e-12,1.878678976275402e-12,9.088283018626096e-13,4.477732601831007e-13
0.0,5,5.0,0.0,30.0,0.0,0.0,0.0,0.0,-13.0,0.0,2.0,0.0,0.0,0.0,3.02544338842281e-10,2.8412742599949504e-10,2.4212906873968065e-10,1.994278156341265e-10,1.8336600505070397e-10,1.528139683494098e-10,1.2968290311073696e-10,1.0595069742748633e-10,8.891838720707663e-11,7.383835893177926e-11,6.383579777767518e-11,4.971209451066228e-11,3.5695832071992684e-11,2.8463909004095464e-11,1.8133571990604854e-11,1.2816711603804329e-11,8.227485283069039e-12,5.120892453501571e-12,3.134147698947674e-12,1.7215375318372198e-12,8.830123236875606e-13,4.69485241191124e-13,2.2732154215083553e-13,1.1293803532181782e-13,5.1542351064623574e-14,2.382346029117401e-14,8.707065802370098e-15,5.248428927088619e-15,4.914948876468056e-16,2.2574874707961867e-15,6.874570735218939e-09,3.816933024574949e-09,2.0579441051011725e-09,1.0915935791742903e-09,6.288774615736041e-10,3.672094861768026e-10,2.434479224002695e-10,1.6536678968915813e-10,1.2120606348287598e-10,8.591308679423108e-11,6.559768770528127e-11,4.9684570582187414e-11,3.537577294023963e-11,2.3940736632282393e-11,1.622190340417647e-11,1.0480295278844444e-11,6.520527597898116e-12,3.635335220690645e-12,1.9838069899591386e-12,1.0080374992871525e-12,4.874973588988262e-13
0.0,6,6.0,0.0,30.0,0.0,0.0,0.0,0.0,-13.0,0.0,2.0,0.0,0.0,0.0,2.94438053616119e-10,2.6895991746085255e-10,2.4258948518184983e-10,2.218141991386207e-10,1.7825141310158562e-10,1.6352636953619455e-10,1.2765825705524387e-10,1.0914157904842846e-10,8.853380239335052e-11,7.774268912849523e-11,6.206742548482848e-11,4.9243162049515496e-11,3.636105165470443e-11,2.5722335564799313e-11,1.8661860960156537e-11,1.3863316079153442e-11,9.003662328177178e-12,5.213234228046121e-12,3.266176256677477e-12,1.945252729318029e-12,1.0127783251891676e-12,4.977685184808322e-13,2.60557659274152e-13,1.279990779815649e-13,5.955469178971076e-14,2.6471224640164493e-14,1.1349600513430456e-14,6.7347374021730774e-15,2.2389849799878423e-15,-1.0673527869276804e-16,7.168353164756154e-09,3.764756355246855e-09,2.005391546005568e-09,1.0811969998532938e-09,6.289694418591348e-10,4.047000652745709e-10,2.557214274893484e-10,1.6930540829797162e-10,1.2877568309787818e-10,8.630798023754466e-11,6.859301211724502e-11,4.607679550025159e-11,3.37660507654106e-11,2.5335016137949187e-11,1.626609374087023e-11,1.050913592851014e-11,6.252736791858009e-12,3.776147681382833e-12,2.076770606143294e-12,1.0789814578816133e-12,5.465278209674079e-13
0.0,7,7.0,0.0,30.0,0.0,0.0,0.0,0.0,-13.0,0.0,2.0,0.0,0.0,0.0,3.001271681335305e-10,2.823098309183419e-10,2.416879623235454e-10,2.1234651053934625e-10,1.8000987350774988e-10,1.550137559591329e-10,1.326796800046208e-10,1.055318237545377e-10,8.802656290862032e-11,7.217333262199331e-11,5.3463601067455545e-11,4.6864117585798555e-11,3.51853903472112e-11,2.6236342015868733e-11,1.8775113379443707e-11,1.3639652175801045e-11,9.174304424755914e-12,5.659537034446945e-12,3.684148911657023e-12,1.9799534391873445e-12,1.129710040224119e-12,5.868887035671354e-13,2.941816319396848e-13,1.4754140427339228e-13,6.795682546446275e-14,3.120720066321513e-14,1.4205761269942593e-14,3.4333417079437713e-15,1.921018134984513e-15,7.701523903613336e-16,6.940160301676525e-09,3.759748938601141e-09,2.0592929296598173e-09,1.102935121462508e-09,6.515960138111383e-10,3.678085121977827e-10,2.551703162057164e-10,1.7803800353987267e-10,1.2577704795050056e-10,8.790191184028973e-11,6.426934302897114e-11,4.567578456280086e-11,3.3684076627998075e-11,2.370021061926092e-11,1.6897586303030693e-11,1.0541218236108602e-11,6.434316032467712e-12,3.776054306704133e-12,2.1084675856140084e-12,1.0733924057440249e-12,5.522871993426829e-13
0.0,8,8.0,0.0,30.0,0.0,0.0,0.0,0.0,-13.0,0.0,2.0,0.0,0.0,0.0,2.903868502709611e-10,2.849266545828003e-10,2.499083878511412e-10,2.2065051152486592e-10,1.8699558727957768e-10,1.5507062929374456e-10,1.343464886483188e-10,1.1086249313990217e-10,9.162798167242604e-11,7.227203828143514e-11,5.671695167349698e-11,4.7727661874075885e-11,3.6708616101064854e-11,2.722163191872365e-11,1.9627082801880528e-11,1.3237682871867143e-11,9.371254210351631e-12,5.967865985427046e-12,3.780209785780985e-12,2.16040477430345e-12,1.176578793717576e-12,6.483925961502635e-13,3.3441342329448787e-13,1.6184270608414038e-13,8.28831892271432e-14,3.6676817125900736e-14,1.654437126563434e-14,8.297221741065234e-15,2.9334809820994988e-15,1.4011333097160171e-15,6.928755833351898e-09,3.64305554233679e-09,1.99435666394263e-09,1.0618502925964092e-09,6.56846413224273e-10,3.8624207991695077e-10,2.654962580077619e-10,1.7523499087301368e-10,1.264008954896188e-10,8.577527902348794e-11,6.251394741470727e-11,4.588595156432369e-11,3.302442840641062e-11,2.285229311784095e-11,1.606397970977002e-11,1.0883918087768119e-11,6.729055040249224e-12,4.116799039399631e-12,2.266911739499515e-12,1.2271424259927871e-12,6.424996451828874e-13
0.0,9,9.0,0.0,30.0,0.0,0.0,0.0,0.0,-13.0,0.0,2.0,0.0,0.0,0.0,3.012362985149317e-10,2.679092356399318e-10,2.638278856081064e-10,2.2155507893689456e-10,1.820690234413955e-10,1.5748251253329767e-10,1.3223229480069022e-10,1.0433265327322675e-10,8.321883843213881e-11,6.878555447205433e-11,5.7827851618957076e-11,4.522490319238394e-11,3.724245833483625e-11,2.4681566780040024e-11,1.9268941670840518e-11,1.3579675781926645e-11,9.566824671136896e-12,6.354105122561732e-12,3.828623438524126e-12,2.271287581484487e-12,1.2559833987378926e-12,7.15821815498279e-13,3.625959985403381e-13,1.8560246022343138e-13,9.081186128595663e-14,4.201027243297723e-14,2.047593943573314e-14,8.828932091007437e-15,3.2269716868647068e-15,1.5356184515690031e-15,6.56539531439326e-09,3.6859104075302894e-09,1.9910529453225655e-09,1.060433304778778e-09,6.518321464938584e-10,3.9031536507221037e-10,2.5650053510153673e-10,1.8886598321994456e-10,1.2194729334024434e-10,8.550174766538278e-11,5.935191322327286e-11,4.717459679402053e-11,3.2541959661285345e-11,2.3897357174336918e-11,1.6118353999107648e-11,1.1407040013540337e-11,6.793993108474206e-12,4.131139950113937e-12,2.2219381795031938e-12,1.27721293556552e-12,6.515487681736919e-13
0.0,10,10.0,0.0,30.0,0.0,0.0,0.0,0.0,-13.0,0.0,2.0,0.0,0.0,0.0,3.055722960111314e-10,2.9364336424819087e-10,2.590830398755341e-10,2.119733642158942e-10,1.869093641937406e-10,1.5567362387377515e-10,1.3174299098102177e-10,1.1123344039207871e-10,8.769380659206341e-11,6.898339358748923e-11,5.7042878307080345e-11,4.418056877657855e-11,3.491697154525052e-11,2.6468672329108592e-11,1.9619521401343226e-11,1.3656730199552208e-11,9.852820517500738e-12,6.370688930105725e-12,3.986754525815286e-12,2.3584595563986792e-12,1.30384558502475e-12,7.57012790842944e-13,3.8860284301928514e-13,1.9735703926549907e-13,1.0131670495551544e-13,4.6780028982551815e-14,2.2304120059601004e-14,9.523577506764389e-15,3.869973484932406e-15,1.937560579355913e-15,7.0584485914844876e-09,3.6051030107446196e-09,1.910705110496879e-09,1.084927315917912e-09,6.267562322085389e-10,3.9465648543785117e-10,2.5443735782782317e-10,1.8193088908071057e-10,1.2895591927480112e-10,8.794790949404672e-11,6.497675096326666e-11,4.386664054876669e-11,3.412850032622185e-11,2.1695615078555513e-11,1.659172944892153e-11,1.0578955857744592e-11,6.763492758192802e-12,3.876937843346106e-12,2.206191118680758e-12,1.3895225340181052e-12,7.084296250103751e-13
0.0,11,11.0,0.0,30.0,0.0,0.0,0.0,0.0,-13.0,0.0,2.0,0.0,0.0,0.0,2.9892831160411154e-10,2.7400567927014345e-10,2.5353337128486804e-10,2.1576065951656016e-10,1.861702321951172e-10,1.5612098379693393e-10,1.3473200314000788e-10,1.0905039266584522e-10,9.00082614329037e-11,7.048785144204359e-11,5.622646675651394e-11,4.693993575272281e-11,3.35315094195905e-11,2.6656322507501644e-11,1.8655095030446365e-11,1.4036308702813421e-11,9.10821513011418e-12,6.7722701700606476e-12,3.9662090464538284e-12,2.475291168518839e-12,1.421350010418643e-12,8.052649866481284e-13,4.250917908655691e-13,2.0944391720369712e-13,1.099421876749713e-13,5.470745987707703e-14,2.367059423736981e-14,1.0920934861367261e-14,6.0074992161638886e-15,1.7411811356829412e-15,7.0748679872561624e-09,3.686131840844499e-09,1.9647299482561197e-09,1.0517628239130288e-09,6.169575337571637e-10,4.114600607935632e-10,2.5451156817389896e-10,1.6938403971368784e-10,1.1627762983689464e-10,9.003230093235979e-11,5.916285592411344e-11,4.451847325598851e-11,3.152599549071905e-11,2.2122164804923443e-11,1.4227323311229862e-11,1.036357465437955e-11,6.641093232076947e-12,3.825082370132492e-12,2.425856544269861e-12,1.3069582990320492e-12,7.176328245233828e-13
0.0,12,12.0,0.0,30.0,0.0,0.0,0.0,0.0,-13.0,0.0,2.0,0.0,0.0,0.0,3.17400761508697e-10,2.8328333778104057e-10,2.5951554734567743e-10,2.2538885586872255e-10,1.8706408801913458e-10,1.6405697967530216e-10,1.4044766272072322e-10,1.1339209883439949e-10,9.034388069232109e-11,7.23385231621234e-11,5.6196761778037465e-11,4.6222171898374196e-11,3.68238693525801e-11,2.6603929545741066e-11,1.8915704287337732e-11,1.3712510988782522e-11,9.971623446776885e-12,6.478538629416171e-12,4.159823564062497e-12,2.601638518144108e-12,1.4716755638419876e-12,8.676172853592405e-13,4.814794520884618e-13,2.344822220404584e-13,1.2107816660341944e-13,5.829591694535365e-14,2.8302864064944263e-14,1.2401144117971959e-14,3.628055803440679e-15,3.3466726785494326e-15,6.871199396600774e-09,3.55349224580521e-09,1.8631775935097025e-09,1.0039118749465485e-09,6.315505097257652e-10,3.9928187468198723e-10,2.5350429699218784e-10,1.7430502057054032e-10,1.3026367444595314e-10,8.996908579075514e-11,6.487436875494416e-11,4.834105083946695e-11,3.240149313955569e-11,2.288508416795658e-11,1.4737061413776085e-11,1.0088460307949167e-11,6.502592499095173e-12,4.049296649201042e-12,2.494473598843029e-12,1.43942943279358e-12,7.044397672946766e-13
0.0,13,13.0,0.0,30.0,0.0,0.0,0.0,0.0,-13.0,0.0,2.0,0.0,0.0,0.0,3.1946302783934645e-10,3.012771036213306e-10,2.767330294678351e-10,2.250501543508245e-10,1.975512573540506e-10,1.696986286172415e-10,1.2417217315983746e-10,1.1634485700140583e-10,9.33010208095544e-11,7.257133313264631e-11,5.821229079944389e-11,4.3674563296624635e-11,3.4648105838159544e-11,2.508420517135657e-11,1.923455718019572e-11,1.4503686212404223e-11,1.018777255990128e-11,6.8484311062103355e-12,4.2082598331368186e-12,2.709732603994443e-12,1.5580147031239983e-12,8.517938126850947e-13,5.240331476563576e-13,2.507142061185476e-13,1.273292859661376e-13,6.126335893197567e-14,2.996764968308231e-14,1.4556041349316797e-14,6.3512487763482006e-15,2.3679132135286944e-15,6.906265519816557e-09,3.776538984232251e-09,1.8609535617061764e-09,1.0506041916266123e-09,6.234432390308161e-10,4.0518294218360674e-10,2.586561302470429e-10,1.9155701391489674e-10,1.334836705121668e-10,9.427653168313069e-11,6.702345266659369e-11,4.7676644743793755e-11,3.029963602143492e-11,2.1745207307048912e-11,1.5312120670523758e-11,1.0661089431609939e-11,6.495855531787925e-12,4.169596006886647e-12,2.3992658226217828e-12,1.4307922557224434e-12,7.917190657204836e-13
0.0,14,14.0,0.0,30.0,0.0,0.0,0.0,0.0,-13.0,0.0,2.0,0.0,0.0,0.0,3.303217647463671e-10,2.9703943977076305e-10,2.529650495657892e-10,2.3064782789976713e-10,2.0144136117785969e-10,1.6208653872834378e-10,1.3568713613252943e-10,1.1613655432712045e-10,9.344056629238531e-11,7.053771016817883e-11,5.935336307194875e-11,4.62291411992701e-11,3.279409690464119e-11,2.5643118701572253e-11,1.9703186178972362e-11,1.4297681571499e-11,9.593776785865178e-12,6.779119690903216e-12,4.3458133160897566e-12,2.6378958297644944e-12,1.5995060808891668e-12,9.414932743389574e-13,5.208279910707765e-13,2.870365051705345e-13,1.4323979843923907e-13,6.732173531264859e-14,3.218373339166423e-14,1.444501609221293e-14,6.532746343705096e-15,2.7503902363367225e-15,6.7879545185240825e-09,3.3952968180005514e-09,1.8446098577087878e-09,1.0859546199149694e-09,6.271863011789869e-10,4.0828837355075464e-10,2.6159049544083154e-10,1.872617431585272e-10,1.3470697905706888e-10,9.590796116282015e-11,6.604031047039535e-11,4.512444193532521e-11,3.288945767889506e-11,2.2174478748704398e-11,1.508165878852493e-11,1.0438120193212715e-11,6.441027437887561e-12,4.074500373974917e-12,2.4317645632663836e-12,1.4136701477509384e-12,7.689756390804681e-13
0.0,15,15.0,0.0,30.0,0.0,0.0,0.0,0.0,-13.0,0.0,2.0,0.0,0.0,0.0,3.0372562382406556e-10,2.908515057117729e-10,2.6331773100389374e-10,2.3090544868945787e-10,2.0007731774629286e-10,1.705946355837993e-10,1.3848458769422864e-10,1.0730071901325406e-10,9.295899664767307e-11,7.555726657956625e-11,5.722305370502139e-11,4.333463557373837e-11,3.39211967822019e-11,2.650894556096656e-11,1.8959446210772524e-11,1.4150204744417007e-11,1.0092018322332025e-11,7.185601164737728e-12,4.238240209294466e-12,2.7160618474599064e-12,1.599976863726226e-12,1.0231778703810488e-12,5.358579328811527e-13,2.7894396932093626e-13,1.4819084728395138e-13,7.543612815163128e-14,3.4412830717157296e-14,1.444178115799468e-14,7.297069604583397e-15,3.643364595448534e-15,6.9706053107893096e-09,3.5945776784025697e-09,1.8960249758170635e-09,1.0255700345269024e-09,6.278992257071976e-10,3.8838145333587667e-10,2.8243297664444193e-10,1.9880071255928486e-10,1.3388819580538364e-10,9.212271455136696e-11,6.511937751692154e-11,4.548308814958964e-11,3.125096640748188e-11,2.2444239458283495e-11,1.474919839014862e-11,9.438626293075865e-12,6.1440255502916465e-12,4.054713508117114e-12,2.4420469301000502e-12,1.436350758893572e-12,8.068809906055662e-13
0.0,16,16.0,0.0,30.0,0.0,0.0,0.0,0.0,-13.0,0.0,2.0,0.0,0.0,0.0,3.2614655661824643e-10,3.0988490048809444e-10,2.4542259676822713e-10,2.1844319982367741e-10,2.0410468325491938e-10,1.7308884370642277e-10,1.4719771581480845e-10,1.125116236510897e-10,9.514062374217077e-11,7.614097216397815e-11,6.014599238544681e-11,4.6142129167150263e-11,3.538434758286796e-11,2.4942209333526505e-11,1.977162951544124e-11,1.3783976294025298e-11,9.813073295375162e-12,6.792587663887329e-12,4.533559079817659e-12,2.927064040721942e-12,1.7487552203922465e-12,1.0627850875579375e-12,5.735351714103948e-13,3.09097356138138e-13,1.4973837812689294e-13,7.548228709115147e-14,3.65194110483485e-14,1.8180914719726723e-14,7.4625894493208e-15,2.635866034946325e-15,6.900780364294531e-09,3.6354971077150375e-09,1.7825964900874213e-09,1.0736619611283584e-09,6.245881342856224e-10,4.054646103997584e-10,2.741815388492827e-10,1.9446203316301897e-10,1.3429823640958407e-10,1.0153719110949233e-10,6.551758997787951e-11,4.71074196475677e-11,3.179278949785254e-11,2.176042492895439e-11,1.4021690797494876e-11,9.865807465310159e-12,6.5420027063041e-12,4.134750530883812e-12,2.562333500682821e-12,1.4126316768339042e-12,7.941537368341531e-13
0.0,17,17.0,0.0,30.0,0.0,0.0,0.0,0.0,-13.0,0.0,2.0,0.0,0.0,0.0,3.278082903068634e-10,2.950403705351837e-10,2.5834025774217896e-10,2.3019382056656605e-10,1.9867634534102217e-10,1.7312631836414732e-10,1.4031592968055079e-10,1.1966708279650193e-10,9.710921026212786e-11,7.726716333375733e-11,6.112887980337148e-11,4.641831977887338e-11,3.401714905899789e-11,2.682796700289748e-11,1.9627371899571e-11,1.324459898445215e-11,9.724130863501646e-12,6.7596446009358695e-12,4.591410230784247e-12,2.9841112950955902e-12,1.835142084629092e-12,9.937567373563147e-13,5.632669370257444e-13,3.2993548186378535e-13,1.6383490965153589e-13,8.402917227515006e-14,3.90809305268536e-14,1.815065592489566e-14,8.11071568098814e-15,3.950218733905455e-15,6.885287197034685e-09,3.4961838177438275e-09,1.7728209659265632e-09,1.0972513264819405e-09,5.960479681853477e-10,4.1426137798953227e-10,2.856087185527051e-10,1.9439289292148662e-10,1.3782312345073363e-10,9.867819347320051e-11,7.070253629715802e-11,4.883476836436166e-11,3.2556941900963514e-11,2.1085909663338996e-11,1.484065403016045e-11,9.939110758866541e-12,6.382435614381616e-12,3.951952913928728e-12,2.507193406884396e-12,1.4760121691297501e-12,8.147711884507898e-13
0.0,18,18.0,0.0,30.0,0.0,0.0,0.0,0.0,-13.0,0.0,2.0,0.0,0.0,0.0,3.1696036739141796e-10,3.068216680407885e-10,2.71991809472784e-10,2.3555551119298476e-10,2.01869055059061e-10,1.7556588002456361e-10,1.4576894840854636e-10,1.2060306275119738e-10,9.792788810870852e-11,7.714484271358622e-11,6.329885140193045e-11,4.8043296491376296e-11,3.3383146683514383e-11,2.6939058316561647e-11,1.894579656607288e-11,1.4087332730898493e-11,9.938761160377437e-12,6.706939086953637e-12,4.5755854747860604e-12,2.9484820357769544e-12,1.902373200108384e-12,1.09381684130205e-12,5.794240116797965e-13,3.304511393413873e-13,1.7646462624704614e-13,9.206723769163282e-14,4.0919382711727223e-14,2.009112463098574e-14,1.0043289545982077e-14,4.566947685064329e-15,6.667397247870582e-09,3.380183234026388e-09,1.7955937487758885e-09,1.0843654951406126e-09,6.057680104481617e-10,4.1806668169773556e-10,2.7987571747608897e-10,1.942306555200375e-10,1.3064275769945491e-10,1.0010211738760126e-10,6.879464536372529e-11,4.985817122610881e-11,3.3610035402526644e-11,2.1895174775029795e-11,1.5531829956018994e-11,9.409870760517166e-12,6.1633071881428756e-12,3.835972523818628e-12,2.5223265745549512e-12,1.4541099113624816e-12,8.402795114522292e-13
0.0,19,19.0,0.0,30.0,0.0,0.0,0.0,0.0,-13.0,0.0,2.0,0.0,0.0,0.0,3.2558398195565114e-10,3.1326036933396245e-10,2.757352133681236e-10,2.4366754221057815e-10,1.9205577636042454e-10,1.693942964246121e-10,1.4167051863781445e-10,1.186358355491463e-10,9.839525032643471e-11,7.840849845961285e-11,5.5662148155244486e-11,4.548667987314354e-11,3.464264369316489e-11,2.6078338579123844e-11,1.9618877274233664e-11,1.3645718107893212e-11,9.550720978393047e-12,6.871970991218082e-12,4.501585985442341e-12,2.8998214258800043e-12,1.810917034990603e-12,1.1013217038160687e-12,6.272322305561316e-13,3.4627495178394714e-13,1.8231471103844426e-13,9.064416144143892e-14,4.3079189069710854e-14,2.1498585438336317e-14,8.31197580585048e-15,3.879293986775834e-15,6.60407634289251e-09,3.4731240345108922e-09,1.9306689409035022e-09,1.100017903539707e-09,6.447084335088151e-10,4.099884056082434e-10,2.8209298581180515e-10,2.0346763909568157e-10,1.3752757040268946e-10,1.014106855489525e-10,7.426532918043097e-11,4.7002107716482114e-11,3.3105499901101894e-11,2.344615271394379e-11,1.4992411547839248e-11,9.457342428203983e-12,6.318206548787012e-12,3.884850449259389e-12,2.4042382793978447e-12,1.4959589919420758e-12,8.015683193426241e-13
0.0,20,20.0,0.0,30.0,0.0,0.0,0.0,0.0,-13.0,0.0,2.0,0.0,0.0,0.0,3.10281022674828e-10,3.187431141691401e-10,2.717737870853193e-10,2.367397159227457e-10,2.133477918489582e-10,1.7793816214665162e-10,1.42878374888359e-10,1.171781144749719e-10,9.418564993861273e-11,7.796871548477495e-11,5.86428656609288e-11,4.6885371794485765e-11,3.665219525219801e-11,2.576348854371559e-11,1.9049329711884332e-11,1.4116624351185875e-11,9.555486388247112e-12,6.788713173695521e-12,4.517862079088222e-12,3.038124410592715e-12,1.9466611975258252e-12,1.100768960685485e-12,6.227711080135635e-13,3.5510557319496635e-13,1.940995151541829e-13,9.574598216870587e-14,5.052604863527414e-14,2.3359698805968365e-14,1.2493394773055881e-14,3.876394583211278e-15,6.805595346464209e-09,3.372876620565923e-09,1.8063164954384068e-09,1.011872855384065e-09,6.586797538729196e-10,4.162577743259845e-10,2.9839342164281795e-10,1.933864913772804e-10,1.3499549948225888e-10,9.95022088931952e-11,7.481009011869223e-11,4.6284864024214547e-11,3.3436465097824406e-11,2.0999655365149743e-11,1.525421038616788e-11,9.305698765907463e-12,6.294790973880927e-12,4.30986125248798e-12,2.4670306869686995e-12,1.4485547469132225e-12,8.304676740809217e-13
0.0,21,21.0,0.0,30.0,0.0,0.0,0.0,0.0,-13.0,0.0,2.0,0.0,0.0,0.0,3.1520449352958774e-10,3.0485941900579355e-10,2.793106917797323e-10,2.381775622038986e-10,2.1231593999381194e-10,1.8097615253888478e-10,1.5799497568338146e-10,1.2352723965191055e-10,9.425967588145256e-11,7.773335072339831e-11,6.232548276127944e-11,4.8847017363074213e-11,3.607996266954845e-11,2.7319245709942236e-11,1.8742642835113948e-11,1.3871299456421024e-11,9.596759689561247e-12,6.2934613536270065e-12,4.443405893113189e-12,3.0796038326497543e-12,1.9327064464131915e-12,1.1464584966624857e-12,6.791961300034761e-13,3.692452358694781e-13,1.8577503020268085e-13,1.0157344240109055e-13,5.391312069359735e-14,2.5169930467808203e-14,1.3505023936068556e-14,4.898627103309967e-15,6.715361141648291e-09,3.376837415601289e-09,1.8098786927342398e-09,1.0425621609993465e-09,6.371348310086334e-10,4.2107989092559627e-10,2.845428381488169e-10,2.038056686448348e-10,1.4957103209404388e-10,1.032434462336599e-10,6.986081670042131e-11,5.3073972012245746e-11,3.4290200132171886e-11,2.3968321750164012e-11,1.4746450814445136e-11,9.852191032779996e-12,6.099968214145163e-12,4.013026981801338e-12,2.3420920565706584e-12,1.468018811292762e-12,8.051175643009988e-13
0.0,22,22.0,0.0,30.0,0.0,0.0,0.0,0.0,-13.0,0.0,2.0,0.0,0.0,0.0,3.5494382198390437e-10,3.203916666699023e-10,2.7341753038268423e-10,2.5610298734302603e-10,2.252477447380657e-10,1.7956908031187666e-10,1.513122912813646e-10,1.2649380190288582e-10,9.933649935963446e-11,8.336570521763524e-11,6.251779419334649e-11,4.696831764171347e-11,3.5420785947815314e-11,2.6541210657978996e-11,1.9644586739849653e-11,1.3368163660186816e-11,9.456353890205058e-12,6.92223135645043e-12,4.780778380447153e-12,3.1406465362742245e-12,1.92778149421319e-12,1.1448806812672234e-12,6.736916388452093e-13,3.790191445981801e-13,1.9511330987622842e-13,1.1136438131772504e-13,5.474949018280624e-14,2.610434122489085e-14,1.337736923470393e-14,6.156819732662878e-15,7.031557565896847e-09,3.3867618852381486e-09,1.8215347693823237e-09,1.0473841461497313e-09,6.427916425014396e-10,4.3815813294141027e-10,2.863758315812363e-10,2.123597469558895e-10,1.4203831980695463e-10,1.0648605091228035e-10,7.559452905888322e-11,5.0170831592472315e-11,3.531930150445313e-11,2.3549172964146266e-11,1.5424456781092785e-11,1.026754044905286e-11,6.32305757919781e-12,3.975076970151247e-12,2.439034118859869e-12,1.4482301524426434e-12,8.52672260168214e-13
0.0,23,23.0,0.0,30.0,0.0,0.0,0.0,0.0,-13.0,0.0,2.0,0.0,0.0,0.0,3.4191646277515884e-10,3.378844421804839e-10,2.7518624017005e-10,2.5825732865337105e-10,2.125037107096981e-10,1.7798184732700453e-10,1.5115115944048553e-10,1.2138894446351546e-10,1.0448516276910705e-10,8.022775574313611e-11,6.231027771770245e-11,4.881437968420037e-11,3.745486909873085e-11,2.6923938545988432e-11,1.9352106801702216e-11,1.3646033667183182e-11,9.855119559839965e-12,6.798019083916261e-12,4.546329323695188e-12,3.1355770777940345e-12,1.9448266295280282e-12,1.1837849469205262e-12,6.979704060720038e-13,3.820454417802729e-13,2.0881966812642663e-13,1.1147097848764034e-13,5.497372218015445e-14,2.645956715800894e-14,1.3291781440751017e-14,6.753086423538407e-15,6.669973065349827e-09,3.3645994985741714e-09,1.7508675286768704e-09,1.0579771194987272e-09,6.274924832056636e-10,4.210009679902211e-10,3.0067004827137287e-10,2.0227286577821148e-10,1.4824033208344728e-10,1.0744788113587762e-10,7.34404839493144e-11,4.93040193942675e-11,3.484930197988498e-11,2.3932951614166663e-11,1.5527116761155615e-11,9.536543466729552e-12,6.335966326290133e-12,3.930884373156775e-12,2.529130186198232e-12,1.4321562086429576e-12,8.196831639987733e-13
0.0,24,24.0,0.0,30.0,0.0,0.0,0.0,0.0,-13.0,0.0,2.0,0.0,0.0,0.0,3.464361073252707e-10,3.2308276496755337e-10,2.769300594173731e-10,2.5395209099486614e-10,2.2730482074868316e-10,1.8922063227350005e-10,1.5881194726693205e-10,1.1823666277190845e-10,9.940671191926493e-11,8.210618682020979e-11,6.292853994876651e-11,5.0417283068297725e-11,3.597446259389451e-11,2.7406942224657577e-11,1.9680441879647816e-11,1.2406972400468592e-11,9.350352115198088e-12,6.989590070941847e-12,4.614238359617081e-12,3.0487025372268115e-12,1.9797787746701653e-12,1.2122185147087124e-12,7.277389499252718e-13,4.093800841331435e-13,2.2395452979586557e-13,1.1645284234148608e-13,5.904364962285656e-14,2.965759293068892e-14,1.260755873098488e-14,7.345734836233996e-15,6.463324929675823e-09,3.2332638937923318e-09,1.8369152426291185e-09,1.021387059811714e-09,6.212321261598438e-10,4.3532083764438645e-10,2.8112969231233254e-10,2.0432744925417766e-10,1.5386519181364218e-10,1.0342156651939914e-10,7.148779751123538e-11,5.375012628099362e-11,3.5500864798745195e-11,2.2861367048237742e-11,1.5074393005579255e-11,9.74522037955896e-12,6.369229187719681e-12,3.793785981882745e-12,2.4365552419599805e-12,1.405166116532877e-12,8.516807266524592e-13
0.0,25,25.0,0.0,30.0,0.0,0.0,0.0,0.0,-13.0,0.0,2.0,0.0,0.0,0.0,3.3381337992801194e-10,3.2503699658419573e-10,2.849771089454145e-10,2.4378018358717113e-10,2.37595093711158e-10,1.9331980125905706e-10,1.6320045529834505e-10,1.339987412969584e-10,1.0231216470962565e-10,8.43682470932547e-11,6.796191847293821e-11,4.623598685253842e-11,3.695836848377249e-11,2.8333465984817185e-11,1.9303043286340792e-11,1.4425021913981528e-11,9.641723155357758e-12,6.705569355036833e-12,4.608376738694316e-12,3.032931379776401e-12,1.9346032374343705e-12,1.2393194271751594e-12,7.440964937283929e-13,4.074447413346278e-13,2.1307081633776883e-13,1.1416832331120312e-13,6.07163960369415e-14,3.029798026660279e-14,1.3042922373174613e-14,5.666545320211141e-15,6.8694840050588155e-09,3.360487908482619e-09,1.8348323425385483e-09,1.0987205568851301e-09,6.266319018622678e-10,4.397673855519042e-10,3.091650583607739e-10,2.1602759507339896e-10,1.5154949526123722e-10,1.028862193265544e-10,7.303956198074058e-11,5.0310411375993813e-11,3.619262028665728e-11,2.308878738844201e-11,1.552449655242226e-11,9.439597457603396e-12,6.102121407328044e-12,3.823077275223964e-12,2.332059544246963e-12,1.35644122776999e-12,8.292336196190708e-13
0.0,26,26.0,0.0,30.0,0.0,0.0,0.0,0.0,-13.0,0.0,2.0,0.0,0.0,0.0,3.510744967254301e-10,3.477836055855938e-10,2.838428534762708e-10,2.595446095787389e-10,2.272966067836165e-10,1.9459217286159012e-10,1.6152915961380924e-10,1.356814608671517e-10,1.05009778636947e-10,8.140246623422993e-11,6.645130545973593e-11,5.4207087389689295e-11,3.7332546367807e-11,2.7588851719541432e-11,1.911152443689057e-11,1.3827224871905888e-11,9.823177749843589e-12,6.873140532368926e-12,4.542684167229682e-12,3.110293892031293e-12,1.9626236083412918e-12,1.2477334027574653e-12,7.187520351562249e-13,4.0470289220733924e-13,2.327394984263994e-13,1.1780086664726653e-13,6.357074446688853e-14,3.050796415858774e-14,1.5288267225024804e-14,8.170349930855081e-15,6.713789212982262e-09,3.347057654191664e-09,1.799252629646232e-09,1.0419319553444585e-09,7.046097195285338e-10,4.4807711144214656e-10,3.120140094791035e-10,2.1779153341956532e-10,1.601118989449558e-10,1.1052868748840617e-10,7.798737536365721e-11,5.108506737662463e-11,3.6452472298144385e-11,2.462391682723275e-11,1.55096135842001e-11,9.669487026997964e-12,6.3501807430960836e-12,3.900898394394586e-12,2.401427528385919e-12,1.3862347615680215e-12,8.323486132708577e-13
0.0,27,27.0,0.0,30.0,0.0,0.0,0.0,0.0,-13.0,0.0,2.0,0.0,0.0,0.0,3.4525926446870483e-10,3.4460504448507864e-10,3.026350200095462e-10,2.5424769218834454e-10,2.403082005881393e-10,1.9737136353592453e-10,1.6165714301238357e-10,1.2756719053179015e-10,1.0685628120773677e-10,8.422883697348068e-11,6.943743657486647e-11,4.778893430314316e-11,3.88757985743542e-11,2.7133016504394837e-11,2.0055098499285265e-11,1.4468258670276015e-11,9.789640335890763e-12,6.6175470889246095e-12,4.573361525885877e-12,3.0127461474260993e-12,1.9782929101006626e-12,1.2060807162682965e-12,7.403521373103112e-13,3.992842023808658e-13,2.5276390682024825e-13,1.2291883179740151e-13,6.519190030615606e-14,3.2715743868669895e-14,1.4863308766978308e-14,8.770933776110743e-15,6.370523430913266e-09,3.297132455468577e-09,1.768246524125698e-09,1.0793688797655633e-09,6.868146079520429e-10,4.528547625850339e-10,3.1065136974599947e-10,2.161547391179201e-10,1.5526872753218347e-10,1.1436816379201301e-10,7.979913613536883e-11,5.154123681550527e-11,3.545325698427338e-11,2.494808868759267e-11,1.536066934858082e-11,1.032825158004947e-11,6.0784409901066936e-12,4.08613876522504e-12,2.3024617456760128e-12,1.3333113962520607e-12,8.68370071992253e-13
0.0,28,28.0,0.0,30.0,0.0,0.0,0.0,0.0,-13.0,0.0,2.0,0.0,0.0,0.0,3.563460368848528e-10,3.38110553323488e-10,3.236535008180377e-10,2.6273506755508006e-10,2.2908331379134802e-10,1.8781017743071795e-10,1.6000292241513536e-10,1.2836331086902375e-10,1.0590076286667832e-10,8.621680358506178e-11,7.09106105273628e-11,5.09216481618276e-11,3.626780551503267e-11,2.7711981462778046e-11,2.0413602389798965e-11,1.3448020378395282e-11,9.691263138968755e-12,6.763765900013777e-12,4.5558213576190425e-12,3.1487429458645633e-12,1.9901804613568402e-12,1.248618995867426e-12,7.764013140001385e-13,4.017026823004912e-13,2.3388216093336894e-13,1.2930128343377322e-13,6.529046899145823e-14,3.4359705687688706e-14,1.598083301823993e-14,6.070865147812658e-15,6.300328590117765e-09,3.2647416875230717e-09,1.7600151489512359e-09,1.0490426176289794e-09,6.95631919350415e-10,4.3887812905090184e-10,3.203322871612385e-10,2.2752971447077668e-10,1.5913442114917583e-10,1.157767537288507e-10,7.628838152569502e-11,5.4394708847837596e-11,3.80510833985718e-11,2.4224881530454475e-11,1.6175415818170382e-11,1.038044968788448e-11,6.066130652342051e-12,3.974279735309921e-12,2.350630488483509e-12,1.4633876038103713e-12,8.207212259805855e-13
0.0,29,29.0,0.0,30.0,0.0,0.0,0.0,0.0,-13.0,0.0,2.0,0.0,0.0,0.0,3.841742427673453e-10,3.432900504353956e-10,3.189776016537201e-10,2.7740669155231073e-10,2.411733337455224e-10,1.9417289836957315e-10,1.7124693298009169e-10,1.360268862685569e-10,1.1299958550223049e-10,8.774025933336944e-11,6.925390905648264e-11,5.2378389689354465e-11,3.7572822627659446e-11,2.9113397232579394e-11,2.0217150730712204e-11,1.392372947749187e-11,9.788325303868055e-12,6.695458295690929e-12,4.405903858770632e-12,2.958518196798722e-12,2.0062517186406605e-12,1.2949834663944634e-12,7.619256672121189e-13,4.4055990884654497e-13,2.461466939254678e-13,1.321025367566216e-13,6.923086739740462e-14,3.4057848366309516e-14,1.728886374583637e-14,1.1282886090746565e-14,6.2924842327033456e-09,3.3627930501146103e-09,1.7524876931803102e-09,1.0775210918667952e-09,6.515363855080383e-10,4.303684298932704e-10,3.124045973643266e-10,2.1452505869796757e-10,1.6794813670414174e-10,1.171873102760748e-10,7.496481615678036e-11,5.76176666607407e-11,3.667867187012845e-11,2.4994100750270058e-11,1.6480316772654756e-11,9.852097190463415e-12,6.504252212004173e-12,3.812428033127839e-12,2.3629520689146375e-12,1.3968286086366701e-12,8.418359695646049e-13
0.0,30,30.0,0.0,30.0,0.0,0.0,0.0,0.0,-13.0,0.0,2.0,0.0,0.0,0.0,3.6400016165338187e-10,3.448449279497887e-10,2.953726198663339e-10,2.7686889828148503e-10,2.3660184708750224e-10,2.007857033190561e-10,1.5934180695962012e-10,1.373316796647985e-10,1.1344596492184282e-10,8.705430306779266e-11,7.013057230478214e-11,5.234106944373657e-11,3.952711980614543e-11,2.920044532290056e-11,2.05701529187692e-11,1.4114150523775005e-11,1.040298505614265e-11,6.618933319196106e-12,4.3748959283220906e-12,3.1013355116308e-12,2.053189332209557e-12,1.3192174412827755e-12,7.686474540612197e-13,4.4007722297045425e-13,2.328711599031199e-13,1.358520275775882e-13,7.427297392904114e-14,3.55765927994875e-14,1.924005218955467e-14,7.892067400148177e-15,6.352332046327349e-09,3.2160876615657794e-09,1.8039161849227403e-09,1.040774963425797e-09,6.888013457079575e-10,4.4572385895513985e-10,3.247880172629924e-10,2.318435042507945e-10,1.6135117315653474e-10,1.0648590853756832e-10,7.758478594075556e-11,5.839064958169981e-11,4.054748491375186e-11,2.47570969146841e-11,1.660376870069783e-11,1.0489910030454018e-11,6.589263605322426e-12,3.850284154744265e-12,2.4117553396507164e-12,1.3592634945284212e-12,7.908224076577122e-13
0.0,31,31.0,0.0,30.0,0.0,0.0,0.0,0.0,-13.0,0.0,2.0,0.0,0.0,0.0,3.653189640357206e-10,3.3669854149604294e-10,3.048870366746323e-10,2.7678357068189966e-10,2.3398586557867014e-10,2.125958609815596e-10,1.835945247853331e-10,1.4609684813422387e-10,1.1181247766178876e-10,8.79143485169451e-11,7.341213124557999e-11,5.3267630909494004e-11,3.9893284102119744e-11,2.8045337595996255e-11,2.052720578111561e-11,1.479139764977058e-11,1.0327269275153366e-11,6.353284472166948e-12,4.6142090078086615e-12,3.2425767420291667e-12,2.0090892923213158e-12,1.3193979468628156e-12,7.520673990943324e-13,4.3303800827165123e-13,2.578680234938346e-13,1.4126571781810134e-13,7.175052661411406e-14,3.909077292795609e-14,1.7354943278092026e-14,8.516482293025851e-15,6.298070893113524e-09,3.385442561267435e-09,1.6940922777993473e-09,1.0492558642930892e-09,6.867028168859938e-10,4.4235578694100464e-10,3.18892341994248e-10,2.3361736892471265e-10,1.6606415681308423e-10,1.197371377808281e-10,8.229031710554547e-11,5.552003278892244e-11,4.080146633180354e-11,2.6297473942097775e-11,1.6829488342045642e-11,1.0499639625705025e-11,6.662261614607559e-12,3.8256729295708735e-12,2.335043019207474e-12,1.4640688225038815e-12,8.353693737853365e-13
0.0,32,32.0,0.0,30.0,0.0,0.0,0.0,0.0,-13.0,0.0,2.0,0.0,0.0,0.0,3.890914951183316e-10,3.2835636142778907e-10,3.079433253063853e-10,2.987995155976493e-10,2.368819860902175e-10,2.0665361393043515e-10,1.7836190072947073e-10,1.4610846007503928e-10,1.140972575693999e-10,8.870014017089243e-11,7.003222985273548e-11,5.347790117647843e-11,4.3184835439488626e-11,3.022692522508498e-11,2.1004893879689452e-11,1.425914001762726e-11,9.496210145241997e-12,6.868227248647111e-12,4.580338997813852e-12,3.0685705012262674e-12,2.0009066876836352e-12,1.288525320469256e-12,8.023972614335314e-13,4.803352397331711e-13,2.6614697788204826e-13,1.4264571965178444e-13,7.908381606455405e-14,4.0046296683909445e-14,1.8254085583951926e-14,8.917096632427074e-15,6.11701709272374e-09,3.301658730905045e-09,1.6841447487243477e-09,1.0286085149967119e-09,6.916695051821317e-10,4.613143460787493e-10,3.1745283506765535e-10,2.3674251698159567e-10,1.6181516478739006e-10,1.1697767123612731e-10,8.216523594861381e-11,5.56908708148147e-11,3.899912785821132e-11,2.5593662899905815e-11,1.7123184172441784e-11,1.0314257889413943e-11,6.383867142735505e-12,3.7862807574722116e-12,2.3231450091466443e-12,1.397550243583116e-12,7.731065671082255e-13
0.0,33,33.0,0.0,30.0,0.0,0.0,0.0,0.0,-13.0,0.0,2.0,0.0,0.0,0.0,3.7339528487035144e-10,3.4599080655620656e-10,3.4121920148886026e-10,2.885225105820267e-10,2.456935666535498e-10,2.0838181823907705e-10,1.7288289057589537e-10,1.4205208990187009e-10,1.1356026114372901e-10,9.54050064359627e-11,6.999611116732198e-11,5.581660066474777e-11,4.236623008133844e-11,2.9394822069564364e-11,2.1618468169253263e-11,1.4455045782321724e-11,1.0324730043000509e-11,6.938005546101771e-12,4.530860068509836e-12,3.0532566553834646e-12,1.9692062876662206e-12,1.2827145739705528e-12,7.728223797269086e-13,4.5178216577990674e-13,2.6309821113987085e-13,1.3849039685584212e-13,7.379152813431606e-14,4.000203507641514e-14,2.0340831170695878e-14,8.749912639586508e-15,6.534779346866753e-09,3.2476682373578716e-09,1.708849264385028e-09,9.900709448176568e-10,6.780414472606738e-10,4.6006885163440926e-10,3.250467086470995e-10,2.3938973249684196e-10,1.6725940955743144e-10,1.1762655460842613e-10,8.220686433745605e-11,5.874390768662835e-11,3.853142980672052e-11,2.5597780617837296e-11,1.6275554105373207e-11,1.0215841290726452e-11,6.2972874088450324e-12,3.939057640986387e-12,2.3452665973114e-12,1.3831044350869717e-12,7.880153478741134e-13
0.0,34,34.0,0.0,30.0,0.0,0.0,0.0,0.0,-13.0,0.0,2.0,0.0,0.0,0.0,3.7384906086457926e-10,3.568986279757849e-10,3.2461960079450133e-10,2.846016800486491e-10,2.4927655417094065e-10,2.1279309763212452e-10,1.681042931260789e-10,1.4340805315809898e-10,1.1697676355662937e-10,9.373797280684866e-11,7.068724782355086e-11,5.278113467873518e-11,4.1977967710503255e-11,2.987471350379269e-11,2.0881347771239404e-11,1.4951261911649597e-11,1.1194775153490071e-11,6.913198086517541e-12,4.552409627092093e-12,3.083476605060873e-12,1.937099676318537e-12,1.2854273073413844e-12,8.052706330232484e-13,4.697430851246535e-13,2.5975109575470276e-13,1.3519958957055387e-13,8.185154416749714e-14,4.0029352251827755e-14,2.057756839580543e-14,9.752596478105158e-15,5.8074073347624616e-09,3.2191607963564296e-09,1.6196921943665926e-09,1.0088361459520612e-09,6.885070841356354e-10,4.894122722481178e-10,3.2560342357873217e-10,2.4721597608999767e-10,1.73997472488182e-10,1.2559943069478767e-10,8.790480694688811e-11,5.835358797373929e-11,3.8065699483018796e-11,2.631925069954754e-11,1.733902399016526e-11,1.0374247603634724e-11,7.046939078287663e-12,4.041040624338202e-12,2.439519254558709e-12,1.363448247464462e-12,8.088192330840753e-13
0.0,35,35.0,0.0,30.0,0.0,0.0,0.0,0.0,-13.0,0.0,2.0,0.0,0.0,0.0,3.7708835729766853e-10,3.3638808222482767e-10,3.270736193981065e-10,2.616084546113012e-10,2.680188459253298e-10,2.2076511267940834e-10,1.80243752841268e-10,1.3617151814982037e-10,1.205980369889761e-10,9.352265083665661e-11,7.3637572586259e-11,5.7234283735794826e-11,4.0426299979624357e-11,2.915326409585432e-11,2.0806292317515775e-11,1.5019743821052122e-11,1.0116732572844971e-11,7.1214267197842765e-12,4.689730565800127e-12,3.0162888525617885e-12,2.0025507646864773e-12,1.2960296965525934e-12,8.117514609465499e-13,4.4062029980514607e-13,2.6775649221932096e-13,1.4603873752537e-13,7.683339748979349e-14,4.312406305651628e-14,2.175542609673541e-14,1.0340658880891935e-14,6.098326979387972e-09,3.145548622910096e-09,1.774844640042522e-09,1.081007400338794e-09,6.745864620571645e-10,4.865352341148436e-10,3.4852692684564347e-10,2.329894457265889e-10,1.743544754862123e-10,1.1722769483527938e-10,8.849770874737105e-11,5.7715327470549064e-11,4.111290943296546e-11,2.5904025019122945e-11,1.7330405191577632e-11,1.1371112424143384e-11,6.842567341786425e-12,4.2690103426178396e-12,2.3734251693913406e-12,1.4245375747312508e-12,8.144191326459065e-13
0.0,36,36.0,0.0,30.0,0.0,0.0,0.0,0.0,-13.0,0.0,2.0,0.0,0.0,0.0,4.124987072335664e-10,3.636907288301387e-10,3.258093393197891e-10,2.7907914579552953e-10,2.404206427341869e-10,2.2437836589953238e-10,1.7755451352444508e-10,1.4796298609064762e-10,1.1575695277347114e-10,9.900416909355775e-11,6.940735319396959e-11,5.524275902347323e-11,4.015991170213807e-11,2.9442913929369076e-11,2.194478431879505e-11,1.51302909714628e-11,1.0244941464918656e-11,6.657757324389846e-12,4.564647322406652e-12,3.170624210430559e-12,2.0209193821505914e-12,1.255113861849476e-12,7.689293501922068e-13,4.667115508099076e-13,2.72047831357414e-13,1.462480028199086e-13,8.016548422880905e-14,4.031049392727207e-14,2.4576582971306643e-14,9.523584003538726e-15,6.339528029857999e-09,3.06480675954598e-09,1.7066937118225397e-09,1.0430644822070066e-09,7.224677537042684e-10,5.150952301650656e-10,3.531542739412711e-10,2.4129505363784775e-10,1.724933188708675e-10,1.2538859054816656e-10,8.842143189939337e-11,6.088825938823906e-11,3.908598180361569e-11,2.6921249355711764e-11,1.6967309310997597e-11,1.16443518621429e-11,6.893972215392124e-12,3.78335345898805e-12,2.3356190938359325e-12,1.4672801947478538e-12,8.226647927802927e-13
0.0,37,37.0,0.0,30.0,0.0,0.0,0.0,0.0,-13.0,0.0,2.0,0.0,0.0,0.0,3.8032139303144755e-10,3.742368957664357e-10,3.3740502066123486e-10,2.830558262867075e-10,2.6504584335744676e-10,2.1802804395771482e-10,1.810362214286186e-10,1.575564918703236e-10,1.2227668485275987e-10,9.729667000739684e-11,7.641081933811714e-11,5.878560962815981e-11,4.351061597195451e-11,2.9972931183034345e-11,2.2098843730212948e-11,1.504399996217183e-11,1.1059573009609108e-11,7.0698467717891764e-12,4.78570962926416e-12,3.0205109010779437e-12,2.0023369476716954e-12,1.3442478942460956e-12,8.061444361252132e-13,4.732454823451559e-13,2.814980449429852e-13,1.6459344338944354e-13,8.478638620377557e-14,4.377593658647496e-14,2.3510201582599168e-14,1.0866644022764566e-14,6.273582648243443e-09,3.0819073618722604e-09,1.6743536387529487e-09,1.054491418892309e-09,7.075305933665172e-10,5.068467988433919e-10,3.310490434090165e-10,2.5357324942474865e-10,1.8260033615853662e-10,1.29336430387476e-10,9.253439519932317e-11,6.166399791972444e-11,4.463960297192421e-11,2.5732296882819303e-11,1.6776278175804433e-11,1.1666741382219867e-11,7.000015588997796e-12,4.137686984663233e-12,2.4201622249530786e-12,1.3616374315878396e-12,7.944999872133318e-13
0.0,38,38.0,0.0,30.0,0.0,0.0,0.0,0.0,-13.0,0.0,2.0,0.0,0.0,0.0,4.0841278725603026e-10,3.671553016059588e-10,3.2876839461224986e-10,2.949656827481192e-10,2.5698805783888007e-10,2.169847203277672e-10,1.8615824750523384e-10,1.5588918854072503e-10,1.2357614432327278e-10,9.784811706751985e-11,7.510173685592693e-11,5.559861941340911e-11,4.325730060898194e-11,2.956278973196146e-11,2.22011164209285e-11,1.5632178386627985e-11,1.0990249028817094e-11,7.174426416916282e-12,4.465637995425069e-12,2.958793171701211e-12,2.0676493386643044e-12,1.2709693753747405e-12,7.726965576495941e-13,4.849162094902995e-13,2.596854812451784e-13,1.489457779414106e-13,8.972513153305358e-14,4.62146327534915e-14,2.2686647112829964e-14,1.0986063828676376e-14,6.31074341598091e-09,3.0607947609267813e-09,1.6255254970574773e-09,1.1138229535720621e-09,7.287224380978981e-10,4.773620423676853e-10,3.4804538003434123e-10,2.395753561872858e-10,1.79959210433652e-10,1.304311812595221e-10,8.767595110176674e-11,6.004926824384834e-11,4.281766013657985e-11,2.7696363328877654e-11,1.802463924143074e-11,1.1255778335902103e-11,7.1206818722243605e-12,4.2225407447393235e-12,2.556855471987276e-12,1.4384545639444757e-12,8.34071826763648e-13
0.0,39,39.0,0.0,30.0,0.0,0.0,0.0,0.0,-13.0,0.0,2.0,0.0,0.0,0.0,3.793869347454314e-10,3.9163078805628823e-10,3.390317711561187e-10,3.0634515015955237e-10,2.68711889663538e-10,2.2816265142343505e-10,1.9544966518675318e-10,1.4736434393445475e-10,1.252745624628339e-10,9.770925740648575e-11,7.840954528525984e-11,5.720330439559459e-11,4.532031109936383e-11,3.190618797533418e-11,2.3518772180139347e-11,1.5647636234369566e-11,1.1018154868661375e-11,7.351199740624433e-12,4.662576713045666e-12,3.1991042633669636e-12,2.0452428516660087e-12,1.2875475192369897e-12,7.743951144345643e-13,4.824403372476314e-13,2.7377310300359163e-13,1.6030149715327864e-13,8.795150161572327e-14,4.7420330898047426e-14,2.326179466118606e-14,1.160688869359369e-14,5.9249457850568484e-09,3.0275905485412447e-09,1.6515229416942747e-09,1.0276410875017149e-09,7.056951007522243e-10,5.182936138883522e-10,3.437631379240546e-10,2.6353192968129515e-10,1.8604006136848328e-10,1.3168346728042105e-10,9.280991056469529e-11,6.296060279318085e-11,4.2146350179955835e-11,3.01711524169583e-11,1.8067446423905256e-11,1.1135166948910388e-11,7.57752328369776e-12,3.9319234439227235e-12,2.5897091006581257e-12,1.513808911423072e-12,8.525568373046641e-13
0.0,40,40.0,0.0,30.0,0.0,0.0,0.0,0.0,-13.0,0.0,2.0,0.0,0.0,0.0,4.3015296898996197e-10,3.8535621119475964e-10,3.640841317112007e-10,3.0881194188436924e-10,2.7928955074245063e-10,2.2428438379649664e-10,1.9956477149070776e-10,1.5979174980016176e-10,1.276058190483793e-10,1.001861843187665e-10,8.068056643467443e-11,5.739758609798471e-11,4.515909889653243e-11,3.1385067939624265e-11,2.2333102237453132e-11,1.5632176463813344e-11,1.0933737737468912e-11,7.297322919321126e-12,4.881265998712181e-12,3.166544968765137e-12,2.0715159138889927e-12,1.269937086563868e-12,8.093171558395758e-13,4.637303367052196e-13,2.82600211162418e-13,1.4998295889037026e-13,8.362117505813968e-14,4.689786144515205e-14,2.3975586494954198e-14,1.2266269993833093e-14,5.427914440414775e-09,3.1171893366741078e-09,1.676447861350934e-09,1.1049402019392627e-09,7.360827921124302e-10,5.396161419719762e-10,3.5583638452555573e-10,2.6098963532875924e-10,1.8552226733686175e-10,1.3655914595740325e-10,9.646648230959424e-11,6.562104810990568e-11,4.259275459072975e-11,3.053719119080231e-11,1.780256205970396e-11,1.1335480111456913e-11,7.333471399896712e-12,4.213037506495928e-12,2.4798002634486345e-12,1.4611368089061437e-12,8.563584762771889e-13
0.0,41,41.0,0.0,30.0,0.0,0.0,0.0,0.0,-13.0,0.0,2.0,0.0,0.0,0.0,4.23495223638394e-10,3.9879642278172996e-10,3.6057358601046473e-10,3.123590777792621e-10,2.84346205214033e-10,2.3786309425404044e-10,1.9265104249303976e-10,1.514429605032515e-10,1.2063901488467698e-10,1.0370569654488432e-10,7.841341940116451e-11,5.904048854779949e-11,4.49417117930262e-11,3.268972733478798e-11,2.2609506347979192e-11,1.5737717694244225e-11,1.1205684968062698e-11,7.274588097949277e-12,4.948594634093662e-12,3.1103192992095203e-12,2.0177838610042197e-12,1.3075686788226006e-12,7.560822954908727e-13,4.933024046306329e-13,2.7931745891016727e-13,1.5362879105622074e-13,7.915123648881733e-14,4.750204390546961e-14,2.4616827390619516e-14,1.1594723724270324e-14,5.6209475495227525e-09,2.9861279343244746e-09,1.6188346210453832e-09,1.0737033827680736e-09,7.382811250792992e-10,5.230098763219483e-10,3.767307282317907e-10,2.6095984787483585e-10,1.8920659760255264e-10,1.3628230108681022e-10,9.310297721280054e-11,6.63857151976337e-11,4.325421911782384e-11,2.855040351405936e-11,1.91753845648194e-11,1.1122971049829858e-11,6.949876313036192e-12,4.296203204029718e-12,2.688086938571726e-12,1.4041317197097967e-12,8.159466488953103e-13
0.0,42,42.0,0.0,30.0,0.0,0.0,0.0,0.0,-13.0,0.0,2.0,0.0,0.0,0.0,4.273885712048598e-10,3.898240090201394e-10,3.4177601358188075e-10,3.1519659642521724e-10,2.7273875961912343e-10,2.4740665983451723e-10,2.0253319939293965e-10,1.719992226187208e-10,1.302860631270153e-10,9.634885815254528e-11,7.608979461638235e-11,6.264270102913518e-11,4.3898816267392e-11,3.0959957884275336e-11,2.3805703183877314e-11,1.6723705880648787e-11,1.1122957153936805e-11,7.688702439568112e-12,4.603878025139291e-12,3.0722972152740703e-12,1.987576780620605e-12,1.3011892381704297e-12,8.006009496625186e-13,4.823576042942738e-13,2.7426832560372754e-13,1.620775033688236e-13,8.533198461961245e-14,4.797419528937393e-14,2.4315715937595728e-14,1.3617482058131296e-14,5.837471836394976e-09,2.9298958934876678e-09,1.6069651374987232e-09,1.0906663283882085e-09,7.579425916110695e-10,5.019734243378592e-10,3.785233414772075e-10,2.632660314428598e-10,1.8757864539951526e-10,1.3872993331982274e-10,9.542183104716997e-11,6.688567811876093e-11,4.413102526276229e-11,2.8389098646948544e-11,1.860185399730708e-11,1.1669515608120408e-11,7.056975374524284e-12,4.378422553353169e-12,2.475242160504051e-12,1.3637363427569462e-12,8.049910451413055e-13
0.0,43,43.0,0.0,30.0,0.0,0.0,0.0,0.0,-13.0,0.0,2.0,0.0,0.0,0.0,4.216701298544472e-10,4.0239865164282713e-10,3.678526535569645e-10,3.2941045446602903e-10,2.78965228368263e-10,2.39351950056134e-10,2.1340429017663466e-10,1.6002523693837424e-10,1.3348024228278375e-10,1.0465326333113919e-10,7.722517463564457e-11,6.099380610817623e-11,4.4333062932219025e-11,3.358546482590473e-11,2.3151424307230774e-11,1.608566375051551e-11,1.080235446244211e-11,7.230657372205666e-12,4.9307917097674416e-12,3.2459774010112242e-12,1.9967513953833616e-12,1.282321604641702e-12,8.024978481748342e-13,4.79410702494171e-13,2.979343182244507e-13,1.637645666682167e-13,9.001097629961626e-14,4.654437884155362e-14,2.4284917658696297e-14,1.3325301599745935e-14,5.697420765859986e-09,3.148174070608586e-09,1.7074688798676419e-09,1.0403167984381248e-09,7.409863636554354e-10,5.267647222670163e-10,3.934420662846825e-10,2.677178409988377e-10,1.9128758712634884e-10,1.4150765242153362e-10,9.182327080556027e-11,6.812255266819358e-11,4.4979255392944595e-11,2.904981928808964e-11,1.790090649521987e-11,1.154030705203357e-11,7.2678646633306145e-12,4.557304227585992e-12,2.6553842312957693e-12,1.4198665551460668e-12,8.008464204807255e-13
0.0,44,44.0,0.0,30.0,0.0,0.0,0.0,0.0,-13.0,0.0,2.0,0.0,0.0,0.0,4.405634789725403e-10,4.374816328288079e-10,3.780317900512101e-10,3.3394436139070053e-10,2.998222169194306e-10,2.437582414770869e-10,2.0382587633413672e-10,1.6207695966036652e-10,1.3206973302281533e-10,9.991163797593333e-11,7.871146149147389e-11,6.07928754273516e-11,4.716348691641278e-11,3.2784267513451844e-11,2.2706109637397835e-11,1.7214657037914707e-11,1.1262538953831175e-11,7.691940612799321e-12,4.7722157760605316e-12,3.2461374579631998e-12,1.948205428383583e-12,1.3234255883034386e-12,7.866110339439589e-13,4.645016382938885e-13,2.7446477421080745e-13,1.6457069289618113e-13,8.819481963017589e-14,4.482914903436701e-14,2.7394733220023597e-14,1.231138706690479e-14,5.877861327854299e-09,3.0222955048458312e-09,1.646573447143662e-09,1.0959154809292193e-09,7.329859203365425e-10,5.37012915683522e-10,3.6471258063970415e-10,2.7686149093939493e-10,1.9294281486775102e-10,1.401709864337225e-10,9.819730031947227e-11,7.01907763629751e-11,4.6948231596325965e-11,3.052173429714884e-11,2.018302154195101e-11,1.2534209930390278e-11,7.313267833150854e-12,4.504836549199614e-12,2.550407138009038e-12,1.4365627735587788e-12,8.146422208185546e-13
0.0,45,45.0,0.0,30.0,0.0,0.0,0.0,0.0,-13.0,0.0,2.0,0.0,0.0,0.0,4.3800142488346243e-10,4.0465357940623354e-10,3.897585478252138e-10,3.4716258943783655e-10,2.9028967771162056e-10,2.3669122136942976e-10,2.0641814111711433e-10,1.6780457384513452e-10,1.3736420572844556e-10,1.0585200176434955e-10,8.283925751888452e-11,6.282612366700758e-11,4.758984281370771e-11,3.494430392814914e-11,2.3299257974801543e-11,1.6649471468025835e-11,1.0670894298639407e-11,7.2828289222383e-12,5.066272213990256e-12,3.2014756333246125e-12,2.1130003719936955e-12,1.3332517856469416e-12,8.45524500909894e-13,4.825165081681548e-13,2.9240862058802846e-13,1.6750374173686853e-13,9.805429664543408e-14,5.04890258424026e-14,2.5740701033982215e-14,1.5780748048702184e-14,5.405984763030588e-09,2.902169395657519e-09,1.7554081699830405e-09,1.120451657619538e-09,7.655065543641843e-10,5.405331322001645e-10,3.920993438170357e-10,2.921580869555099e-10,2.0329987343631943e-10,1.4816042670143433e-10,9.644539354776842e-11,6.742137944427696e-11,4.48393427080703e-11,3.037435898440804e-11,2.0536872327061015e-11,1.280891809243901e-11,7.309632759892952e-12,4.5003327750018624e-12,2.469890079931252e-12,1.4673829581383223e-12,8.242236388041203e-13
0.0,46,46.0,0.0,30.0,0.0,0.0,0.0,0.0,-13.0,0.0,2.0,0.0,0.0,0.0,4.311713208948744e-10,4.3147972991497176e-10,3.7101841041627314e-10,3.4785343738184366e-10,2.774224041876738e-10,2.490633624059187e-10,2.1174068524035225e-10,1.6593697989575876e-10,1.392450917041992e-10,1.0620409151937356e-10,8.601676174879134e-11,6.576898464413413e-11,4.759535461203819e-11,3.4260742990074946e-11,2.4930976496673855e-11,1.596087957351026e-11,1.1367184601518928e-11,7.559369608593297e-12,4.9520977245922595e-12,3.1546958524172103e-12,2.066835571424353e-12,1.3475011336799752e-12,8.138911129060502e-13,4.699105430849209e-13,2.8472882618885233e-13,1.626010451633596e-13,8.914360942535698e-14,5.068778726217084e-14,2.7077244603193966e-14,1.3194853443890722e-14,5.551995746109766e-09,2.9681649404641694e-09,1.7290923115296369e-09,1.1224153639425863e-09,8.049522860568487e-10,5.339837031986125e-10,3.8933021996741134e-10,2.7291058334715227e-10,2.0978177884489818e-10,1.519993350304593e-10,1.0496608711188438e-10,6.727340081243087e-11,5.0168744589990415e-11,3.182728405397e-11,1.9679781956682403e-11,1.253466655323394e-11,7.838146652390935e-12,4.537366355716209e-12,2.7669357470551436e-12,1.4774807166210581e-12,7.665930146449105e-13
0.0,47,47.0,0.0,30.0,0.0,0.0,0.0,0.0,-13.0,0.0,2.0,0.0,0.0,0.0,4.811755435958536e-10,4.1325809559693853e-10,3.8341185204182037e-10,3.4989367842618654e-10,3.147443698652827e-10,2.479712783453654e-10,2.053034248714441e-10,1.7120813696523267e-10,1.436840646373822e-10,1.0362594644546876e-10,8.296984434265202e-11,6.244905008931727e-11,5.07200009500223e-11,3.4701691979772896e-11,2.476928066106839e-11,1.7070559220466815e-11,1.1702176767838199e-11,7.339573842445445e-12,4.828587885351002e-12,3.2566625942098055e-12,2.085854240021724e-12,1.2874861512161322e-12,7.857648721348663e-13,4.890645255890079e-13,3.0049458124847497e-13,1.6361449626714849e-13,9.668882363159156e-14,5.213619693742486e-14,2.5122592634551115e-14,1.4893408357239424e-14,5.454706690034505e-09,2.8156316502671597e-09,1.6395740466433065e-09,1.1335635098104469e-09,7.848961092676034e-10,5.259948219667599e-10,4.110945422016599e-10,2.697652890541644e-10,1.9970401380286166e-10,1.54827599913946e-10,9.897020477464253e-11,7.373918192608204e-11,4.776754050517857e-11,3.182951827798398e-11,1.9722047725064765e-11,1.3026291010419104e-11,7.448383994958531e-12,4.775033875365799e-12,2.553333698197825e-12,1.5455130173448474e-12,8.607270963434126e-13
