Line_number,Fiducial,Easting,Northing,Height,Elevation,tx_pitch,tx_roll,tx_yaw,txrx_dx,txrx_dy,txrx_dz,rx_pitch,rx_roll,rx_yaw,S0Z_time_7.292e-05,S0Z_time_7.642e-05,S0Z_time_8.092e-05,S0Z_time_8.642e-05,S0Z_time_9.341e-05,S0Z_time_1.024e-04,S0Z_time_1.139e-04,S0Z_time_1.284e-04,S0Z_time_1.464e-04,S0Z_time_1.689e-04,S0Z_time_1.969e-04,S0Z_time_2.324e-04,S0Z_time_2.779e-04,S0Z_time_3.349e-04,S0Z_time_4.069e-04,S0Z_time_4.979e-04,S0Z_time_6.119e-04,S0Z_time_7.559e-04,S0Z_time_9.373e-04,S0Z_time_1.166e-03,S0Z_time_1.454e-03,S0Z_time_1.818e-03,S0Z_time_2.276e-03,S0Z_time_2.855e-03,S0Z_time_3.574e-03,S0Z_time_4.454e-03,S0Z_time_5.530e-03,S0Z_time_6.849e-03,S0Z_time_8.463e-03,S0Z_time_1.044e-02,S1Z_time_1.273e-05,S1Z_time_1.623e-05,S1Z_time_2.073e-05,S1Z_time_2.623e-05,S1Z_time_3.323e-05,S1Z_time_4.222e-05,S1Z_time_5.373e-05,S1Z_time_6.822e-05,S1Z_time_8.622e-05,S1Z_time_1.087e-04,S1Z_time_1.367e-04,S1Z_time_1.722e-04,S1Z_time_2.177e-04,S1Z_time_2.747e-04,S1Z_time_3.467e-04,S1Z_time_4.377e-04,S1Z_time_5.517e-04,S1Z_time_6.957e-04,S1Z_time_8.772e-04,S1Z_time_1.106e-03,S1Z_time_1.394e-03
0.0,0,0.0,0.0,30.0,0.0,0.0,0.0,0.0,-13.0,0.0,2.0,0.0,0.0,0.0,7.182124391949943e-10,6.400431229690696e-10,5.391330909641655e-10,4.3365064843795476e-10,3.4462236574775864e-10,2.631443558363006e-10,1.915462729365146e-10,1.3525310035778971e-10,9.350739983719517e-11,6.401168429022148e-11,4.231621476376634e-11,2.7854823053547487e-11,1.7826781515273368e-11,1.122301187353022e-11,7.13439025119257e-12,4.404279895062644e-12,2.7124624900888695e-12,1.6529963350949304e-12,9.854868001265407e-13,5.946939977957114e-13,3.4881816653362425e-13,2.0281269045778475e-13,1.1441030681912365e-13,6.553245162184548e-14,3.6666463562947603e-14,2.0046385002499472e-14,1.0990816376821044e-14,6.06533968855697e-15,3.121331942169644e-15,1.9864565310708536e-15,1.058330944807385e-08,6.573195211267763e-09,4.123869501046417e-09,2.6495818385108447e-09,1.6919174443045357e-09,1.0440670486654892e-09,6.286023780519394e-10,3.683001824577804e-10,2.1341599862784448e-10,1.2228915343185755e-10,6.981511781074328e-11,3.9533953819341576e-11,2.2108528055584374e-11,1.2354355753007157e-11,6.896570386580855e-12,3.7999461183514716e-12,2.0856218025189976e-12,1.1251319534315638e-12,5.976659117250289e-13,3.171758216727569e-13,1.6112086181964677e-13
0.0,1,1.0,0.0,30.0,0.0,0.0,0.0,0.0,-13.0,0.0,2.0,0.0,0.0,0.0,7.21366120280223e-10,6.425116319472442e-10,5.407870692194796e-10,4.343814180764359e-10,3.445518163201008e-10,2.6243752151964544e-10,1.903483703119173e-10,1.3381653484231808e-10,9.204825427468876e-11,6.268701300158097e-11,4.121722428105146e-11,2.700806568805551e-11,1.7221231654756106e-11,1.0811389019856855e-11,6.868142880535661e-12,4.2386013291130054e-12,2.613051393616559e-12,1.5949040533364747e-12,9.523869334925288e-13,5.761499692164145e-13,3.386489055692375e-13,1.9735655851351763e-13,1.1151553588055648e-13,6.40429074544188e-14,3.589905779790632e-14,1.9664524127528653e-14,1.0791784368615583e-14,5.967205170276717e-15,3.0668083141455774e-15,1.958107416616844e-15,1.0585644411265441e-08,6.5792736417631796e-09,4.133686680472524e-09,2.660665346636504e-09,1.701488190675135e-09,1.0504393540220164e-09,6.316842494228257e-10,3.689503581077505e-10,2.1273756265276488e-10,1.2111766614434767e-10,6.864648228360127e-11,3.8593527263627e-11,2.1444665748100072e-11,1.1926311736589279e-11,6.638618656039432e-12,3.6524814021921225e-12,2.0050332011166714e-12,1.082419663187979e-12,5.758949914944472e-13,3.064871356725042e-13,1.5576190103878332e-13
0.0,2,2.0,0.0,30.0,0.0,0.0,0.0,0.0,-13.0,0.0,2.0,0.0,0.0,0.0,7.242189844793842e-10,6.447529985060024e-10,5.423027358463416e-10,4.3507423438382295e-10,3.445272680475026e-10,2.618381638377484e-10,1.892974126216119e-10,1.3253647585731292e-10,9.073260463206845e-11,6.148046180271091e-11,4.0206836808297215e-11,2.6223189550752714e-11,1.6655729059778476e-11,1.0424683007384762e-11,6.616702949862546e-12,4.0814948219548095e-12,2.5184193713116757e-12,1.5394195499640088e-12,9.206709014896057e-13,5.583233090521524e-13,3.2884602532733036e-13,1.9207949279322046e-13,1.0870953135934462e-13,6.259429261302096e-14,3.5151325386015826e-14,1.929120973818641e-14,1.0597171194596546e-14,5.870880117924212e-15,3.0134832370774565e-15,1.9305418682717174e-15,1.0588083604493277e-08,6.585273489344814e-09,4.1429611579659655e-09,2.6708314195247662e-09,1.7101197305159979e-09,1.056160394232395e-09,6.344824026590323e-10,3.6958667841018183e-10,2.1217153084900595e-10,1.2008474867172154e-10,6.759439252109223e-11,3.7734306133834805e-11,2.0831121049142214e-11,1.1527115865251831e-11,6.396358005757928e-12,3.5132804643327653e-12,1.928615963679269e-12,1.0417785476711863e-12,5.551119882247993e-13,2.96242428945963e-13,1.5062345307906852e-13
0.0,3,3.0,0.0,30.0,0.0,0.0,0.0,0.0,-13.0,0.0,2.0,0.0,0.0,0.0,7.26773900586278e-10,6.467591150682708e-10,5.436604240314872e-10,4.3569892161454375e-10,3.445125782549188e-10,2.613086960562647e-10,1.883587943667868e-10,1.3138429404239802e-10,8.953906307728932e-11,6.037730388528512e-11,3.927568662840201e-11,2.5494537629064612e-11,1.6127046813978145e-11,1.006106546001242e-11,6.379059369428193e-12,3.932408710106312e-12,2.4282740709068333e-12,1.486394548444058e-12,8.902636098438233e-13,5.411788656808806e-13,3.193922981632799e-13,1.8697408235353933e-13,1.0598874671693378e-13,6.118520305793238e-14,3.442262735994194e-14,1.8926211254151652e-14,1.0406840530364931e-14,5.776332299788885e-15,2.9613218632855033e-15,1.9037550638675445e-15,1.0590667052418804e-08,6.591297465026752e-09,4.151861318814124e-09,2.6802607787943278e-09,1.7179428966246385e-09,1.061283656728237e-09,6.369901809635978e-10,3.701753715361431e-10,2.1168241905651305e-10,1.191638670948473e-10,6.664224493467307e-11,3.6947129913127e-11,2.0263216295533188e-11,1.115443668185148e-11,6.168649001387002e-12,3.3817780097544266e-12,1.8561012034192302e-12,1.0030836237958957e-12,5.35259592869626e-13,2.864182023090585e-13,1.4569448809673566e-13
0.0,4,4.0,0.0,30.0,0.0,0.0,0.0,0.0,-13.0,0.0,2.0,0.0,0.0,0.0,7.290390404318064e-10,6.48528809842286e-10,5.448488012671976e-10,4.362343737360835e-10,3.4448040037784143e-10,2.608192722382005e-10,1.8750389863821442e-10,1.303355428166207e-10,8.844886465291456e-11,5.936433437992113e-11,3.8415238920937734e-11,2.4816907780567976e-11,1.5632210170116215e-11,9.71885380163231e-12,6.1542847212373115e-12,3.790836257022772e-12,2.3423470334170695e-12,1.435691836514207e-12,8.610955314571541e-13,5.24683779977084e-13,3.102715943333733e-13,1.820333314389095e-13,1.0334982470337484e-13,5.981430065429778e-14,3.371235097823974e-14,1.856930639373249e-14,1.0220662266076916e-14,5.6835296182017446e-15,2.9102903519328963e-15,1.8777357407100557e-15,1.0593428258374053e-08,6.5974247571711075e-09,4.160516796363673e-09,2.689097619348443e-09,1.7250686473500077e-09,1.0658609405236303e-09,6.392090107694981e-10,3.706921600842193e-10,2.1124164078402004e-10,1.1833238409422352e-10,6.57753302407761e-11,3.6223675325904444e-11,1.973664445037853e-11,1.0806126814065503e-11,5.9544442013098165e-12,3.2574560828437497e-12,1.7872427160611518e-12,9.662196226308223e-13,5.162849473366714e-13,2.769927261900379e-13,1.4096453308571427e-13
0.0,5,5.0,0.0,30.0,0.0,0.0,0.0,0.0,-13.0,0.0,2.0,0.0,0.0,0.0,7.310255791317565e-10,6.500653943496274e-10,5.458623926098278e-10,4.3666627437300604e-10,3.4441028608230796e-10,2.6034635997885913e-10,1.8670919620483308e-10,1.2936946375974822e-10,8.744563595381399e-11,5.842977127040441e-11,3.761774262168984e-11,2.4185521941383512e-11,1.5168472577104618e-11,9.396494824564916e-12,5.941524888816187e-12,3.656310543138803e-12,2.260390964435276e-12,1.3871841575973746e-12,8.331021534057717e-13,5.08807278786372e-13,3.0146879408459096e-13,1.7725062562305033e-13,1.007895848951887e-13,5.848030848250241e-14,3.301990863098364e-14,1.822028069211885e-14,1.0038512111792172e-14,5.5924401655125306e-15,2.8603558302465594e-15,1.8524670187542155e-15,1.0596396678628684e-08,6.6037180050734314e-09,4.1690282407266145e-09,2.6974570031184814e-09,1.7315902692993468e-09,1.0699405195634004e-09,6.411454518988773e-10,3.7112003692238326e-10,2.1082634935972329e-10,1.1757111258899285e-10,6.498069463056092e-11,3.5556411916883426e-11,1.9247445424811493e-11,1.0480204326826571e-11,5.752777040877467e-12,3.1398384181270064e-12,1.7218142453180486e-12,9.310799863256926e-13,4.981391903187948e-13,2.6794585325478356e-13,1.3642364567246717e-13
0.0,6,6.0,0.0,30.0,0.0,0.0,0.0,0.0,-13.0,0.0,2.0,0.0,0.0,0.0,7.327461532254857e-10,6.513749406037625e-10,5.466997586648737e-10,4.3698533513058825e-10,3.4428714884227034e-10,2.598715285149531e-10,1.859554335767504e-10,1.2846851049563117e-10,8.651515605235991e-11,5.756314778627703e-11,3.687618221898115e-11,2.3595998924224125e-11,1.4733296518458468e-11,9.092551404258422e-12,5.739990544173058e-12,3.528400098653168e-12,2.1821773913873454e-12,1.3407532476086384e-12,8.0622348801425e-13,4.935204941704888e-13,2.9296970703692245e-13,1.726197020450467e-13,9.830501215991709e-14,5.71820066319581e-14,3.23447367515674e-14,1.7878927067473917e-14,9.860271237770714e-15,5.503032270246234e-15,2.8114863678303376e-15,1.8279273381937682e-15,1.0599599318700064e-08,6.61022800151321e-09,4.177474379823799e-09,2.7054307599023963e-09,1.7375857190803985e-09,1.0735662821838582e-09,6.428091265778805e-10,3.714474947079021e-10,2.104184197362899e-10,1.1686387873618335e-10,6.424698885328715e-11,3.49385543713113e-11,1.8791985257894513e-11,1.0174837930031585e-11,5.562752936495193e-12,3.0284856712835147e-12,1.6596071660566828e-12,8.975659974828874e-13,4.807770567731376e-13,2.592588527566711e-13,1.3206239583532368e-13
0.0,7,7.0,0.0,30.0,0.0,0.0,0.0,0.0,-13.0,0.0,2.0,0.0,0.0,0.0,7.342138470243832e-10,6.524650864698124e-10,5.473621696838649e-10,4.371859508359359e-10,3.441000393374451e-10,2.5938044066840783e-10,1.8522692168459573e-10,1.2761790744175848e-10,8.564512090880664e-11,5.675520068365601e-11,3.618422816334038e-11,2.3044329169140473e-11,1.4324337646766451e-11,8.805691634927935e-12,5.548950134748407e-12,3.40670516182159e-12,2.107494648113049e-12,1.2962889918698418e-12,7.804036410865397e-13,4.787963041499027e-13,2.847609983449653e-13,1.681346230758551e-13,9.589324596240626e-14,5.5918228424177766e-14,3.1686294742375364e-14,1.754504542808628e-14,9.685825945132327e-15,5.415274535594356e-15,2.763650960672397e-15,1.8040914306025898e-15,1.0603061799245691e-08,6.6169969240602145e-09,4.1859171628323815e-09,2.7130921434557627e-09,1.7431198426762674e-09,1.076777458984858e-09,6.442112910086876e-10,3.7166714040875295e-10,2.1000357701590031e-10,1.1619711220340366e-10,6.356431335075915e-11,3.4364011968972094e-11,1.8366936689524898e-11,9.888334919769294e-12,5.383542102968343e-12,2.922991393042706e-12,1.6004285163879717e-12,8.655860179002556e-13,4.64156524848438e-13,2.5091426483313953e-13,1.2787185103758105e-13
0.0,8,8.0,0.0,30.0,0.0,0.0,0.0,0.0,-13.0,0.0,2.0,0.0,0.0,0.0,7.354415432156353e-10,6.533442188323317e-10,5.478526496218193e-10,4.372651820207229e-10,3.4384117986579854e-10,2.5886202621092655e-10,1.8451092492542708e-10,1.2680525167606664e-10,8.48249190695707e-11,5.59977584336812e-11,3.5536186425649704e-11,2.2526850568417462e-11,1.3939431146067702e-11,8.534679806703519e-12,5.3677240733049385e-12,3.2908544669631233e-12,2.0361461370998693e-12,1.2536886825971813e-12,7.555904306569425e-13,4.646091915402785e-13,2.768301211897038e-13,1.63789752864399e-13,9.355157043731815e-14,5.4687857013915556e-14,3.104406392226932e-14,1.7218442314638612e-14,9.515067362995879e-15,5.329135871776219e-15,2.7168195222850397e-15,1.7809312661807123e-15,1.0606809089152036e-08,6.6240605918325855e-09,4.194405538530568e-09,2.7204994880757987e-09,1.7482463634522043e-09,1.0796086918350757e-09,6.453638683752562e-10,3.717746242837026e-10,2.0957066451745876e-10,1.1555947345445909e-10,6.292406581516878e-11,3.382733629515704e-11,1.7969260352417117e-11,9.619131021018799e-12,5.214373680127228e-12,2.8229786271701174e-12,1.5440993216658236e-12,8.350548192600439e-13,4.482385045097767e-13,2.428957728864297e-13,1.238435621229123e-13
0.0,9,9.0,0.0,30.0,0.0,0.0,0.0,0.0,-13.0,0.0,2.0,0.0,0.0,0.0,7.36441522394681e-10,6.540209247051631e-10,5.48175293192717e-10,4.372219902597729e-10,3.435052087997928e-10,2.5830781075760167e-10,1.8379714376591679e-10,1.260201606025504e-10,8.404542347520713e-11,5.528363252241281e-11,3.4926948074706395e-11,2.2040224974804967e-11,1.3576579598102654e-11,8.278368771650283e-12,5.1956798862789375e-12,3.180502481573046e-12,1.967948827472709e-12,1.2128563617150113e-12,7.317350500788678e-13,4.509351181434752e-13,2.691652551767733e-13,1.595797363162879e-13,9.127740516265443e-14,5.348982232103083e-14,3.041754650257734e-14,1.689893057233378e-14,9.347891168659945e-15,5.244585523424216e-15,2.6709628792593908e-15,1.7584169374619992e-15,1.0610866022441625e-08,6.63145006293616e-09,4.202978254211613e-09,2.727699077607261e-09,1.75300960813123e-09,1.0820902891650716e-09,6.462788089301134e-10,3.71767819503055e-10,2.091110372646044e-10,1.1494152201113923e-10,6.231879567989496e-11,3.332366852627001e-11,1.7596186253765717e-11,9.365781538553145e-12,5.054530851282956e-12,2.728097029147323e-12,1.49045316305003e-12,8.058929923076395e-13,4.329865626431039e-13,2.3518809212743196e-13,1.1996954852986416e-13
0.0,10,10.0,0.0,30.0,0.0,0.0,0.0,0.0,-13.0,0.0,2.0,0.0,0.0,0.0,7.37225231135711e-10,6.545036310403262e-10,5.483347829072308e-10,4.370566668758567e-10,3.430885927079779e-10,2.577113747942978e-10,1.8307728101243405e-10,1.2525396456334005e-10,8.329880188014336e-11,5.460651416435825e-11,3.435193977957482e-11,2.1581415292075174e-11,1.3233941881739185e-11,8.035693353146459e-12,5.0322281217507235e-12,3.075327023576806e-12,1.902731953388913e-12,1.173702236915293e-12,7.087917698435907e-13,4.3775141207001213e-13,2.6175525022366206e-13,1.5549948014404927e-13,8.906829657756693e-14,5.232309825036916e-14,2.980626459671502e-14,1.6586329049023395e-14,9.18419732837901e-15,5.1615930930251314e-15,2.626052769190065e-15,1.7365174542880186e-15,1.0615257670158006e-08,6.6391927768702245e-09,4.211665945511502e-09,2.7347273995043184e-09,1.7574459781320025e-09,1.084248572312717e-09,6.469676794912248e-10,3.716461983318329e-10,2.0861806427642822e-10,1.1433542588050849e-10,6.174206841405212e-11,3.284868751274351e-11,1.724519548155803e-11,9.126953409394112e-12,4.903346708214453e-12,2.638020416034117e-12,1.4393349511331095e-12,7.780264238383186e-13,4.183666800086718e-13,2.277768723680938e-13,1.1624228217076519e-13
0.0,11,11.0,0.0,30.0,0.0,0.0,0.0,0.0,-13.0,0.0,2.0,0.0,0.0,0.0,7.378031628983733e-10,6.548003765372646e-10,5.483360518033209e-10,4.367704084888992e-10,3.4258917090939195e-10,2.57067919833649e-10,1.8234468089732005e-10,1.2449944149583456e-10,8.257834671438245e-11,5.396087791264873e-11,3.3807076023913284e-11,2.114766320095917e-11,1.2909822813851149e-11,7.805664540706618e-12,4.876818857307957e-12,2.9750271993847094e-12,1.840335882938109e-12,1.1361421612142569e-12,6.867176731438543e-13,4.2503666637118206e-13,2.5458957551955776e-13,1.5154413569852977e-13,8.692190999690833e-14,5.118670016292799e-14,2.920975926736588e-14,1.6280462315870572e-14,9.023889856368339e-15,5.080128560916535e-15,2.5820618389126673e-15,1.7152014364323804e-15,1.06200096119481e-08,6.6473133769086516e-09,4.2204927080166215e-09,2.7416129205069147e-09,1.7615851902864028e-09,1.0861062556109315e-09,6.474414122615021e-10,3.7141036077313513e-10,2.0808672305286587e-10,1.1373471006581536e-10,6.118834118848373e-11,3.239855965667255e-11,1.6914002210964476e-11,8.901417889446111e-12,4.7602006764616235e-12,2.5524446709039727e-12,1.3905998715265172e-12,7.513858327603048e-13,4.043470359818376e-13,2.2064861323389142e-13,1.1265466980853252e-13
0.0,12,12.0,0.0,30.0,0.0,0.0,0.0,0.0,-13.0,0.0,2.0,0.0,0.0,0.0,7.381848133527537e-10,6.54918675096261e-10,5.48184051825852e-10,4.363650035425504e-10,3.4200580389067637e-10,2.563739217887995e-10,1.8159403037401742e-10,1.237505896998422e-10,8.187832409078989e-11,5.334189297833556e-11,3.3288713640438866e-11,2.0736467640087522e-11,1.2602663361319624e-11,7.587364281802324e-12,4.7289386810898045e-12,2.8793216117718145e-12,1.7806111321799425e-12,1.1000971679715652e-12,6.654724208151423e-13,4.127706474803066e-13,2.476582731433671e-13,1.477090833450271e-13,8.483602218022121e-14,5.007968256578198e-14,2.862758961340254e-14,1.5981160408277844e-14,8.866876590451528e-15,5.0001623025730804e-15,2.5389636419179416e-15,1.6944376984404046e-15,1.0625148136172342e-08,6.655834303316606e-09,4.22947728656898e-09,2.7483774903558152e-09,1.765451316497755e-09,1.087682826782553e-09,6.477101631214627e-10,3.7106168055889145e-10,2.0751327093381984e-10,1.1313404085885906e-10,6.065285051621249e-11,3.196989132017126e-11,1.660053614656844e-11,8.688043706605938e-12,4.6245153620687605e-12,2.471085937196098e-12,1.3441124745763232e-12,7.259063578975734e-13,3.908978175500005e-13,2.1379059010401518e-13,1.0920003406495482e-13
0.0,13,13.0,0.0,30.0,0.0,0.0,0.0,0.0,-13.0,0.0,2.0,0.0,0.0,0.0,7.383786837404143e-10,6.548654422994982e-10,5.478835984700582e-10,4.3584260240744245e-10,3.413381027887871e-10,2.5562685481588074e-10,1.8082111287492025e-10,1.230024344034234e-10,8.119384095651489e-11,5.274534256046845e-11,3.279360908620655e-11,2.0345564175569115e-11,1.2311031332555013e-11,7.37994073570119e-12,4.588108046655374e-12,2.7879467940566736e-12,1.7234175027556118e-12,1.0654930546211734e-12,6.450180418646485e-13,4.0093421221656785e-13,2.409519159358528e-13,1.4398991819195185e-13,8.280851441825123e-14,4.9001136993368245e-14,2.8059331898028494e-14,1.5688258584836735e-14,8.713068982859221e-15,4.9216651033781614e-15,2.496732633733353e-15,1.6741957281549749e-15,1.0630700387529938e-08,6.664776219584886e-09,4.238633979949657e-09,2.7550374559006412e-09,1.76906365197345e-09,1.0889949090824513e-09,6.477832441717182e-10,3.7060204096605357e-10,2.068949798396116e-10,1.1252904208706347e-10,6.013151179878989e-11,3.155968425278032e-11,1.6302925548056237e-11,8.48579058110668e-12,4.495753718074469e-12,2.393679049200312e-12,1.2997458857965662e-12,7.015271912347024e-13,3.779910495054057e-13,2.0719078925851474e-13,1.0587209335004214e-13
0.0,14,14.0,0.0,30.0,0.0,0.0,0.0,0.0,-13.0,0.0,2.0,0.0,0.0,0.0,7.383923142446359e-10,6.546469646917572e-10,5.474392701982944e-10,4.3520555025155567e-10,3.405862219407732e-10,2.548249717963963e-10,1.8002260590889185e-10,1.2225086384187993e-10,8.052072898928133e-11,5.216755112209147e-11,3.231887870982719e-11,1.9972905378066967e-11,1.203361250532861e-11,7.1826038944468776e-12,4.4538789246285254e-12,2.7006558337004076e-12,1.6686233247230782e-12,1.0322600093419558e-12,6.253187463208153e-13,3.89509232311206e-13,2.344615692349979e-13,1.4038243701133467e-13,8.083736610365204e-14,4.7950190056788725e-14,2.7504578718225655e-14,1.5401597102600892e-14,8.5623819049618e-15,4.844608171335918e-15,2.4553441646798615e-15,1.6544460645441376e-15,1.0636694474913405e-08,6.6741583149016404e-09,4.2479733317968906e-09,2.7616045491652328e-09,1.7724374392588572e-09,1.0900565957806855e-09,6.476691057736521e-10,3.700336391092694e-10,2.0622992285434113e-10,1.1191613939964068e-10,5.962083027185104e-11,3.116529431504986e-11,1.6019480972156875e-11,8.293703058832358e-12,4.373416457581472e-12,2.3199761545447284e-12,1.257381117335744e-12,6.781912511060179e-13,3.656004431857099e-13,2.008378508951228e-13,1.0266494107331054e-13
0.0,15,15.0,0.0,30.0,0.0,0.0,0.0,0.0,-13.0,0.0,2.0,0.0,0.0,0.0,7.382323351326306e-10,6.542688976086351e-10,5.468553469509223e-10,4.344562669331173e-10,3.397507003896398e-10,2.5396713018378737e-10,1.7919591505463061e-10,1.2149249081837195e-10,7.985544365512614e-11,5.1605319299959254e-11,3.186196212118627e-11,1.961664229806843e-11,1.176920217526997e-11,6.9946215053758294e-12,4.32583269194201e-12,2.617217154355738e-12,1.6161047890052212e-12,1.0003322756636223e-12,6.063407575882634e-13,3.7847852558037633e-13,2.2817875610647597e-13,1.3688262621781483e-13,7.892064875451618e-14,4.692600164133945e-14,2.6962938215509637e-14,1.5121021007334846e-14,8.414733464868779e-15,4.7689631477195375e-15,2.414774469766192e-15,1.6351605836277453e-15,1.0643159548097913e-08,6.683998513337602e-09,4.257502659632632e-09,2.7680865984373196e-09,1.7755844719720336e-09,1.090879753117303e-09,6.473753507884621e-10,3.693588422646244e-10,2.0551680297566652e-10,1.1129242884439056e-10,5.91178225806077e-11,3.078439360743295e-11,1.5748679836230454e-11,8.110904631362645e-12,4.257039661674847e-12,2.249745492936869e-12,1.216906463977187e-12,6.558448904930855e-13,3.53701261464912e-13,1.9472101885804472e-13,9.957302450776656e-14
0.0,16,16.0,0.0,30.0,0.0,0.0,0.0,0.0,-13.0,0.0,2.0,0.0,0.0,0.0,7.379045274383266e-10,6.537362815501789e-10,5.461357763348891e-10,4.335971620322303e-10,3.3883234133370134e-10,2.530526540980567e-10,1.7833903803066214e-10,1.2072453608334603e-10,7.919497680184458e-11,5.105586598114348e-11,3.142058866478252e-11,1.927510709783386e-11,1.151669712327498e-11,6.815315250446627e-12,4.203578213623676e-12,2.537413430561359e-12,1.5657453561862467e-12,9.696478506268888e-13,5.880521618899161e-13,3.678257930033492e-13,2.22095425724211e-13,1.3348665079203046e-13,7.705652046179055e-14,4.5927763235434924e-14,2.64340333267493e-14,1.4846379937209884e-14,8.270044837008941e-15,4.6947021160537935e-15,2.3750006554714474e-15,1.6163127027490396e-15,1.0650125849110833e-08,6.6943136115286306e-09,4.267226460319045e-09,2.774488100323989e-09,1.7785135986712741e-09,1.0914742911225786e-09,6.469087689963607e-10,3.685800836156173e-10,2.0475481602373285e-10,1.1065556629023667e-10,5.861994807969555e-11,3.0414935987358613e-11,1.548915187759555e-11,7.936592132736018e-12,4.146192546241223e-12,2.1827703025112846e-12,1.1782169698867548e-12,6.344376361463933e-13,3.4227019800098555e-13,1.8883009608993524e-13,9.659112364850539e-14
0.0,17,17.0,0.0,30.0,0.0,0.0,0.0,0.0,-13.0,0.0,2.0,0.0,0.0,0.0,7.374138877212468e-10,6.530535701170448e-10,5.452841591936979e-10,4.32630576064896e-10,3.3783212094958943e-10,2.520812253405412e-10,1.7745045353962584e-10,1.1994473028214033e-10,7.853678120953143e-11,5.0516776994042824e-11,3.099274691723604e-11,1.8946796867572758e-11,1.1275088005328623e-11,6.644057152120227e-12,4.086750083043338e-12,2.46104061375161e-12,1.517435230406891e-12,9.401482126395063e-13,5.704227727102642e-13,3.575355610735133e-13,2.1620392458426417e-13,1.301908440509817e-13,7.524322073238584e-14,4.49546963769525e-14,2.591750107443868e-14,1.4577527939006805e-14,8.128240102833822e-15,4.6217976094339204e-15,2.336000683689465e-15,1.5978775143380576e-15,1.0657624742225454e-08,6.705119360627968e-09,4.2771467205074994e-09,2.7808106821910275e-09,1.7812311440449626e-09,1.0918484035400328e-09,6.462753834103504e-10,3.676997877847316e-10,2.0394354114479475e-10,1.1000367461394417e-10,5.812504890245244e-11,3.005512586743329e-11,1.5239665552479793e-11,7.770030411252631e-12,4.040475363095627e-12,2.1188478310592817e-12,1.1412139546373722e-12,6.139219547466925e-13,3.312852690038775e-13,1.8315540497078e-13,9.371433036678019e-14
0.0,18,18.0,0.0,30.0,0.0,0.0,0.0,0.0,-13.0,0.0,2.0,0.0,0.0,0.0,7.36764693343831e-10,6.522246646696619e-10,5.443037485444064e-10,4.315587411365654e-10,3.3675111993177143e-10,2.5105279746088106e-10,1.765290304740678e-10,1.1915123163285173e-10,7.78787056191169e-11,4.998595982497889e-11,3.0576657073605997e-11,1.863035862639055e-11,1.1043452168424602e-11,6.48026618528762e-12,3.975006994970496e-12,2.3879070520588655e-12,1.4710708888412609e-12,9.117780756165917e-13,5.534240084403658e-13,3.4759312887679467e-13,2.1049697026251477e-13,1.2699169818123024e-13,7.347906570146931e-14,4.400605120455357e-14,2.5412991894434422e-14,1.431432329554462e-14,7.989246101863006e-15,4.550222616297353e-15,2.297753353003102e-15,1.5798318600531203e-15,1.066568872518304e-08,6.7164305040926195e-09,4.287263153557593e-09,2.7870534778699996e-09,1.783741261740783e-09,1.0920087790555864e-09,6.454805028307753e-10,3.6672031880128876e-10,2.0308285356256284e-10,1.093352659457526e-10,5.763129785290615e-11,2.9703390127603586e-11,1.4999115391836667e-11,7.610547277930105e-12,3.93951741882074e-12,2.057788434251386e-12,1.1058045890075488e-12,5.942530427543529e-13,3.207257160099163e-13,1.7768775183684645e-13,9.0938028103933e-14
0.0,19,19.0,0.0,30.0,0.0,0.0,0.0,0.0,-13.0,0.0,2.0,0.0,0.0,0.0,7.359605660187647e-10,6.51252952390566e-10,5.431974575350897e-10,4.3038375596280106e-10,3.355904725821138e-10,2.499675281888212e-10,1.7557395383252021e-10,1.1834255688606065e-10,7.721893888652811e-11,4.9461603769089454e-11,3.017074605116532e-11,1.8324575486500147e-11,1.0820946893709422e-11,6.323405081095318e-12,3.868030232180247e-12,2.3178326895919987e-12,1.4265546587202902e-12,8.84485166386271e-13,5.370287816661093e-13,3.37984519425913e-13,2.049676274546997e-13,1.2388585546075938e-13,7.176244368795777e-14,4.308110510406142e-14,2.492016900006722e-14,1.4056628363589454e-14,7.852992292349757e-15,4.479950584837488e-15,2.260238277605815e-15,1.562154355829344e-15,1.0674351423281762e-08,6.728260779886063e-09,4.29757337921877e-09,2.793213434498739e-09,1.7860462306847476e-09,1.091960786466758e-09,6.445287768376588e-10,3.656439449094204e-10,2.0217285524184777e-10,1.0864917663070682e-10,5.7137153217659563e-11,2.935835293730295e-11,1.4766510309279044e-11,7.457528733466998e-12,3.842975200178796e-12,1.999414746861865e-12,1.0719015127113024e-12,5.753886370004108e-13,3.1057191833843373e-13,1.7241839508994476e-13,8.825787229721623e-14
0.0,20,20.0,0.0,30.0,0.0,0.0,0.0,0.0,-13.0,0.0,2.0,0.0,0.0,0.0,7.350045322721838e-10,6.501413455062389e-10,5.419678732952687e-10,4.291075714447308e-10,3.34351329441788e-10,2.488257264919971e-10,1.7458466433688873e-10,1.1751752347209113e-10,7.65559620473506e-11,4.894214494400706e-11,2.977362511882515e-11,1.8028353942224873e-11,1.0606803064211372e-11,6.172977312474436e-12,3.765522251123525e-12,2.2506483335391787e-12,1.3837943351360069e-12,8.582200226907758e-13,5.212113987478258e-13,3.286964348374347e-13,1.9960928606358182e-13,1.2087010010573023e-13,7.009181106912839e-14,4.217916144071918e-14,2.443870778075959e-14,1.3804309420970891e-14,7.719410620861302e-15,4.410955425986362e-15,2.2234358642168347e-15,1.5448253776302906e-15,1.0683647567262152e-08,6.740622893548137e-09,4.308073058545763e-09,2.7992855644951933e-09,1.788146704660394e-09,1.0917086365375805e-09,6.43424250715949e-10,3.6447281595995035e-10,2.0121381995991328e-10,1.0794451289587654e-10,5.6641319659371e-11,2.901881326435309e-11,1.4540962839113039e-11,7.310414474136103e-12,3.7505305986033315e-12,1.943560916097269e-12,1.0394224876110551e-12,5.572888434300487e-13,3.008053140755083e-13,1.6733901640019439e-13,8.566977167797561e-14
0.0,21,21.0,0.0,30.0,0.0,0.0,0.0,0.0,-13.0,0.0,2.0,0.0,0.0,0.0,7.338990800743479e-10,6.48892320184622e-10,5.406172744423774e-10,4.2773198393718513e-10,3.3303483035716443e-10,2.476278112797416e-10,1.7356080927834973e-10,1.1667520105573333e-10,7.588850721407183e-11,4.8426235628184576e-11,2.9384069851504255e-11,1.7740712233002854e-11,1.0400319250487223e-11,6.028524253505995e-12,3.667205355709352e-12,2.1861949796371265e-12,1.3427028339431786e-12,8.329358094235962e-13,5.059474685127797e-13,3.197162149877145e-13,1.9441564112302607e-13,1.1794135068470352e-13,6.846568845035909e-14,4.129954836968077e-14,2.3968295233586815e-14,1.3557236522605008e-14,7.5884354002556e-15,4.343211515331652e-15,2.187327287521974e-15,1.527827016250275e-15,1.0693612955389975e-08,6.753528467041794e-09,4.3187559936804225e-09,2.8052631536780363e-09,1.7900419231857056e-09,1.0912555232133362e-09,6.421704187154992e-10,3.632089501526634e-10,2.002061499583427e-10,1.0722060551207831e-10,5.614271442805455e-11,2.8683724840992786e-11,1.4321679269608911e-11,7.168693674814614e-12,3.661889228580182e-12,1.8900718885612737e-12,1.0082900811311731e-12,5.39915981737161e-13,2.914083285706974e-13,1.6244169458627322e-13,8.316987053786951e-14
0.0,22,22.0,0.0,30.0,0.0,0.0,0.0,0.0,-13.0,0.0,2.0,0.0,0.0,0.0,7.326462112951891e-10,6.475079541593818e-10,5.391476506579487e-10,4.262586340643616e-10,3.3164208556894613e-10,2.463742793783685e-10,1.7250220256317862e-10,1.1581487099241239e-10,7.521552235884478e-11,4.791271742669271e-11,2.900100220827653e-11,1.7460769721305867e-11,1.0200856203745557e-11,5.8896225060025536e-12,3.5728204508307458e-12,2.124323188334339e-12,1.3031978749850111e-12,8.08588151021537e-13,4.912138190344394e-13,3.110317993268298e-13,1.893806743715508e-13,1.15096653050067e-13,6.688265710828152e-14,4.044161771811532e-14,2.3508629426025042e-14,1.3315283364151493e-14,7.46000319531171e-15,4.276693693742041e-15,2.151894464336704e-15,1.5111430090231383e-15,1.0704284399736564e-08,6.766987967167782e-09,4.329614200010925e-09,2.811137934230616e-09,1.7917298902910932e-09,1.0906037466983447e-09,6.407702746776609e-10,3.618542276755745e-10,1.9915034189758833e-10,1.0647697200058871e-10,5.5640438203957176e-11,2.835217835994659e-11,1.4107950627635657e-11,7.031901044929247e-12,3.5767788361266097e-12,1.8388027442617453e-12,9.7843137555022e-13,5.232344439219302e-13,2.82364309560729e-13,1.5771888182528717e-13,8.075453202063863e-14
0.0,23,23.0,0.0,30.0,0.0,0.0,0.0,0.0,-13.0,0.0,2.0,0.0,0.0,0.0,7.312474899090846e-10,6.459899625061454e-10,5.375607232217903e-10,4.246890094788437e-10,3.3017416295486795e-10,2.450656808856651e-10,1.7140879229621173e-10,1.1493599241598835e-10,7.453614115565656e-11,4.7400597811515215e-11,2.8623474538484284e-11,1.7187737221426094e-11,1.0007831742798272e-11,5.755881387238848e-12,3.4821258691210584e-12,2.0648925054208655e-12,1.2652016916479473e-12,7.851349781810809e-13,4.769884215992418e-13,3.026316915628027e-13,1.8449863730869095e-13,1.1233317374191861e-13,6.53413556860438e-14,3.960474393281857e-14,2.3059418988302444e-14,1.30783271530005e-14,7.334052715574736e-15,4.2113772670674844e-15,2.117120026955662e-15,1.4947586546979186e-15,1.0715699656352445e-08,6.781010616519401e-09,4.34063795662139e-09,2.816900229401849e-09,1.7932075266212505e-09,1.0897548206824183e-09,6.392263594945928e-10,3.604103893823979e-10,1.9804696028015272e-10,1.0571328516204699e-10,5.5133749961986354e-11,2.8023385682073862e-11,1.389914446495187e-11,6.899613150786904e-12,3.4949477943458393e-12,1.7896180725166698e-12,9.497776996428637e-13,5.072105650636321e-13,2.73657468146415e-13,1.531633818976025e-13,7.842032246433758e-14
0.0,24,24.0,0.0,30.0,0.0,0.0,0.0,0.0,-13.0,0.0,2.0,0.0,0.0,0.0,7.297040860444606e-10,6.443397312557907e-10,5.358579657382552e-10,4.230244503683589e-10,3.2863207997617523e-10,2.437026003961759e-10,1.702806345404766e-10,1.140381738900818e-10,7.384965716528347e-11,4.6889029628063616e-11,2.8250655329228918e-11,1.692090821274204e-11,9.820716018623902e-12,5.6269405729189305e-12,3.3948962657573014e-12,2.0077709220560486e-12,1.2286407633951206e-12,7.625363872909978e-13,4.632503210754871e-13,2.9450492696029166e-13,1.7976403558599932e-13,1.0964819382437963e-13,6.38404771212247e-14,3.878832308834632e-14,2.2620382633711298e-14,1.284624848582752e-14,7.210524714825451e-15,4.147238004749587e-15,2.082987296041665e-15,1.4786607169549337e-15,1.0727897338797011e-08,6.795604289350837e-09,4.351815839733233e-09,2.8225390754277406e-09,1.7944707993140129e-09,1.0887095657681576e-09,6.37540805163558e-10,3.58879039103106e-10,1.9689661686618538e-10,1.0492934689894018e-10,5.462204531966359e-11,2.7696665849535876e-11,1.369469739320629e-11,6.771444995755549e-12,3.4161636833974883e-12,1.7423913856998343e-12,9.222643797930813e-13,4.918125048334306e-13,2.652728249431104e-13,1.4876833021899687e-13,7.616399679499005e-14
0.0,25,25.0,0.0,30.0,0.0,0.0,0.0,0.0,-13.0,0.0,2.0,0.0,0.0,0.0,7.280168160792484e-10,6.425583487082344e-10,5.340406245399808e-10,4.2126615682319744e-10,3.2701679920411534e-10,2.422856428943348e-10,1.6911787213808257e-10,1.1312114972598821e-10,7.315550174397034e-11,4.63772932029032e-11,2.7881816519245226e-11,1.6659650870800327e-11,9.63902713844673e-12,5.502467889393482e-12,3.3109215770549136e-12,1.9528343700482864e-12,1.1934455684732017e-12,7.407545111708593e-13,4.499795719928249e-13,2.866410420229333e-13,1.7517161460155115e-13,1.0703910311873784e-13,6.237876578792626e-14,3.799177195081234e-14,2.219124870527778e-14,1.2618931232106203e-14,7.089361896768204e-15,4.0842521377253224e-15,2.0494802532271257e-15,1.4628373211173761e-15,1.0740916814310481e-08,6.810775394293764e-09,4.363134742913815e-09,2.82804232505083e-09,1.7955148333146216e-09,1.0874681909205407e-09,6.35715375396959e-10,3.5726164852827144e-10,1.9569995489319468e-10,1.0412506646822338e-10,5.410483789713782e-11,2.7371432713031314e-11,1.3494108313429418e-11,6.647046848129215e-12,3.340211952324833e-12,1.697004567597416e-12,8.958305082263973e-13,4.770101384737802e-13,2.571961608121583e-13,1.44527175450149e-13,7.398248495183736e-14
0.0,26,26.0,0.0,30.0,0.0,0.0,0.0,0.0,-13.0,0.0,2.0,0.0,0.0,0.0,7.261861790437681e-10,6.406466344306076e-10,5.321097384363686e-10,4.1941519741027897e-10,3.2532922655604555e-10,2.4081542335566787e-10,1.6792071767920986e-10,1.1218476021478917e-10,7.245322514275975e-11,4.5864780728471797e-11,2.7516322217032766e-11,1.640340085075299e-11,9.462327129960758e-12,5.3821572489721035e-12,3.23000603925287e-12,1.8999662489762253e-12,1.1595503544395854e-12,7.197533998817254e-13,4.3715717972754275e-13,2.790300463514811e-13,1.7071634618076163e-13,1.045033948010585e-13,6.095501483594683e-14,3.721452709330798e-14,2.177175474732776e-14,1.2396262423341563e-14,6.970508826422146e-15,4.0223963553516575e-15,2.0165835138947363e-15,1.4472778474389634e-15,1.0754798081783545e-08,6.826528745540326e-09,4.374579887115666e-09,2.8333967361421828e-09,1.7963340071330255e-09,1.086030364542577e-09,6.33751502878879e-10,3.5555956387182107e-10,1.944576371432007e-10,1.033004424402877e-10,5.358174327801213e-11,2.7047183997220967e-11,1.3296932286069492e-11,6.526101305292287e-12,3.266894660147026e-12,1.6533473537520132e-12,8.704187264320566e-13,4.627749561493298e-13,2.4941397165677433e-13,1.4043366250364414e-13,7.18728793106553e-14
0.0,27,27.0,0.0,30.0,0.0,0.0,0.0,0.0,-13.0,0.0,2.0,0.0,0.0,0.0,7.242123896228861e-10,6.386051660030965e-10,5.300661576049722e-10,4.1747251847576314e-10,3.23570211567775e-10,2.392925592899734e-10,1.6668943987100533e-10,1.1122893514292938e-10,7.174248033950191e-11,4.535098263821039e-11,2.7153618674450352e-11,1.61516547600176e-11,9.290218225622155e-12,5.2657267219885425e-12,3.151967264325451e-12,1.8490569823152126e-12,1.1268929245331142e-12,6.994989105308268e-13,4.2476504625988094e-13,2.7166239649063526e-13,1.6639341624055987e-13,1.0203866033599642e-13,5.956806371149262e-14,3.645604405927224e-14,2.1361647100453548e-14,1.2178132147274648e-14,6.853911846877356e-15,3.961647801800633e-15,1.9842823000830106e-15,1.4319728241150919e-15,1.076958163058593e-08,6.84286742388227e-09,4.386134823055462e-09,2.8385880482391364e-09,1.7969220355195206e-09,1.0843952765813322e-09,6.316503233405886e-10,3.5377401371804237e-10,1.9317033708695397e-10,1.0245554775816199e-10,5.305246521365601e-11,2.672349164422641e-11,1.3102774988974286e-11,6.408320581939254e-12,3.1960292935027742e-12,1.611316841627854e-12,8.459750221944989e-13,4.4907996972864794e-13,2.4191342682849737e-13,1.364818167965754e-13,6.98324230604813e-14
0.0,28,28.0,0.0,30.0,0.0,0.0,0.0,0.0,-13.0,0.0,2.0,0.0,0.0,0.0,7.220954080596427e-10,6.364343036262643e-10,5.279105615175574e-10,4.1543895383086407e-10,3.217405491821362e-10,2.37717665614754e-10,1.6542435269297983e-10,1.1025368006260202e-10,7.102300921078679e-11,4.4835475719824934e-11,2.6793225380269777e-11,1.5903964260050914e-11,9.122339446663457e-12,5.1529167391163945e-12,3.0766353699719526e-12,1.8000036001933604e-12,1.0954144382222006e-12,6.79958605126634e-13,4.127859200349165e-13,2.6452897159466857e-13,1.6219821334408125e-13,9.964258472005226e-14,5.821679584441368e-14,3.571579657019776e-14,2.0960680518530643e-14,1.1964433446911203e-14,6.7395190009173755e-15,3.901984071653361e-15,1.9525624139839246e-15,1.4169138218310226e-15,1.0785308279254761e-08,6.859792628838826e-09,4.397781428008236e-09,2.8436010492612718e-09,1.7972720410983152e-09,1.0825616928892671e-09,6.294127066758964e-10,3.5190611761223657e-10,1.9183873248458533e-10,1.0159051738955267e-10,5.251678376138718e-11,2.6399993290480844e-11,1.2911287712871527e-11,6.293444009604717e-12,3.1274476579890794e-12,1.5708170287597405e-12,8.224485389243798e-13,4.3589962618668967e-13,2.3468233075052235e-13,1.326659296166888e-13,6.785849948379856e-14
0.0,29,29.0,0.0,30.0,0.0,0.0,0.0,0.0,-13.0,0.0,2.0,0.0,0.0,0.0,7.198349672597311e-10,6.341342127337326e-10,5.256434758585245e-10,4.1331523457533643e-10,3.1984098265314896e-10,2.360913513703773e-10,1.6412580683579676e-10,1.0925906487392337e-10,7.029463070736194e-11,4.4317912745211045e-11,2.6434727150995237e-11,1.565993074065781e-11,8.95836346661979e-12,5.043488417329399e-12,3.003852161135575e-12,1.7527093467541416e-12,1.065059224521895e-12,6.611016556628748e-13,4.0120334951379527e-13,2.5762105075795757e-13,1.5812631806417061e-13,9.731294201154768e-14,5.690013648909511e-14,3.499327577497605e-14,2.0568617806427384e-14,1.175506222395199e-14,6.627279957367403e-15,3.843383205040108e-15,1.921410211943476e-15,1.4020933518784747e-15,1.0802018993011349e-08,6.877303523001072e-09,4.409499898747826e-09,2.848419634225849e-09,1.7973766166428237e-09,1.0805280029073026e-09,6.270392853421571e-10,3.499568950712314e-10,1.9046350094269384e-10,1.0070553814717189e-10,5.197454508882335e-11,2.6076384746822978e-11,1.2722162846538529e-11,6.181235734528118e-12,3.0609948402078394e-12,1.531758377289467e-12,7.997913962006367e-13,4.2320972693538227e-13,2.277090874131493e-13,1.289805444895136e-13,6.594862208465232e-14
0.0,30,30.0,0.0,30.0,0.0,0.0,0.0,0.0,-13.0,0.0,2.0,0.0,0.0,0.0,7.174305973856436e-10,6.31704884770371e-10,5.232652884394739e-10,4.111019988882202e-10,3.178722072581876e-10,2.3441421788678804e-10,1.6279418301040258e-10,1.0824521434743485e-10,6.955723074504597e-11,4.3798013423131146e-11,2.6077767108434094e-11,1.5419200514008476e-11,8.797993734557116e-12,4.937222002848077e-12,2.933470360552261e-12,1.7070833103879265e-12,1.0357746068852581e-12,6.428987557123135e-13,3.900016400513268e-13,2.5093029187165664e-13,1.5417349308266153e-13,9.504759112533596e-14,5.5617050706178067e-14,3.428798953783192e-14,2.0185229477210267e-14,1.154991714630468e-14,6.51714594159196e-15,3.785823682268102e-15,1.8908125792565297e-15,1.387504768716669e-15,1.0819754679069877e-08,6.895397069656945e-09,4.421268742088036e-09,2.853026857428683e-09,1.797227879385428e-09,1.0782922615967327e-09,6.245304803021052e-10,3.4792727477898155e-10,1.8904531702493212e-10,9.98008403220231e-11,5.142565271332692e-11,2.575241336544072e-11,1.2535129806818102e-11,6.071482600903321e-12,2.996528237411024e-12,1.4940574034726873e-12,7.779585206093329e-13,4.109873524838876e-13,2.2098266744061218e-13,1.2542044444740256e-13,6.410042550847858e-14
0.0,31,31.0,0.0,30.0,0.0,0.0,0.0,0.0,-13.0,0.0,2.0,0.0,0.0,0.0,7.148816482138031e-10,6.291461563025214e-10,5.207762641447774e-10,4.0879980167139733e-10,3.158348745829372e-10,2.3268685809023236e-10,1.6142988678829354e-10,1.0721230027547846e-10,6.881075356476218e-11,4.327555650512042e-11,2.5722040444816957e-11,1.518146047940073e-11,8.640961838836606e-12,4.833915424446315e-12,2.8653528859361817e-12,1.6630400753130877e-12,1.0075107386458897e-12,6.253220379021607e-13,3.791658137779982e-13,2.4444871187927476e-13,1.503356739597191e-13,9.284447187345295e-14,5.4366541474252565e-14,3.3599461762415864e-14,1.981029342759486e-14,1.1348899559439172e-14,6.409069670055987e-15,3.729284417938635e-15,1.8607569057081435e-15,1.3731421779134513e-15,1.0838555958723124e-08,6.914067864730217e-09,4.433064764253315e-09,2.857404979268206e-09,1.796817518517249e-09,1.0758522264265462e-09,6.21886524760253e-10,3.458181037998547e-10,1.8758485059142288e-10,9.887669083222753e-11,5.0870059977289967e-11,2.542787218987623e-11,1.2349951371754806e-11,5.963992206770567e-12,2.933916651554998e-12,1.4576362908638508e-12,7.569074861019259e-13,3.9921079191373727e-13,2.144925774666737e-13,1.2198064011643507e-13,6.231165719770489e-14
0.0,32,32.0,0.0,30.0,0.0,0.0,0.0,0.0,-13.0,0.0,2.0,0.0,0.0,0.0,7.121873095102426e-10,6.264577266268602e-10,5.181765589635993e-10,4.0640912397326137e-10,3.137295972003298e-10,2.3090985670136368e-10,1.6003334469409724e-10,1.0616053499107211e-10,6.805519435089515e-11,4.275037289662014e-11,2.5367288886729785e-11,1.4946434213653802e-11,8.487025093054427e-12,4.733382950565087e-12,2.7993721714851057e-12,1.6204993931629367e-12,9.802204481356424e-13,6.083449967223814e-13,3.686815722034312e-13,2.381686683172416e-13,1.4660896051514985e-13,9.070160123359319e-14,5.3147647921003734e-14,3.2927231749809783e-14,1.9443594630626913e-14,1.1151913401331052e-14,6.303005288499296e-15,3.673744754778382e-15,1.8312310620157023e-15,1.3590003499566432e-15,1.0858462915235263e-08,6.933307964059586e-09,4.4448630601203625e-09,2.8615355086555855e-09,1.7961368368399037e-09,1.0732053901183755e-09,6.191074859393682e-10,3.4363015669327237e-10,1.8608276610551777e-10,9.793338763837546e-11,5.030776358756711e-11,2.5102594795836436e-11,1.2166420378274117e-11,5.85859112016966e-12,2.8730394445248206e-12,1.4224225259837495e-12,7.365983632113116e-13,3.8785947672676985e-13,2.082288315899147e-13,1.1865635854648962e-13,6.058016972973451e-14
0.0,33,33.0,0.0,30.0,0.0,0.0,0.0,0.0,-13.0,0.0,2.0,0.0,0.0,0.0,7.093466296618135e-10,6.236391740403719e-10,5.154662331765511e-10,4.039303821505332e-10,3.1155695360847623e-10,2.2908379112646415e-10,1.5860500132118848e-10,1.0509016603485046e-10,6.729059292761397e-11,4.222233964423597e-11,2.5013295778669127e-11,1.471387844575792e-11,8.335964326700445e-12,4.635453943816577e-12,2.735409531457489e-12,1.5793858733731373e-12,9.53859092718734e-13,5.919424161860191e-13,3.5853526128950826e-13,2.320828420355938e-13,1.429896087690739e-13,8.861706982970766e-14,5.195944366451706e-14,3.227085358823718e-14,1.9084924844427462e-14,1.0958865120821432e-14,6.198908313741885e-15,3.619184457102734e-15,1.8022233772025147e-15,1.345074640119388e-15,1.0879514816644664e-08,6.953106707056641e-09,4.45663700321298e-09,2.86539924176093e-09,1.7951767873741798e-09,1.0703490097619913e-09,6.161932851298364e-10,3.413641444515876e-10,1.8453972269738344e-10,9.697125521680588e-11,4.97387980711847e-11,2.4776450740978638e-11,1.1984356748946293e-11,5.755123243634733e-12,2.813785751274396e-12,1.388348555345329e-12,7.169935765424e-13,3.7691391868021304e-13,2.0218192470812566e-13,1.1544303271792766e-13,5.890391378215665e-14
0.0,34,34.0,0.0,30.0,0.0,0.0,0.0,0.0,-13.0,0.0,2.0,0.0,0.0,0.0,7.063585327813067e-10,6.206899709270459e-10,5.126452637722546e-10,4.0136393674862363e-10,3.0931749332658646e-10,2.2720923288383786e-10,1.5714531728171331e-10,1.0400147178574316e-10,6.651702837882048e-11,4.1691374686577846e-11,2.4659881715692842e-11,1.4483579877987302e-11,8.187581864065209e-12,4.5399717066438746e-12,2.6733545636360388e-12,1.539628691274284e-12,9.283844210795394e-13,5.760903019182722e-13,3.4871383877092926e-13,2.2618422100480048e-13,1.3947402339530244e-13,8.658903860981116e-14,5.080103525591857e-14,3.1629895572503635e-14,1.8734082336137434e-14,1.0769663599160324e-14,6.0967355784932044e-15,3.5655837040119296e-15,1.773722616907843e-15,1.331360914556212e-15,1.0901749812676136e-08,6.973450537807695e-09,4.468358237195202e-09,2.868976297686815e-09,1.7939280056030578e-09,1.0672801328378253e-09,6.131437162297134e-10,3.3902072321181724e-10,1.829563748151342e-10,9.599064091598608e-11,4.9163231019966504e-11,2.444934155123475e-11,1.1803604815378185e-11,5.653448315671632e-12,2.7560537476434835e-12,1.355351462767445e-12,6.980577700324249e-13,3.663556512749717e-13,1.9634280755554885e-13,1.1233629166986332e-13,5.728093168109671e-14
0.0,35,35.0,0.0,30.0,0.0,0.0,0.0,0.0,-13.0,0.0,2.0,0.0,0.0,0.0,7.032218344871637e-10,6.176094978086374e-10,5.097135561722765e-10,3.987101010970428e-10,3.070117420742291e-10,2.2528674943978058e-10,1.5565476783579184e-10,1.0289475790042238e-10,6.573461445953736e-11,4.115743227056027e-11,2.430690066243636e-11,1.4255352319068617e-11,8.041699675940618e-12,4.4467924121155614e-12,2.613104590549198e-12,1.5011613128863125e-12,9.037564431858864e-13,5.607658173046952e-13,3.3920484352663925e-13,2.2046608512240293e-13,1.3605875064470374e-13,8.461573570750997e-14,4.967156071586345e-14,3.100393965158502e-14,1.839087162006318e-14,1.0584220074499797e-14,5.996445179301303e-15,3.512923082334984e-15,1.7457179626048543e-15,1.3178554824293343e-15,1.092520460508595e-08,6.994322824719942e-09,4.479996669484593e-09,2.8722461515284212e-09,1.7923808379241578e-09,1.0639956206183148e-09,6.099584629768119e-10,3.3660050271284817e-10,1.8133337332759442e-10,9.499191204942856e-11,4.8581159014370524e-11,2.4121197179613532e-11,1.1624030908647655e-11,5.553440538441951e-12,2.6997499696654703e-12,1.3233726659512283e-12,6.797576795259411e-13,3.561671746074238e-13,1.9070286329016324e-13,1.0933195119732386e-13,5.570935148303115e-14
0.0,36,36.0,0.0,30.0,0.0,0.0,0.0,0.0,-13.0,0.0,2.0,0.0,0.0,0.0,6.999352565417446e-10,6.143970564977668e-10,5.066709553432384e-10,3.959691496276536e-10,3.0464020697957357e-10,2.2331690635440437e-10,1.541338420720797e-10,1.017703544311273e-10,6.49434956854773e-11,4.062049894766227e-11,2.3954236502800916e-11,1.4029034098181276e-11,7.89815768968492e-12,4.35578411407592e-12,2.5545641363865017e-12,1.4639212354837026e-12,8.799373074114868e-13,5.459472233687177e-13,3.299963668256339e-13,2.149219919413902e-13,1.3274047170111824e-13,8.269545347504105e-14,4.857018815730868e-14,3.0392580902442266e-14,1.8055103209229533e-14,1.0402448069346935e-14,5.8979964273147126e-15,3.461183579457172e-15,1.7181989918175572e-15,1.3045550339798133e-15,1.0949914090914221e-08,7.015703679854121e-09,4.491520467496716e-09,2.8751876651707265e-09,1.7905253668046378e-09,1.0604921693646098e-09,6.066371150573717e-10,3.3410405448523334e-10,1.7967136696977273e-10,9.397545360216757e-11,4.799270413200768e-11,2.3791972880920925e-11,1.1445521189893694e-11,5.4549873215224225e-12,2.644788681240036e-12,1.2923576313324365e-12,6.620620122544019e-13,3.463319033266004e-13,1.8525388549452218e-13,1.0642600507336285e-13,5.418738155154451e-14
0.0,37,37.0,0.0,30.0,0.0,0.0,0.0,0.0,-13.0,0.0,2.0,0.0,0.0,0.0,6.964974405167676e-10,6.110518824823057e-10,5.035172563732733e-10,3.931413259311621e-10,3.0220338177783966e-10,2.2130026965836967e-10,1.525830425345221e-10,1.0062861351214406e-10,6.414384400367936e-11,4.008059007557486e-11,2.3601799970854818e-11,1.3804485731493902e-11,7.75681224424034e-12,4.266825831137944e-12,2.4976444376026604e-12,1.4278497430626713e-12,8.568911843607122e-13,5.316138220909817e-13,3.210770252928223e-13,2.095457632499654e-13,1.295159964348249e-13,8.082654567616568e-14,4.749611448824414e-14,2.979542702869932e-14,1.77265933794142e-14,1.022426332062073e-14,5.801349801610055e-15,3.4103465759117837e-15,1.6911556592450142e-15,1.2914565841936009e-15,1.0975910978297517e-08,7.0375697791296145e-09,4.502896057927217e-09,2.8777791160823744e-09,1.788351433066962e-09,1.056766329688916e-09,6.031791832593448e-10,3.31531919771666e-10,1.7797100404398661e-10,9.294166644758054e-11,4.7398010959333786e-11,2.3461646452465255e-11,1.1267979696690443e-11,5.357988132231966e-12,2.591091287144327e-12,1.2622556062567869e-12,6.449413328488536e-13,3.36834117475163e-13,1.7998805747213544e-13,1.036146167555718e-13,5.271330558966281e-14
0.0,38,38.0,0.0,30.0,0.0,0.0,0.0,0.0,-13.0,0.0,2.0,0.0,0.0,0.0,6.929069606404078e-10,6.075731566607424e-10,5.002522145870641e-10,3.9022685057215854e-10,2.997017519730625e-10,2.192374083981474e-10,1.5100288520865641e-10,9.946990752243913e-11,6.333585596084168e-11,3.9537746760217205e-11,2.3249525919115086e-11,1.3581587815675038e-11,7.617534677678818e-12,4.1798066992777036e-12,2.4422629852794614e-12,1.3928916758956152e-12,8.345841569824453e-13,5.177459029114017e-13,3.124359354544702e-13,2.0433147243750951e-13,1.2638225752334926e-13,7.900742482891885e-14,4.64485641882984e-14,2.921209788281252e-14,1.7405163945218796e-14,1.0049583712425719e-14,5.706466905004339e-15,3.3603938379048105e-15,1.6645782788144245e-15,1.2785574218941385e-15,1.1003225374702162e-08,7.0598941846303814e-09,4.514088129379128e-09,2.879998224291357e-09,1.785848655683538e-09,1.052814524413301e-09,5.995841138220642e-10,3.2888461718388957e-10,1.7623293430731259e-10,9.189096598788913e-11,4.679724403619677e-11,2.3130215796702613e-11,1.1091326583169284e-11,5.262353443673046e-12,2.538585788455646e-12,1.233019367557292e-12,6.283679555401364e-13,3.2765891601073755e-13,1.7489793273277114e-13,1.0089411154178665e-13,5.128547809424958e-14
0.0,39,39.0,0.0,30.0,0.0,0.0,0.0,0.0,-13.0,0.0,2.0,0.0,0.0,0.0,6.891623359678984e-10,6.039600165393525e-10,4.968755552699525e-10,3.8722592868590146e-10,2.971357999453285e-10,2.1712889730077024e-10,1.4939389979621055e-10,9.829462764649737e-11,6.251975029772874e-11,3.899203318135354e-11,2.2897370885315664e-11,1.3360239125298148e-11,7.480210035803348e-12,4.094625188075239e-12,2.3883430973790492e-12,1.358995213404117e-12,8.129841166003058e-13,5.043246921860054e-13,3.040626897393853e-13,1.9927343258850774e-13,1.2333630491083227e-13,7.723655968806583e-14,4.54267881537547e-14,2.8642225010233465e-14,1.709064204710317e-14,9.87832921109234e-15,5.613310422141804e-15,3.311307509701649e-15,1.6384575065897895e-15,1.2658550637145254e-15,1.1031884347674583e-08,7.0826461702783056e-09,4.525059638546629e-09,2.8818221776667254e-09,1.7830064494201885e-09,1.048633065222767e-09,5.958513021188794e-10,3.26162650106983e-10,1.7445781099038231e-10,9.082378114547308e-11,4.619058567247789e-11,2.2797696766978232e-11,1.0915496534006398e-11,5.168003772252544e-12,2.487206277575266e-12,1.204604985643296e-12,6.123158422283299e-13,3.1879217283393946e-13,1.6997641657518715e-13,9.82609691427854e-14,4.990232020076811e-14
0.0,40,40.0,0.0,30.0,0.0,0.0,0.0,0.0,-13.0,0.0,2.0,0.0,0.0,0.0,6.852620420058362e-10,6.00211566993346e-10,4.933869830671768e-10,3.841387573812731e-10,2.9450600999231855e-10,2.1497531951957702e-10,1.477566302193192e-10,9.710318276754008e-11,6.169576590802078e-11,3.844353425223723e-11,2.2545310923202872e-11,1.3140354893349057e-11,7.34473589124676e-12,4.011188375929574e-12,2.3358135190992517e-12,1.3261116696212486e-12,7.920606645172283e-13,4.913323053931934e-13,2.959473338249757e-13,1.9436618525177505e-13,1.2037530058108406e-13,7.551247285847098e-14,4.4430062605775523e-14,2.8085451214631093e-14,1.678285994909078e-14,9.710421802640427e-15,5.521844079780202e-15,3.2630701060580916e-15,1.6127843245037216e-15,1.2533472127719504e-15,1.1061911458469882e-08,7.1057910521709194e-09,4.535771820072182e-09,2.883227655582196e-09,1.7798140406404602e-09,1.044218168382291e-09,5.919801057947125e-10,3.233665138651262e-10,1.7264629290414147e-10,8.974055364378055e-11,4.5578234084344894e-11,2.2464121262108068e-11,1.0740437334341119e-11,5.07486879705204e-12,2.4368924701792067e-12,1.1769716032436629e-12,5.967605061187602e-13,3.1022049515940605e-13,1.6521674868285043e-13,9.57118166430271e-14,4.8562315890497526e-14
0.0,41,41.0,0.0,30.0,0.0,0.0,0.0,0.0,-13.0,0.0,2.0,0.0,0.0,0.0,6.812045219101573e-10,5.963268906862327e-10,4.897861911197972e-10,3.8096553297463746e-10,2.918128732990741e-10,2.1277726943096023e-10,1.460916353061091e-10,9.589599863752083e-11,6.08641601085295e-11,3.7892353569952586e-11,2.2193339666806304e-11,1.2921865256110603e-11,7.211021263358951e-12,3.929411279857235e-12,2.28460804961503e-12,1.2941953005541274e-12,7.717850188830894e-13,4.787517019055815e-13,2.8808034522646945e-13,1.896044898352865e-13,1.1749651362110224e-13,7.383373853171218e-14,4.3457688057438236e-14,2.7541430142789898e-14,1.6481654846367598e-14,9.545785432426327e-15,5.432032608966041e-15,3.215664504449195e-15,1.5875500249263047e-15,1.241031721656864e-15,1.10933262692133e-08,7.129290024899988e-09,4.546184200100227e-09,2.884190851000194e-09,1.7762604815635059e-09,1.0395659697637769e-09,5.879698574670084e-10,3.204967026648203e-10,1.7079904660059273e-10,8.864173752626514e-11,4.4960401804632326e-11,2.2129535539585034e-11,1.0566108579511372e-11,4.982886554012882e-12,2.387589271535826e-12,1.1500812279757396e-12,5.81678920648594e-13,3.019311840900919e-13,1.6061248666088955e-13,9.32434218235135e-14,4.7264008534390025e-14
0.0,42,42.0,0.0,30.0,0.0,0.0,0.0,0.0,-13.0,0.0,2.0,0.0,0.0,0.0,6.769881973682359e-10,5.923050582338922e-10,4.860728699939512e-10,3.777064580785906e-10,2.890568928334633e-10,2.1053535545879985e-10,1.443994896179679e-10,9.467351727685402e-11,6.002520717497556e-11,3.733861161852909e-11,2.1841466601094653e-11,1.2704713845587498e-11,7.078985629987118e-12,3.849216235761643e-12,2.234665193570672e-12,1.2632031227908899e-12,7.521299265360729e-13,4.665666421625061e-13,2.804526130406918e-13,1.8498331358367242e-13,1.1469731555407436e-13,7.219898033748005e-14,4.250898833509142e-14,2.7009825888331737e-14,1.6186868682397336e-14,9.38434594689989e-15,5.343841709205178e-15,3.1690739374271133e-15,1.5627461959798643e-15,1.228906559282387e-15,1.1126143824569962e-08,7.153100005172723e-09,4.556254613457493e-09,2.884687490988539e-09,1.772334663256446e-09,1.0346725394084766e-09,5.838198770858455e-10,3.1755371633227996e-10,1.689167485611245e-10,8.752779886994464e-11,4.4337314327948975e-11,2.17939987207644e-11,1.0392480510102804e-11,4.892002698437639e-12,2.3392463747788965e-12,1.1238985379451303e-12,5.670494334307019e-13,2.9391219726105344e-13,1.561574904454814e-13,9.085268682333441e-14,4.600599774955582e-14
0.0,43,43.0,0.0,30.0,0.0,0.0,0.0,0.0,-13.0,0.0,2.0,0.0,0.0,0.0,6.726114792671226e-10,5.88145138192772e-10,4.822467164553701e-10,3.743617485684556e-10,2.862385881674547e-10,2.082502029085927e-10,1.426807843858513e-10,9.34361965639977e-11,5.917919710374797e-11,3.6782444191617885e-11,2.1489715515001753e-11,1.2488856514336812e-11,6.948558023006724e-12,3.770532325333332e-12,2.185927835763589e-12,1.2330947427272524e-12,7.330695795486566e-13,4.547616470924138e-13,2.730554187614367e-13,1.8049782209786754e-13,1.1197517592284084e-13,7.060686930331341e-14,4.1583309650117136e-14,2.6490312613265608e-14,1.589834797491428e-14,9.226031037232315e-15,5.257238014270344e-15,3.1232819848621743e-15,1.5383647074674951e-15,1.2169697813656813e-15,1.1160374109244071e-08,7.177173484045163e-09,4.565939224297554e-09,2.8846928556655114e-09,1.7680253276363182e-09,1.0295338958329348e-09,5.795294840373132e-10,3.1453806686174166e-10,1.6700008739207947e-10,8.639921565695776e-11,4.370920895630598e-11,2.1457581464512096e-11,1.0219532959292014e-11,4.802169829846199e-12,2.291817888855088e-12,1.09839069961275e-12,5.528516849651306e-13,2.8615211343455415e-13,1.5184590752958746e-13,8.853664211853226e-14,4.4786936546761034e-14
0.0,44,44.0,0.0,30.0,0.0,0.0,0.0,0.0,-13.0,0.0,2.0,0.0,0.0,0.0,6.680727782421624e-10,5.838462069448886e-10,4.783074421363478e-10,3.7093164044778424e-10,2.8335850022611316e-10,2.0592245679748105e-10,1.4093612852876553e-10,9.218450998100233e-11,5.832643456535673e-11,3.6224001005603504e-11,2.1138123115518086e-11,1.2274260179111614e-11,6.819676200156756e-12,3.69329484599176e-12,2.138342937537902e-12,1.2038321958214097e-12,7.145795362300587e-13,4.4332195965017664e-13,2.6588041809316746e-13,1.7614337036032516e-13,1.0932765810658554e-13,6.905612191593314e-14,4.0680019717569797e-14,2.5982574186366818e-14,1.5615943650604703e-14,9.070770184926318e-15,5.172189059709385e-15,3.078272566296937e-15,1.5143976975612932e-15,1.2052195041930773e-15,1.1196021482999119e-08,7.201458389044754e-09,4.575192549955737e-09,2.884181795563044e-09,1.7633210787560413e-09,1.0241460202709534e-09,5.750980090633785e-10,3.114502847909544e-10,1.6504976601212445e-10,8.525647777316697e-11,4.307633381550152e-11,2.112036478856361e-11,1.0047254400807821e-11,4.713346873704415e-12,2.245261993993328e-12,1.0735271971980325e-12,5.390665318779785e-13,2.786400989390512e-13,1.476721589490197e-13,8.629244079879957e-14,4.360552874696541e-14
0.0,45,45.0,0.0,30.0,0.0,0.0,0.0,0.0,-13.0,0.0,2.0,0.0,0.0,0.0,6.633705152207714e-10,5.794073585565935e-10,4.74254782130486e-10,3.6741639661831205e-10,2.804171959596797e-10,2.0355278467106823e-10,1.3916614973628302e-10,9.091894648814869e-11,5.7467238019201975e-11,3.566344447670494e-11,2.0786737783833402e-11,1.2060901771285542e-11,6.692285886453791e-12,3.61744482052637e-12,2.0918612534658753e-12,1.1753797953135318e-12,6.966366463555114e-13,4.322335083450872e-13,2.5891962369410457e-13,1.7191549423244142e-13,1.067524153549415e-13,6.754549827838732e-14,3.979850691798534e-14,2.5486303837697422e-14,1.533951088778946e-14,8.91849460908697e-15,5.0886632517603056e-15,3.034029933156494e-15,1.4908375599629774e-15,1.193653881305163e-15,1.1233084095278151e-08,7.225897957402479e-09,4.583967487671253e-09,2.883128747401314e-09,1.7582103936526213e-09,1.0185048710305307e-09,5.705248060615146e-10,3.082909254192397e-10,1.6306650381980174e-10,8.410008710759715e-11,4.2438947016352705e-11,2.0782439020276938e-11,9.8756410870301e-12,4.625498515007296e-12,2.199540622683384e-12,1.0492796729208066e-12,5.256759744552192e-13,2.7136587584808023e-13,1.4363092598177786e-13,8.411735312387252e-14,4.246052664765998e-14
0.0,46,46.0,0.0,30.0,0.0,0.0,0.0,0.0,-13.0,0.0,2.0,0.0,0.0,0.0,6.585031322498042e-10,5.748277147445194e-10,4.700885034909278e-10,3.6381631346384554e-10,2.7741527288683416e-10,2.0114187941311615e-10,1.373714956279292e-10,8.964001051710902e-11,5.660193895822617e-11,3.5100948632830784e-11,2.043561845610155e-11,1.1848767284522098e-11,6.566340079472147e-12,3.5429285432093715e-12,2.0464370668071357e-12,1.1477039898852433e-12,6.792189804465113e-13,4.2148287264707155e-13,2.52165388779263e-13,1.67809902393365e-13,1.0424718702638464e-13,6.607380035704041e-14,3.893817949938989e-14,2.5001203828474305e-14,1.5068908967152188e-14,8.76913721535812e-15,5.0066298378033954e-15,2.9905386612122553e-15,1.46767693162809e-15,1.1822710828760762e-15,1.1271553281907394e-08,7.2504306215315936e-09,4.5922153437474715e-09,2.8815077482819947e-09,1.7526816330425128e-09,1.0126063981319077e-09,5.658092638182131e-10,3.050605748825105e-10,1.610510388326973e-10,8.293055773042785e-11,4.179731593814342e-11,2.0443902860595798e-11,9.704696267841224e-12,4.538594679114775e-12,2.154619164272505e-12,1.025621777416653e-12,5.126630882535168e-13,2.643196918083219e-13,1.3971713751606946e-13,8.200876134403755e-14,4.135072891750539e-14
0.0,47,47.0,0.0,30.0,0.0,0.0,0.0,0.0,-13.0,0.0,2.0,0.0,0.0,0.0,6.534691022119188e-10,5.701064344581095e-10,4.658084140696128e-10,3.601317280082693e-10,2.7435336391277964e-10,1.9869046195519352e-10,1.3555283476031175e-10,8.8348221959469e-11,5.5730881297090585e-11,3.453669818746034e-11,2.0084833619153266e-11,1.1637850900310181e-11,6.441798409321729e-12,3.4696971602891163e-12,2.002027943785962e-12,1.12077322969479e-12,6.623057625955747e-13,4.110572501603199e-13,2.4561039158302366e-13,1.6382246869792033e-13,1.0180979500868626e-13,6.463987031294468e-14,3.8098464817464827e-14,2.4526985135604654e-14,1.480400112969421e-14,8.622632546399536e-15,4.926058877994267e-15,2.9477836428830934e-15,1.4449086809958457e-15,1.171069277909154e-15,1.1311412946778078e-08,7.274989907777377e-09,4.599885864640398e-09,2.879292448331213e-09,1.7467230521587715e-09,1.0064465583813363e-09,5.609508177221699e-10,3.017598560984037e-10,1.5900412979196913e-10,8.174841613052525e-11,4.11517166145034e-11,2.0104862546934454e-11,9.534429481816201e-12,4.452610055639163e-12,2.1104661914161285e-12,1.0025290296932229e-12,5.000119595806433e-13,2.5749229142858133e-13,1.3592595804717284e-13,7.996415476895363e-14,4.0274978701036694e-14
