Line_number,Fiducial,Easting,Northing,Height,Elevation,tx_pitch,tx_roll,tx_yaw,txrx_dx,txrx_dy,txrx_dz,rx_pitch,rx_roll,rx_yaw,S0Z_time_3.834e-04,S0Z_time_3.924e-04,S0Z_time_4.039e-04,S0Z_time_4.184e-04,S0Z_time_4.364e-04,S0Z_time_4.589e-04,S0Z_time_4.869e-04,S0Z_time_5.224e-04,S0Z_time_5.679e-04,S0Z_time_6.249e-04,S0Z_time_6.969e-04,S0Z_time_7.879e-04,S0Z_time_9.019e-04,S0Z_time_1.046e-03,S0Z_time_1.227e-03,S0Z_time_1.456e-03,S0Z_time_1.744e-03,S0Z_time_2.109e-03,S0Z_time_2.567e-03,S0Z_time_3.145e-03,S0Z_time_3.864e-03,S0Z_time_4.745e-03,S0Z_time_5.821e-03,S0Z_time_7.140e-03,S0Z_time_8.754e-03,S0Z_time_1.073e-02,S1Z_time_2.057e-05,S1Z_time_2.607e-05,S1Z_time_3.307e-05,S1Z_time_4.206e-05,S1Z_time_5.356e-05,S1Z_time_6.807e-05,S1Z_time_8.607e-05,S1Z_time_1.086e-04,S1Z_time_1.366e-04,S1Z_time_1.721e-04,S1Z_time_2.176e-04,S1Z_time_2.746e-04,S1Z_time_3.466e-04,S1Z_time_4.376e-04,S1Z_time_5.516e-04,S1Z_time_6.956e-04,S1Z_time_8.771e-04,S1Z_time_1.106e-03,S1Z_time_1.394e-03
0.0,0,0.0,0.0,30.0,0.0,0.0,0.0,0.0,-13.0,0.0,2.0,0.0,0.0,0.0,6.263307765913791e-11,5.712684618149463e-11,5.112967078616282e-11,4.480982013510113e-11,3.824203622846464e-11,3.180588657432418e-11,2.5692030186341865e-11,1.99552415421334e-11,1.4825775919706993e-11,1.0572895752272653e-11,7.212015956471233e-12,4.68773163627135e-12,2.9189353466258966e-12,1.7352717654457624e-12,9.839917498070302e-13,5.31983137956992e-13,2.774059741567274e-13,1.3788421771224464e-13,6.653820219907527e-14,3.041746892443104e-14,1.3721705032066959e-14,5.88114075825401e-15,2.7732315464339425e-15,1.1416263881216907e-15,7.117630100654376e-16,1.9213256203370798e-16,3.538989158007325e-09,1.6250719767428678e-09,8.136371302340305e-10,4.5288555129533315e-10,2.863940480860052e-10,2.0242319405503143e-10,1.513422819654665e-10,1.1308692447044419e-10,8.224055486963263e-11,5.716266387379352e-11,3.7634445335011377e-11,2.3634866636510865e-11,1.4085581379181748e-11,7.963579169890575e-12,4.282322880035579e-12,2.191901166968242e-12,1.062664534878989e-12,4.918207202185691e-13,2.2104650163662905e-13
0.0,1,1.0,0.0,30.0,0.0,0.0,0.0,0.0,-13.0,0.0,2.0,0.0,0.0,0.0,6.242568168466125e-11,5.725509574365169e-11,5.162713889239949e-11,4.5679850190149644e-11,3.944088968831935e-11,3.324174721008614e-11,2.7250890972823043e-11,2.151825468960969e-11,1.6280565281548707e-11,1.1836672220049517e-11,8.237624243310793e-12,5.466525878303947e-12,3.4749197772731494e-12,2.1083823549214085e-12,1.219497735041283e-12,6.721958085667154e-13,3.564484332367247e-13,1.802258909475978e-13,8.80852029708376e-14,4.0947074050729235e-14,1.8680017973790177e-14,8.117523680797195e-15,3.7771411955552345e-15,1.6143135143903574e-15,9.393126007785732e-16,2.641417825488504e-16,3.5246846597595638e-09,1.6166291662991646e-09,8.089868871185628e-10,4.4723151778688175e-10,2.774312599873039e-10,1.919456370408946e-10,1.424018124047586e-10,1.0731640301249617e-10,7.955761701463715e-11,5.665893365524063e-11,3.83110201163331e-11,2.4729479822040862e-11,1.5157082280065e-11,8.810937209678945e-12,4.870929310150261e-12,2.5591282648084006e-12,1.2724332261640724e-12,6.037905522473452e-13,2.7518588791009313e-13
0.0,2,2.0,0.0,30.0,0.0,0.0,0.0,0.0,-13.0,0.0,2.0,0.0,0.0,0.0,6.186450224837908e-11,5.692825302411407e-11,5.158691452324754e-11,4.5962094257670046e-11,4.00440631858294e-11,3.411506015275527e-11,2.8311929714606032e-11,2.2670287127174388e-11,1.742152672108335e-11,1.287946555355879e-11,9.122637803211143e-12,6.1664261806407964e-12,3.993585353847926e-12,2.4686780503003167e-12,1.4543239460022806e-12,8.162781272819957e-13,4.3989285042042306e-13,2.2607346876591542e-13,1.1191306385422347e-13,5.28342861711838e-14,2.436532748373505e-14,1.0744050795866257e-14,4.956732001388752e-15,2.1769137330865566e-15,1.1938122249919784e-15,3.546769561569932e-16,3.5101300491616688e-09,1.6084541320910034e-09,8.06010669608225e-10,4.453895168945759e-10,2.734310337387461e-10,1.8554167511700398e-10,1.3557149449855527e-10,1.0197369291126432e-10,7.641786757324094e-11,5.543409489894583e-11,3.831916476331932e-11,2.531920579198503e-11,1.589616567595459e-11,9.46800436295527e-12,5.364225371277008e-12,2.8853021966794114e-12,1.4682014396734213e-12,7.12717488488218e-13,3.298754726188841e-13
0.0,3,3.0,0.0,30.0,0.0,0.0,0.0,0.0,-13.0,0.0,2.0,0.0,0.0,0.0,6.118057105051363e-11,5.6387354992107123e-11,5.124432387434773e-11,4.587024047400497e-11,4.023183418739303e-11,3.456849596373519e-11,2.8981082629250313e-11,2.3483212841723726e-11,1.829067050099547e-11,1.3720198928087316e-11,9.870306965130007e-12,6.78228833737595e-12,4.467037017036516e-12,2.8087781234582838e-12,1.6829670442266751e-12,9.60691201390766e-13,5.257583920792638e-13,2.7442159139872635e-13,1.3758121554758912e-13,6.589480873684558e-14,3.071389572831819e-14,1.3739202239052406e-14,6.3108856195520196e-15,2.826933852643034e-15,1.4776162829362717e-15,4.658952258888579e-16,3.4953283670618273e-09,1.6003165908523615e-09,8.035763354674478e-10,4.452695102161646e-10,2.7242199289369554e-10,1.82323474536931e-10,1.3095583042573517e-10,9.755589371301681e-11,7.3292036822336e-11,5.382043164295951e-11,3.7870759450273103e-11,2.5527213842136447e-11,1.6363588508001447e-11,9.956869716019879e-12,5.7653741469959475e-12,3.167469906301956e-12,1.6463048525284364e-12,8.159594114347667e-13,3.8370543348758e-13
0.0,4,4.0,0.0,30.0,0.0,0.0,0.0,0.0,-13.0,0.0,2.0,0.0,0.0,0.0,6.05116965215744e-11,5.5789775547820777e-11,5.07660139297951e-11,4.556652073075232e-11,4.014875074164128e-11,3.4720980859544294e-11,2.9349699498694895e-11,2.4022139845730317e-11,1.8929988683555936e-11,1.4382258492719363e-11,1.049008760164945e-11,7.314770937129446e-12,4.891704670874396e-12,3.1240607356960725e-12,1.9014327307491156e-12,1.1025961368700777e-12,6.123205233570331e-13,3.2433212929551546e-13,1.646467818853136e-13,7.99321605021767e-14,3.765086308036719e-14,1.707443397134741e-14,7.834569141857304e-15,3.560966759438076e-15,1.7928497230683514e-15,5.994436566022508e-16,3.480278362253563e-09,1.5922040514935027e-09,8.013400188546207e-10,4.458569659517944e-10,2.730303932292061e-10,1.8131131466946065e-10,1.2829216674629675e-10,9.42746962001865e-11,7.050499098211824e-11,5.207505021562524e-11,3.713123403897721e-11,2.5452977619863156e-11,1.6614403742019703e-11,1.03022904546583e-11,6.081892139943327e-12,3.405931326108351e-12,1.8049221208174597e-12,9.117775940053641e-13,4.3555776198825327e-13
0.0,5,5.0,0.0,30.0,0.0,0.0,0.0,0.0,-13.0,0.0,2.0,0.0,0.0,0.0,5.993184804618182e-11,5.523025094041657e-11,5.0262934670465303e-11,4.516894140649872e-11,3.990800297483074e-11,3.4670821411905505e-11,2.949612079534239e-11,2.4344616493773517e-11,1.9378457710589534e-11,1.4889629519539404e-11,1.0994282989675049e-11,7.768035697895096e-12,5.267024423496981e-12,3.412020968082875e-12,2.1069973051355923e-12,1.2398121584895299e-12,6.981381908543503e-13,3.749642766798182e-13,1.9268476677016857e-13,9.474754761610459e-14,4.509480090174647e-14,2.071638750008635e-14,9.51944134767351e-15,4.374875441877149e-15,2.1410030745953066e-15,7.559106322921708e-16,3.4649745020095105e-09,1.5841290343354325e-09,7.992308535031402e-10,4.4673370695983875e-10,2.744385532061142e-10,1.8168355826167366e-10,1.2715331937928788e-10,9.212281239512793e-11,6.82481047941563e-11,5.0394982875823544e-11,3.62353467409953e-11,2.5177693486948215e-11,1.6695552871323554e-11,1.0528086108904173e-11,6.3232951654327826e-12,3.6030125800969434e-12,1.9435550079745476e-12,9.991388583268175e-13,4.846181586503752e-13
0.0,6,6.0,0.0,30.0,0.0,0.0,0.0,0.0,-13.0,0.0,2.0,0.0,0.0,0.0,5.947482780202144e-11,5.475998857329105e-11,4.9803363515854285e-11,4.4758463182750435e-11,3.959472046986888e-11,3.449750264914501e-11,2.948704533916327e-11,2.4501302530750935e-11,1.967139589586369e-11,1.5265152486920348e-11,1.1396022898442407e-11,8.148120704807722e-12,5.594419669045698e-12,3.671722180329451e-12,2.2979602775704353e-12,1.3707366523116943e-12,7.820493508607503e-13,4.2558905441446655e-13,2.213019515470596e-13,1.101472384376899e-13,5.2961422137374837e-14,2.4628714771521597e-14,1.1354530624450547e-14,5.263914336680712e-15,2.522788745013189e-15,9.342788914052268e-16,3.449414962669636e-09,1.5760985058530979e-09,7.972486041426043e-10,4.47757738440595e-10,2.762196346618029e-10,1.82856023868695e-10,1.2709976314376278e-10,9.095717430167425e-11,6.659591295233954e-11,4.891895079338227e-11,3.5294064405744254e-11,2.4770073531924518e-11,1.6646683162930085e-11,1.065557365136187e-11,6.4995566703236664e-12,3.762168171916626e-12,2.0626182015415017e-12,1.077541656989664e-12,5.303592030222758e-13
0.0,7,7.0,0.0,30.0,0.0,0.0,0.0,0.0,-13.0,0.0,2.0,0.0,0.0,0.0,5.915120205361417e-11,5.440221424100892e-11,4.942511089541688e-11,4.438672198489437e-11,3.926962448949947e-11,3.426302505065806e-11,2.937819584548609e-11,2.4536589313677405e-11,1.9840678235913332e-11,1.55300034429917e-11,1.1708213007540541e-11,8.461858212192804e-12,5.87652967122538e-12,3.903347300562637e-12,2.473422173587644e-12,1.494255168099933e-12,8.631477464140264e-13,4.755922485293176e-13,2.501454098051737e-13,1.2594794325710868e-13,6.116654061905024e-14,2.8773543334476115e-14,1.3326900351974496e-14,6.2228210920518984e-15,2.9381787177776966e-15,1.1320034864601788e-15,3.4336026181336306e-09,1.5681170226650377e-09,7.954021707577287e-10,4.488942622527708e-10,2.781773486013618e-10,1.8446088809787638e-10,1.2776215503703284e-10,9.057634135809785e-11,6.553455809459003e-11,4.7729139535121963e-11,3.4395197644145685e-11,2.4289572313699652e-11,1.6502027180772017e-11,1.0703365715454637e-11,6.620204520356615e-12,3.887337159718862e-12,2.163122664518367e-12,1.1468818259580707e-12,5.724969591022252e-13
0.0,8,8.0,0.0,30.0,0.0,0.0,0.0,0.0,-13.0,0.0,2.0,0.0,0.0,0.0,5.895915899308522e-11,5.4163453552344955e-11,4.914568960539808e-11,4.408357074567498e-11,3.897327782171962e-11,3.4013538805664825e-11,2.921470931563836e-11,2.4488826997511517e-11,1.9915013964417603e-11,1.5703713580176186e-11,1.1943119571604443e-11,8.71623239163544e-12,6.116648333440617e-12,4.1078371893199435e-12,2.633094374248119e-12,1.609655695562939e-12,9.407516422877706e-13,5.244696891616406e-13,2.789064483169644e-13,1.4198052086158055e-13,6.96284093705453e-14,3.3112638136508545e-14,1.5422252984799544e-14,7.245900976299974e-15,3.3865232630096285e-15,1.3458498628442672e-15,3.4175434073063615e-09,1.5601907109180855e-09,7.936977578957582e-10,4.501415416914496e-10,2.8023378313920725e-10,1.8628912685776984e-10,1.288675842045879e-10,9.077603928253163e-11,6.499513603583042e-11,4.6858312633247124e-11,3.360238374577007e-11,2.378699816910013e-11,1.6291925309932855e-11,1.0687852930416742e-11,6.693932843685304e-12,3.982513972194668e-12,2.2464304464623145e-12,1.2073496377608005e-12,6.109308804843371e-13
0.0,9,9.0,0.0,30.0,0.0,0.0,0.0,0.0,-13.0,0.0,2.0,0.0,0.0,0.0,5.889085750032618e-11,5.4040966981158684e-11,4.896994361812405e-11,4.386364141028574e-11,3.873051630995187e-11,3.378146849775739e-11,2.9031690478697074e-11,2.4390329236591512e-11,1.9920023031191935e-11,1.58042972524772e-11,1.2112292121163867e-11,8.918064100586232e-12,6.318347446215579e-12,4.286607022196141e-12,2.7771380618976167e-12,1.7165515708698235e-12,1.0143714395474658e-12,5.718183252153048e-13,3.0732099053222937e-13,1.5809223409157524e-13,7.826951364099134e-14,3.7608324007106553e-14,1.7625455365027752e-14,8.327117521123842e-15,3.866674270599738e-15,1.5730562480987151e-15,3.401244927058047e-09,1.5523281858864781e-09,7.921397000047622e-10,4.515041928472838e-10,2.8236419590270703e-10,1.8823311415392816e-10,1.3023299771918313e-10,9.138001487999717e-11,6.488356925387693e-11,4.630144026085494e-11,3.295544614335993e-11,2.3303787664755965e-11,1.6043476799853377e-11,1.0623810427387374e-11,6.72857053935605e-12,4.051506400346992e-12,2.3140700126833143e-12,1.2593455477453037e-12,6.456812682484382e-13
0.0,10,10.0,0.0,30.0,0.0,0.0,0.0,0.0,-13.0,0.0,2.0,0.0,0.0,0.0,5.893586791955804e-11,5.4027286303518407e-11,4.889531229653551e-11,4.3731531959561337e-11,3.8554565733649896e-11,3.3587951025292085e-11,2.885510916186717e-11,2.4267410701829774e-11,1.987814226603812e-11,1.5848294939501677e-11,1.2226602776069997e-11,9.073902544653479e-12,6.485254021694515e-12,4.441336326711268e-12,2.906029571747106e-12,1.8148128771928272e-12,1.0836793535073132e-12,6.173256074512114e-13,3.351675796994133e-13,1.7414778242740762e-13,8.701784797723509e-14,4.222421702712574e-14,1.9920986075091727e-14,9.460193342827153e-15,4.3770809556209995e-15,1.8122334440202305e-15,3.3847157818000435e-09,1.5445399989101504e-09,7.907324095514238e-10,4.529861194069143e-10,2.845641924945485e-10,1.9024322622164263e-10,1.3174529324452744e-10,9.22514482622172e-11,6.510244173580888e-11,4.602878984078591e-11,3.247298284319275e-11,2.2871242219579747e-11,1.5780455273010722e-11,1.0524803676612701e-11,6.731228019984341e-12,4.097842304502123e-12,2.3676081797387255e-12,1.3034080026618721e-12,6.768367672326287e-13
0.0,11,11.0,0.0,30.0,0.0,0.0,0.0,0.0,-13.0,0.0,2.0,0.0,0.0,0.0,5.908293404726208e-11,5.4112823183454917e-11,4.891523628854164e-11,4.368561309451608e-11,3.845052878675338e-11,3.344530529500411e-11,2.870300553597342e-11,2.4140617229055515e-11,1.9808490584996522e-11,1.5850701742351828e-11,1.2296274438014284e-11,9.190017070639886e-12,6.620941785199201e-12,4.573826907644227e-12,3.020451765955668e-12,1.904505624602581e-12,1.1484819061824467e-12,6.607586157062996e-13,3.6226409554257925e-13,1.9002938341074255e-13,9.580770638576931e-14,4.6925791246061515e-14,2.2293311421403518e-14,1.0638717147401702e-14,4.915860731430392e-15,2.063645834507968e-15,3.3679654253926396e-09,1.536837894005388e-09,7.894812283238321e-10,4.5458993832664564e-10,2.868354040319602e-10,1.9229980131537986e-10,1.3333982442203849e-10,9.329231875754732e-11,6.556412023801731e-11,4.599776950141698e-11,3.215663881745998e-11,2.2510468849712208e-11,1.5522885304339674e-11,1.0403303904266078e-11,6.70847338574173e-12,4.1247740260202585e-12,2.4085736309772945e-12,1.3401529215793303e-12,7.04518315461187e-13
0.0,12,12.0,0.0,30.0,0.0,0.0,0.0,0.0,-13.0,0.0,2.0,0.0,0.0,0.0,5.932085105320497e-11,5.428730932484761e-11,4.902125707880482e-11,4.372066731388493e-11,3.841813598725792e-11,3.335930212255632e-11,2.8586864933431947e-11,2.4025187711826305e-11,1.9726808612028497e-11,1.5824832216382452e-11,1.233085134689527e-11,9.272412904554032e-12,6.728893471289565e-12,4.68591793156115e-12,3.1212115871823787e-12,1.9858388648074293e-12,1.208695021194191e-12,7.019535283897869e-13,3.884639932623191e-13,2.0563619213629956e-13,1.045800451508983e-13,5.168079340962939e-14,2.4727195668088477e-14,1.1856249098404708e-14,5.480861917695436e-15,2.3288623932086966e-15,3.3510041979000872e-09,1.5292343158336754e-09,7.883924525538991e-10,4.563177669528266e-10,2.891802915069237e-10,1.9439702891522428e-10,1.3498260764576462e-10,9.443699676111197e-11,6.619673719690808e-11,4.616204841853139e-11,3.1996047675885245e-11,2.2233191503435925e-11,1.5286650423132954e-11,1.0270576816509747e-11,6.6664496118102064e-12,4.135328607873665e-12,2.438422254363749e-12,1.370226836771571e-12,7.288596878226677e-13
0.0,13,13.0,0.0,30.0,0.0,0.0,0.0,0.0,-13.0,0.0,2.0,0.0,0.0,0.0,5.963891044855464e-11,5.4540575736090264e-11,4.920426676261283e-11,4.382963932216252e-11,3.845379878103735e-11,3.3331100468634024e-11,2.8513011361017867e-11,2.3931703982646132e-11,1.9645533433718103e-11,1.578218978155251e-11,1.2339117921494047e-11,9.326829657636073e-12,6.812495981817348e-12,4.779443265976161e-12,3.2091824867872095e-12,2.059120533039274e-12,1.2643214920928186e-12,7.408055791880185e-13,4.1365253125999534e-13,2.2088331824877122e-13,1.1328250942416824e-13,5.6459515765994395e-14,2.7207948907309805e-14,1.310641700016792e-14,6.069731593674371e-15,2.6100120990138497e-15,3.3338433972737074e-09,1.521742180731246e-09,7.874730556442181e-10,4.581718426986629e-10,2.9160082402437713e-10,1.9653463283034101e-10,1.3665756944919077e-10,9.564421392105668e-11,6.694532747311966e-11,4.647761465677398e-11,3.1973543092932666e-11,2.2043238938772632e-11,1.5083352761748795e-11,1.0136466933601405e-11,6.610904776006646e-12,4.13236299238474e-12,2.4585310378964665e-12,1.3942747338006213e-12,7.500008291357311e-13
0.0,14,14.0,0.0,30.0,0.0,0.0,0.0,0.0,-13.0,0.0,2.0,0.0,0.0,0.0,6.002714006021737e-11,5.486297400349703e-11,4.9455233315473145e-11,4.400475574852639e-11,3.855207398149226e-11,3.3358804353842834e-11,2.848390205870201e-11,2.386684878829505e-11,1.957401602792716e-11,1.5732392740517786e-11,1.2328995132077302e-11,9.358710259916019e-12,6.875041588876275e-12,4.856215118120332e-12,3.2852682663754805e-12,2.1247226686179786e-12,1.3154308987539975e-12,7.772595156186141e-13,4.37743175578805e-13,2.3570063657537723e-13,1.2186922816481993e-13,6.123494171798981e-14,2.972161525852715e-14,1.438299846543712e-14,6.679991407754691e-15,2.9089542622786106e-15,3.31649533215851e-09,1.5143748070685477e-09,7.867304047691559e-10,4.60154764601236e-10,2.940984888477416e-10,1.9871405622521413e-10,1.383582931945667e-10,9.688964347039014e-11,6.777022143056054e-11,4.6906139598288683e-11,3.206807897063266e-11,2.1938381303042487e-11,1.4920488925235128e-11,1.0009191249799142e-11,6.547149026569841e-12,4.118600041285108e-12,2.4702069776833264e-12,1.412921449752088e-12,7.680888728714247e-13
0.0,15,15.0,0.0,30.0,0.0,0.0,0.0,0.0,-13.0,0.0,2.0,0.0,0.0,0.0,6.047644154850564e-11,5.524560472971316e-11,4.976561145593886e-11,4.4238217597437394e-11,3.870666732415382e-11,3.343865459523105e-11,2.8499251589024473e-11,2.3834190004552458e-11,1.9518853787758368e-11,1.5683182197715365e-11,1.2307446166409092e-11,9.373146126644351e-12,6.9197206585434565e-12,4.918020075732902e-12,3.3503832552621846e-12,2.183055944100062e-12,1.3621422658053154e-12,8.1130061882744e-13,4.606742050247829e-13,2.500315160909339e-13,1.3030047403243e-13,6.598278540250359e-14,3.2255105263656106e-14,1.56799874948512e-14,7.309114953153816e-15,3.2266164082823286e-15,3.2989733512877234e-09,1.5071459141252968e-09,7.86172068200288e-10,4.6226949185091226e-10,2.96674581824085e-10,2.0093697592804466e-10,1.4008311675448329e-10,9.815998797661089e-11,6.864424993468497e-11,4.741631736647672e-11,3.2258134867757365e-11,2.1912204862351196e-11,1.4801899102220377e-11,9.895216272033239e-12,6.479971031310657e-12,4.096637025930213e-12,2.4746999601651364e-12,1.4267637123863091e-12,7.832822670248338e-13
0.0,16,16.0,0.0,30.0,0.0,0.0,0.0,0.0,-13.0,0.0,2.0,0.0,0.0,0.0,6.097866656107044e-11,5.568043702935375e-11,5.0127565911910276e-11,4.4522611511502086e-11,3.891109415581124e-11,3.356590159571343e-11,2.8556955323459197e-11,2.383492553821306e-11,1.9484294941108415e-11,1.564051324063289e-11,1.2280414709891433e-11,9.374812283389838e-12,6.9496015261767455e-12,4.966617543633176e-12,3.4054432270108764e-12,2.2345525625948724e-12,1.4046097543655657e-12,8.429464282540609e-13,4.824054820317084e-13,2.638315326144882e-13,1.3854226228782204e-13,7.06814501759568e-14,3.4796278457898177e-14,1.699164640839764e-14,7.95459634795941e-15,3.562633609696042e-15,3.2812918586618856e-09,1.5000696376074045e-09,7.858057124525801e-10,4.6451924709466937e-10,2.9933043531670896e-10,2.0320488365376674e-10,1.418324538170081e-10,9.944870366073804e-11,6.954974140222905e-11,4.7983873312068115e-11,3.25236265227104e-11,2.1955801280155854e-11,1.4728395013428833e-11,9.799248664706527e-12,6.413548207215741e-12,4.0689294700358074e-12,2.473212426168718e-12,1.4363691697585343e-12,7.957547879083517e-13
0.0,17,17.0,0.0,30.0,0.0,0.0,0.0,0.0,-13.0,0.0,2.0,0.0,0.0,0.0,6.152664715170124e-11,5.6160360165803046e-11,5.0534080525450834e-11,4.485113880201601e-11,3.915909423367126e-11,3.373541728310838e-11,2.8653812282886783e-11,2.3868545703952597e-11,1.947267058796856e-11,1.5608714854883052e-11,1.2252807437151224e-11,9.367906779273687e-12,6.967599776597402e-12,5.003734854186741e-12,3.4513619757745394e-12,2.279655912690267e-12,1.4430114934680548e-12,8.722393587767352e-13,5.029153625553112e-13,2.7706719259955135e-13,1.465659354497318e-13,7.531193100489823e-14,3.7333984039717524e-14,1.8312545359583064e-14,8.614000926343656e-15,3.915306212119117e-15,3.2634663232588586e-09,1.4931605399278733e-09,7.856390587822731e-10,4.669074110423418e-10,3.0206752703146734e-10,2.0551907805634972e-10,1.4360746196877843e-10,1.0075313187875618e-10,7.047583100559898e-11,4.8590822123097865e-11,3.2846977200526495e-11,2.2059147832999248e-11,1.4698463754689754e-11,9.724335716803845e-12,6.351376846505801e-12,4.037759080257488e-12,2.466902450251644e-12,1.4422789776055862e-12,8.056976921525321e-13
0.0,18,18.0,0.0,30.0,0.0,0.0,0.0,0.0,-13.0,0.0,2.0,0.0,0.0,0.0,6.21141880813834e-11,5.6679188263400255e-11,5.0978995320397304e-11,4.5217727065963944e-11,3.9444875010239654e-11,3.3942103857173174e-11,2.878606571436373e-11,2.3933390965972605e-11,1.948481738465927e-11,1.5590696508824414e-11,1.2228521842936901e-11,9.35610531096175e-12,6.976442355616662e-12,5.031056984839631e-12,3.489049648717916e-12,2.3188150596927974e-12,1.4775413974244807e-12,8.992403780885229e-13,5.221977531553869e-13,2.8971467799010035e-13,1.5434775624995437e-13,7.985768242674417e-14,3.9858068618004476e-14,1.9637591858267706e-14,9.28499340748178e-15,4.281812048772108e-15,3.2455132885463304e-09,1.486433609867506e-09,7.856798697214994e-10,4.694374424006033e-10,3.048875018740184e-10,2.0788076596875183e-10,1.4540945964093541e-10,1.0207269713957711e-10,7.141629005085384e-11,4.9224397880483676e-11,3.321355637065149e-11,2.221213856396651e-11,1.4708960926919767e-11,9.672051650398445e-12,6.296236890402227e-12,4.005195936664984e-12,2.456879854653046e-12,1.445011290608881e-12,8.133194479144859e-13
0.0,19,19.0,0.0,30.0,0.0,0.0,0.0,0.0,-13.0,0.0,2.0,0.0,0.0,0.0,6.273602754716296e-11,5.723163061102436e-11,5.145699647644228e-11,4.5617066319238085e-11,3.976323803605013e-11,3.418115034341219e-11,2.8949788801561547e-11,2.402709949936854e-11,1.952046456066723e-11,1.5588178243117206e-11,1.22105132371618e-11,9.342537195984036e-12,6.9786325065295856e-12,5.0502113681294885e-12,3.5194103334841856e-12,2.3524821948252754e-12,1.5084035792428303e-12,9.240238413216531e-13,5.402593559966492e-13,3.0175861933975683e-13,1.6186851447741498e-13,8.430446853017988e-14,4.2359359970033096e-14,2.0962052240303436e-14,9.965344145923783e-15,4.658572493643148e-15,3.227450384113828e-09,1.4799042531718809e-09,7.859359463139829e-10,4.721128279872584e-10,3.077921495977293e-10,2.1029115653687496e-10,1.4723972192116494e-10,1.0340784561375112e-10,7.236789980251234e-11,4.987592834038933e-11,3.361168847254327e-11,2.2405283726159003e-11,1.475573273313744e-11,9.642737833938494e-12,6.250195676131578e-12,3.973063738271325e-12,2.4441968498482623e-12,1.4450639568434245e-12,8.188432671918855e-13
0.0,20,20.0,0.0,30.0,0.0,0.0,0.0,0.0,-13.0,0.0,2.0,0.0,0.0,0.0,6.338777360550615e-11,5.781323689319735e-11,5.196357510024226e-11,4.6044596936914464e-11,4.010962753984137e-11,3.4448179016687054e-11,2.914114538672742e-11,2.4146950291049844e-11,1.957856966132445e-11,1.560192399695634e-11,1.2200890820396181e-11,9.329784332136165e-12,6.976420513511766e-12,5.062749688713289e-12,3.543337697890136e-12,2.381111461478244e-12,1.5358088170846128e-12,9.466734860145515e-13,5.571171585493702e-13,3.131909088882351e-13,1.6911314433832978e-13,8.864020584728216e-14,4.482963477100174e-14,2.2281566291375014e-14,1.065291828332789e-14,5.0416709080660305e-15,3.2092963397841666e-09,1.473588277357745e-09,7.864151261105919e-10,4.749370563349554e-10,3.107833685134446e-10,2.1275151783616313e-10,1.4909944527723167e-10,1.0475946227211526e-10,7.332930292029855e-11,5.053980650902026e-11,3.4032402677112176e-11,2.263012701711927e-11,1.483413329918718e-11,9.635765573693241e-12,6.214647371885351e-12,3.9429142120646306e-12,2.4298355454399123e-12,1.4429155836880066e-12,8.225030564745596e-13
0.0,21,21.0,0.0,30.0,0.0,0.0,0.0,0.0,-13.0,0.0,2.0,0.0,0.0,0.0,6.406582401060708e-11,5.842032537171026e-11,5.2494965879164256e-11,4.6496467528949584e-11,4.048012865993223e-11,3.473931477443069e-11,2.935655408555692e-11,2.4290114033939384e-11,1.9657596421904077e-11,1.5631962684629796e-11,1.2201031626795773e-11,9.319901362269408e-12,6.971783525866143e-12,5.070129036129785e-12,3.561708486193798e-12,2.4051580039545307e-12,1.5599724774941702e-12,9.672795001885265e-13,5.727962219291239e-13,3.2400957103292333e-13,1.7607034653912087e-13,9.285480527667628e-14,4.726157671262797e-14,2.359215558244579e-14,1.1345654948879794e-14,5.427243043557002e-15,3.191071001487715e-09,1.4675018734753201e-09,7.871252781785345e-10,4.779136060272946e-10,3.13863131285674e-10,2.152631990490502e-10,1.5098977255725626e-10,1.0612857752322747e-10,7.430023306656077e-11,5.1212628693064755e-11,3.446905307980022e-11,2.2879442731126497e-11,1.4939425384444617e-11,9.649795585528488e-12,6.1903803641882105e-12,3.91601388550416e-12,2.414694767882478e-12,1.4390248062914859e-12,8.245385081590292e-13
0.0,22,22.0,0.0,30.0,0.0,0.0,0.0,0.0,-13.0,0.0,2.0,0.0,0.0,0.0,6.476727685499407e-11,5.904990110511288e-11,5.304807392182518e-11,4.696947511560191e-11,4.0871434463742626e-11,3.50512025745432e-11,2.9592780630075267e-11,2.445382695996819e-11,1.9755734857560928e-11,1.5677786706352666e-11,1.2211701886797504e-11,9.314453137388733e-12,6.966415949051773e-12,5.073694618958747e-12,3.5753743334280407e-12,2.42507653014602e-12,1.581113332781261e-12,9.859365077083852e-13,5.873278046495615e-13,3.3421771094845687e-13,1.8273221106951746e-13,9.694001573403206e-14,4.96487296957379e-14,2.489022567523442e-14,1.2041544026208422e-14,5.811788388403677e-15,3.1727953478366905e-09,1.4616615965031705e-09,7.880742946335035e-10,4.810459417358925e-10,3.170334588940474e-10,2.178276302330901e-10,1.5291182839537792e-10,1.0751623715753479e-10,7.528102298605646e-11,5.1892515282444025e-11,3.491689859877064e-11,2.3147274630107868e-11,1.506706822688219e-11,9.683015564995156e-12,6.1776631017883806e-12,3.893343924686118e-12,2.399578247517519e-12,1.4338280217156336e-12,8.251899808657497e-13
0.0,23,23.0,0.0,30.0,0.0,0.0,0.0,0.0,-13.0,0.0,2.0,0.0,0.0,0.0,6.548983840096543e-11,5.96995702402595e-11,5.362039619495153e-11,4.746099622297355e-11,4.1280794990885296e-11,3.538099147577125e-11,2.984697897148817e-11,2.463550315021736e-11,1.9871068030040167e-11,1.5738522241928453e-11,1.2233177186841057e-11,9.31456460357506e-12,6.961730373474251e-12,5.074665731069704e-12,3.585152693408227e-12,2.441319070843915e-12,1.599452802870912e-12,1.0027422761512148e-12,6.007478341649136e-13,3.438225616011789e-13,1.8909384030905177e-13,1.0088927023463103e-13,5.1985449159210754e-14,2.6172562239473123e-14,1.2738606854943613e-14,6.1923797926521495e-15,3.154491506485567e-09,1.4560843451913087e-09,7.892700795466904e-10,4.843375134649401e-10,3.202964034217955e-10,2.2044631091753035e-10,1.548667463277299e-10,1.0892345700632448e-10,7.627230598979875e-11,5.257860108352304e-11,3.53726982676403e-11,2.3428870726354114e-11,1.5212905765633223e-11,9.733344554337058e-12,6.176339060378519e-12,3.875611921670287e-12,2.38518564452165e-12,1.427736081140779e-12,8.246936581197193e-13
0.0,24,24.0,0.0,30.0,0.0,0.0,0.0,0.0,-13.0,0.0,2.0,0.0,0.0,0.0,6.623173312890241e-11,6.036745519470914e-11,5.420994245382099e-11,4.796891495836493e-11,4.170595739511571e-11,3.5726298627470046e-11,3.011669739367046e-11,2.4832799730994393e-11,2.0001692390111175e-11,1.5813069412098262e-11,1.2265355038074046e-11,9.320978151661916e-12,6.958867918506049e-12,5.074126017609054e-12,3.5918177578836975e-12,2.45433191676837e-12,1.6152142740336194e-12,1.0177969426601169e-12,6.130957135823247e-13,3.5283464533523624e-13,1.9515297582890806e-13,1.0469753432135295e-13,5.4266853282354e-14,2.7436321236869034e-14,1.3434885202501406e-14,6.566770859461218e-15,3.1361827697084564e-09,1.4507873416804983e-09,7.907205364141523e-10,4.877917566530195e-10,3.2365403807015136e-10,2.2312079524960395e-10,1.568556837404793e-10,1.1035121661358613e-10,7.727484492276977e-11,5.3270668607004597e-11,3.583435222001175e-11,2.372055745706245e-11,1.5373273048848505e-11,9.79859900262206e-12,6.185922808221172e-12,3.8632734039390295e-12,2.372107249149153e-12,1.4211305070377622e-12,8.232772990296379e-13
0.0,25,25.0,0.0,30.0,0.0,0.0,0.0,0.0,-13.0,0.0,2.0,0.0,0.0,0.0,6.699161958413728e-11,6.105211428156798e-11,5.481515925442081e-11,4.849155227434033e-11,4.214510331722339e-11,3.608516258419781e-11,3.039986203866189e-11,2.5043647450993252e-11,2.0145799569902948e-11,1.5900213095340038e-11,1.2307855672779378e-11,9.334113959662764e-12,6.958716210943599e-12,5.073018467244025e-12,3.5960921567421613e-12,2.464551910632114e-12,1.628622272859278e-12,1.0312025670894268e-12,6.244134300607397e-13,3.612670597278327e-13,2.0090963503603627e-13,1.0836115678578602e-13,5.648877484524352e-14,2.8679013577415996e-14,1.4128440542761017e-14,6.933414949133036e-15,3.1178936089221258e-09,1.4457881110079962e-09,7.924335552712923e-10,4.91412092228969e-10,3.2710845230059674e-10,2.2585267802110666e-10,1.5887982668725388e-10,1.1180046735424038e-10,7.82894409709005e-11,5.396889419568132e-11,3.6300601038593066e-11,2.4019585618973363e-11,1.5545039656494584e-11,9.876620115047567e-12,6.205691003647014e-12,3.856560336415799e-12,2.3608226248612065e-12,1.4143597713975411e-12,8.211567406449356e-13
0.0,26,26.0,0.0,30.0,0.0,0.0,0.0,0.0,-13.0,0.0,2.0,0.0,0.0,0.0,6.776851427358631e-11,6.175246813567862e-11,5.543485949286657e-11,4.902759923626218e-11,4.2596787524520274e-11,3.645599235043161e-11,3.0694746998160996e-11,2.5266256944014388e-11,2.0301727472917683e-11,1.599870693731404e-11,1.2360108813795563e-11,9.354129662040794e-12,6.9619329338005366e-12,5.072145041953039e-12,3.598640047693516e-12,2.472402375156272e-12,1.639901386149416e-12,1.0430628513414265e-12,6.347449171750761e-13,3.691348899465771e-13,2.0636576515977796e-13,1.1187772310317322e-13,5.864771394263984e-14,2.989848494619579e-14,1.481736358328977e-14,7.291416824166162e-15,3.099649688029838e-09,1.4411044605197142e-09,7.944170002797464e-10,4.952019265373187e-10,3.306617503012102e-10,2.2864358348359205e-10,1.6094038814853512e-10,1.1327214312678946e-10,7.931688979474352e-11,5.4673678783874975e-11,3.6770784938307604e-11,2.432397044370631e-11,1.572560773420394e-11,9.965365273275871e-12,6.2347641036750644e-12,3.855513840751266e-12,2.3517030174470085e-12,1.4077360774595991e-12,8.185331960288093e-13
0.0,27,27.0,0.0,30.0,0.0,0.0,0.0,0.0,-13.0,0.0,2.0,0.0,0.0,0.0,6.856172475312547e-11,6.246773427156558e-11,5.6068158950956426e-11,4.957605603841955e-11,4.305988035137049e-11,3.6837516379397096e-11,3.099993750666879e-11,2.5499108830496093e-11,2.0467987868690125e-11,1.6107334054052003e-11,1.2421425695719628e-11,9.380976595474846e-12,6.968972882234785e-12,5.0721704803178715e-12,3.6000619876022043e-12,2.478288988084878e-12,1.6492749064945366e-12,1.053482901357687e-12,6.441356164916822e-13,3.7645474266560003e-13,2.1152492202761518e-13,1.1524591259499913e-13,6.074079146220008e-14,3.1092891758271745e-14,1.5499792378293277e-14,7.640439647639284e-15,3.0814778754681256e-09,1.4367544591566565e-09,7.966786983400935e-10,4.991646514160721e-10,3.343160514971076e-10,2.3149515741342277e-10,1.6303860298048892e-10,1.1476716883912645e-10,8.035796394521832e-11,5.538553944733982e-11,3.7244657880946266e-11,2.4632340011155322e-11,1.5912879778264842e-11,1.0062968177906363e-11,6.272176338816992e-12,3.860018613463543e-12,2.345017044519916e-12,1.401532963995158e-12,8.155913162745004e-13
0.0,28,28.0,0.0,30.0,0.0,0.0,0.0,0.0,-13.0,0.0,2.0,0.0,0.0,0.0,6.937079219346063e-11,6.319737028270139e-11,5.6714420547535995e-11,5.013617769690438e-11,4.353351540038772e-11,3.7228734174140133e-11,3.131429073388881e-11,2.5740933874081364e-11,2.0643276738711688e-11,1.62249483011007e-11,1.2491056737883731e-11,9.414450761214522e-12,6.98011665481799e-12,5.073629575705095e-12,3.6008917673255074e-12,2.48259589381096e-12,1.6569632460520956e-12,1.0625689472891112e-12,6.52632183028947e-13,3.83244390625361e-13,2.1639197990238718e-13,1.1846536082625673e-13,6.276570317375326e-14,3.2260674376703724e-14,1.6173936364240683e-14,7.980588146610968e-15,3.0634062547738937e-09,1.4327564165433217e-09,7.992264290485096e-10,5.033036447993171e-10,3.3807349231103607e-10,2.3440906216138915e-10,1.6517572189620198e-10,1.1628646551972254e-10,8.141340865319989e-11,5.6105042936110517e-11,3.772224870664136e-11,2.4943799962473584e-11,1.6105208379514953e-11,1.0167773200977378e-11,6.31693297454735e-12,3.869836951233821e-12,2.34093899949763e-12,1.3959839220412056e-12,8.124979422578315e-13
0.0,29,29.0,0.0,30.0,0.0,0.0,0.0,0.0,-13.0,0.0,2.0,0.0,0.0,0.0,7.019544310753818e-11,6.394102558415471e-11,5.737320640256488e-11,5.070742673810572e-11,4.40170432011511e-11,3.762887201985472e-11,3.163689713421637e-11,2.599068776431357e-11,2.0826472547204968e-11,1.6350499940452736e-11,1.2568236013823813e-11,9.454237428481808e-12,6.995499408347159e-12,5.076937118917055e-12,3.6015952117521447e-12,2.4856822886243397e-12,1.6631821987905574e-12,1.0704279732978192e-12,6.602822836951207e-13,3.8952251265950553e-13,2.2097287676130773e-13,1.2153652901919519e-13,6.472067434892669e-14,3.340052880370585e-14,1.683810324093065e-14,8.312284947012937e-15,3.0454641334137706e-09,1.4291288617797642e-09,8.020679161412583e-10,5.076222721654533e-10,3.419362287370497e-10,2.373869741441972e-10,1.673530059130193e-10,1.1783095248346399e-10,8.24839435430198e-11,5.683276711538593e-11,3.8203760513612734e-11,2.5257818026488623e-11,1.630133721312375e-11,1.027834953322219e-11,6.3680549896239205e-12,3.884640786035718e-12,2.3395590314898127e-12,1.3912820950613552e-12,8.094014536371101e-13
0.0,30,30.0,0.0,30.0,0.0,0.0,0.0,0.0,-13.0,0.0,2.0,0.0,0.0,0.0,7.103554953322618e-11,6.469850118750322e-11,5.8044237399720714e-11,5.128943276564128e-11,4.45099909928449e-11,3.803734359778795e-11,3.196704417927792e-11,2.6247523759638693e-11,2.1016626557861552e-11,1.64830492376624e-11,1.2652214093001024e-11,9.49994894324128e-12,7.015138448860803e-12,5.082399679465112e-12,3.6025708079696834e-12,2.487879649489835e-12,1.6681411481400491e-12,1.0771672384658567e-12,6.67134445501561e-13,3.953085116040797e-13,2.2527439719204537e-13,1.2446058228660394e-13,6.660441496710185e-14,3.451137802845551e-14,1.7490725694566293e-14,8.636152632818816e-15,3.0276820495637733e-09,1.4258905218336358e-09,8.052108204600439e-10,5.121238890481679e-10,3.459064395143862e-10,2.404305832002305e-10,1.695717219909122e-10,1.19401547497908e-10,8.357026629176203e-11,5.7569280237759515e-11,3.86894999242642e-11,2.5574128915376868e-11,1.6500339934298993e-11,1.0393490326865467e-11,6.424612068475029e-12,3.904040623505601e-12,2.340894471798863e-12,1.3875810343569104e-12,8.064316196203067e-13
0.0,31,31.0,0.0,30.0,0.0,0.0,0.0,0.0,-13.0,0.0,2.0,0.0,0.0,0.0,7.189109674819961e-11,6.546971674632303e-11,5.872735966006005e-11,5.188195849524449e-11,4.501202844136243e-11,3.8453715703598704e-11,3.230418349008274e-11,2.651076537728982e-11,2.1212948362720607e-11,1.6621771081262405e-11,1.2742281018777993e-11,9.551155793079492e-12,7.0389587748501565e-12,5.090228452706245e-12,3.604151929281805e-12,2.4894897069392403e-12,1.672041317599428e-12,1.082893693185196e-12,6.732379197348757e-13,4.0062239182232044e-13,2.2930399290200575e-13,1.2723927827788264e-13,6.841607570901379e-14,3.559234410284254e-14,1.8130385381747826e-14,8.952909793281588e-15,3.0100917764997298e-09,1.4230602994426851e-09,8.086627344142511e-10,5.168118447226293e-10,3.4998632980992e-10,2.4354159330591507e-10,1.718331401097447e-10,1.2099916589387373e-10,8.467305634329262e-11,5.83151311176009e-11,3.91798289188536e-11,2.589265834226839e-11,1.6701561439927444e-11,1.0512201378465405e-11,6.485745274293918e-12,3.92761072043843e-12,2.344901643525924e-12,1.3849964065849498e-12,8.036998613571801e-13
0.0,32,32.0,0.0,30.0,0.0,0.0,0.0,0.0,-13.0,0.0,2.0,0.0,0.0,0.0,7.276215750630775e-11,6.625468398689765e-11,5.942251718536496e-11,5.24848716681883e-11,4.5522938876623167e-11,3.8877678949248595e-11,3.2647901823935837e-11,2.6779880522040424e-11,2.141478896886251e-11,1.6765953220886298e-11,1.2837781199730307e-11,9.607411321448129e-12,7.066816001685339e-12,5.100552496358177e-12,3.606610367626871e-12,2.490783199197774e-12,1.675074151445722e-12,1.0877133111267906e-12,6.786425380107088e-13,4.0548467882530293e-13,2.3306963892844275e-13,1.298748674480367e-13,7.015520505827262e-14,3.6642721842040775e-14,1.875583222143905e-14,9.263285641747248e-15,2.9927263242490403e-09,1.420657250463984e-09,8.124311778967458e-10,5.216894870951948e-10,3.5417813537111725e-10,2.467217242561936e-10,1.7413853175073022e-10,1.2262471935912147e-10,8.579297795868844e-11,5.907084562704285e-11,3.967513319436939e-11,2.6213463951826635e-11,1.690456421678012e-11,1.063368312253656e-11,6.550680999825621e-12,3.954910207926602e-12,2.351487590562456e-12,1.3836085000969356e-12,8.012998447265827e-13
0.0,33,33.0,0.0,30.0,0.0,0.0,0.0,0.0,-13.0,0.0,2.0,0.0,0.0,0.0,7.364887178742002e-11,6.705348560788445e-11,6.012972986690668e-11,5.3098122163138245e-11,4.604259550835913e-11,3.93090231163767e-11,3.299789599606746e-11,2.7054457861855814e-11,2.1621623112839722e-11,1.691499022675337e-11,1.2938121887783059e-11,9.668270702696697e-12,7.098516363002641e-12,5.113431798480684e-12,3.610160865290396e-12,2.4919993916595835e-12,1.677419895760089e-12,1.091730366132389e-12,6.833985452552326e-13,4.099163652699053e-13,2.3657972214472856e-13,1.323700056727738e-13,7.182170790439778e-14,3.7661954836976885e-14,1.9365997749325174e-14,9.567954895149032e-15,2.9756199381514017e-09,1.4187005606359773e-09,8.165235956126553e-10,5.267601687663282e-10,3.584841271258533e-10,2.499727140155816e-10,1.7648916960455328e-10,1.2427911490689707e-10,8.693068248515855e-11,5.983692660859496e-11,4.0175802276446963e-11,2.653669057009387e-11,1.710908119196643e-11,1.0757308922028554e-11,6.618737844202019e-12,3.985500157084744e-12,2.360521277749347e-12,1.383465349505958e-12,7.993083320028113e-13
0.0,34,34.0,0.0,30.0,0.0,0.0,0.0,0.0,-13.0,0.0,2.0,0.0,0.0,0.0,7.455143111382218e-11,6.786625876489605e-11,6.084907605754685e-11,5.372172360066675e-11,4.6570942021796566e-11,3.9747616712364065e-11,3.3353951577528e-11,2.733418584338267e-11,2.183303193583395e-11,1.706837481659541e-11,1.3042776743494518e-11,9.733304906777651e-12,7.133833698969654e-12,5.1288697439870775e-12,3.614966341017481e-12,2.493346305202267e-12,1.6792464301432153e-12,1.0950466872478706e-12,6.875564025451887e-13,4.1393887008738743e-13,2.3984295764202754e-13,1.3472767941132936e-13,7.341580606354842e-14,3.8649614243354386e-14,1.9960001976599748e-14,9.867492500540546e-15,2.9588080939759495e-09,1.4172095217482159e-09,8.209473557928266e-10,5.320272541995754e-10,3.629066162006346e-10,2.532963215302611e-10,1.78886328275612e-10,1.2596325429437507e-10,8.808680998820975e-11,6.06138554466731e-11,4.0682217750196376e-11,2.6862537164075455e-11,1.7314975573367992e-11,1.0882601913033875e-11,6.689327991330951e-12,4.0189567963674055e-12,2.3718439314619713e-12,1.3845862898649273e-12,7.977862300472558e-13
0.0,35,35.0,0.0,30.0,0.0,0.0,0.0,0.0,-13.0,0.0,2.0,0.0,0.0,0.0,7.547006658084102e-11,6.869318232730357e-11,6.158067895046113e-11,5.4355738754256436e-11,4.710797694742874e-11,4.019339022924109e-11,3.3715925070692924e-11,2.761883445629115e-11,2.2048686739650762e-11,1.7225687795455664e-11,1.3151285781741581e-11,9.802110423053627e-12,7.17252350335651e-12,5.1468246669628025e-12,3.6211435281903533e-12,2.4950015686519384e-12,1.6807083804328258e-12,1.097760924879282e-12,6.911665590672976e-13,4.175740002905243e-13,2.428683280180585e-13,1.3695114311989372e-13,7.493800110915239e-14,3.960538059805683e-14,2.0537153796140547e-14,1.0162346397540914e-14,2.9423274892430817e-09,1.4162035072407524e-09,8.257097502787865e-10,5.374941279088919e-10,3.674479593166569e-10,2.566943298538313e-10,1.8133128575063458e-10,1.27678034003318e-10,8.926199046930249e-11,6.140209429458679e-11,4.1194746929316495e-11,2.7191233100718855e-11,1.7522207547546942e-11,1.1009212024941344e-11,6.761954514309083e-12,4.054881231189431e-12,2.3852782998261813e-12,1.3869657587761541e-12,7.967797808284836e-13
0.0,36,36.0,0.0,30.0,0.0,0.0,0.0,0.0,-13.0,0.0,2.0,0.0,0.0,0.0,7.640503985931798e-11,6.953446718675531e-11,6.232469607883664e-11,5.5000268130347034e-11,4.7653741224954365e-11,4.0646322598863376e-11,3.408372919226566e-11,2.7908239670600436e-11,2.226833423626861e-11,1.738658751629559e-11,1.3263252775518955e-11,9.874315497958885e-12,7.214334215717229e-12,5.167220284412257e-12,3.628768776957592e-12,2.497113793877578e-12,1.6819465242743174e-12,1.0999678579236198e-12,6.942791971486335e-13,4.2084390784100364e-13,2.4566504047384816e-13,1.3904386818472203e-13,7.638903984315753e-14,4.05290287219387e-14,2.1096945454561764e-14,1.0452825687467149e-14,2.9262160304048257e-09,1.4157019472815495e-09,8.308179959802646e-10,5.431642035671782e-10,3.72110564510816e-10,2.601685494824297e-10,1.8382532542448777e-10,1.29424345786559e-10,9.045684487771941e-11,6.220208842823009e-11,4.171374004368064e-11,2.7523021601314127e-11,1.7730807321049915e-11,1.1136894268509776e-11,6.836205837436494e-12,4.092906099039693e-12,2.4006367083356257e-12,1.3905771822704873e-12,7.963218472503218e-13
0.0,37,37.0,0.0,30.0,0.0,0.0,0.0,0.0,-13.0,0.0,2.0,0.0,0.0,0.0,7.735663654025146e-11,7.039034899674306e-11,6.308131133450269e-11,5.56554411452796e-11,4.82083084277741e-11,4.110643035959876e-11,3.4457320868852525e-11,2.820229035897224e-11,2.2491783482547488e-11,1.7550799494725596e-11,1.337834098847762e-11,9.949583589816562e-12,7.259016018449443e-12,5.1899548996532135e-12,3.6378838125455895e-12,2.4998043647602545e-12,1.683087485622667e-12,1.1017577667934847e-12,6.969439574442709e-13,4.2377103661851427e-13,2.4824249682702003e-13,1.410095023023548e-13,7.776988265224348e-14,4.142041560812026e-14,2.163904194535751e-14,1.0739101207691875e-14,2.910512815549731e-09,1.415724303399556e-09,8.36279237719972e-10,5.490409339366277e-10,3.7689689711936596e-10,2.6372082182353303e-10,1.863697385104664e-10,1.3120307771986815e-10,9.167198607553184e-11,6.301426848162115e-11,4.223952960941713e-11,2.7858148629785012e-11,1.794085378596388e-11,1.126548896347155e-11,6.911748379603545e-12,4.132699628658205e-12,2.4177278668642938e-12,1.3953768043340924e-12,7.96433253657148e-13
0.0,38,38.0,0.0,30.0,0.0,0.0,0.0,0.0,-13.0,0.0,2.0,0.0,0.0,0.0,7.832516129931317e-11,7.126108282113644e-11,6.385072899022294e-11,5.632140939952618e-11,4.8771777171724286e-11,4.157375908863465e-11,3.4836691555740644e-11,2.8500917455703058e-11,2.2718894538889775e-11,1.7718106594623646e-11,1.3496267918434396e-11,1.0027614670725645e-11,7.306327438603222e-12,5.214909338977014e-12,3.648501284170226e-12,2.5031695316682865e-12,1.6842437016837768e-12,1.103215891413191e-12,6.992096531349444e-13,4.2637805687733797e-13,2.5061027200798184e-13,1.4285183799502059e-13,7.908167489366455e-14,4.2279471070896316e-14,2.2163266379895658e-14,1.1021215463631629e-14,2.895258112319477e-09,1.4162900427832963e-09,8.421005524927598e-10,5.551278215243042e-10,3.8180948595710993e-10,2.6735302274144744e-10,1.8896582669760083e-10,1.33015115667432e-10,9.290801985777737e-11,6.383905247844008e-11,4.277243107881459e-11,2.8196855788143957e-11,1.8152458009761908e-11,1.1394904255939074e-11,6.9883181988667335e-12,4.17396757185702e-12,2.4363624471789007e-12,1.4013073471128168e-12,7.971241461972751e-13
0.0,39,39.0,0.0,30.0,0.0,0.0,0.0,0.0,-13.0,0.0,2.0,0.0,0.0,0.0,7.931093445633775e-11,7.214693926140859e-11,6.463316929408291e-11,5.699834162280396e-11,4.9344265293152765e-11,4.204837670171918e-11,3.522185951366903e-11,2.880408507970418e-11,2.2949568790323065e-11,1.7888340035794012e-11,1.361679956966079e-11,1.0108144921456509e-11,7.35604006850931e-12,5.24195364362514e-12,3.66060997988316e-12,2.507282709094954e-12,1.6855136365282076e-12,1.1044219872017973e-12,7.011239826239737e-13,4.2868778652532966e-13,2.52778097227278e-13,1.4457478881377337e-13,8.032572135366454e-14,4.310619084315277e-14,2.2669582475444554e-14,1.1299099045935895e-14,2.880493330754708e-09,1.4174186123919316e-09,8.482889551784555e-10,5.614284298721388e-10,3.8685092962468574e-10,2.710670661351191e-10,1.9161490494947062e-10,1.3486134505995168e-10,9.416554608013525e-11,6.467684765449728e-11,4.3312744179361764e-11,2.8539376095483243e-11,1.8365750751254343e-11,1.152510104112602e-11,7.0657122699213755e-12,4.2164534517085535e-12,2.4563574967806676e-12,1.40830141639716e-12,7.983953436075999e-13
0.0,40,40.0,0.0,30.0,0.0,0.0,0.0,0.0,-13.0,0.0,2.0,0.0,0.0,0.0,8.031428959005074e-11,7.304820171425408e-11,6.542886528125093e-11,5.7686419933236984e-11,4.992590544231163e-11,4.2530368273007006e-11,3.561286371283391e-11,2.911178334802868e-11,2.3183740807326638e-11,1.8061371352136493e-11,1.3739744633061e-11,1.0190945278970767e-11,7.4079417144169e-12,5.270952581924264e-12,3.674179620252397e-12,2.5121968839913438e-12,1.6869822094490507e-12,1.1054499862773607e-12,7.027332499872952e-13,4.307231000837157e-13,2.547558447099805e-13,1.4618237173965603e-13,8.150346372558806e-14,4.3900631756725004e-14,2.3158075284817635e-14,1.1572590977701664e-14,2.866260990826206e-09,1.4191294130655755e-09,8.54851405758868e-10,5.679463953982559e-10,3.920239028803135e-10,2.7486490751309713e-10,1.9431830436582669e-10,1.367426528885664e-10,9.544515990864243e-11,6.552805210056316e-11,4.3860754569358794e-11,2.8885931787270075e-11,1.8580873257097207e-11,1.1656080244020483e-11,7.143779860670836e-12,4.259937529967114e-12,2.4775397869070773e-12,1.41628459305156e-12,8.002396540147772e-13
0.0,41,41.0,0.0,30.0,0.0,0.0,0.0,0.0,-13.0,0.0,2.0,0.0,0.0,0.0,8.133557194068682e-11,7.396516448222279e-11,6.623806051642475e-11,5.838583711708501e-11,5.0516841795325735e-11,4.301983207788091e-11,3.600975907238171e-11,2.94240226206059e-11,2.34213715909567e-11,1.8237105341141443e-11,1.3864948839814437e-11,1.0275819213133183e-11,7.461838264249342e-12,5.301770075514412e-12,3.68916517674951e-12,2.5179470545092423e-12,1.6887214027186077e-12,1.1063677659379567e-12,7.040821015669981e-13,4.325068272947954e-13,2.5655351162338435e-13,1.4767869433109432e-13,8.261646097154965e-14,4.466290861692211e-14,2.3628931205814545e-14,1.1841460829591055e-14,2.8526046844537733e-09,1.421441773864163e-09,8.61794818099207e-10,5.746854397146266e-10,3.9733116301908476e-10,2.787485475380779e-10,1.9707737505018535e-10,1.3865992982940298e-10,9.674745318064364e-11,6.639305626390919e-11,4.4416735585642474e-11,2.923673348693932e-11,1.879797067366394e-11,1.1787872305082396e-11,7.222414334050405e-12,4.3042348468574166e-12,2.499748211984974e-12,1.4251781743399549e-12,8.026431380331253e-13
0.0,42,42.0,0.0,30.0,0.0,0.0,0.0,0.0,-13.0,0.0,2.0,0.0,0.0,0.0,8.237513739323212e-11,7.489813151977959e-11,6.706100753879524e-11,5.909679469141778e-11,5.1117227639924973e-11,4.3516876608779703e-11,3.6412612783406915e-11,2.9740828939405517e-11,2.3662443033905827e-11,1.8415473985599248e-11,1.3992289663693507e-11,1.0362600032961972e-11,7.517554539163964e-12,5.334272651216388e-12,3.705510688511448e-12,2.5245526321139303e-12,1.6907910122857916e-12,1.107237022091092e-12,7.052132858268483e-13,4.3406164406934484e-13,2.5818120152617913e-13,1.490679452662301e-13,8.366637236440365e-14,4.5393192383802056e-14,2.408241817328679e-14,1.2105430864300428e-14,2.8395690318680972e-09,1.4243749269066832e-09,8.691260703614115e-10,5.81649382354013e-10,4.027755562116934e-10,2.8272003552023124e-10,1.998934889436663e-10,1.406140724281814e-10,9.807301585152281e-11,6.727224434337361e-11,4.498094995636518e-11,2.959198027412127e-11,1.9017187501053254e-11,1.192052865649175e-11,7.30154558687014e-12,4.3491926331907124e-12,2.5228353670792908e-12,1.4349015489254081e-12,8.055863027640246e-13
0.0,43,43.0,0.0,30.0,0.0,0.0,0.0,0.0,-13.0,0.0,2.0,0.0,0.0,0.0,8.343335188290946e-11,7.584741564653736e-11,6.789796683053753e-11,5.981950156011158e-11,5.1727223635874195e-11,4.402161835682826e-11,3.682150150159075e-11,3.006224045187235e-11,2.390695342954215e-11,1.859643128985647e-11,1.4121671477333338e-11,1.0451147955301742e-11,7.574934362652559e-12,5.3683320384517945e-12,3.723152573664683e-12,2.532019753373797e-12,1.6932395056704783e-12,1.108113241792262e-12,7.061674420936384e-13,4.3540995885999367e-13,2.5964910230713986e-13,1.5035438707422127e-13,8.465494295703809e-14,4.60917092929271e-14,2.4518866774458976e-14,1.2364196890508414e-14,2.8271996322293532e-09,1.427947983024502e-09,8.768520171213477e-10,5.888421538459802e-10,4.0836002376413864e-10,2.8678147284493355e-10,2.0276804259876098e-10,1.4260598528951964e-10,9.942243749528642e-11,6.816599560429834e-11,4.555365141358378e-11,2.9951860308281624e-11,1.923866460894579e-11,1.2054114945399312e-11,7.381133247115997e-12,4.39468734209839e-12,2.546668431219367e-12,1.4453742054344511e-12,8.090452152282758e-13
0.0,44,44.0,0.0,30.0,0.0,0.0,0.0,0.0,-13.0,0.0,2.0,0.0,0.0,0.0,8.451059110359734e-11,7.681333809936531e-11,6.874920617034362e-11,6.055417311390011e-11,5.234699659038657e-11,4.453418018979643e-11,3.7236509230668077e-11,3.0388304636165805e-11,2.4154913869809738e-11,1.8779948950383695e-11,1.4253021215186926e-11,1.0541347110886374e-11,7.633840048346043e-12,5.4038270333704405e-12,3.742022448882775e-12,2.540343460482467e-12,1.696104953393887e-12,1.109045766414942e-12,7.069829222366512e-13,4.365737976657651e-13,2.609674601359472e-13,1.5154235002375607e-13,8.55839911944812e-14,4.6758740582584104e-14,2.493865285632178e-14,1.2617446897301781e-14,2.8155430084819713e-09,1.4321799085825827e-09,8.849795032621502e-10,5.962678090870344e-10,4.1408760826982836e-10,2.9093501632664463e-10,2.057024598768964e-10,1.4463658322969813e-10,1.0079630882630842e-10,6.907468563058277e-11,4.613508617797071e-11,3.031655176891195e-11,1.946253742142716e-11,1.2188705754507638e-11,7.461160682310653e-12,4.440621498169441e-12,2.5711294799955403e-12,1.4565173869608297e-12,8.129925272599621e-13
0.0,45,45.0,0.0,30.0,0.0,0.0,0.0,0.0,-13.0,0.0,2.0,0.0,0.0,0.0,8.560724043059405e-11,7.779622832688676e-11,6.961500026628174e-11,6.130103065851087e-11,5.297671862199838e-11,4.5054690189482426e-11,3.765772574919049e-11,3.0719076172616575e-11,2.4406345386590575e-11,1.896601276947325e-11,1.4386284557744329e-11,1.0633102614353686e-11,7.69415147556612e-12,5.440644746833328e-12,3.762049483744636e-12,2.549509721249849e-12,1.6994160033238288e-12,1.1100779351570574e-12,7.076956478032597e-13,4.375746907777437e-13,2.6214654940717573e-13,1.5263622632414545e-13,8.645539836850318e-14,4.7394622536687565e-14,2.5342182025386258e-14,1.2864876887535096e-14,2.8046465464959884e-09,1.437089503859622e-09,8.935153797130596e-10,6.039305409538702e-10,4.1996145963485627e-10,2.951828814862476e-10,2.0869819456141593e-10,1.4670679336401753e-10,1.0219522321240213e-10,6.999868752328862e-11,4.6725494309509595e-11,3.068622394967959e-11,1.9688934956177914e-11,1.2324380579515445e-11,7.541629821129044e-12,4.4869205170832506e-12,2.5961153423069794e-12,1.4682554130131668e-12,8.17398406948237e-13
0.0,46,46.0,0.0,30.0,0.0,0.0,0.0,0.0,-13.0,0.0,2.0,0.0,0.0,0.0,8.672369499292972e-11,7.879642395482673e-11,7.049563058837071e-11,6.206030108194976e-11,5.3616566613901494e-11,4.558328083921476e-11,3.80852454603177e-11,3.105461533074494e-11,2.46612767072147e-11,1.9154619718071283e-11,1.4521422625014075e-11,1.072633778531586e-11,7.755764891411732e-12,5.4786813457670145e-12,3.7831623253485956e-12,2.5594972696253974e-12,1.7031928709465623e-12,1.1112472975016423e-12,7.083390037075421e-13,4.3843356412051666e-13,2.6319663901797867e-13,1.5364046398394405e-13,8.72710996139582e-14,4.7999746600154496e-14,2.57298762853849e-14,1.3106203623947475e-14,2.7945584286250457e-09,1.4426953834123645e-09,9.024665210956209e-10,6.118346941109623e-10,4.2598484096595393e-10,2.9952734575430244e-10,2.1175673288336063e-10,1.488175571101684e-10,1.0361977815420429e-10,7.09383730494678e-11,4.732511092939385e-11,3.106103839952879e-11,1.991797947107964e-11,1.2461220841652061e-11,7.622556755326456e-12,4.533529609792411e-12,2.621537105116006e-12,1.4805166966111704e-12,8.222313743271177e-13
0.0,47,47.0,0.0,30.0,0.0,0.0,0.0,0.0,-13.0,0.0,2.0,0.0,0.0,0.0,8.786035984857948e-11,7.981427086993691e-11,7.139138534173088e-11,6.283221669359707e-11,5.426672188018506e-11,4.612008847517273e-11,3.851916656768114e-11,3.1394986763568824e-11,2.4919742511543202e-11,1.934577555637599e-11,1.465840914977205e-11,1.082099157621601e-11,7.81859155065444e-12,5.517842387476597e-12,3.805290634134894e-12,2.5702792566524448e-12,1.7074483225094038e-12,1.1125858827886214e-12,7.089437683162485e-13,4.391706376812775e-13,2.6412795558425207e-13,1.545595598527171e-13,8.803307615657768e-14,4.8574559371344035e-14,2.6102162922693565e-14,1.3341174242155348e-14,2.7853275618976936e-09,1.449015958879585e-09,9.118398453284594e-10,6.199847789650891e-10,4.321611343183493e-10,3.039707516069942e-10,2.1487959596161438e-10,1.5096983209728903e-10,1.0507057671150852e-10,7.189411374119153e-11,4.793416732349657e-11,3.1441150043361914e-11,2.014978652807243e-11,1.2599307737340889e-11,7.703968066163495e-12,4.5804108521932055e-12,2.647319357714051e-12,1.4932344879585532e-12,8.27459041209442e-13
0.0,48,48.0,0.0,30.0,0.0,0.0,0.0,0.0,-13.0,0.0,2.0,0.0,0.0,0.0,8.9017650229577e-11,8.085012338490095e-11,7.2302559537014e-11,6.361701518480643e-11,5.4927369986513064e-11,4.666525293413735e-11,3.8959590499979036e-11,3.174025862054829e-11,2.518178209434032e-11,1.9539492926879178e-11,1.479722809053963e-11,1.091701623838244e-11,7.882556280399367e-12,5.5580428353405655e-12,3.828366274600699e-12,2.5818247090727386e-12,1.712188631971032e-12,1.1141205151054723e-12,7.095380787165554e-13,4.3980533309018505e-13,2.649506443770838e-13,1.5539805153810222e-13,8.874334854252182e-14,4.911956232311005e-14,2.645946563624924e-14,1.3569572869345591e-14,2.7770035011543877e-09,1.4560694247075345e-09,9.216423352274041e-10,6.283854857198228e-10,4.384938463077062e-10,3.085155096452338e-10,2.180683421619739e-10,1.5316459397676015e-10,1.0654822886282766e-10,7.286628194280387e-11,4.8552891939353746e-11,3.182670824254674e-11,2.0384465330664103e-11,1.2738720752886105e-11,7.78589780617783e-12,4.627540473882904e-12,2.6733992542469713e-12,1.5063473778471904e-12,8.330487568596789e-13
0.0,49,49.0,0.0,30.0,0.0,0.0,0.0,0.0,-13.0,0.0,2.0,0.0,0.0,0.0,9.019599192708337e-11,8.190434447493744e-11,7.322945508568428e-11,6.441493964300831e-11,5.5598700674249005e-11,4.721891735716794e-11,3.9406621528827484e-11,3.209050190657216e-11,2.544743834947424e-11,1.97357898423049e-11,1.4937871639776254e-11,1.101437523961593e-11,7.94759603525255e-12,5.599206832609395e-12,3.85232420517863e-12,2.5940997986992128e-12,1.71741449656837e-12,1.1158731621505069e-12,7.101474290967038e-13,4.403561919599779e-13,2.656747288623922e-13,1.5616050803634432e-13,8.940397060651416e-14,4.963531114698417e-14,2.6802197819223296e-14,1.3791224527498613e-14,2.769636367547364e-09,1.4638737472999205e-09,9.318810621201858e-10,6.370416984832077e-10,4.449866135964826e-10,3.131641016303195e-10,2.213245693816869e-10,1.5540283813553892e-10,1.0805335278966045e-10,7.385525180381734e-11,4.918151128831771e-11,3.221785777422123e-11,2.0622119228841576e-11,1.2879536697809657e-11,7.86838506100088e-12,4.674906397631376e-12,2.6997254607473465e-12,1.5197995941075117e-12,8.389681626485292e-13
0.0,50,50.0,0.0,30.0,0.0,0.0,0.0,0.0,-13.0,0.0,2.0,0.0,0.0,0.0,9.139582134014433e-11,8.297730598188471e-11,7.417238110227168e-11,6.522623874567851e-11,5.628090788917914e-11,4.7781228052208655e-11,3.986036650437826e-11,3.244579003331829e-11,2.5716757020012812e-11,1.993468850078531e-11,1.5080338575724074e-11,1.1113041431887566e-11,8.013658492640621e-12,5.641267300359938e-12,3.877103110219623e-12,2.607068929942796e-12,1.7231218994523326e-12,1.117861307520474e-12,7.107946995267006e-13,4.4084080612637207e-13,2.6631006975953177e-13,1.568515190412784e-13,9.001702396740225e-14,5.012241465431046e-14,2.713075783144311e-14,1.4005996648254295e-14,2.7632767629337388e-09,1.4724466581109735e-09,9.425632114747976e-10,6.459585093822945e-10,4.516432082705027e-10,3.179190834916854e-10,2.2464991726727947e-10,1.5768558131628215e-10,1.0958657608144698e-10,7.486140021516053e-11,4.982025076336788e-11,3.261473972066837e-11,2.0862846314561582e-11,1.3021829134776444e-11,7.951472014973908e-12,4.722506044030454e-12,2.726257041138812e-12,1.5335411234207557e-12,8.451856599621892e-13
0.0,51,51.0,0.0,30.0,0.0,0.0,0.0,0.0,-13.0,0.0,2.0,0.0,0.0,0.0,9.261758608483764e-11,8.406938894215365e-11,7.513165399618384e-11,6.605116681322146e-11,5.6974189823689024e-11,4.8352334498243055e-11,4.032093472635256e-11,3.280619850961116e-11,2.598978613606107e-11,2.013621436692009e-11,1.5224632920555912e-11,1.121299546190359e-11,8.08070071950433e-12,5.6841654130535125e-12,3.90264581527924e-12,2.620695656772203e-12,1.7293029111035846e-12,1.1200983367222742e-12,7.115002119486996e-13,4.4127576051466287e-13,2.6686632452696033e-13,1.5747568299379443e-13,9.058461287147237e-14,5.058153320000275e-14,2.7445526058211744e-14,1.4213798668001228e-14,2.757975680815051e-09,1.4818056512095156e-09,9.536961105176798e-10,6.551412326388673e-10,4.5846754312650503e-10,3.227830883239001e-10,2.2804606937420043e-10,1.6001386315085441e-10,1.1114853686086235e-10,7.588510768731795e-11,5.046933538167802e-11,3.30174922678196e-11,2.1106740053731437e-11,1.316566810609321e-11,8.035202446971648e-12,4.770344402785712e-12,2.7529623258980764e-12,1.5475276889761127e-12,8.516707964997529e-13
0.0,52,52.0,0.0,30.0,0.0,0.0,0.0,0.0,-13.0,0.0,2.0,0.0,0.0,0.0,9.38617452774303e-11,8.518098386644839e-11,7.610759773262446e-11,6.688998399998782e-11,5.767874901988414e-11,4.893238935929982e-11,4.078843786918926e-11,3.317180474227471e-11,2.6266575617282395e-11,2.0340395469400582e-11,1.5370762852684447e-11,1.1314224406613918e-11,8.148687934891676e-12,5.727849997577516e-12,3.9288995230771986e-12,2.6349434418585552e-12,1.7359464241989477e-12,1.1225939284433881e-12,7.122818099230523e-13,4.4167658892896763e-13,2.673529081164808e-13,1.58037594019039e-13,9.110885924018631e-14,5.101337662446907e-14,2.7746863519365972e-14,1.441458006196321e-14,2.7537844146065738e-09,1.491967985843617e-09,9.652872577934034e-10,6.645954185623813e-10,4.654636768957916e-10,3.2775882939093107e-10,2.3151475527708407e-10,1.6238874761534977e-10,1.1273988483201148e-10,7.692675917002223e-11,5.1128990459686045e-11,3.3426251416570136e-11,2.1353889917854373e-11,1.3311120076209517e-11,8.119620587831147e-12,4.81843236264934e-12,2.7798177974544527e-12,1.5617206120773944e-12,8.583945767114707e-13
0.0,53,53.0,0.0,30.0,0.0,0.0,0.0,0.0,-13.0,0.0,2.0,0.0,0.0,0.0,9.512876989847689e-11,8.631249104256327e-11,7.710054407361277e-11,6.774295647749156e-11,5.839479249084314e-11,4.952154854282631e-11,4.126298996457304e-11,3.354268791601009e-11,2.6547176993540288e-11,2.054726187134681e-11,1.5518739837246994e-11,1.1416720615383457e-11,8.217592380060775e-12,5.77227689104404e-12,3.955815904436681e-12,2.6497762725809025e-12,1.7430388190740712e-12,1.1253544436616482e-12,7.131549585218965e-13,4.420577427250538e-13,2.6777895575996506e-13,1.5854182795202882e-13,9.159189780958217e-14,5.1418701729767105e-14,2.8035111782087303e-14,1.4608327253612213e-14,2.750754464157535e-09,1.5029506945284415e-09,9.773443545910036e-10,6.743268674189034e-10,4.726358194332542e-10,3.3284910315610935e-10,2.3505775263937924e-10,1.6481132441565155e-10,1.1436128225622916e-10,7.798674481430734e-11,5.179944222726626e-11,3.384115161312592e-11,2.160438199138459e-11,1.3458248026371404e-11,8.20477027713475e-12,4.866785285423533e-12,2.8068070180178433e-12,1.5760865831030704e-12,8.653297025545407e-13
0.0,54,54.0,0.0,30.0,0.0,0.0,0.0,0.0,-13.0,0.0,2.0,0.0,0.0,0.0,9.64191431715538e-11,8.746432084616838e-11,7.811083282313163e-11,6.861035662497247e-11,5.912253185603388e-11,5.01199712824714e-11,4.1744707421375335e-11,3.391892893123573e-11,2.6831643216349665e-11,2.0756845277576073e-11,1.5668577938271856e-11,1.1520480737541935e-11,8.287392301917783e-12,5.8174082854368994e-12,3.983351074497496e-12,2.6651591489961592e-12,1.7505645590447284e-12,1.128383306374696e-12,7.141328607581515e-13,4.4243257201509547e-13,2.681532884451529e-13,1.5899292769295892e-13,9.20358712804402e-14,5.179830932435266e-14,2.8310593929813046e-14,1.479505977172647e-14,2.7489374415862946e-09,1.514770597163866e-09,9.898753381351286e-10,6.843416431387941e-10,4.799883369044667e-10,3.380567923560953e-10,2.386768892509163e-10,1.6728271031300082e-10,1.1601340486170099e-10,7.906546067881446e-11,5.248091838670203e-11,3.42623263057592e-11,2.1858299540232508e-11,1.3607111651671606e-11,8.29069436408792e-12,4.9154218052402186e-12,2.833919618368586e-12,1.5905973643726454e-12,8.724507509907395e-13
