Line_number,Fiducial,Easting,Northing,Height,Elevation,tx_pitch,tx_roll,tx_yaw,txrx_dx,txrx_dy,txrx_dz,rx_pitch,rx_roll,rx_yaw,S0Z_time_1.431e-04,S0Z_time_1.801e-04,S0Z_time_2.266e-04,S0Z_time_2.846e-04,S0Z_time_3.581e-04,S0Z_time_4.506e-04,S0Z_time_5.671e-04,S0Z_time_7.136e-04,S0Z_time_8.981e-04,S0Z_time_1.131e-03,S0Z_time_1.423e-03,S0Z_time_1.791e-03,S0Z_time_2.255e-03,S0Z_time_2.838e-03,S0Z_time_3.573e-03,S0Z_time_4.498e-03,S0Z_time_5.662e-03,S1Z_time_1.409e-05,S1Z_time_1.610e-05,S1Z_time_1.909e-05,S1Z_time_2.360e-05,S1Z_time_2.960e-05,S1Z_time_3.709e-05,S1Z_time_4.609e-05,S1Z_time_5.759e-05,S1Z_time_7.209e-05,S1Z_time_9.060e-05,S1Z_time_1.141e-04,S1Z_time_1.431e-04,S1Z_time_1.801e-04,S1Z_time_2.266e-04,S1Z_time_2.846e-04,S1Z_time_3.581e-04,S1Z_time_4.506e-04,S1Z_time_5.671e-04,S1Z_time_7.136e-04,S1Z_time_8.981e-04,S1Z_time_1.131e-03
0.0,0,0.0,0.0,30.0,0.0,0.0,0.0,0.0,-13.0,0.0,2.0,0.0,0.0,0.0,2.2341582478388736e-10,1.4649994333283495e-10,8.66378700142506e-11,4.4130453799157915e-11,2.718086475814212e-11,1.5333167450109965e-11,7.688069454042721e-12,3.90134114548054e-12,1.970467268059267e-12,8.686480083543729e-13,3.973582168175022e-13,2.0751417195271315e-13,7.870105642488517e-14,1.4873278807347533e-14,4.570340719911572e-15,1.1814919703347956e-14,5.78556727734878e-15,2.8543721497607473e-09,2.501446455980397e-09,1.920930451645431e-09,1.4877848019091886e-09,1.1756554123244235e-09,8.797240601372872e-10,7.356220970383033e-10,5.621759139285332e-10,4.5688873686956566e-10,3.269503976789925e-10,2.5163665593667493e-10,1.6315114445408844e-10,1.1484614909328652e-10,6.610452460571163e-11,3.8676305954298125e-11,2.1451165997341153e-11,1.2954608888881152e-11,6.450088552100638e-12,3.4126883383442815e-12,1.5176987463888665e-12,8.819024370902236e-13
0.0,1,1.0,0.0,30.0,0.0,0.0,0.0,0.0,-13.0,0.0,2.0,0.0,0.0,0.0,1.9715213650850805e-10,1.2849344121512507e-10,8.613104099709487e-11,5.0312913554147486e-11,3.053241976494453e-11,1.638123584033709e-11,9.19171252854603e-12,4.787750334696034e-12,2.4239562534874278e-12,1.172120106372788e-12,5.968486671487653e-13,2.453116508515828e-13,1.0900448827931053e-13,6.772336068699228e-14,1.8630424500270713e-14,1.7492082072261224e-14,-9.445408282874256e-15,3.02882751637486e-09,2.2242347691299804e-09,1.8250033885009062e-09,1.3073225215808735e-09,9.527428781214618e-10,7.439355038577959e-10,5.907665864900973e-10,4.719671687265654e-10,3.672838136775182e-10,2.783265978305621e-10,2.0301881306654502e-10,1.474833124839635e-10,1.0253266611887917e-10,6.616421899330549e-11,4.141782874799078e-11,2.438987608244673e-11,1.3978881933909032e-11,7.492422177757586e-12,3.857252919439399e-12,2.0282604454959587e-12,9.992232339080596e-13
0.0,2,2.0,0.0,30.0,0.0,0.0,0.0,0.0,-13.0,0.0,2.0,0.0,0.0,0.0,1.705819731205549e-10,1.1911206410222974e-10,7.517878728875373e-11,4.8707291002956136e-11,2.944265903279437e-11,1.7378623145058915e-11,1.0215410055080536e-11,5.11320456732691e-12,2.4638121652489003e-12,1.3448957718257946e-12,7.348575394189007e-13,3.2011827088052015e-13,1.6048524666869688e-13,7.116496930030038e-14,3.671143714214176e-14,1.8000773960358318e-14,7.338941016786698e-16,3.2591535024498506e-09,2.483118126758576e-09,1.7862845044058912e-09,1.2430390650196902e-09,8.89780247169603e-10,6.363048487175568e-10,4.974243289520218e-10,3.6035442148854563e-10,2.8740648484542047e-10,2.385494953642905e-10,1.6357033782357774e-10,1.34303535306504e-10,9.442286469714037e-11,6.250792152713091e-11,4.055653313762296e-11,2.4541026943766134e-11,1.4192172186421394e-11,8.347247399233392e-12,4.328915981880204e-12,1.958253394912637e-12,8.413255881300793e-13
0.0,3,3.0,0.0,30.0,0.0,0.0,0.0,0.0,-13.0,0.0,2.0,0.0,0.0,0.0,1.4275656657998702e-10,9.99643559451575e-11,7.06082516772402e-11,4.726395321866586e-11,2.8976747963371925e-11,1.7292368231964404e-11,1.0030231384487876e-11,5.8305545290998805e-12,3.1265622779619157e-12,1.6552516282145749e-12,8.082730018968488e-13,3.4346723242211146e-13,1.8730022922252304e-13,6.352595851149266e-14,5.293841539503727e-14,2.562631180748414e-14,1.4681151834499754e-14,3.410368094236195e-09,2.457135366117745e-09,1.8661016440423914e-09,1.2179937796655923e-09,8.229967434320124e-10,5.61993952105022e-10,4.0341274025660963e-10,3.1714038785284736e-10,2.472331543499153e-10,1.9945070119824022e-10,1.4731449688157595e-10,1.1397462724788464e-10,7.876775436364378e-11,5.462069251574386e-11,3.7297503812008404e-11,2.3578759074484634e-11,1.4789894352678375e-11,8.289180605711317e-12,4.646821054825896e-12,2.535441105755621e-12,1.0273746913640862e-12
0.0,4,4.0,0.0,30.0,0.0,0.0,0.0,0.0,-13.0,0.0,2.0,0.0,0.0,0.0,1.226459105794136e-10,8.419385206052611e-11,6.216155216329941e-11,4.2492376560505966e-11,2.737151064022266e-11,1.7634269832996762e-11,9.866322042488598e-12,5.996108361818988e-12,3.3379162519912308e-12,1.8003959608249756e-12,9.221184134934342e-13,4.133021370586998e-13,2.1247533074945667e-13,1.1261935029123178e-13,5.845664666411176e-14,1.4638283637644655e-14,-1.3250005476111966e-15,3.705284060672538e-09,2.601804033195063e-09,1.8234114323421912e-09,1.160643702274626e-09,7.334275022049099e-10,5.276547286268773e-10,3.808178781222348e-10,2.6909567488223843e-10,2.1476720729809138e-10,1.5642878988938146e-10,1.2406546385247124e-10,9.025726057766745e-11,7.203524007016708e-11,5.1487447272478503e-11,3.2129328393919133e-11,2.346304905932032e-11,1.458115356700754e-11,8.288402583238862e-12,4.724177801660458e-12,2.688004225643745e-12,1.5217015970880528e-12
0.0,5,5.0,0.0,30.0,0.0,0.0,0.0,0.0,-13.0,0.0,2.0,0.0,0.0,0.0,1.10111877210169e-10,7.540416593135564e-11,5.1828983141224796e-11,3.712473917720336e-11,2.53064038832085e-11,1.614228979049051e-11,9.755848867397688e-12,6.038335164637465e-12,3.4414201549144292e-12,1.8709016411343103e-12,9.906379966817575e-13,4.849828332247427e-13,2.3016535597303855e-13,1.14065377862731e-13,5.136569039813166e-14,2.564019787005213e-14,2.313949234596684e-14,3.997267149863201e-09,2.907907276670825e-09,1.9618217128599113e-09,1.2094543953943654e-09,7.155584882532827e-10,4.905149459977118e-10,3.4929740026972036e-10,2.4400500376617016e-10,1.840134993082206e-10,1.4070601913994633e-10,1.0599291638112697e-10,8.102130917358249e-11,6.271435252110577e-11,4.229436918993256e-11,3.1453537375892337e-11,2.1717537675930053e-11,1.3809433399374325e-11,7.95962283067715e-12,4.9320313693140436e-12,2.839124495394845e-12,1.260900184191711e-12
0.0,6,6.0,0.0,30.0,0.0,0.0,0.0,0.0,-13.0,0.0,2.0,0.0,0.0,0.0,9.283461664520726e-11,6.75166032775011e-11,4.747751031770741e-11,3.45717605153065e-11,2.3516586430705924e-11,1.5984907149587473e-11,9.475353740007226e-12,6.059627439961128e-12,3.600199761359742e-12,2.031906878799547e-12,1.148978785058609e-12,5.444861420022052e-13,2.702230269957541e-13,1.3401649994484864e-13,5.125119859647852e-14,1.9672732701125947e-14,3.088341270791638e-14,4.0945981680259535e-09,3.018052423014142e-09,1.978222771361786e-09,1.2307180183656927e-09,7.578391665788237e-10,4.6536828570065846e-10,3.382280753177365e-10,2.2532628395689217e-10,1.547203446566707e-10,1.322852099948341e-10,9.319470297470484e-11,6.844469862028192e-11,5.30964566083829e-11,4.069715913934238e-11,2.707659680521363e-11,1.9524116330587128e-11,1.2877001970675764e-11,8.366154318307718e-12,4.51646914362976e-12,2.869619797819473e-12,1.4115620819745006e-12
0.0,7,7.0,0.0,30.0,0.0,0.0,0.0,0.0,-13.0,0.0,2.0,0.0,0.0,0.0,8.273029537065e-11,5.7169456510776084e-11,4.106469924710698e-11,3.0834118153947887e-11,2.23978851587051e-11,1.51929450365383e-11,9.19420865129611e-12,6.112001561867934e-12,3.5204093605542587e-12,1.9929540313919318e-12,1.0919051835159896e-12,5.737400504873845e-13,3.234687152986402e-13,1.402041547005679e-13,7.04988260186514e-14,5.044783950593229e-14,2.830422697962258e-14,4.168176768947971e-09,3.112194301729166e-09,1.9989023320177855e-09,1.2189266060674192e-09,7.662800991629667e-10,4.692067619228881e-10,3.1029501723869984e-10,2.2350520483075957e-10,1.5392220795198457e-10,1.1315960295500182e-10,8.083332056445693e-11,6.12473961588689e-11,4.4235085020928045e-11,3.346021569851836e-11,2.7128574241268075e-11,1.740938662895343e-11,1.1697614231388237e-11,7.493359270357527e-12,4.895128020224065e-12,2.6258604174023208e-12,1.4092952390208083e-12
0.0,8,8.0,0.0,30.0,0.0,0.0,0.0,0.0,-13.0,0.0,2.0,0.0,0.0,0.0,6.98301362337199e-11,5.284628885022503e-11,3.5926045701899466e-11,2.7270697847599435e-11,1.982513090620974e-11,1.3975817549221491e-11,9.326531770118706e-12,5.8593360413001425e-12,3.689957858239162e-12,2.1795180334743515e-12,1.2044770687013252e-12,6.483455647610548e-13,3.436619502610182e-13,1.6723480733797238e-13,8.174195587208752e-14,3.13346732434767e-14,1.92261508366112e-14,4.2703087521788875e-09,3.1289467108449117e-09,2.2165657710437476e-09,1.3181158262257006e-09,8.135967539217436e-10,4.558901717650588e-10,3.0437147131079386e-10,2.0072621854107165e-10,1.4409860279852445e-10,9.971693001667841e-11,7.420190536689488e-11,5.305835812664147e-11,3.94932784388107e-11,3.0883599478147434e-11,2.2179181876744193e-11,1.5604158989860623e-11,1.0504901922462834e-11,6.9029225353244965e-12,4.3589218624352546e-12,2.403760031581861e-12,1.3774398178395457e-12
0.0,9,9.0,0.0,30.0,0.0,0.0,0.0,0.0,-13.0,0.0,2.0,0.0,0.0,0.0,6.821110385552295e-11,4.6348959914350676e-11,3.363364915710115e-11,2.5449477702742348e-11,1.790294888569978e-11,1.257159798241473e-11,8.160923928564714e-12,5.456906021374995e-12,3.495459060126991e-12,2.0502175263656545e-12,1.2459018273740912e-12,6.49327629354075e-13,3.658893242645042e-13,1.689666317996389e-13,6.737632257204734e-14,3.709547377624986e-14,9.377594871823507e-15,4.332010204591478e-09,3.1512966004787947e-09,2.3345612355685122e-09,1.4872170477449535e-09,8.232073004608332e-10,4.695785476166136e-10,3.112544442186859e-10,1.93392616518038e-10,1.321667924808117e-10,9.495415367311435e-11,6.758396833647106e-11,4.890647890095036e-11,3.6129146608214357e-11,2.6014819089823532e-11,1.95514204510564e-11,1.3722684777228441e-11,1.0170311041690774e-11,6.181540531097227e-12,4.205587311665794e-12,2.4244215415217174e-12,1.4590047477163024e-12
0.0,10,10.0,0.0,30.0,0.0,0.0,0.0,0.0,-13.0,0.0,2.0,0.0,0.0,0.0,6.06485454834685e-11,4.2407269266525645e-11,3.122735991511085e-11,2.1953123054757097e-11,1.589775059588428e-11,1.0944089656770771e-11,8.514770591514965e-12,5.25090780447394e-12,3.2584450604432535e-12,2.0365008239756965e-12,1.2114110706480126e-12,6.893082281420939e-13,3.546733238794849e-13,1.7891277591235505e-13,8.560269819175278e-14,3.05958390804714e-14,2.2295357624662606e-14,4.485940050353094e-09,3.5699827688312507e-09,2.3308655931427427e-09,1.4171746022338544e-09,8.927467639999917e-10,5.045060935571137e-10,3.045462302936429e-10,1.9778298800170291e-10,1.2827141100172703e-10,9.010582624364625e-11,5.813874068708866e-11,4.448229455597932e-11,3.198700145192219e-11,2.375554659939666e-11,1.7593707475838192e-11,1.2206045547544667e-11,8.513937807203039e-12,6.6239494889026345e-12,3.829860599770615e-12,2.4514657734585112e-12,1.4295200440586892e-12
0.0,11,11.0,0.0,30.0,0.0,0.0,0.0,0.0,-13.0,0.0,2.0,0.0,0.0,0.0,5.872803500789872e-11,3.845353917465083e-11,2.6242678830427057e-11,2.0229591159244838e-11,1.455507485358445e-11,1.1114688894849602e-11,7.087096242947478e-12,5.290579188794343e-12,3.251329588843306e-12,2.0127735141275547e-12,1.196845359519001e-12,6.892669762704041e-13,4.0530930800753183e-13,2.0128287602528044e-13,9.491151070697797e-14,5.6142149642856124e-14,9.799801212378065e-15,4.38685984831787e-09,3.5892609646816266e-09,2.502809788984994e-09,1.4886972451375825e-09,8.956073954725104e-10,5.025365937931974e-10,3.073479740918513e-10,1.927977159598591e-10,1.267003838991687e-10,8.215240123457051e-11,5.520919793311629e-11,4.1204218369309004e-11,2.8545425349879272e-11,2.1104750074998358e-11,1.55578516195298e-11,1.1171752755763128e-11,8.132414703533653e-12,5.9791424251089585e-12,3.707335387922843e-12,2.314392372205874e-12,1.0984935911016984e-12
0.0,12,12.0,0.0,30.0,0.0,0.0,0.0,0.0,-13.0,0.0,2.0,0.0,0.0,0.0,5.48916859834892e-11,3.688988541902057e-11,2.453802154349612e-11,1.8650794514416457e-11,1.3121136052875576e-11,9.388609494709829e-12,7.1790359403253575e-12,4.566388219374125e-12,3.1155908825345828e-12,1.921339788812222e-12,1.2117675980275826e-12,6.449098179669455e-13,4.044525356990554e-13,1.997907176733032e-13,1.0236533861201865e-13,5.6806981766401954e-14,2.1801432906558833e-14,4.537074262864123e-09,3.5630464697850474e-09,2.4440245509348607e-09,1.5114160336854598e-09,9.147783964437001e-10,5.624366395018515e-10,3.342027588296908e-10,1.915985309797158e-10,1.2791794391300672e-10,8.116853687896634e-11,5.2862919429955044e-11,3.576599811480945e-11,2.7588463238407647e-11,2.0632004610596007e-11,1.3570764929413205e-11,1.0127995443064715e-11,7.086591675944854e-12,4.9894616089834954e-12,3.588796077809911e-12,2.0535009677531335e-12,1.3698063097315154e-12
0.0,13,13.0,0.0,30.0,0.0,0.0,0.0,0.0,-13.0,0.0,2.0,0.0,0.0,0.0,5.0854336048436485e-11,3.3579344912846666e-11,2.2682472501073362e-11,1.6955611024507034e-11,1.2395600606384289e-11,8.683532490500233e-12,6.3027993728838755e-12,4.376821134493077e-12,2.9448467301957796e-12,1.83134145231517e-12,1.2127813529034247e-12,7.261848089644997e-13,3.848050417869405e-13,2.1217702068482895e-13,1.1251934550851771e-13,5.853886636378437e-14,2.6800157640201355e-14,4.687832138064774e-09,3.479388535202838e-09,2.351620666752672e-09,1.5953476606688014e-09,9.381003171099518e-10,5.769176799566068e-10,3.2330356002134855e-10,2.0940252918017335e-10,1.1907559416738464e-10,7.681585568698874e-11,5.030323598902576e-11,3.367406843316902e-11,2.390935630639075e-11,1.797930028839051e-11,1.3311002194342166e-11,9.33827852390964e-12,6.572373694059783e-12,4.513787939909547e-12,3.1758471533906263e-12,2.123646786432794e-12,1.1796551983971602e-12
0.0,14,14.0,0.0,30.0,0.0,0.0,0.0,0.0,-13.0,0.0,2.0,0.0,0.0,0.0,5.1291140721878333e-11,3.178302783558416e-11,2.062209076950943e-11,1.523381034371278e-11,1.0635114929669669e-11,7.923018775688139e-12,5.636229060206077e-12,4.133312264052837e-12,2.9149003992774406e-12,1.842742393496577e-12,1.199978334954336e-12,7.501467415286087e-13,4.1920431657798274e-13,2.1565425877563068e-13,1.157637019218061e-13,5.695271803792161e-14,2.4069140575687697e-14,4.719260935476977e-09,3.44625113266983e-09,2.54483921631624e-09,1.6290661542528805e-09,9.773460153003862e-10,5.737924842579099e-10,3.4681630141654986e-10,1.9249618736023792e-10,1.2198937866163778e-10,6.907710298927928e-11,4.8033959016471666e-11,3.2938521196790724e-11,2.4191580602643166e-11,1.6259415299798173e-11,1.0945372105816465e-11,8.042041187693216e-12,5.938072298890003e-12,4.217091123999282e-12,2.971956492800984e-12,1.964765275164439e-12,1.0083959755631655e-12
0.0,15,15.0,0.0,30.0,0.0,0.0,0.0,0.0,-13.0,0.0,2.0,0.0,0.0,0.0,4.674061140645238e-11,3.064235267355076e-11,1.933454760259372e-11,1.4251495113209783e-11,1.0118055824125485e-11,7.404758414718036e-12,5.447700748834451e-12,3.7713037919975745e-12,2.565142277939109e-12,1.7367347519841897e-12,1.0972397177934643e-12,6.783424028497232e-13,4.007072845217925e-13,2.2299092237850045e-13,1.1292147458711818e-13,6.19849884053318e-14,2.9629994316805804e-14,4.626443358746755e-09,3.4119483881392953e-09,2.637092232788435e-09,1.6186435459548095e-09,1.042137282571473e-09,6.097457833744996e-10,3.5171876731310784e-10,2.0424207025845682e-10,1.246283565249892e-10,7.202107294761653e-11,4.5968395015730844e-11,3.0753998097700704e-11,2.1919257119070337e-11,1.4729561135709722e-11,1.0863028825324846e-11,7.834330507312463e-12,5.2151711195143265e-12,3.3917947156708025e-12,2.654289214910311e-12,1.7370322011426288e-12,1.0343071152840302e-12
0.0,16,16.0,0.0,30.0,0.0,0.0,0.0,0.0,-13.0,0.0,2.0,0.0,0.0,0.0,4.7731026304081975e-11,2.6519159783108418e-11,1.8503639004806147e-11,1.2617104355585425e-11,9.43953559618277e-12,6.592422410549797e-12,5.183338335616159e-12,3.4011032901705332e-12,2.419644225396624e-12,1.5631954691440428e-12,1.1108119886465248e-12,6.871318660917983e-13,3.8407033918220586e-13,2.3323367778418095e-13,1.237852974837035e-13,6.610767744196079e-14,3.5265420370282804e-14,4.5665878537221215e-09,3.4722000079447994e-09,2.5292033465391393e-09,1.6419660848473865e-09,9.985292207562105e-10,6.101021090430635e-10,3.6035834187091875e-10,2.1218097783647706e-10,1.214842580803603e-10,7.199196871311714e-11,4.580004937937128e-11,2.8993138194797412e-11,2.0211918515689596e-11,1.4143305007694947e-11,9.492079869832404e-12,7.036047675580218e-12,4.9574469596969425e-12,3.643454618364146e-12,2.487904639618155e-12,1.6862267787924893e-12,9.561912552657412e-13
0.0,17,17.0,0.0,30.0,0.0,0.0,0.0,0.0,-13.0,0.0,2.0,0.0,0.0,0.0,4.5827500186193467e-11,2.6261192350686583e-11,1.720165359835818e-11,1.2234198247539825e-11,8.083594258937515e-12,6.0635897549074395e-12,4.512702369682024e-12,3.1821368500580987e-12,2.305387265079374e-12,1.624871144082688e-12,1.0245685770384676e-12,6.7047019596923e-13,3.778440637871232e-13,2.1607050144404535e-13,1.2776893793417961e-13,5.520160746251558e-14,2.122337550447321e-14,4.560955040716393e-09,3.511623821218125e-09,2.6204230248433403e-09,1.632570399968086e-09,1.007305694200682e-09,6.549720443661981e-10,3.8430074717657406e-10,2.254909944768397e-10,1.2081786348604266e-10,7.500015941586978e-11,4.424413815730447e-11,2.8331805500751897e-11,1.8623384492669944e-11,1.2698133053217025e-11,8.739617375725037e-12,6.1381306291951856e-12,4.365988713284216e-12,3.162890987976077e-12,2.0530456322509198e-12,1.2758934785130669e-12,1.0762283075018003e-12
0.0,18,18.0,0.0,30.0,0.0,0.0,0.0,0.0,-13.0,0.0,2.0,0.0,0.0,0.0,4.5029769771373335e-11,2.5464549221552263e-11,1.5776864675344795e-11,1.0948467288081887e-11,8.199461105302424e-12,5.6885075792028455e-12,4.282085565115175e-12,2.9753785867989266e-12,2.092412335741264e-12,1.5747874036894074e-12,1.040156280509753e-12,6.361245987051316e-13,3.8521200711786794e-13,2.1012255566363535e-13,1.2260670630300722e-13,9.718914108769934e-14,4.28084614004907e-14,4.7326631144933246e-09,3.688568360602418e-09,2.398916653574714e-09,1.6328211061161448e-09,1.0090887513421412e-09,6.182516459152738e-10,3.641435247487419e-10,2.232681833979213e-10,1.2694435261731807e-10,7.543091763011796e-11,4.398981678661401e-11,2.8710201754556966e-11,1.8701689703694583e-11,1.255342784350359e-11,8.791772863248837e-12,5.6915950914660965e-12,4.394192861572507e-12,3.2254712402555784e-12,1.865484767672632e-12,1.3094372684607376e-12,8.062916447465913e-13
0.0,19,19.0,0.0,30.0,0.0,0.0,0.0,0.0,-13.0,0.0,2.0,0.0,0.0,0.0,4.480499108370805e-11,2.5011477707740794e-11,1.5507600505559275e-11,1.0450083283596346e-11,7.380684844727487e-12,5.340114047957118e-12,3.877977576685955e-12,2.649473272057133e-12,1.918529322139458e-12,1.3823018579544306e-12,9.257179387734973e-13,5.812647013287477e-13,3.8721008047205357e-13,2.1000563260103957e-13,1.0477171140199382e-13,4.016817042834945e-14,4.1787325767608374e-14,4.717838827990686e-09,3.5419725064850487e-09,2.5471378836123193e-09,1.7272523730086331e-09,1.0363024739640564e-09,6.410511282013201e-10,3.8939024513193814e-10,2.2017391806898335e-10,1.321967740271095e-10,7.620565729198909e-11,4.388785110484375e-11,2.7264914489825748e-11,1.7978493571802778e-11,1.04029068573042e-11,7.610050278749228e-12,5.692669047952638e-12,3.2973702521143947e-12,2.3532454658847198e-12,1.8955709424257486e-12,1.1900435479699044e-12,9.858700237116425e-13
0.0,20,20.0,0.0,30.0,0.0,0.0,0.0,0.0,-13.0,0.0,2.0,0.0,0.0,0.0,4.382945043723409e-11,2.5074358029038013e-11,1.531327158173362e-11,1.0290830788293925e-11,7.464849710751171e-12,5.114864570465836e-12,3.5508664991973866e-12,2.5832411276192032e-12,1.9829895852702296e-12,1.3147891805730357e-12,9.614275086996912e-13,5.877032337381694e-13,3.712924717013228e-13,2.1395648661566223e-13,1.260593328845922e-13,6.681541793842122e-14,2.7152848665792137e-14,4.476013103054087e-09,3.4271455481950856e-09,2.5065569122633665e-09,1.6547904982825565e-09,1.0525587108889848e-09,6.68022530604403e-10,3.9682692171746585e-10,2.3017778232067466e-10,1.335267056197119e-10,8.07778040072528e-11,4.388879106325368e-11,2.6454555751593616e-11,1.6609054028705873e-11,1.0454613593192187e-11,7.2065299738622595e-12,5.242904115562278e-12,3.276277324138337e-12,2.460252145950384e-12,1.7774031808079773e-12,1.106052232051039e-12,7.31055885465285e-13
0.0,21,21.0,0.0,30.0,0.0,0.0,0.0,0.0,-13.0,0.0,2.0,0.0,0.0,0.0,4.291933776966014e-11,2.5031013074308768e-11,1.488679817465354e-11,9.849116977597848e-12,7.052616074815779e-12,4.892531039791314e-12,3.4984452974413438e-12,2.305529463603726e-12,1.7906256845380247e-12,1.2355270119392004e-12,9.066748867866801e-13,5.6970008217601e-13,3.462681163883008e-13,2.1890869953269865e-13,1.3257974989754326e-13,6.643627140744556e-14,3.912317761695793e-14,4.8919753481310835e-09,3.4406535024969427e-09,2.439149312660964e-09,1.6229404343031284e-09,9.477837532586604e-10,6.376354995604929e-10,3.9568499648465245e-10,2.3998895690361113e-10,1.371073173061981e-10,8.058626199751469e-11,4.670442013831374e-11,2.477693946592405e-11,1.640512100526252e-11,1.0539887860449066e-11,6.83918703143992e-12,4.612088939429755e-12,3.17399030748914e-12,2.379353174794173e-12,1.5444912693840753e-12,9.093402843841025e-13,6.109397688849919e-13
0.0,22,22.0,0.0,30.0,0.0,0.0,0.0,0.0,-13.0,0.0,2.0,0.0,0.0,0.0,4.426020488430468e-11,2.473155369771489e-11,1.3703779362914339e-11,9.362024090892445e-12,6.26948365052693e-12,4.351565500670679e-12,3.1238900580319205e-12,2.307433877294258e-12,1.6481719140136922e-12,1.1046711392568709e-12,8.077889754043867e-13,5.649826159748613e-13,3.4153831165131816e-13,2.3036451608413277e-13,1.0502064278009367e-13,8.318726765426853e-14,5.099261743816348e-14,4.575109459350123e-09,3.4260952378713217e-09,2.5199784005676276e-09,1.631315914865304e-09,1.0394286669572437e-09,6.386163445858704e-10,3.9839003952727846e-10,2.44025997556713e-10,1.3542550249865572e-10,8.347311254931693e-11,4.4851972904453945e-11,2.6528043190562883e-11,1.6441719509344625e-11,1.0449568846557554e-11,6.633567043733314e-12,4.421681026091338e-12,3.17457197885182e-12,2.007544338567305e-12,1.293034125111288e-12,6.950295890359224e-13,8.331992262622181e-13
0.0,23,23.0,0.0,30.0,0.0,0.0,0.0,0.0,-13.0,0.0,2.0,0.0,0.0,0.0,4.5944167403440606e-11,2.29104554888111e-11,1.3673907398013214e-11,9.280707029210712e-12,5.902851349408126e-12,4.205284235214391e-12,2.912264612075745e-12,2.0127907095777974e-12,1.526904780565982e-12,1.0494442981579393e-12,8.295111575293088e-13,4.890539129469699e-13,3.3792985529534257e-13,1.9382365504371413e-13,1.1931660935635396e-13,6.990956822035556e-14,4.663205570755478e-14,4.6495391264810026e-09,3.3623711627195453e-09,2.588458792828752e-09,1.6356040017360543e-09,1.0101346875917188e-09,6.834027623194893e-10,4.190964786761339e-10,2.5360197409840683e-10,1.4396734577693296e-10,8.30647978191429e-11,4.659992673867636e-11,2.7432618548772962e-11,1.4980287494929258e-11,1.0001207750677649e-11,6.234976038178866e-12,4.1831465968697434e-12,2.7930749884338344e-12,1.6499922497524949e-12,1.3442046125494732e-12,1.0359363124741104e-12,5.719781777030664e-13
0.0,24,24.0,0.0,30.0,0.0,0.0,0.0,0.0,-13.0,0.0,2.0,0.0,0.0,0.0,4.6154580620318985e-11,2.4863089205185658e-11,1.2955336531577664e-11,8.4731048524194e-12,5.704987753676985e-12,4.0103323427140515e-12,2.733333982147021e-12,2.0086322559157176e-12,1.3886574357633965e-12,1.0767078699356327e-12,7.878627767858747e-13,5.053217673929096e-13,3.2640683907749413e-13,2.0430829726008808e-13,1.3003526906535414e-13,6.912732838901671e-14,4.382051836390138e-14,4.5332856308047635e-09,3.454570367140105e-09,2.6206756682041947e-09,1.6889931164670727e-09,1.101441813890516e-09,6.700067475768939e-10,4.165249520482175e-10,2.543539700816826e-10,1.4137931578287396e-10,8.127409187384772e-11,4.6803280180232525e-11,2.5964192437503632e-11,1.6173545969004275e-11,9.903027697780842e-12,6.261001015975618e-12,4.17655705490712e-12,2.78754083530916e-12,1.9816996343310417e-12,1.1761923442208429e-12,7.481423462689722e-13,4.446138041968434e-13
0.0,25,25.0,0.0,30.0,0.0,0.0,0.0,0.0,-13.0,0.0,2.0,0.0,0.0,0.0,4.9492952609641456e-11,2.4294901568434406e-11,1.1834478336802493e-11,8.15923931724377e-12,5.5675644174068094e-12,3.515411362327293e-12,2.7959699369903624e-12,1.8964888501794027e-12,1.331283985846405e-12,9.345186891267656e-13,7.411186930995827e-13,4.841971328972802e-13,3.1785670524581383e-13,1.9194627850861145e-13,1.3785989515631445e-13,8.687658383239883e-14,5.4161617066757006e-14,4.601666567790051e-09,3.6660564537442663e-09,2.488487054837567e-09,1.589037656491476e-09,1.0553506442462467e-09,6.624758872633157e-10,4.1461632857960604e-10,2.3233155232540503e-10,1.4629925647983192e-10,8.17973098362663e-11,4.916492894516647e-11,2.6599958547806473e-11,1.5307979715640916e-11,9.048312493531362e-12,5.928554796142747e-12,3.87406263661384e-12,2.76227048268397e-12,1.6516325407526743e-12,1.0567024298419608e-12,7.575745408432754e-13,5.934348447801738e-13
0.0,26,26.0,0.0,30.0,0.0,0.0,0.0,0.0,-13.0,0.0,2.0,0.0,0.0,0.0,4.6918113171108825e-11,2.4315529373198696e-11,1.253592657093371e-11,8.013712551289538e-12,5.3619925389678854e-12,3.5551709945475144e-12,2.6080934654714662e-12,1.7104559119398457e-12,1.2819915811863378e-12,9.244444360480127e-13,6.826930804575117e-13,4.743677300430551e-13,2.9898992551107037e-13,2.1625211101778344e-13,1.1941906459192586e-13,9.473782626252759e-14,3.9773177305403347e-14,4.618730005193108e-09,3.474733428696705e-09,2.5498636951881333e-09,1.6920513624127728e-09,1.0818545900595162e-09,6.838226258882828e-10,4.283857695880094e-10,2.3374074960848693e-10,1.5427337280095975e-10,8.331643915980422e-11,4.678907538021718e-11,2.608060170902053e-11,1.5802599724327396e-11,9.616817690056865e-12,6.050421266478572e-12,3.756999350953956e-12,2.6140137009692757e-12,1.2926406418874356e-12,7.817849365008018e-13,7.679891594194201e-13,5.845619546745702e-13
0.0,27,27.0,0.0,30.0,0.0,0.0,0.0,0.0,-13.0,0.0,2.0,0.0,0.0,0.0,4.847514602535995e-11,2.3211423280817353e-11,1.352041701407566e-11,8.20225410313109e-12,4.864254811707484e-12,3.4726565312168313e-12,2.4641608751601665e-12,1.7630681756886602e-12,1.1368005036536782e-12,8.570042084312775e-13,6.201412532601689e-13,3.7881805056790875e-13,3.101595061249969e-13,1.8258950999707118e-13,9.676680735614412e-14,5.1065503567381724e-14,3.0883610587129094e-14,4.364451222214568e-09,3.5350849425440906e-09,2.4149523803624876e-09,1.6927414889751676e-09,1.0423755740022834e-09,6.433356794309941e-10,4.190170692756947e-10,2.4528658439152023e-10,1.5051077919344554e-10,8.733663894056916e-11,5.024525967915402e-11,2.9868312663766944e-11,1.5925037488440657e-11,9.318317891703698e-12,5.3005400619565246e-12,3.635790368783364e-12,2.464736347465368e-12,1.4729985433312843e-12,9.72099421236456e-13,5.629672391758246e-13,2.9840168045362857e-13
0.0,28,28.0,0.0,30.0,0.0,0.0,0.0,0.0,-13.0,0.0,2.0,0.0,0.0,0.0,4.858976434830511e-11,2.5122390234043603e-11,1.2572416183492172e-11,7.690616763741146e-12,4.735741535545542e-12,3.3607232245592215e-12,2.3873902571523845e-12,1.5984180704142392e-12,1.1768843355971494e-12,8.044628851646712e-13,5.770563835870929e-13,4.0518665578699777e-13,2.9470756358059173e-13,1.8398522332809398e-13,1.1651155613465313e-13,5.901992095717181e-14,4.0657117477512515e-14,4.681510798103021e-09,3.454127550921734e-09,2.487870534043009e-09,1.6643095135643325e-09,9.922338683445052e-10,6.581197117706833e-10,4.033817007804941e-10,2.627760830407205e-10,1.5638900299822292e-10,9.031639692946239e-11,5.1528562509028395e-11,2.8306263132422312e-11,1.614069421845074e-11,9.485010039880545e-12,5.361091243290805e-12,3.624426445649842e-12,2.265792821110083e-12,1.4082745287705895e-12,9.699541450069758e-13,7.265473925484808e-13,4.717182102259585e-13
0.0,29,29.0,0.0,30.0,0.0,0.0,0.0,0.0,-13.0,0.0,2.0,0.0,0.0,0.0,5.0311058990340976e-11,2.3894179402540814e-11,1.2928900687806663e-11,7.49545016493971e-12,4.743151390515453e-12,3.1653101233143243e-12,2.1561340218945147e-12,1.5441494485131228e-12,1.1182292955684659e-12,7.5795236691087e-13,5.830421910086241e-13,3.931812299683633e-13,2.932346382461468e-13,1.8623150502053677e-13,1.2438569179033653e-13,6.123079394398935e-14,3.628345478947475e-14,4.430276924497817e-09,3.292989329657515e-09,2.496998700078597e-09,1.598177887528001e-09,1.0825552867888556e-09,6.412480317135363e-10,3.9473836184416636e-10,2.7372079490260345e-10,1.49778546570373e-10,8.82884609519061e-11,5.364465372525599e-11,2.8564334919943506e-11,1.54045571567029e-11,8.95945976681029e-12,5.4652174274544276e-12,3.311343119994114e-12,2.029610652041547e-12,1.4144464599320413e-12,9.007963791686685e-13,5.254759563206855e-13,3.236624119431425e-13
0.0,30,30.0,0.0,30.0,0.0,0.0,0.0,0.0,-13.0,0.0,2.0,0.0,0.0,0.0,5.1624593586514365e-11,2.5241902779341346e-11,1.2698559783677808e-11,7.574664533783529e-12,4.5050543075657264e-12,3.0367994261181388e-12,2.092130891317653e-12,1.4466435525645855e-12,1.036036691536394e-12,7.204609649390829e-13,5.195100744307286e-13,3.710554334437965e-13,2.8930217214491865e-13,1.7195150306786794e-13,1.10007648082023e-13,5.113263638739787e-14,4.782057149030512e-14,4.496815399383709e-09,3.60059956339011e-09,2.510895449674438e-09,1.6657949186929288e-09,1.1142821274823598e-09,6.628214746190775e-10,4.282679154241418e-10,2.498178591214515e-10,1.5850059831521888e-10,9.069322031850316e-11,5.0182347711932904e-11,3.0343057928672225e-11,1.63011659214131e-11,9.115304951023307e-12,5.6162327969183756e-12,3.293652278698858e-12,1.9707611795420526e-12,1.3817682482165853e-12,8.869113405538662e-13,3.5646228850727535e-13,2.8600799082628657e-13
0.0,31,31.0,0.0,30.0,0.0,0.0,0.0,0.0,-13.0,0.0,2.0,0.0,0.0,0.0,5.0220078428578084e-11,2.565121102365816e-11,1.2707451093793067e-11,7.657900992126891e-12,4.275541697334904e-12,2.9130238999429398e-12,1.9434501746106753e-12,1.3343518981743608e-12,9.709678521623311e-13,6.874951736804291e-13,5.259472994666442e-13,3.4006042808938687e-13,2.373053649983443e-13,1.5800978304575554e-13,1.1791944252149202e-13,6.361507058976265e-14,3.847086195544621e-14,4.310461001027996e-09,3.445643712989169e-09,2.574445044892159e-09,1.6412901655273817e-09,1.1034445755126914e-09,6.76713459047637e-10,4.1881115199660356e-10,2.54680550133592e-10,1.5124318452617482e-10,9.332272840400484e-11,5.2607039335578124e-11,2.924066662148945e-11,1.67264580311683e-11,8.589366664504172e-12,5.312806232679144e-12,3.096015656105999e-12,2.0474849128019998e-12,1.2513342420288986e-12,7.861844930047856e-13,5.736166480632486e-13,3.5943767335209224e-13
0.0,32,32.0,0.0,30.0,0.0,0.0,0.0,0.0,-13.0,0.0,2.0,0.0,0.0,0.0,5.105237291507128e-11,2.5569951815223868e-11,1.3140275583399056e-11,7.2787827818934e-12,4.595302611638727e-12,2.9819497210893575e-12,1.9137259204667908e-12,1.3318423567728957e-12,9.447356164370713e-13,6.692491449050605e-13,5.02004466902183e-13,3.118495645074635e-13,2.4079970114001667e-13,1.6841941566159746e-13,1.1296573314132385e-13,6.02730270174132e-14,5.10287645439872e-14,4.5901302007805866e-09,3.5591766053984345e-09,2.547544902086183e-09,1.6706818750859133e-09,1.0622346030054025e-09,6.849110635809539e-10,4.377721769541395e-10,2.5039799187435443e-10,1.6268392079730374e-10,9.448983766100123e-11,5.3592708092930296e-11,3.046328966661386e-11,1.6331682659849566e-11,9.469310970066332e-12,5.3466646621846766e-12,3.1562602292630492e-12,1.8854321832973874e-12,1.3560619432045704e-12,8.270125250060694e-13,4.141430710904159e-13,4.1781225619110236e-13
0.0,33,33.0,0.0,30.0,0.0,0.0,0.0,0.0,-13.0,0.0,2.0,0.0,0.0,0.0,5.213480499228974e-11,2.6002221328111562e-11,1.3410631984530115e-11,7.352687471155092e-12,4.242316251218644e-12,2.846039884064415e-12,1.758487708130164e-12,1.2365063922052243e-12,8.543631012540822e-13,5.985330344730997e-13,4.584509482836946e-13,3.09662820386175e-13,2.2441951121999926e-13,1.6675095419343532e-13,1.0083003174270412e-13,7.476814038213669e-14,4.0814152106396045e-14,4.854133112506105e-09,3.577836365146715e-09,2.543129315599752e-09,1.7365588701611242e-09,1.0727356970040888e-09,6.725869333663098e-10,4.37651183451033e-10,2.5507475640200136e-10,1.6124536455297928e-10,9.322692315411517e-11,5.275632183956932e-11,3.0923734565984135e-11,1.6682755163695287e-11,8.9375451846759e-12,5.147422920714907e-12,3.296504322243074e-12,1.7942202344216778e-12,1.0829101234356356e-12,7.85345982951873e-13,4.734943403504496e-13,1.6712068448988596e-13
0.0,34,34.0,0.0,30.0,0.0,0.0,0.0,0.0,-13.0,0.0,2.0,0.0,0.0,0.0,5.213995690930392e-11,2.5986431697947995e-11,1.2860325128019208e-11,7.503848965845761e-12,4.237969948097226e-12,2.585814351037712e-12,1.894767171770682e-12,1.2773333928562486e-12,8.589310109145423e-13,6.0764523151678e-13,4.387988212716215e-13,3.0595986732850634e-13,2.2734334502131562e-13,1.5565360496841737e-13,9.994597884524364e-14,7.377729301038896e-14,3.3402245898101374e-14,4.5974151419196834e-09,3.4312187678782703e-09,2.5290907100597316e-09,1.6571323380276676e-09,1.0050987904226225e-09,6.414478745004868e-10,4.092114520352178e-10,2.596349162139054e-10,1.5943648928955465e-10,9.567719940393568e-11,5.635682784551905e-11,3.0733569471808685e-11,1.6734883468621348e-11,9.290921677613139e-12,5.232361115871529e-12,3.0168679023321334e-12,2.0055413009907115e-12,1.2781949365696983e-12,7.645723547621994e-13,6.745239845085512e-13,2.9351158363562315e-13
0.0,35,35.0,0.0,30.0,0.0,0.0,0.0,0.0,-13.0,0.0,2.0,0.0,0.0,0.0,4.9431582764144583e-11,2.7279651571125404e-11,1.2994682359425229e-11,7.374246925467783e-12,4.604343565337356e-12,2.7210115484095086e-12,1.6787587507152948e-12,1.1516737035981621e-12,8.039520122380666e-13,5.609108914031855e-13,4.2150381278381943e-13,2.9056704492473324e-13,2.0726402134495155e-13,1.2257724278696314e-13,1.0373148488145732e-13,4.725905241232417e-14,3.5243094214615764e-14,4.486095408382095e-09,3.5741702318562676e-09,2.5664346098564158e-09,1.6093948227232315e-09,1.0756495828551575e-09,6.652228088773716e-10,4.2981765333353745e-10,2.698501821744813e-10,1.599652883274835e-10,9.763772623428617e-11,5.754987581446734e-11,2.8633808886179874e-11,1.6941224977842647e-11,1.030824635781405e-11,5.554727327398903e-12,3.008748930344935e-12,1.8172052628831017e-12,1.1639420253748977e-12,7.326862367754132e-13,3.433641405443522e-13,2.8737439804747226e-13
0.0,36,36.0,0.0,30.0,0.0,0.0,0.0,0.0,-13.0,0.0,2.0,0.0,0.0,0.0,5.430652527570111e-11,2.6799118903449394e-11,1.351921276411497e-11,7.601298360303559e-12,4.364116424721543e-12,2.569694634483608e-12,1.5803902897295545e-12,1.1003320936182792e-12,7.944121838826347e-13,5.509636197394389e-13,4.154901256562196e-13,2.9195177729962733e-13,1.9808427108566438e-13,1.2825046199342033e-13,7.700352678872083e-14,7.079108325701008e-14,1.760851378404266e-14,4.708015918550969e-09,3.495687583182146e-09,2.4474660418812293e-09,1.6784577434781074e-09,1.0507101285987088e-09,6.515856138948555e-10,3.984930787867928e-10,2.644281789017109e-10,1.6549967712049448e-10,9.926784925098755e-11,5.518190825553504e-11,3.1775946470893836e-11,1.7278617813531852e-11,1.0264667322810243e-11,5.007944933199401e-12,2.817245486419165e-12,1.8124903923668134e-12,1.2659260088865172e-12,5.886770642955016e-13,4.5034495107587315e-13,1.8845548028285398e-13
0.0,37,37.0,0.0,30.0,0.0,0.0,0.0,0.0,-13.0,0.0,2.0,0.0,0.0,0.0,5.3822708646620366e-11,2.7401314287529124e-11,1.3524925128522656e-11,7.530692364864668e-12,4.197947244747382e-12,2.4389488068505296e-12,1.6775483068250794e-12,1.0586493853371672e-12,7.387818130469256e-13,5.255941506447242e-13,3.599820134265398e-13,2.552007428307117e-13,1.9666345583702293e-13,1.2325871787413078e-13,8.727805996712248e-14,5.909865176652793e-14,3.3154467330829583e-14,4.681864815570166e-09,3.4486183177211195e-09,2.5578936581669673e-09,1.611209639512903e-09,1.061600639606316e-09,6.591873346976087e-10,4.2095192566448703e-10,2.6818846368883313e-10,1.6383518060652192e-10,9.867918127472807e-11,5.350402880602032e-11,3.059328799182032e-11,1.7869592040311958e-11,9.831990924440666e-12,5.531176721328887e-12,3.0031856343226787e-12,1.5695080082591269e-12,1.0204589110521658e-12,5.553358346078348e-13,3.983327478612738e-13,2.155041174642545e-13
0.0,38,38.0,0.0,30.0,0.0,0.0,0.0,0.0,-13.0,0.0,2.0,0.0,0.0,0.0,5.5838529866877e-11,2.8340752299821853e-11,1.3515746104424441e-11,7.674181623302905e-12,4.373327537709575e-12,2.433121887052181e-12,1.6231677684389792e-12,1.0542743029144618e-12,7.144490607945393e-13,4.920974157370247e-13,3.235613031690676e-13,2.602803301925e-13,1.8667199414623907e-13,1.1145867501333423e-13,6.623301817018659e-14,4.064874985639515e-14,9.241808847305801e-15,4.5745969642562024e-09,3.731847144912195e-09,2.4072760774379142e-09,1.6497917232824696e-09,1.0280826770057369e-09,6.506403558157484e-10,4.233043363553129e-10,2.82743889882736e-10,1.6640298276030644e-10,8.975149854802418e-11,5.77571859764053e-11,3.2358818197276516e-11,1.720882608069519e-11,9.453830971072827e-12,5.52201649028664e-12,2.9808003972409045e-12,1.7730806823656127e-12,9.943121372917575e-13,5.690896920381926e-13,3.466342991663236e-13,2.0776159845647651e-13
0.0,39,39.0,0.0,30.0,0.0,0.0,0.0,0.0,-13.0,0.0,2.0,0.0,0.0,0.0,5.581188204323625e-11,2.609194644321522e-11,1.372464020636529e-11,7.86068981162227e-12,4.37716618387744e-12,2.390708967291625e-12,1.5154448786902107e-12,9.712422676077723e-13,6.814460546744055e-13,4.80824349798529e-13,3.5255339704710096e-13,2.428673849776482e-13,1.678235400530266e-13,1.1871230028523074e-13,7.134563710966112e-14,6.473840217473044e-14,5.698642124332556e-14,4.516432873064406e-09,3.6037394191653252e-09,2.590911453406565e-09,1.7627128764700154e-09,1.0820479885346658e-09,6.803430449334796e-10,4.233012806651973e-10,2.6874167666861196e-10,1.6096133978923599e-10,9.566447619226598e-11,5.444225896392348e-11,3.183299046048987e-11,1.8145827027085788e-11,1.0379981572735907e-11,5.569300082654015e-12,3.108070861841317e-12,1.3871284335773456e-12,9.127780188314154e-13,5.748551177119093e-13,4.1720434906577055e-13,2.316407091136466e-13
0.0,40,40.0,0.0,30.0,0.0,0.0,0.0,0.0,-13.0,0.0,2.0,0.0,0.0,0.0,5.54544813827219e-11,2.7718281579622282e-11,1.4100943279156527e-11,7.85473903972007e-12,4.252295803428019e-12,2.4861923275807147e-12,1.4920157225867893e-12,8.958823079685434e-13,6.887985809225019e-13,4.577450368843111e-13,3.211938090365686e-13,2.1765631844752066e-13,1.6981094487968966e-13,1.0818950866260033e-13,8.477876641164913e-14,5.096218293062317e-14,2.6084892647953463e-14,4.576997353018857e-09,3.5906731232009733e-09,2.4184470786346146e-09,1.6215190123366964e-09,1.0146014199057741e-09,6.64680268116802e-10,4.1742801622263723e-10,2.719315658139978e-10,1.6157187176905224e-10,9.261952470839232e-11,5.6102212053597603e-11,3.4139672581702684e-11,1.8776851856459785e-11,9.941874238080209e-12,5.3297635158264645e-12,3.1502470421728072e-12,1.959852711278688e-12,1.2082431455979277e-12,6.409347629172853e-13,3.3764349987342366e-13,9.887024051123346e-14
0.0,41,41.0,0.0,30.0,0.0,0.0,0.0,0.0,-13.0,0.0,2.0,0.0,0.0,0.0,5.5548926748844184e-11,2.709725810633624e-11,1.4586952797876618e-11,7.936980609067808e-12,4.323838164610114e-12,2.3413345054347405e-12,1.5180391196009658e-12,9.750910495555672e-13,6.320943516798053e-13,4.2138557229030717e-13,3.2796375059617835e-13,2.3263965988232805e-13,1.6825179141013633e-13,8.942644758045495e-14,5.1346651821239e-14,5.848521707387624e-14,3.8687223874426034e-14,4.6902914210564735e-09,3.5215894655122933e-09,2.398742633990598e-09,1.6270379106077048e-09,1.0124993860081847e-09,6.586362277195925e-10,4.303904475093691e-10,2.6679478956085044e-10,1.636395658500792e-10,9.709840818409805e-11,5.60751250053054e-11,3.19740386430359e-11,1.9376574951460068e-11,1.0507369700880978e-11,5.526423473623881e-12,2.9716334435017668e-12,1.7501254037020568e-12,9.788352315217946e-13,7.567975852481126e-13,3.4456289367859984e-13,3.031631491048887e-13
0.0,42,42.0,0.0,30.0,0.0,0.0,0.0,0.0,-13.0,0.0,2.0,0.0,0.0,0.0,5.6825403388477524e-11,2.8675502424633167e-11,1.483365036699425e-11,8.479497246243711e-12,4.239215348740661e-12,2.3676166473000438e-12,1.3864496860855927e-12,9.0877409985876e-13,6.088606715199871e-13,4.2250865569724813e-13,2.943014499394295e-13,2.106025478833175e-13,1.5716855069727342e-13,9.35078063999238e-14,7.189998052822428e-14,3.554087573432699e-14,3.039328447392877e-14,4.515661413731203e-09,3.73409932099973e-09,2.6200993320430395e-09,1.7003762794388695e-09,1.05643472625798e-09,6.411660602248843e-10,4.3004678981121117e-10,2.667638827042856e-10,1.6760051873685088e-10,1.0122681525024707e-10,5.806093110088595e-11,3.083932561379666e-11,1.9230043982692284e-11,1.0953457825983655e-11,6.310498386564438e-12,3.276959521845257e-12,1.747054926695602e-12,9.57649612007246e-13,5.980406964733055e-13,3.6492080405759937e-13,1.593350985086322e-13
0.0,43,43.0,0.0,30.0,0.0,0.0,0.0,0.0,-13.0,0.0,2.0,0.0,0.0,0.0,5.5094647974121786e-11,2.836973033239473e-11,1.4632907169392088e-11,8.00924903289908e-12,4.172452043263586e-12,2.4474411122413313e-12,1.3886071326107146e-12,8.823034283056585e-13,6.149795932946236e-13,4.109660848423928e-13,2.964739724255392e-13,2.246210376056321e-13,1.408704905253687e-13,8.71344877253933e-14,6.820771343671821e-14,3.9539849614024864e-14,4.5336469941657694e-14,4.755070317256194e-09,3.3659521207640075e-09,2.5781732405254396e-09,1.7333092262886149e-09,1.1222426024997942e-09,6.770549917504078e-10,4.125118723456893e-10,2.631825414976472e-10,1.7004659477060627e-10,1.010602423593235e-10,5.857620115563493e-11,3.3791953888114217e-11,2.0270276631972866e-11,1.0182430140658151e-11,5.673245858268014e-12,3.218782565610724e-12,1.5804665616321408e-12,1.1100490480477073e-12,6.356421124121931e-13,3.4622066737883696e-13,1.715045657439835e-13
0.0,44,44.0,0.0,30.0,0.0,0.0,0.0,0.0,-13.0,0.0,2.0,0.0,0.0,0.0,5.693006954282117e-11,2.851854794278685e-11,1.5460427729119225e-11,7.93111949568824e-12,4.370890135246201e-12,2.3642124595483884e-12,1.3974135934474396e-12,8.560307138846092e-13,5.516751191597527e-13,3.7557387210318265e-13,2.9749493054427635e-13,1.9535942731972795e-13,1.399522509416828e-13,8.855647492398565e-14,6.801690354793166e-14,3.305369902277184e-14,1.6499312654885518e-14,4.40362644680948e-09,3.4924948383890784e-09,2.5615099711558747e-09,1.6521384445900074e-09,1.0743493163970058e-09,6.239587437991842e-10,4.252632943471158e-10,2.603226451800413e-10,1.5688177265532717e-10,9.870544641864449e-11,5.66060138617905e-11,3.486229962270545e-11,1.909673095528515e-11,1.0596048197931626e-11,5.33587763270643e-12,3.1191550144946493e-12,1.6019245499284066e-12,1.1035379989479258e-12,4.5362831017555467e-13,4.544877611104002e-13,1.5090079654719512e-13
0.0,45,45.0,0.0,30.0,0.0,0.0,0.0,0.0,-13.0,0.0,2.0,0.0,0.0,0.0,5.488478819123963e-11,2.7636346040972225e-11,1.5871811675168676e-11,8.38580824069006e-12,4.0758437753011805e-12,2.3440737268879164e-12,1.4013324986652563e-12,8.372181190143017e-13,5.845232166257663e-13,3.6398333799791425e-13,2.7958987780389413e-13,1.921042573299735e-13,1.3411732216637738e-13,1.0184100604505901e-13,5.955092833642699e-14,4.309767691354551e-14,2.8769025219372877e-14,4.429619223342684e-09,3.543667026590321e-09,2.5907147725830232e-09,1.6640144400698666e-09,1.0380949677052466e-09,6.430655046105513e-10,4.2203207186695363e-10,2.694012551396564e-10,1.5808657189921772e-10,9.520321546017572e-11,6.035378128487615e-11,3.5741577093911014e-11,1.98011162615799e-11,1.1383977458868584e-11,5.9643701884167e-12,3.200797548535217e-12,1.6256615103081219e-12,1.0612847426985066e-12,3.828996716419553e-13,4.936853473981741e-13,4.785336338943804e-13
0.0,46,46.0,0.0,30.0,0.0,0.0,0.0,0.0,-13.0,0.0,2.0,0.0,0.0,0.0,5.880741653941015e-11,2.967874197958431e-11,1.52220295862317e-11,8.076426761661088e-12,4.4277690691714036e-12,2.3501553825614497e-12,1.332640000089957e-12,8.453587591372294e-13,5.592014905104777e-13,3.454162682301407e-13,2.8975347052793207e-13,1.7720824118800125e-13,1.1371833261651322e-13,9.358015725216675e-14,6.294955813795187e-14,2.826267864158717e-14,2.0941832905390253e-14,4.431593726736365e-09,3.590301307657234e-09,2.6639900183115677e-09,1.6835151364984622e-09,1.0359800449966074e-09,6.609366100883686e-10,4.249481415571291e-10,2.820397948020709e-10,1.6719789411523834e-10,1.0142401160288102e-10,5.860477114480322e-11,3.574093022105345e-11,2.0147473940629013e-11,1.1246555612265139e-11,6.2861899429158825e-12,3.267133644172118e-12,1.8844589669165116e-12,1.065377435745076e-12,6.330047521243197e-13,3.427995172377168e-13,4.44428108519828e-14
0.0,47,47.0,0.0,30.0,0.0,0.0,0.0,0.0,-13.0,0.0,2.0,0.0,0.0,0.0,5.543520725066336e-11,3.076508484381859e-11,1.4912119784269715e-11,8.003674777106552e-12,4.2697300789718655e-12,2.238754480071574e-12,1.4322969160532796e-12,8.462873164170465e-13,5.387680426123534e-13,3.5872807551994045e-13,2.483219633321212e-13,1.6958552358694196e-13,1.2497880020553098e-13,8.753457947078036e-14,7.067132491159396e-14,3.5931664418406354e-14,2.226909500434389e-14,4.4600645019953885e-09,3.5282461774354825e-09,2.535968389023139e-09,1.7616528587469104e-09,1.0684596910574052e-09,6.746015318241938e-10,4.145672586285908e-10,2.5052685888196525e-10,1.6311371760920724e-10,1.0309988181282005e-10,5.660752000487749e-11,3.4118088460355016e-11,2.035117639432819e-11,1.047862377157595e-11,6.115346020006942e-12,3.110759124864707e-12,1.650839922650114e-12,1.100532431008155e-12,6.673110538601733e-13,4.3570314612583574e-13,4.063538162313304e-13
0.0,48,48.0,0.0,30.0,0.0,0.0,0.0,0.0,-13.0,0.0,2.0,0.0,0.0,0.0,5.479927672956141e-11,3.106989493406961e-11,1.5373110109777378e-11,8.137291684888338e-12,4.389700370073316e-12,2.348058660754999e-12,1.370119355990869e-12,7.894632460454685e-13,5.438648155418726e-13,2.9875157575142524e-13,2.4073756541186624e-13,1.479754795166727e-13,1.3410787170558136e-13,8.108829081611287e-14,5.803027665684366e-14,4.734426148547341e-14,2.5158739561603943e-14,4.5788198391336315e-09,3.5858204200554283e-09,2.498853232449175e-09,1.6470547129871422e-09,1.0367689360933426e-09,6.705814464041999e-10,4.0055956663946146e-10,2.7036136131844204e-10,1.6822566053346025e-10,1.0073202911569359e-10,6.108577838069713e-11,3.430873039974242e-11,2.0416882052859373e-11,1.1301020773070597e-11,6.128574119146645e-12,3.350231815535944e-12,1.952366014380772e-12,1.1037050693262615e-12,6.049932688908466e-13,2.869559478195293e-13,-3.4360968159569895e-14
0.0,49,49.0,0.0,30.0,0.0,0.0,0.0,0.0,-13.0,0.0,2.0,0.0,0.0,0.0,5.527395833077062e-11,2.943131328507603e-11,1.5298044862360433e-11,8.443348751495112e-12,4.3998751429126556e-12,2.429495571044431e-12,1.3529823786908469e-12,8.272143503635525e-13,5.340397610536169e-13,3.5079095385165096e-13,2.418618674917732e-13,1.527556772254494e-13,1.2698235838626457e-13,7.1025692637066e-14,6.298865400364745e-14,2.2963326020054796e-14,2.5037162493514323e-14,4.216156850516957e-09,3.7055295098427246e-09,2.5005767724231403e-09,1.6436550261910552e-09,1.0533502827019018e-09,6.781773410876521e-10,4.2926101544017584e-10,2.808525887623448e-10,1.6406878233857192e-10,9.241078963431666e-11,6.007203972421564e-11,3.5336146273405606e-11,2.136221651928572e-11,1.1448582165179445e-11,6.165754488352891e-12,3.4383900648638797e-12,1.8013999702172336e-12,7.404739288928562e-13,5.454975178900656e-13,4.3659230429987413e-13,2.6768987513235796e-13
0.0,50,50.0,0.0,30.0,0.0,0.0,0.0,0.0,-13.0,0.0,2.0,0.0,0.0,0.0,5.597895741911677e-11,2.948359311754199e-11,1.504644716141852e-11,8.595116005448629e-12,4.3220114009230185e-12,2.2675111115374067e-12,1.2937258007001514e-12,7.670273613286049e-13,5.060063918331384e-13,3.457021409215356e-13,2.3799805913032285e-13,1.3698404187408566e-13,1.1368559248342757e-13,6.85243689994163e-14,6.153290304974987e-14,3.7201544931041485e-14,2.2711754193434852e-14,4.536650627484451e-09,3.575250892209389e-09,2.4369499235766533e-09,1.613056248664459e-09,1.1008489267979497e-09,6.601062242227049e-10,4.252975664247957e-10,2.4546370804901127e-10,1.661059338676684e-10,1.0208990535779109e-10,5.731902080480054e-11,3.811713922241812e-11,1.9843252113128063e-11,1.1267747961009377e-11,6.568744331025463e-12,3.334863388636931e-12,1.5293858321389972e-12,1.1347793106763391e-12,5.665700472033158e-13,3.4768582619052057e-13,2.2816811669089133e-13
0.0,51,51.0,0.0,30.0,0.0,0.0,0.0,0.0,-13.0,0.0,2.0,0.0,0.0,0.0,5.544156873864257e-11,3.27581775935884e-11,1.480905530667228e-11,7.648368157810405e-12,4.3938451443535354e-12,2.543562319950266e-12,1.3510284455488014e-12,7.616557480926029e-13,5.089094187454083e-13,2.992674325829891e-13,2.212255960073966e-13,1.1418889813734187e-13,1.0816566599828772e-13,6.321026740188895e-14,5.560586817270565e-14,1.86579425501004e-14,2.8325149523395343e-14,4.61420486534526e-09,3.5670914361137617e-09,2.489991314501923e-09,1.7195021986805865e-09,1.0496043228116444e-09,6.585009372540728e-10,4.362169327188438e-10,2.750365380047422e-10,1.6551533576329654e-10,9.686208211781191e-11,6.204507330141482e-11,3.6035779986120115e-11,2.0922628990484146e-11,1.1620220457011886e-11,6.484862029143079e-12,3.1403606394681924e-12,1.831481651456326e-12,8.599296025469153e-13,5.149515312437719e-13,3.6187613481822266e-13,2.5561782139352306e-13
0.0,52,52.0,0.0,30.0,0.0,0.0,0.0,0.0,-13.0,0.0,2.0,0.0,0.0,0.0,5.5946248314529144e-11,3.0521699299561966e-11,1.5833255875551204e-11,8.074871824962297e-12,4.473081466390929e-12,2.395724557191676e-12,1.4367758868289113e-12,7.959914725689964e-13,4.755763882912886e-13,3.0560234879398054e-13,2.2473072737136085e-13,1.4274231260658907e-13,1.0133430702035583e-13,6.363910066349732e-14,2.8692398752819087e-14,2.5060193871586198e-14,2.1790568602741796e-14,4.708512824345622e-09,3.6738068772863446e-09,2.5911361421728103e-09,1.6324905647429494e-09,1.0399117683318526e-09,6.58987354339078e-10,4.2223730456376513e-10,2.677190582409259e-10,1.6250027128100524e-10,1.0450393324000948e-10,6.158844081386773e-11,3.469435877775992e-11,2.0220814109257444e-11,1.1402321861651385e-11,6.633960782968542e-12,3.4757024488030895e-12,1.7697527872005945e-12,8.872545366847772e-13,6.383911388840225e-13,3.3086907658382757e-13,1.8372916272346431e-13
0.0,53,53.0,0.0,30.0,0.0,0.0,0.0,0.0,-13.0,0.0,2.0,0.0,0.0,0.0,5.825003373446839e-11,2.893331834152732e-11,1.5524002629085718e-11,8.813764724496716e-12,4.3797602081398935e-12,2.3695799734746524e-12,1.3896424067818463e-12,7.873862777320842e-13,4.915684593036462e-13,3.1222399799267514e-13,2.2584863590976215e-13,1.2659445406432684e-13,8.515049023769245e-14,6.827224330036019e-14,4.9132587831728505e-14,2.8663363371734705e-14,2.3170021546648368e-14,4.61607102995959e-09,3.7230115440032227e-09,2.5390607483435435e-09,1.5575174120048933e-09,1.0358734679617058e-09,6.718344326420401e-10,4.2531698613164816e-10,2.587409211771452e-10,1.5967756371613659e-10,9.924663623338932e-11,6.059440117392161e-11,3.384628618005962e-11,2.1220890011324887e-11,1.2086757268235986e-11,6.507405441932237e-12,3.488857651579519e-12,2.0092898516998074e-12,1.1743465538994174e-12,4.923756051032679e-13,3.480011106695422e-13,1.957088861613921e-13
0.0,54,54.0,0.0,30.0,0.0,0.0,0.0,0.0,-13.0,0.0,2.0,0.0,0.0,0.0,5.614587830244067e-11,2.946596586860441e-11,1.4999594322115722e-11,8.86166637244822e-12,4.585798041397392e-12,2.337717225317499e-12,1.3685675092975697e-12,7.405265413001963e-13,4.705638556372113e-13,2.900108555082363e-13,1.9897721039643813e-13,1.272313958865164e-13,9.95396335718181e-14,7.968073850679647e-14,4.7782841730694864e-14,4.4856940792552427e-14,3.4098735799616476e-14,4.6813799725340255e-09,3.6044207325577702e-09,2.439224141089765e-09,1.6431381019370913e-09,1.0607951825746918e-09,6.870974092508274e-10,4.192817592080858e-10,2.713463338428117e-10,1.5818730783879852e-10,1.0316047218793871e-10,5.925324286869738e-11,3.483602341166322e-11,2.0824664641711907e-11,1.2293170673227036e-11,6.244725350405544e-12,3.5036588163848293e-12,1.8162208750679663e-12,9.04948161809476e-13,6.574244923594114e-13,1.808365997630734e-13,3.5590641779535804e-13
0.0,55,55.0,0.0,30.0,0.0,0.0,0.0,0.0,-13.0,0.0,2.0,0.0,0.0,0.0,5.7870861538524877e-11,3.0803296441752765e-11,1.525795516119711e-11,8.985099884677846e-12,4.563295471937112e-12,2.5729588934752593e-12,1.3192307355999274e-12,7.898433840342121e-13,4.897601778057188e-13,3.066675434594618e-13,2.1232514047883471e-13,1.1130203239145825e-13,9.404005042820829e-14,5.93857209018686e-14,3.480824092731425e-14,3.725925962755687e-14,5.725752493116427e-15,4.6835088179128176e-09,3.5394697720001248e-09,2.5322288923783935e-09,1.7542557164903815e-09,1.0603119966823966e-09,6.619249158723488e-10,4.2212920723394145e-10,2.515103247523263e-10,1.5950659702683443e-10,9.943919614634174e-11,5.871804535205261e-11,3.644461577229709e-11,2.0778048864988905e-11,1.1507243688136006e-11,6.682873936645563e-12,3.583957755484187e-12,2.024576329856581e-12,1.0080205562283292e-12,4.831466072711417e-13,1.6617109643698375e-13,-1.1072648456945723e-14
0.0,56,56.0,0.0,30.0,0.0,0.0,0.0,0.0,-13.0,0.0,2.0,0.0,0.0,0.0,5.7789795893431847e-11,2.987499329192302e-11,1.5897694314983422e-11,9.03947876900544e-12,4.768921504958848e-12,2.5238880058328905e-12,1.3122071720746646e-12,7.447492020900952e-13,4.885157012637381e-13,2.753907367104405e-13,2.1984905830420582e-13,1.508669696572572e-13,1.0216389352562638e-13,7.074357611668564e-14,3.798529378031937e-14,3.254510975437044e-14,2.9668059303433294e-14,4.633928836940276e-09,3.4624880098370633e-09,2.488343404493205e-09,1.7099627583392743e-09,1.1006288462547884e-09,6.639591039322311e-10,4.046941127330849e-10,2.4990106564468185e-10,1.5843586727413662e-10,1.0176338515350434e-10,5.5620481108505104e-11,3.4604315074101713e-11,2.0274311020388566e-11,1.2058443557897256e-11,6.929424052867483e-12,3.978889316059817e-12,1.8510983132735547e-12,1.0136706463400053e-12,5.402640676644672e-13,3.6920641561075067e-13,2.1561604253923698e-13
0.0,57,57.0,0.0,30.0,0.0,0.0,0.0,0.0,-13.0,0.0,2.0,0.0,0.0,0.0,5.712601771044294e-11,3.086733500996754e-11,1.6457195134126684e-11,8.901135202790244e-12,4.703850521161787e-12,2.4511452434148246e-12,1.323315449112825e-12,7.43163525539584e-13,4.4616467892600413e-13,2.5905938153885406e-13,1.9452312048923395e-13,1.2610809540897788e-13,8.398337871547204e-14,4.4902896801613687e-14,4.314901339728485e-14,1.2336714304822858e-15,1.4242721097009097e-14,4.4203480182215855e-09,3.5274940348232345e-09,2.5046266159498823e-09,1.6273791068882363e-09,1.0764256367329124e-09,6.639574028257718e-10,4.1652806012138834e-10,2.5942591681699796e-10,1.5773657160408125e-10,1.0190741286514398e-10,5.913556321079064e-11,3.731805734163983e-11,2.12085113697401e-11,1.2724365835856749e-11,6.921201435144666e-12,3.2985313961859858e-12,1.9034833432647366e-12,1.1190802769319244e-12,6.198497169133146e-13,2.930476811248527e-13,4.611760922111484e-14
0.0,58,58.0,0.0,30.0,0.0,0.0,0.0,0.0,-13.0,0.0,2.0,0.0,0.0,0.0,5.6281621659492624e-11,3.00373060198507e-11,1.6031747387773326e-11,8.937826890359617e-12,4.639853550051887e-12,2.4690918231959427e-12,1.4103087981475308e-12,7.686836747826362e-13,4.4870645197692005e-13,2.651443726486356e-13,1.9419378437410796e-13,1.223431412428989e-13,9.473484269571254e-14,4.922709827710387e-14,4.178800446658696e-14,4.614834153642997e-14,2.5422677728500864e-14,4.545515810080896e-09,3.753292759142488e-09,2.622760962206716e-09,1.7010746457985466e-09,1.0321778547466057e-09,6.3839626107387e-10,4.3808632646446553e-10,2.558048094397858e-10,1.648051301118048e-10,9.954411100250107e-11,6.094295917299664e-11,3.5994678547539194e-11,2.1867299609615842e-11,1.2039430288436952e-11,6.579434005813932e-12,3.691199539986959e-12,1.927623404149607e-12,1.1621017974382902e-12,5.514741171835148e-13,1.7412792728673222e-13,1.3767300853186373e-14
0.0,59,59.0,0.0,30.0,0.0,0.0,0.0,0.0,-13.0,0.0,2.0,0.0,0.0,0.0,5.728210784520031e-11,3.0609432024000264e-11,1.6276258168158964e-11,8.528860860494323e-12,4.707454058827044e-12,2.6232557196457377e-12,1.360802395737638e-12,7.528114721849939e-13,4.723131432441046e-13,2.610496026399055e-13,2.2359082122848553e-13,1.1660975796268133e-13,7.349747270226227e-14,6.174623776547694e-14,3.613085196640341e-14,2.7147705150855117e-14,1.677929094073774e-14,4.445513462344365e-09,3.4151077891870495e-09,2.5435952885336157e-09,1.7377434766931447e-09,1.0678698407984225e-09,6.911679950969413e-10,4.1179393250149665e-10,2.6300879665810464e-10,1.6200135480768516e-10,9.908998583699631e-11,5.7185327065782135e-11,3.572997485749538e-11,2.059260152359105e-11,1.2593864950004857e-11,6.9889281136327305e-12,3.803907138524693e-12,2.0656350821030525e-12,1.0840363755833665e-12,5.933879939140866e-13,2.1701409127391795e-13,7.851659874649576e-14
0.0,60,60.0,0.0,30.0,0.0,0.0,0.0,0.0,-13.0,0.0,2.0,0.0,0.0,0.0,5.565932078743738e-11,2.8577327127578533e-11,1.6094326846781012e-11,9.1095229723218e-12,4.626946620468806e-12,2.547520820995277e-12,1.3711855630823747e-12,7.710901922508416e-13,4.669484437865224e-13,2.6331447693373676e-13,1.7459568504585864e-13,1.2232249540676237e-13,8.647110968079294e-14,6.383329506497394e-14,1.7383419335313163e-14,7.067847548498854e-15,1.5937007444645803e-14,4.6317646996492e-09,3.5560652801726704e-09,2.575600378486497e-09,1.6889561998307267e-09,1.0799815196182179e-09,6.681440040011753e-10,4.364170980127999e-10,2.6428895146975804e-10,1.5571920129276918e-10,1.0061614080172093e-10,5.90622981151622e-11,3.7326015199897173e-11,2.139929611267109e-11,1.2122441214869658e-11,6.31031116409732e-12,3.820408599889059e-12,2.1476875848749705e-12,9.4419147624329e-13,4.935143177101229e-13,3.4126696715875955e-13,1.4987624777003643e-13
0.0,61,61.0,0.0,30.0,0.0,0.0,0.0,0.0,-13.0,0.0,2.0,0.0,0.0,0.0,5.6856018739353373e-11,3.059981762199131e-11,1.544704448086647e-11,8.742391773283404e-12,4.851705575451606e-12,2.704209875255548e-12,1.4244281226917133e-12,6.936009655403374e-13,4.5440074333925276e-13,2.6853187328478894e-13,1.9992039218276844e-13,8.8524818641597e-14,7.495358598897138e-14,5.518104290210035e-14,3.1542471197037197e-14,1.4538462037829124e-14,-2.1456277742887422e-15,4.706515976821769e-09,3.487712133870251e-09,2.5228066408954497e-09,1.7096740741640562e-09,1.0564081906064765e-09,6.736310840044777e-10,4.0376711284795487e-10,2.700054135936982e-10,1.5388163199515202e-10,1.0322913014274991e-10,6.014888723118157e-11,3.6902705819376804e-11,2.1729525074939115e-11,1.1800241201509832e-11,6.749616453614925e-12,3.766242402904289e-12,1.9259887167480333e-12,8.220518325003331e-13,5.706878325604606e-13,2.1654651966084938e-13,1.4166067883686277e-13
0.0,62,62.0,0.0,30.0,0.0,0.0,0.0,0.0,-13.0,0.0,2.0,0.0,0.0,0.0,5.93505079971246e-11,3.080867562765414e-11,1.583384145489075e-11,9.273925040763775e-12,4.73678340895312e-12,2.680465185416587e-12,1.3633640820052107e-12,7.812368815085897e-13,4.3956598914019603e-13,2.497495525243225e-13,1.5536742579049833e-13,1.0774619376682621e-13,8.721803061865612e-14,3.5753639477492634e-14,1.7579288956843674e-14,2.104212763306168e-14,3.1902569607946656e-14,4.684969629053591e-09,3.626317008702318e-09,2.603123828625617e-09,1.6238852340857634e-09,1.0756177338919876e-09,6.407629717529812e-10,4.2161195208356845e-10,2.704842051589274e-10,1.6538018654646596e-10,9.49144403044503e-11,6.134434751134438e-11,3.5579060701301076e-11,2.2521286563887805e-11,1.1481362779193031e-11,7.026624314900574e-12,3.7189645872879776e-12,1.7365962009226706e-12,9.514736967751591e-13,5.258402660406105e-13,2.325562886495814e-13,3.002791868468418e-13
0.0,63,63.0,0.0,30.0,0.0,0.0,0.0,0.0,-13.0,0.0,2.0,0.0,0.0,0.0,5.859928766425693e-11,3.022712338883932e-11,1.610591707621186e-11,8.851215380509596e-12,5.141922669121122e-12,2.644027320837656e-12,1.449263608533596e-12,6.980774177551754e-13,4.3410424494921117e-13,2.419429990320328e-13,1.8247578100402947e-13,1.014967068426978e-13,8.00813729249513e-14,5.0011094641520354e-14,3.107207242186829e-14,6.455038291961538e-15,3.2401890519131104e-15,4.256566400964468e-09,3.523533899298369e-09,2.5029774968084204e-09,1.6638869127055428e-09,1.0477358734351607e-09,6.987368079239634e-10,4.3204181383278437e-10,2.6702833197386766e-10,1.6210359729048553e-10,1.017341520179768e-10,6.118307176685402e-11,3.7028356214047796e-11,2.206896855261318e-11,1.2775921328866052e-11,7.226011659757549e-12,3.8582689872879474e-12,2.0317220630974095e-12,9.51105169574522e-13,4.0439523289180533e-13,3.344864363516539e-13,1.373009461760566e-13
