Line_number,Fiducial,Easting,Northing,Height,Elevation,tx_pitch,tx_roll,tx_yaw,txrx_dx,txrx_dy,txrx_dz,rx_pitch,rx_roll,rx_yaw,S0Z_time_1.431e-04,S0Z_time_1.801e-04,S0Z_time_2.266e-04,S0Z_time_2.846e-04,S0Z_time_3.581e-04,S0Z_time_4.506e-04,S0Z_time_5.671e-04,S0Z_time_7.136e-04,S0Z_time_8.981e-04,S0Z_time_1.131e-03,S0Z_time_1.423e-03,S0Z_time_1.791e-03,S0Z_time_2.255e-03,S0Z_time_2.838e-03,S0Z_time_3.573e-03,S0Z_time_4.498e-03,S0Z_time_5.662e-03,S1Z_time_1.409e-05,S1Z_time_1.610e-05,S1Z_time_1.909e-05,S1Z_time_2.360e-05,S1Z_time_2.960e-05,S1Z_time_3.709e-05,S1Z_time_4.609e-05,S1Z_time_5.759e-05,S1Z_time_7.209e-05,S1Z_time_9.060e-05,S1Z_time_1.141e-04,S1Z_time_1.431e-04,S1Z_time_1.801e-04,S1Z_time_2.266e-04,S1Z_time_2.846e-04,S1Z_time_3.581e-04,S1Z_time_4.506e-04,S1Z_time_5.671e-04,S1Z_time_7.136e-04,S1Z_time_8.981e-04,S1Z_time_1.131e-03
0.0,0,0.0,0.0,30.0,0.0,0.0,0.0,0.0,-13.0,0.0,2.0,0.0,0.0,0.0,1.128180982719952e-10,7.737914211757843e-11,5.0933686434322665e-11,3.216942033272938e-11,1.9382543022033354e-11,1.1191146123587569e-11,6.22123939327338e-12,3.3219659856848066e-12,1.7000883684430634e-12,8.406190809610972e-13,4.0527339005819033e-13,1.8983740122274442e-13,8.654326395531272e-14,3.871983247089553e-14,1.6363603819273583e-14,6.755628882200336e-15,2.6022696506705468e-15,4.234831017426147e-09,3.104124786403115e-09,2.088194120716241e-09,1.2693299232650575e-09,7.729452510938683e-10,4.925215057711879e-10,3.4491418016734454e-10,2.5625403881900707e-10,1.981378980701818e-10,1.5361676097367236e-10,1.165489128450042e-10,8.567375866085497e-11,6.023680764545207e-11,4.038554920917042e-11,2.598844996992008e-11,1.5861536395131582e-11,9.214401125571021e-12,5.091419176594565e-12,2.693350368884417e-12,1.3543883958004601e-12,6.415148779690731e-13
0.0,1,1.0,0.0,30.0,0.0,0.0,0.0,0.0,-13.0,0.0,2.0,0.0,0.0,0.0,1.0963057000292056e-10,7.718253011945817e-11,5.2306396189314467e-11,3.403396441583854e-11,2.1129515744338788e-11,1.2565764709385986e-11,7.187516158104747e-12,3.942326595950094e-12,2.0709638533085133e-12,1.0489309058856507e-12,5.16148277431241e-13,2.463632655350825e-13,1.1395192205696147e-13,5.16794363310155e-14,2.2222611072137315e-14,9.329035104133145e-15,3.706397371786293e-15,4.216080347028086e-09,3.087998639950081e-09,2.076473700079201e-09,1.262550327475676e-09,7.684910175061537e-10,4.869150475005041e-10,3.36496295523836e-10,2.458456261362919e-10,1.8816793710352483e-10,1.4625175680387014e-10,1.1254790161647098e-10,8.446845963146562e-11,6.083568665686647e-11,4.185109781142245e-11,2.7641711464777138e-11,1.7327340467317564e-11,1.0339438743635668e-11,5.861012740522583e-12,3.1765578997145483e-12,1.635053098239875e-12,7.928706629278438e-13
0.0,2,2.0,0.0,30.0,0.0,0.0,0.0,0.0,-13.0,0.0,2.0,0.0,0.0,0.0,1.061322583654256e-10,7.610634083901186e-11,5.281533394833532e-11,3.524221806764645e-11,2.2450816888788498e-11,1.3701247271489305e-11,8.038096676649367e-12,4.5173384642667606e-12,2.4303482088895313e-12,1.2585547839964693e-12,6.316235743337005e-13,3.069331930605083e-13,1.441125994463848e-13,6.624450887096574e-14,2.893117051484976e-14,1.2336308905207146e-14,5.0067416928058625e-15,4.19694068408084e-09,3.0716538327504592e-09,2.064706541544648e-09,1.2562278611841687e-09,7.658574620792867e-10,4.850309508146162e-10,3.329691117754871e-10,2.399971823708913e-10,1.8114834696294665e-10,1.399468987452913e-10,1.082812469673395e-10,8.242064907712525e-11,6.050837470330359e-11,4.253181391654794e-11,2.8719596956369033e-11,1.8422933290983123e-11,1.1253399339340176e-11,6.526840186412759e-12,3.615619316995288e-12,1.9008422170220004e-12,9.427596262563416e-13
0.0,3,3.0,0.0,30.0,0.0,0.0,0.0,0.0,-13.0,0.0,2.0,0.0,0.0,0.0,1.0286552943194349e-10,7.456796022103443e-11,5.2719667057959746e-11,3.593912847084139e-11,2.341276150280526e-11,1.461667840747312e-11,8.770613361725955e-12,5.038788817456441e-12,2.7706817666985627e-12,1.464475125879538e-12,7.488841980820217e-13,3.701776141780482e-13,1.7643644141897007e-13,8.218180572200104e-14,3.6413264904170526e-14,1.5752934411712083e-14,6.499603990692357e-15,4.177400847342612e-09,3.055125172398181e-09,2.052926470742538e-09,1.250039834948975e-09,7.638216673832636e-10,4.847836094866041e-10,3.3220876050650874e-10,2.3741197487942283e-10,1.7684896560192755e-10,1.351436752135947e-10,1.0434370743447019e-10,8.001449956769337e-11,5.958492271852376e-11,4.2635306017806845e-11,2.934087320538138e-11,1.9202497314661362e-11,1.1972371424076563e-11,7.087709811388416e-12,4.004479020787913e-12,2.1464754733322146e-12,1.0873749582093575e-12
0.0,4,4.0,0.0,30.0,0.0,0.0,0.0,0.0,-13.0,0.0,2.0,0.0,0.0,0.0,1.0015414551253607e-10,7.288550276801623e-11,5.2226702140287395e-11,3.624522908203221e-11,2.4077957255664792e-11,1.5336999442782575e-11,9.389730514516555e-12,5.503379972208105e-12,3.0871334093075747e-12,1.662932402390658e-12,8.655832224841649e-13,4.3485430804899795e-13,2.10343851542691e-13,9.924652368834243e-14,4.4579790787573526e-14,1.9547108527415762e-14,8.177698999153573e-15,4.157448348749143e-09,3.0384114396408194e-09,2.04116651975822e-09,1.2439788707565504e-09,7.620233799928046e-10,4.852016958672264e-10,3.328563847757223e-10,2.3690466815012843e-10,1.747073773449938e-10,1.318987965958744e-10,1.0108910994050438e-10,7.76119752241575e-11,5.832693997735748e-11,4.2329033680910926e-11,2.9606897038712564e-11,1.971941388664304e-11,1.2518617019512517e-11,7.548693349495151e-12,4.3412526479997196e-12,2.3693338840317514e-12,1.2235978020339926e-12
0.0,5,5.0,0.0,30.0,0.0,0.0,0.0,0.0,-13.0,0.0,2.0,0.0,0.0,0.0,9.814104660830522e-11,7.129114208032908e-11,5.150710685412893e-11,3.626184382462055e-11,2.4501728713196483e-11,1.5888162663676866e-11,9.903990201160058e-12,5.9111669987738926e-12,3.3769831499173605e-12,1.851259779043977e-12,9.798425056410798e-13,4.998802877915364e-13,2.4528969217989324e-13,1.1719395529379798e-13,5.333412926583325e-14,2.36819908379407e-14,1.003075980124945e-14,4.137083483888972e-09,3.021511093946349e-09,2.0294355970863756e-09,1.238073360746589e-09,7.603991470202972e-10,4.859103123331758e-10,3.3417205416320434e-10,2.3760458518757374e-10,1.7410032125879705e-10,1.3002893359362747e-10,9.866501216258054e-11,7.546351689641532e-11,5.694466872703181e-11,4.1752412104574526e-11,2.960283916609489e-11,2.0021807306006962e-11,1.2915879735249869e-11,7.918269494828725e-12,4.627023306967463e-12,2.5684401203503842e-12,1.3492385323893665e-12
0.0,6,6.0,0.0,30.0,0.0,0.0,0.0,0.0,-13.0,0.0,2.0,0.0,0.0,0.0,9.6835588599871e-11,6.993613776309564e-11,5.0700085009781386e-11,3.607640905992187e-11,2.4732427017054325e-11,1.6294755787681783e-11,1.0323642076368358e-11,6.264359684654352e-12,3.639096604157793e-12,2.027692812822248e-12,1.0902134628786868e-12,5.643426931999777e-13,2.807792362165909e-13,1.3578816054130653e-13,6.25766297505105e-14,2.811760119726111e-14,1.2046168333596053e-14,4.116313055622765e-09,3.0044307224696644e-09,2.0177376217461467e-09,1.2323381191088874e-09,7.5895739361755e-10,4.867966452656089e-10,3.3580706072631564e-10,2.38961024956029e-10,1.744970257696868e-10,1.2924731224623096e-10,9.706567192968683e-11,7.371500509319376e-11,5.560017228084352e-11,4.1023655811341875e-11,2.940170771723713e-11,2.0151840884134953e-11,1.318681665064989e-11,8.206319621418175e-12,4.864872885081723e-12,2.7436720765618694e-12,1.4631501760977496e-12
0.0,7,7.0,0.0,30.0,0.0,0.0,0.0,0.0,-13.0,0.0,2.0,0.0,0.0,0.0,9.616470751006462e-11,6.889985962656409e-11,4.991326944457069e-11,3.5765015298069255e-11,2.4813006104236964e-11,1.6579286521552153e-11,1.0659282017601996e-11,6.566422679163437e-12,3.873493968382375e-12,2.1911887342384423e-12,1.1956215677081097e-12,6.274948879445549e-13,3.1637645498463725e-13,1.5480819246077756e-13,7.220815833368139e-14,3.28123605060522e-14,1.4209577202041233e-14,4.095144718422077e-09,2.987181731229366e-09,2.006079925468643e-09,1.226779011265813e-09,7.57711340530021e-10,4.878411008996005e-10,3.376206979767676e-10,2.4066521888567223e-10,1.7551033226583171e-10,1.2926059928640872e-10,9.61929844149362e-11,7.242385619527037e-11,5.440703832671304e-11,4.0241173995806285e-11,2.9067458596973488e-11,2.014671225385789e-11,1.3352017706597258e-11,8.42284337499074e-12,5.059032404532318e-12,2.895391639718454e-12,1.5650783863238616e-12
0.0,8,8.0,0.0,30.0,0.0,0.0,0.0,0.0,-13.0,0.0,2.0,0.0,0.0,0.0,9.601720145007171e-11,6.82047667186508e-11,4.922247584436879e-11,3.5392464314269374e-11,2.4782266639884695e-11,1.6762341258878603e-11,1.0921151039928057e-11,6.821432151866094e-12,4.080995447414303e-12,2.341267536378359e-12,1.295309313771845e-12,6.887436891414493e-13,3.5170630745635266e-13,1.740522217233231e-13,8.213286254569603e-14,3.772431819563908e-14,1.650548071907749e-14,4.073585290060087e-09,2.9697768183825384e-09,1.9944734110643566e-09,1.2214006212851502e-09,7.56667778250654e-10,4.890477952883986e-10,3.395670164599406e-10,2.425623202476199e-10,1.7688784699247382e-10,1.2982034315177272e-10,9.590945517004645e-11,7.158276619907031e-11,5.3433085866193734e-11,3.948254600060837e-11,2.8656109870920257e-11,2.0039851756671828e-11,1.3430006889050216e-11,8.577294581854137e-12,5.214167868466547e-12,3.0243693890166805e-12,1.6553512540785676e-12
0.0,9,9.0,0.0,30.0,0.0,0.0,0.0,0.0,-13.0,0.0,2.0,0.0,0.0,0.0,9.627520435896296e-11,6.783412079970512e-11,4.867384756827656e-11,3.50113422321209e-11,2.467524249087108e-11,1.6862981918289564e-11,1.1118901827187177e-11,7.03366047332035e-12,4.2629334868472906e-12,2.477875184571429e-12,1.3887837763748156e-12,7.476325679690965e-13,3.864529262367763e-13,1.933398331005058e-13,9.226023414225016e-14,4.281213087078472e-14,1.8917706451283036e-14,4.051641154695301e-09,2.952228620649001e-09,1.9829307814702573e-09,1.2162091738119958e-09,7.558295472689209e-10,4.904221997394201e-10,3.416362354067704e-10,2.445833966216322e-10,1.7847964629921217e-10,1.307397294164446e-10,9.607500821671232e-11,7.114479577973168e-11,5.270737403004014e-11,3.880387999228319e-11,2.8215410947665644e-11,1.986158873339973e-11,1.3437640865253226e-11,8.678384351061083e-12,5.3348693354839834e-12,3.1317979864969378e-12,1.7345740593065496e-12
0.0,10,10.0,0.0,30.0,0.0,0.0,0.0,0.0,-13.0,0.0,2.0,0.0,0.0,0.0,9.683253488593846e-11,6.774863050404756e-11,4.8288498947737425e-11,3.466141799661267e-11,2.452290700527746e-11,1.6899009010925826e-11,1.1261620626894392e-11,7.2073503570703875e-12,4.420931368680183e-12,2.601266960631559e-12,1.4757695956379053e-12,8.038239586300737e-13,4.2035551039628616e-13,2.1251281288471967e-13,1.0250651540162071e-13,4.8035844269171426e-14,2.14298205133312e-14,4.029319110611003e-09,2.9345497434592615e-09,1.9714653346814056e-09,1.2112126109896267e-09,7.551986540928657e-10,4.919668736913339e-10,3.4382897523992107e-10,2.467020262828116e-10,1.8020400586468298e-10,1.318901951655732e-10,9.656737572288543e-11,7.104465688624973e-11,5.222987965472867e-11,3.824086293996827e-11,2.7784084005676985e-11,1.9639189601454633e-11,1.339049191626878e-11,8.734155592982624e-12,5.425374693818593e-12,3.2192605171025974e-12,1.8034264340064482e-12
0.0,11,11.0,0.0,30.0,0.0,0.0,0.0,0.0,-13.0,0.0,2.0,0.0,0.0,0.0,9.760273101702838e-11,6.789966379313817e-11,4.806857130720909e-11,3.43699905691701e-11,2.4351625257403174e-11,1.6886975455406294e-11,1.1357927314240047e-11,7.346625006995593e-12,4.556747902433036e-12,2.7119104235705367e-12,1.556166438711943e-12,8.570822041493647e-13,4.5320329663158985e-13,2.3143481050289404e-13,1.1279551103043479e-13,5.3357506302861044e-14,2.402545622409414e-14,4.006627009974717e-09,2.9167532196119656e-09,1.9600905668613747e-09,1.2064199001589918e-09,7.547776973602156e-10,4.936823243507059e-10,3.461469882079616e-10,2.4891016612958955e-10,1.82020121737915e-10,1.3318951582710877e-10,9.72899470443224e-11,7.121391648258037e-11,5.1981574783415774e-11,3.7811503557509695e-11,2.7391415367193883e-11,1.9396510588338896e-11,1.3303025192876145e-11,8.752148009504252e-12,5.4894968642527054e-12,3.2886256984514462e-12,1.862571097401389e-12
0.0,12,12.0,0.0,30.0,0.0,0.0,0.0,0.0,-13.0,0.0,2.0,0.0,0.0,0.0,9.852037553047186e-11,6.823830598976861e-11,4.800344868217992e-11,3.4153205011894516e-11,2.4182724781464088e-11,1.6842001981571572e-11,1.1416044101135107e-11,7.45547638047129e-12,4.6721818786545416e-12,2.81040856580747e-12,1.6300103458844938e-12,9.072576205520017e-13,4.848304099314071e-13,2.4999026498689294e-13,1.230589065943283e-13,5.874162167021979e-14,2.6688581403995635e-14,3.983574104336188e-09,2.8988529218614574e-09,1.9488202175733028e-09,1.2018404636694682e-09,7.545701050361569e-10,4.955683865379334e-10,3.4859089076723635e-10,2.5120632333469933e-10,1.8390953051376735e-10,1.3458844908947026e-10,9.817182151367796e-11,7.159013794915505e-11,5.193321296491026e-11,3.751991112610308e-11,2.705753188986479e-11,1.9153576753137158e-11,1.3188557551523382e-11,8.739531370302293e-12,5.530682239329341e-12,3.3419046794633656e-12,1.9126372966236417e-12
0.0,13,13.0,0.0,30.0,0.0,0.0,0.0,0.0,-13.0,0.0,2.0,0.0,0.0,0.0,9.953881753489255e-11,6.872064587277607e-11,4.807522314901538e-11,3.401802904231614e-11,2.403238752825884e-11,1.6777510026132134e-11,1.1443791030723243e-11,7.537782364028372e-12,4.769023509520092e-12,2.897443205007916e-12,1.6974392497460096e-12,9.54271724333989e-13,5.151109153239236e-13,2.6808292690763745e-13,1.3323622204686458e-13,6.415545462841649e-14,2.940371707143424e-14,3.960171192634315e-09,2.8808638096840966e-09,1.9376684417431037e-09,1.1974838970632705e-09,7.545799072100803e-10,4.976250195212705e-10,3.5116025967701397e-10,2.535905410143907e-10,1.858648037839312e-10,1.3605929988767774e-10,9.916399119252184e-11,7.212118700217219e-11,5.2052007363902464e-11,3.7360338195303904e-11,2.679433964444365e-11,1.8926316848310207e-11,1.3059078979564575e-11,8.703153505719932e-12,5.552122114785843e-12,3.3811159041048213e-12,1.954237659035641e-12
0.0,14,14.0,0.0,30.0,0.0,0.0,0.0,0.0,-13.0,0.0,2.0,0.0,0.0,0.0,1.0062646617342154e-10,6.931017365412622e-11,4.8262955764578255e-11,3.3964497164033343e-11,2.3911902849304072e-11,1.6704982188552193e-11,1.1448514128103733e-11,7.597320036783302e-12,4.8490369272412915e-12,2.973737038250158e-12,1.7586634639853531e-12,9.981036325262442e-13,5.439541071652031e-13,2.85634208765279e-13,1.4327453054199395e-13,6.956919231641593e-14,3.2156114689339644e-14,3.9364306768302505e-09,2.862802041037097e-09,1.9266499592752537e-09,1.1933598923088927e-09,7.548114524987506e-10,4.99852563809082e-10,3.5385419230852535e-10,2.5606270031978107e-10,1.8788331782455537e-10,1.3758742944366512e-10,1.0023428146577285e-10,7.27662551841038e-11,5.2306091807493976e-11,3.7320889737354055e-11,2.6606912837572137e-11,1.8726559509410127e-11,1.2925039057539733e-11,8.649502673318738e-12,5.55685749826884e-12,3.4081878325995835e-12,1.9879909474503034e-12
0.0,15,15.0,0.0,30.0,0.0,0.0,0.0,0.0,-13.0,0.0,2.0,0.0,0.0,0.0,1.0176295009334673e-10,6.997825132257209e-11,4.8545649293671405e-11,3.3987889363089347e-11,2.3828215413513705e-11,1.66338215929661e-11,1.1436975533281405e-11,7.637759413251454e-12,4.913958570149405e-12,3.040031128214278e-12,1.8139418512997698e-12,1.0387777566848826e-12,5.712999727924344e-13,3.0258149889538513e-13,1.5312805113765325e-13,7.495598964114808e-14,3.493189441587425e-14,3.912366591628173e-09,2.8446850105796492e-09,1.915780145820137e-09,1.1894782582344434e-09,7.552692125433892e-10,5.022517159475164e-10,3.5667173316303053e-10,2.5862221028005513e-10,1.8996416046849941e-10,1.3916554486243948e-10,1.0136251530115048e-10,7.349498500371692e-11,5.26670731272807e-11,3.738655885063545e-11,2.6495074316848983e-11,1.8562292706350573e-11,1.2795179848066814e-11,8.584613030225548e-12,5.547844944922251e-12,3.4249071931877906e-12,2.0145379384420178e-12
0.0,16,16.0,0.0,30.0,0.0,0.0,0.0,0.0,-13.0,0.0,2.0,0.0,0.0,0.0,1.0293577847332217e-10,7.070347098642401e-11,4.8904077139362325e-11,3.4080626061851616e-11,2.3784656341598674e-11,1.6571337900126524e-11,1.141523925472632e-11,7.662635534473815e-12,4.965499737777402e-12,3.0970736030992934e-12,1.8635638841873424e-12,1.0763529979231176e-12,5.971147867329984e-13,3.188765002925614e-13,1.627576906514005e-13,8.029192283178782e-14,3.771814473489256e-14,3.887994639735112e-09,2.8265313617261266e-09,1.9050750761847785e-09,1.1858489692431334e-09,7.559576880593741e-10,5.048234164522222e-10,3.5961208380538384e-10,2.612681526980813e-10,1.92106790179278e-10,1.4079016125895982e-10,1.025365433252934e-10,7.428572327022463e-11,5.3111149360608414e-11,3.754147557511098e-11,2.6454947010702563e-11,1.8438126433956786e-11,1.2676460587503282e-11,8.513949939147074e-12,5.5279751546720955e-12,3.432905026915192e-12,2.0345471750140964e-12
0.0,17,17.0,0.0,30.0,0.0,0.0,0.0,0.0,-13.0,0.0,2.0,0.0,0.0,0.0,1.041377213417818e-10,7.147049753404293e-11,4.932171529212858e-11,3.423377470159199e-11,2.3781743800786974e-11,1.652285373418806e-11,1.1388579370869085e-11,7.675304891016337e-12,5.0053460504630976e-12,3.1456152394970537e-12,1.9078372020839257e-12,1.1109136411341122e-12,6.213868569074379e-13,3.344836139495346e-13,1.7213057648765578e-13,8.555588007626575e-14,4.050298423746846e-14,3.8633322429245986e-09,2.808360998591941e-09,1.8945515420978823e-09,1.1824822113835702e-09,7.568813867186291e-10,5.07568748579643e-10,3.626746641653686e-10,2.63999496360135e-10,1.9431057794405287e-10,1.4245957625394463e-10,1.0374928788176829e-10,7.512356313051724e-11,5.361927162241051e-11,3.77704098117651e-11,2.6480327118758327e-11,1.835587526468738e-11,1.2574085992862257e-11,8.44230655220771e-12,5.50005178525789e-12,3.4336665212730286e-12,2.048711884853255e-12
0.0,18,18.0,0.0,30.0,0.0,0.0,0.0,0.0,-13.0,0.0,2.0,0.0,0.0,0.0,1.0536489828767608e-10,7.226878091127055e-11,4.978504030412853e-11,3.443815062819012e-11,2.3817961057021476e-11,1.6491905145831484e-11,1.136142653480809e-11,7.678895388315845e-12,5.035150673316294e-12,3.1864081984970344e-12,1.9470797725858355e-12,1.1425620512097877e-12,6.441225031187017e-13,3.493783715052404e-13,1.8121959633065912e-13,9.072941453026916e-14,4.327558814503582e-14,3.8383986083698625e-09,2.7901951075327606e-09,1.884227060956599e-09,1.1793884171018385e-09,7.580448401021049e-10,5.104888791565285e-10,3.6585910406484705e-10,2.6681525803500386e-10,1.9657473997817478e-10,1.4417280876497425e-10,1.0499670101717208e-10,7.59985404114941e-11,5.417674847820599e-11,3.805965206906502e-11,2.6563802115667535e-11,1.831518047048655e-11,1.2491626456906057e-11,8.373732141150284e-12,5.4667450851361055e-12,3.428551065386104e-12,2.0577408478345484e-12
0.0,19,19.0,0.0,30.0,0.0,0.0,0.0,0.0,-13.0,0.0,2.0,0.0,0.0,0.0,1.0661546283216256e-10,7.309135573149247e-11,5.028342474493401e-11,3.468505025702519e-11,2.3890450055742137e-11,1.6480501918718884e-11,1.1337358024737172e-11,7.676258838709174e-12,5.056521241137753e-12,3.2202051835379237e-12,1.9816154933028655e-12,1.1714131358299106e-12,6.653423756327333e-13,3.6354592385937294e-13,1.9000294497768936e-13,9.579657914857106e-14,4.602618425629871e-14,3.813214804951807e-09,2.772056188184536e-09,1.874119883871603e-09,1.1765782891423391e-09,7.594526362239634e-10,5.135850398378887e-10,3.691652166575354e-10,2.6971459562785835e-10,1.9889840969678162e-10,1.459291059476243e-10,1.0627644355987512e-10,7.690414493230852e-11,5.4772586388123756e-11,3.839742408055563e-11,2.6697593962243466e-11,1.8314108326479682e-11,1.2431205929182375e-11,8.311501242237933e-12,5.430535762894279e-12,3.4188126512105247e-12,2.0623460460209645e-12
0.0,20,20.0,0.0,30.0,0.0,0.0,0.0,0.0,-13.0,0.0,2.0,0.0,0.0,0.0,1.078887421464937e-10,7.393382874740248e-11,5.080881072496646e-11,3.4966682105137274e-11,2.399558743721826e-11,1.6489414365410564e-11,1.1319128526445545e-11,7.669932839522025e-12,5.0710022674444735e-12,3.24775737621014e-12,2.0117720313362095e-12,1.197590404450114e-12,6.850782146595335e-13,3.7697960064056086e-13,1.9846367242082252e-13,1.0074375617558696e-13,4.8746024544867884e-14,3.787803843014868e-09,2.753968089429783e-09,1.864249004793506e-09,1.1740628159978168e-09,7.611094538395035e-10,5.168585358750723e-10,3.72592978185645e-10,2.726968521659287e-10,2.0128073520854668e-10,1.4772775808157247e-10,1.0758708442066107e-10,7.783618196677875e-11,5.539875995117938e-11,3.877396542713645e-11,2.6874146037209462e-11,1.834968245166832e-11,1.2393729697363307e-11,8.258123604120277e-12,5.3936617167262164e-12,3.4056150830612808e-12,2.0632294261408056e-12
0.0,21,21.0,0.0,30.0,0.0,0.0,0.0,0.0,-13.0,0.0,2.0,0.0,0.0,0.0,1.0918470166680223e-10,7.479358139547851e-11,5.135528941343569e-11,3.5276368935891814e-11,2.4129432895089856e-11,1.6518458979327477e-11,1.1308733898465666e-11,7.662116114251459e-12,5.080055590442697e-12,3.2698104651342613e-12,2.037879835613897e-12,1.2212233533961013e-12,7.033701192973747e-13,3.896795626564263e-13,2.065892278279208e-13,1.0555948825081738e-13,5.142733926556508e-14,3.762190751848812e-09,2.7359560447910548e-09,1.8546341689680961e-09,1.1718532805626695e-09,7.630200916074751e-10,5.203107688120245e-10,3.7614252075419347e-10,2.7576157214367035e-10,2.037209599765629e-10,1.4956806357302772e-10,1.0892764926149569e-10,7.879195262774205e-11,5.6049525234520354e-11,3.9181418933142305e-11,2.708649303835402e-11,1.8418327869376837e-11,1.2379126494141246e-11,8.215389028869359e-12,5.3580760790083305e-12,3.3900400544021765e-12,2.0610704485981313e-12
0.0,22,22.0,0.0,30.0,0.0,0.0,0.0,0.0,-13.0,0.0,2.0,0.0,0.0,0.0,1.105036288013246e-10,7.566917418632778e-11,5.1918668961090704e-11,3.560858960622253e-11,2.4288055689231265e-11,1.6566762946651846e-11,1.13074980066855e-11,7.654658758363993e-12,5.0850414010941684e-12,3.2870988007773883e-12,2.060271498284126e-12,1.2424458560662333e-12,7.202643503602108e-13,4.0165157199762267e-13,2.1437099816151624e-13,1.1023431375682298e-13,5.406328015106972e-14,3.736402650844998e-09,2.718046702711957e-09,1.8452958779007315e-09,1.169961262587797e-09,7.651894892731115e-10,5.239432627928952e-10,3.798141360931195e-10,2.789085053538891e-10,2.062184771472476e-10,1.5144935551691455e-10,1.1029738880345194e-10,7.976969437884005e-11,5.67208315797269e-11,3.961360842271907e-11,2.732846070278081e-11,1.851622016858369e-11,1.2386584553326696e-11,8.184438247148848e-12,5.325420921036016e-12,3.3730885566230987e-12,2.0565154565717654e-12
0.0,23,23.0,0.0,30.0,0.0,0.0,0.0,0.0,-13.0,0.0,2.0,0.0,0.0,0.0,1.1184595700686798e-10,7.65599213714757e-11,5.2496078087410654e-11,3.595891831504374e-11,2.446775450829041e-11,1.6632995123644608e-11,1.131617260339866e-11,7.649066754724833e-12,5.087201928211224e-12,3.300338159747915e-12,2.079280915537505e-12,1.2613952337080715e-12,7.358116475057016e-13,4.1290590161401806e-13,2.2180384514638089e-13,1.1476060646227422e-13,5.664785832376802e-14,3.710468811961731e-09,2.7002681487505466e-09,1.8362553883640013e-09,1.1683986349586578e-09,7.676227402615253e-10,5.277576880545667e-10,3.836082854139476e-10,2.821376063701524e-10,2.087728606854987e-10,1.5337104442421667e-10,1.1169567589093647e-10,8.076821804472793e-11,5.740984957336039e-11,4.006577434101244e-11,2.759474119624876e-11,1.8639544022900794e-11,1.2414767365634292e-11,8.16585026367563e-12,5.29701763410674e-12,3.355677371878856e-12,2.050169351863236e-12
0.0,24,24.0,0.0,30.0,0.0,0.0,0.0,0.0,-13.0,0.0,2.0,0.0,0.0,0.0,1.1321217531919245e-10,7.746559938375442e-11,5.3085627762724286e-11,3.6323906016141024e-11,2.466519012414455e-11,1.6715557579412188e-11,1.1335041403206241e-11,7.646518735162633e-12,5.087649183839076e-12,3.3102178153379205e-12,2.095241954529569e-12,1.2782117155234694e-12,7.500660054253631e-13,4.234563991077541e-13,2.2888564838032887e-13,1.1913241846688274e-13,5.917588122154703e-14,3.6844207124167397e-09,2.68264991814527e-09,1.8275347038689587e-09,1.167177553732704e-09,7.703250961964844e-10,5.317558783908372e-10,3.875256106532171e-10,2.8544903296770075e-10,2.113838796381453e-10,1.5533265667191501e-10,1.1312197178203896e-10,8.178668434884812e-11,5.81146108903128e-11,4.0534309144979714e-11,2.7880884236734653e-11,1.8784671809979415e-11,1.2462000661293726e-11,8.15973736233842e-12,5.2738726823103916e-12,3.3386328465391005e-12,2.0425896497119787e-12
0.0,25,25.0,0.0,30.0,0.0,0.0,0.0,0.0,-13.0,0.0,2.0,0.0,0.0,0.0,1.1460278706039472e-10,7.838625482195699e-11,5.368613731860176e-11,3.6700936316694845e-11,2.4877450930331854e-11,1.681273676206538e-11,1.1364021331878983e-11,7.647892221474032e-12,5.0873574826609656e-12,3.317392643050227e-12,2.1084865416192424e-12,1.2930380529953846e-12,7.63083830531398e-13,4.3331971016249437e-13,2.3561686470616296e-13,1.2334532550275747e-13,6.164289143093685e-14,3.658292077354666e-09,2.6652229982652196e-09,1.8191565579236951e-09,1.1663104420653999e-09,7.733019643836214e-10,5.359398416028565e-10,3.91566943759365e-10,2.8884314411547246e-10,2.1405150130077777e-10,1.5733386155065125e-10,1.1457582511667682e-10,8.282447411145527e-11,5.883374481511556e-11,4.10165163230049e-11,2.8183236231935198e-11,1.8948276091808398e-11,1.2526426923729858e-11,8.165840496889068e-12,5.256696052652178e-12,3.322684042010148e-12,2.0342827137651954e-12
0.0,26,26.0,0.0,30.0,0.0,0.0,0.0,0.0,-13.0,0.0,2.0,0.0,0.0,0.0,1.1601829495300966e-10,7.932208320720576e-11,5.4296921883334385e-11,3.7088077526444405e-11,2.510206987866577e-11,1.692281674427997e-11,1.1402755924909943e-11,7.65379635509656e-12,5.087160851277591e-12,3.322475902333755e-12,2.1193422362054803e-12,1.3060191189278695e-12,7.749233890948607e-13,4.425146574166712e-13,2.420001143584262e-13,1.273962743094821e-13,6.404510905208222e-14,3.6321189127296186e-09,2.6480198211393045e-09,1.8111443891257767e-09,1.1658099684434279e-09,7.76558899507515e-10,5.403117633008033e-10,3.9573331220551166e-10,2.923204971059758e-10,2.1677588750481624e-10,1.593744862033765e-10,1.1605688269028386e-10,8.388111783453273e-11,5.956629245995497e-11,4.151040416653191e-11,2.849885172585017e-11,1.9127390282601204e-11,1.260612730100101e-11,8.183619615519164e-12,5.24592912478643e-12,3.30845696179199e-12,2.0257018321818406e-12
0.0,27,27.0,0.0,30.0,0.0,0.0,0.0,0.0,-13.0,0.0,2.0,0.0,0.0,0.0,1.174591990885646e-10,8.027335600569148e-11,5.491763328247125e-11,3.7483944112740315e-11,2.533700859207534e-11,1.704415903954429e-11,1.1450697729187687e-11,7.664608269120272e-12,5.087754987699409e-12,3.326033183685704e-12,2.1281294451855627e-12,1.317301386157028e-12,7.856444583995666e-13,4.5106176221714155e-13,2.4803980316141706e-13,1.3128343266938885e-13,6.637937821549697e-14,3.605939528923045e-09,2.6310742466694646e-09,1.8035223086432759e-09,1.1656890199221496e-09,7.801015908474503e-10,5.448740051274996e-10,4.000259401564866e-10,2.9588184322867033e-10,2.1955738677376622e-10,1.6145452036674843e-10,1.1756490120490676e-10,8.495626057801314e-11,6.031158003695129e-11,4.201451712700233e-11,2.882539428005041e-11,1.931943085254465e-11,1.269921317537982e-11,8.21233525208657e-12,5.241778629678571e-12,3.296471034406328e-12,2.0172467577110567e-12
0.0,28,28.0,0.0,30.0,0.0,0.0,0.0,0.0,-13.0,0.0,2.0,0.0,0.0,0.0,1.18926000167675e-10,8.124037924843902e-11,5.5548144827829354e-11,3.788757461717716e-11,2.5580621291802663e-11,1.7175254440780505e-11,1.1507178150510662e-11,7.6805106284127e-12,5.089703128445005e-12,3.328577836164349e-12,2.135158474178271e-12,1.3270322371751112e-12,7.953081012875723e-13,4.589828904807254e-13,2.5374178769572193e-13,1.3500604346930603e-13,6.864311767590395e-14,3.5797945557572584e-09,2.61442153735412e-09,1.7963150609594064e-09,1.1659606712818519e-09,7.839358462963649e-10,5.496290987590191e-10,4.0444624556720065e-10,2.99528121633222e-10,2.223965240389419e-10,1.6357411352729367e-10,1.1909975521475284e-10,8.604964611882899e-11,6.106913494069137e-11,4.252780270107892e-11,2.91610380147816e-11,1.9522192606786115e-11,1.2803891054149657e-11,8.251119280250487e-12,5.2442536662701516e-12,3.287138506576749e-12,2.009264363340844e-12
0.0,29,29.0,0.0,30.0,0.0,0.0,0.0,0.0,-13.0,0.0,2.0,0.0,0.0,0.0,1.2041920410133608e-10,8.2223471953224e-11,5.618847050759257e-11,3.829832881014714e-11,2.5831608114714264e-11,1.7314752517279334e-11,1.157146442753876e-11,7.701528348259058e-12,5.093445016133149e-12,3.330568023293368e-12,2.140726615113183e-12,1.335359100296924e-12,8.0397649834388e-13,4.663010001988863e-13,2.591130874285043e-13,1.3856428467708401e-13,7.083427500927167e-14,3.5537269495903336e-09,2.5980983254243646e-09,1.7895479789160793e-09,1.1666381511500117e-09,7.880675744058325e-10,5.545797370712894e-10,4.0899583397576335e-10,3.032604513693269e-10,2.252939889475277e-10,1.6573356694938027e-10,1.20661439866644e-10,8.716111037085024e-11,6.183863154461607e-11,4.304950930692636e-11,2.950437649875639e-11,1.9733826450539086e-11,1.2918505080355345e-11,8.299033987880907e-12,5.253203238493829e-12,3.280766938092765e-12,2.002050127703529e-12
0.0,30,30.0,0.0,30.0,0.0,0.0,0.0,0.0,-13.0,0.0,2.0,0.0,0.0,0.0,1.2193932619988947e-10,8.322295634473169e-11,5.683871012327219e-11,3.871580411549239e-11,2.608896468084794e-11,1.7461474080189204e-11,1.1642804300197185e-11,7.727563014188964e-12,5.099308108314168e-12,3.332405412553034e-12,2.1451154478349366e-12,1.3424284394281967e-12,8.117127880772252e-13,4.730399668547656e-13,2.64161644809264e-13,1.419591373217903e-13,7.29512837842946e-14,3.527781993102508e-09,2.5821425732589783e-09,1.7832469341236364e-09,1.1677348061801066e-09,7.925027655859937e-10,5.597287637569708e-10,4.136764899638525e-10,3.0708012187995127e-10,2.282506234302875e-10,1.67933322577142e-10,1.2225006874777373e-10,8.829057822380122e-11,6.261985675718439e-11,4.357910972060822e-11,2.9854342395829005e-11,1.995280693549627e-11,1.3041561550874712e-11,8.355119572899107e-12,5.268352344379583e-12,3.27756462378049e-12,1.9958502352963577e-12
0.0,31,31.0,0.0,30.0,0.0,0.0,0.0,0.0,-13.0,0.0,2.0,0.0,0.0,0.0,1.2348689433714376e-10,8.423915466250165e-11,5.7499013336700354e-11,3.913976974223678e-11,2.6351932521174356e-11,1.7614411306271194e-11,1.1720459515769836e-11,7.758424009019266e-12,5.107520198923705e-12,3.3344353931113173e-12,2.1485884968237333e-12,1.3483846437368615e-12,8.18580881576451e-13,4.792244638046785e-13,2.688961316353926e-13,1.4519226346011484e-13,7.499302310058104e-14,3.5020072882230855e-09,2.566593527818828e-09,1.777438283735016e-09,1.169264064338937e-09,7.972474734675252e-10,5.650791625029495e-10,4.1849016727732814e-10,3.109885824101558e-10,2.3126740900800557e-10,1.7017395031915886e-10,1.2386586787678917e-10,8.94380607223112e-11,6.341268814303785e-11,4.41162447058154e-11,3.0210139048202517e-11,2.0177894972236715e-11,1.317173956119095e-11,8.418430812375304e-12,5.289335214604767e-12,3.277648510358149e-12,1.990864139463053e-12
0.0,32,32.0,0.0,30.0,0.0,0.0,0.0,0.0,-13.0,0.0,2.0,0.0,0.0,0.0,1.2506245104925246e-10,8.527238931338611e-11,5.816955705681103e-11,3.957011617467947e-11,2.6619953211703016e-11,1.7772719455047018e-11,1.180372963461188e-11,7.793855774521798e-12,5.118222709157862e-12,3.3369486395983943e-12,2.1513893415767897e-12,1.3533688724225323e-12,8.246452327194888e-13,4.848798769871369e-13,2.7332579782352535e-13,1.4826589576092902e-13,7.695877901395772e-14,3.4764527424324277e-09,2.551491669662857e-09,1.7721488144493993e-09,1.1712393982534392e-09,8.023077972870244e-10,5.706340466356182e-10,4.2343897850579887e-10,3.1498743087233836e-10,2.343454542185617e-10,1.7245613479647574e-10,1.2550916705368162e-10,9.060365122901579e-11,6.421707964936858e-11,4.466068204547121e-11,3.057118376981611e-11,2.0408099479307772e-11,1.330789142307033e-11,8.488064058248364e-12,5.315724810213278e-12,3.281054022634922e-12,1.9872474832311242e-12
0.0,33,33.0,0.0,30.0,0.0,0.0,0.0,0.0,-13.0,0.0,2.0,0.0,0.0,0.0,1.2666655476529872e-10,8.632298445415865e-11,5.885053193235677e-11,4.000681742171078e-11,2.6892627745929658e-11,1.793570333717974e-11,1.1891967719373498e-11,7.833560979253597e-12,5.1314840209842374e-12,3.3401837939181252e-12,2.153740236831745e-12,1.3575179106306187e-12,8.299705571820627e-13,4.900322366135068e-13,2.774603571905446e-13,1.5118273982830868e-13,7.884820754565376e-14,3.45117054843451e-09,2.5368786569072807e-09,1.7674056844467652e-09,1.1736742894305435e-09,8.076898659984712e-10,5.763966499337427e-10,4.2852518506542024e-10,3.1907840270136297e-10,2.374859824863852e-10,1.747806622979618e-10,1.271803896929748e-10,9.178752021558698e-11,6.503305168188804e-11,4.5212286973882793e-11,3.0937061823760197e-11,2.0642640446340175e-11,1.3449035935234109e-11,8.563175916315983e-12,5.3470581219587366e-12,3.287746150904557e-12,1.985115303125009e-12
0.0,34,34.0,0.0,30.0,0.0,0.0,0.0,0.0,-13.0,0.0,2.0,0.0,0.0,0.0,1.2829978042749223e-10,8.739126795100113e-11,5.954213484455112e-11,4.044990350354483e-11,2.7169681748221594e-11,1.8102800962513382e-11,1.1984589472853196e-11,7.877219628144806e-12,5.147312355331269e-12,3.3443310174672914e-12,2.155841260672221e-12,1.3609630877082375e-12,8.346215028515922e-13,4.947081522599526e-13,2.813099039609366e-13,1.5394588979721106e-13,8.066129915075997e-14,3.4262151569638577e-09,2.5227972642969806e-09,1.7632363637899306e-09,1.1765821940135408e-09,8.133998246532761e-10,5.823703191128655e-10,4.3375118805327577e-10,3.23263360168059e-10,2.406903207046597e-10,1.7714840843555057e-10,1.2888004206228604e-10,9.298990884842021e-11,6.586068350956869e-11,4.5771000831047555e-11,3.1307489679874096e-11,2.0880914899367722e-11,1.3594347005648694e-11,8.642995020087305e-12,5.382857156957051e-12,3.297631160850853e-12,1.984545456461973e-12
0.0,35,35.0,0.0,30.0,0.0,0.0,0.0,0.0,-13.0,0.0,2.0,0.0,0.0,0.0,1.2996271973736015e-10,8.847757319584237e-11,6.024456519520248e-11,4.089944091062384e-11,2.7450936511728552e-11,1.8273566153986e-11,1.2081077278185052e-11,7.924504338562379e-12,5.165667824776663e-12,3.3495361669817357e-12,2.1578699768791374e-12,1.3638293005722305e-12,8.386622808029749e-13,4.989347416087024e-13,2.8488485341415987e-13,1.5655875714871187e-13,8.239834467231782e-14,3.4016432422845387e-09,2.5092913173935826e-09,1.7596685736873317e-09,1.1799765105966095e-09,8.194438234413667e-10,5.885585083105188e-10,4.3911952036910325e-10,3.275442825230953e-10,2.439598887469882e-10,1.795603268088074e-10,1.3060870262083913e-10,9.421112176079386e-11,6.670010682980094e-11,4.633682551589325e-11,3.1682286047008986e-11,2.1122466533499027e-11,1.3743139576688073e-11,8.726828262291479e-12,5.422645753367824e-12,3.31056834858314e-12,1.9855822176099217e-12
0.0,36,36.0,0.0,30.0,0.0,0.0,0.0,0.0,-13.0,0.0,2.0,0.0,0.0,0.0,1.3165598121233345e-10,8.958224057213308e-11,6.095802347656868e-11,4.135551910492082e-11,2.773628546369583e-11,1.8447651375464407e-11,1.2180980429627188e-11,7.97509213134625e-12,5.186473408371103e-12,3.35590536289325e-12,2.1599815735766297e-12,1.366234174711801e-12,8.421562699922925e-13,5.027395466689175e-13,2.8819590026573337e-13,1.590250121627196e-13,8.405990291552613e-14,3.37751365976914e-09,2.4964056217581827e-09,1.7567302248987821e-09,1.1838705504980528e-09,8.258280096542269e-10,5.949647757535763e-10,4.446328403459219e-10,3.3192325723639627e-10,2.4729619006791716e-10,1.8201743885635593e-10,1.3236701194223194e-10,9.545151945447483e-11,6.755149988506041e-11,4.690981195634763e-11,3.206134923960575e-11,2.1366959274787333e-11,1.3894854319062937e-11,8.814062731572986e-12,5.465962538890253e-12,3.3263813572338017e-12,1.988239987692256e-12
0.0,37,37.0,0.0,30.0,0.0,0.0,0.0,0.0,-13.0,0.0,2.0,0.0,0.0,0.0,1.3338019018130248e-10,9.070561853280795e-11,6.168271111934369e-11,4.1818241484636536e-11,2.802567545495091e-11,1.8624791589289232e-11,1.2283912652032768e-11,8.028673155296035e-12,5.20962469886649e-12,3.36350974445395e-12,2.1623094232101116e-12,1.3682873846385716e-12,8.45165610669554e-13,5.061504344411507e-13,2.912539889179456e-13,1.6134853699134393e-13,8.564677003566508e-14,3.353887394816302e-09,2.4841858869225357e-09,1.7544493554924924e-09,1.18827751079784e-09,8.325585227217509e-10,6.015927826696708e-10,4.5029392700251525e-10,3.364024724945669e-10,2.507008034936492e-10,1.845208249769656e-10,1.3415566352988587e-10,9.671151073302978e-11,6.841508186810852e-11,4.7490051328704404e-11,3.244463959268159e-11,2.1614154702799994e-11,1.4049042149501434e-11,8.904164449623602e-12,5.512370455872939e-12,3.344868681101117e-12,1.9925070590362715e-12
0.0,38,38.0,0.0,30.0,0.0,0.0,0.0,0.0,-13.0,0.0,2.0,0.0,0.0,0.0,1.35135988799669e-10,9.184806433547255e-11,6.24188309797042e-11,4.22877195623473e-11,2.8319092186011095e-11,1.880478962556316e-11,1.2389547813008006e-11,8.084956791534998e-12,5.234998357687696e-12,3.372390236699579e-12,2.164965998544371e-12,1.3700901453958115e-12,8.477508016617431e-13,5.091954815626588e-13,2.9407029050142787e-13,1.6353338901682197e-13,8.71599509477732e-14,3.3308275022737824e-09,2.4726786448981698e-09,1.7528540681233947e-09,1.1932104503774522e-09,8.396414923888829e-10,6.084462944123072e-10,4.5610567692981506e-10,3.409842110291309e-10,2.541753762495213e-10,1.8707161693527175e-10,1.3597539569582486e-10,9.799154548773986e-11,6.929110755028533e-11,4.807766815350271e-11,3.283216583104655e-11,2.186389306544119e-11,1.4205349292674517e-11,8.996674836805743e-12,5.561463328161071e-12,3.365813095237809e-12,1.9983493729698846e-12
0.0,39,39.0,0.0,30.0,0.0,0.0,0.0,0.0,-13.0,0.0,2.0,0.0,0.0,0.0,1.3692403612789565e-10,9.30099445107996e-11,6.316658807836896e-11,4.276406939531724e-11,2.8616549078187563e-11,1.898750329768683e-11,1.2497614547639302e-11,8.14367558103555e-12,5.262459280149383e-12,3.382562187203966e-12,2.168044074688789e-12,1.3717348776691047e-12,8.499703155837864e-13,5.11902844447271e-13,2.966561825479314e-13,1.6558377295820606e-13,8.860063294352476e-14,3.3083990354783604e-09,2.4619311629656156e-09,1.7519724669964813e-09,1.198682269156322e-09,8.470830400333589e-10,6.155291837016525e-10,4.6207110274887004e-10,3.456708452759053e-10,2.577216182226275e-10,1.8967099151900715e-10,1.3782698457092618e-10,9.929210806531885e-11,7.017986216678864e-11,4.867281468609797e-11,3.322397449485738e-11,2.2116077511866495e-11,1.4363503345188898e-11,9.091205667752576e-12,5.6128699555548366e-12,3.3889898529492596e-12,2.005714209034976e-12
0.0,40,40.0,0.0,30.0,0.0,0.0,0.0,0.0,-13.0,0.0,2.0,0.0,0.0,0.0,1.387450082921855e-10,9.419163514334697e-11,6.392619037299293e-11,4.3247409548085515e-11,2.8918078942906234e-11,1.9172834323083846e-11,1.2607890349810976e-11,8.204587393896082e-12,5.291866523678002e-12,3.3940197630205482e-12,2.1716181470412474e-12,1.3733050414639518e-12,8.51880244114951e-13,5.143006178290639e-13,2.990232280949202e-13,1.6750402010320159e-13,8.997016165111777e-14,3.286668963999967e-09,2.451991350510956e-09,1.75183259469944e-09,1.2047056906958402e-09,8.548892830790944e-10,6.228454358356394e-10,4.681933330267493e-10,3.504648338113704e-10,2.6134129741857305e-10,1.923201653812893e-10,1.3971123824218657e-10,1.0061371136096362e-10,7.10816566308115e-11,4.927566622659e-11,3.362014170566508e-11,2.2370661128608678e-11,1.452330060040531e-11,9.187433122727567e-12,5.666256202918163e-12,3.4141735846522387e-12,2.014533745949037e-12
0.0,41,41.0,0.0,30.0,0.0,0.0,0.0,0.0,-13.0,0.0,2.0,0.0,0.0,0.0,1.405995987298812e-10,9.53935220339795e-11,6.469784945337423e-11,4.373786006194102e-11,2.922372787368918e-11,1.9360718990228835e-11,1.2720195540683952e-11,8.26747622060128e-12,5.323078086990749e-12,3.4067400284830456e-12,2.1757459983679092e-12,1.3748751273564703e-12,8.535339830821282e-13,5.16416685490395e-13,3.0118315195549974e-13,1.6929857305242686e-13,9.127001940893969e-14,3.2657060791834265e-09,2.442907659730892e-09,1.752462369131242e-09,1.2112932483335564e-09,8.630663424274147e-10,6.303991556955677e-10,4.744756135049105e-10,3.5536871897432067e-10,2.650362365414411e-10,1.9502039097949157e-10,1.4162899196377755e-10,1.0195689170808972e-10,7.199682315086893e-11,4.98864171147497e-11,3.4020766715638724e-11,2.262763636567493e-11,1.468459474757949e-11,9.285091401620338e-12,5.721325512762062e-12,3.441143905668465e-12,2.0247284397637945e-12
0.0,42,42.0,0.0,30.0,0.0,0.0,0.0,0.0,-13.0,0.0,2.0,0.0,0.0,0.0,1.424885185130693e-10,9.66160007982986e-11,6.54817811151994e-11,4.42355420578142e-11,2.953355086730841e-11,1.955112043988287e-11,1.2834387405061152e-11,8.332151919716697e-12,5.3559546505343375e-12,3.420686651554322e-12,2.180470353984677e-12,1.3765107899763142e-12,8.549819645047382e-13,5.182785673745135e-13,3.03147812739383e-13,1.7097197445260415e-13,9.250180605234977e-14,3.245580886615642e-09,2.43472898010774e-09,1.7538895208138956e-09,1.2184572750133237e-09,8.716203528065295e-10,6.381945763526261e-10,4.809213094779793e-10,3.6038512555808814e-10,2.6880831060535734e-10,1.9777295350893647e-10,1.435811043583108e-10,1.0332220457988289e-10,7.292571130987485e-11,5.050527726775201e-11,3.442596681454975e-11,2.2887026466559415e-11,1.4847286957363185e-11,9.383966248150385e-12,5.777818220832533e-12,3.4696897968978306e-12,2.036210172155989e-12
0.0,43,43.0,0.0,30.0,0.0,0.0,0.0,0.0,-13.0,0.0,2.0,0.0,0.0,0.0,1.44412496739671e-10,9.785947694049273e-11,6.627820580604053e-11,4.4740577714514344e-11,2.984760876343932e-11,1.9744022388481565e-11,1.2950354689360884e-11,8.398449207970914e-12,5.3903624003519e-12,3.4358132095954917e-12,2.18582057128126e-12,1.3782691055198431e-12,8.562714401946849e-13,5.199132673390286e-13,3.049291699512803e-13,1.7252885834322325e-13,9.366722204316735e-14,3.2263654847083274e-09,2.427504526659675e-09,1.7561415309485231e-09,1.2262098969872209e-09,8.805574759259344e-10,6.46236069074049e-10,4.875339091560063e-10,3.655167604474839e-10,2.726594454738394e-10,2.0057916872322268e-10,1.4556845450793914e-10,1.0471022107679422e-10,7.38686846415423e-11,5.113246917586024e-11,3.483587327497576e-11,2.3148878556817703e-11,1.501131729868545e-11,9.48388863266687e-12,5.835510000215941e-12,3.4996128617163093e-12,2.0488851309966654e-12
0.0,44,44.0,0.0,30.0,0.0,0.0,0.0,0.0,-13.0,0.0,2.0,0.0,0.0,0.0,1.4637228098016982e-10,9.912436592899364e-11,6.708734895700415e-11,4.525309044967043e-11,3.01659661696184e-11,1.993942410545451e-11,1.3068012578781768e-11,8.466226130836411e-12,5.426175061196612e-12,3.4520660845920074e-12,2.191814317893254e-12,1.380198933536464e-12,8.57446319119357e-13,5.213471255820854e-13,3.065392461055377e-13,1.7397394292845387e-13,9.476805381015519e-14,3.2081334286773017e-09,2.421283722097945e-09,1.7592455706618936e-09,1.2345630315791484e-09,8.898839163136191e-10,6.54528154527101e-10,4.943170278471894e-10,3.7076641307274854e-10,2.7659161721783855e-10,2.0344038153178809e-10,1.4759193982801135e-10,1.0612152514654087e-10,7.48261177159918e-11,5.176822530453713e-11,3.525062809865902e-11,2.341325809186499e-11,1.517665739118161e-11,9.5847287618948e-12,5.894209705355378e-12,3.53072958676795e-12,2.062656395511577e-12
0.0,45,45.0,0.0,30.0,0.0,0.0,0.0,0.0,-13.0,0.0,2.0,0.0,0.0,0.0,1.4836863776885438e-10,1.0041109329000665e-10,6.790944122173218e-11,4.577320519235074e-11,3.048869010720038e-11,2.0137336456334604e-11,1.3187298213373646e-11,8.535362206802742e-12,5.4632752622060276e-12,3.4693869531080256e-12,2.1984592010988196e-12,1.382341362772095e-12,8.585470586290103e-13,5.226056793505127e-13,3.0799008427429756e-13,1.7531202379334684e-13,9.580616111818651e-14,3.1909595793190133e-09,2.4161160731695855e-09,1.7632284419815976e-09,1.2435283892149386e-09,8.996059397084434e-10,6.630755149839133e-10,5.012744128080374e-10,3.761369565576587e-10,2.806068521838344e-10,2.0635796526814606e-10,1.4965247461589918e-10,1.0755671146643016e-10,7.579839372556488e-11,5.2412785869090696e-11,3.567038138952458e-11,2.36802444107053e-11,1.5343304175695563e-11,9.686390521244525e-12,5.953756836265283e-12,3.562872746062816e-12,2.0774262087650124e-12
0.0,46,46.0,0.0,30.0,0.0,0.0,0.0,0.0,-13.0,0.0,2.0,0.0,0.0,0.0,1.504023531300992e-10,1.0172009472741988e-10,6.874471864612666e-11,4.6301048679608737e-11,3.081584917300829e-11,2.0337778833997777e-11,1.3308166760298703e-11,8.605756397921532e-12,5.501555351591834e-12,3.4877148878281216e-12,2.205754319057721e-12,1.3847302212696744e-12,8.596106078734118e-13,5.237135349862427e-13,3.0929370183731143e-13,1.765479667976394e-13,9.678346624798581e-14,3.1749199361358193e-09,2.412051041631052e-09,1.768116521175096e-09,1.2531174799371118e-09,9.097298938756789e-10,6.718830073385636e-10,5.084099486221906e-10,3.816313494485954e-10,2.847072276679534e-10,2.093333215278858e-10,1.5175098917212687e-10,1.0901638390954677e-10,7.678590254533923e-11,5.306639695582667e-11,3.609528922524874e-11,2.3949927185211147e-11,1.551127467726296e-11,9.788806407534405e-12,6.0140187970414265e-12,3.595892089622745e-12,2.0930979302386795e-12
0.0,47,47.0,0.0,30.0,0.0,0.0,0.0,0.0,-13.0,0.0,2.0,0.0,0.0,0.0,1.5247423313217346e-10,1.0305181627237394e-10,6.959342279029942e-11,4.683674973870384e-11,3.11475130603906e-11,2.054077681689587e-11,1.3430588029788662e-11,8.677325023607582e-12,5.540917767087395e-12,3.5069880958763628e-12,2.2136917120110876e-12,1.387392632009475e-12,8.606704003102461e-13,5.246942537468011e-13,3.1046204143400787e-13,1.776867000874016e-13,9.770194474552895e-14,3.1600914545437304e-09,2.4091379104824992e-09,1.7739357051859357e-09,1.26334162463155e-09,9.202622317097186e-10,6.809556767589482e-10,5.157276629859702e-10,3.8725263792393864e-10,2.8889487309970637e-10,2.1236788048328767e-10,1.5388842939835391e-10,1.105011545142442e-10,7.77890392310368e-11,5.372930896598332e-11,3.6525511932864997e-11,2.422240359269136e-11,1.5680601635964775e-11,9.891932974767347e-12,6.074888082446235e-12,3.6296544524327395e-12,2.109577670480244e-12
0.0,48,48.0,0.0,30.0,0.0,0.0,0.0,0.0,-13.0,0.0,2.0,0.0,0.0,0.0,1.5458510446302352e-10,1.0440671446247679e-10,7.045580082077328e-11,4.738043953614831e-11,3.148375232312525e-11,2.0746360412586337e-11,1.3554543602598481e-11,8.74999970430658e-12,5.581275057540541e-12,3.527145324628559e-12,2.222257698320745e-12,1.3903495969285219e-12,8.617563911334327e-13,5.255702531932846e-13,3.1150692024893684e-13,1.7873320485743063e-13,9.85636174916282e-14,3.1465518471135216e-09,2.4074256462941768e-09,1.7807113619975473e-09,1.274211971196596e-09,9.31209536482709e-10,6.902987708083915e-10,5.23231732796989e-10,3.930039583974343e-10,2.931719716483612e-10,2.1546310159031447e-10,1.5606575678585494e-10,1.1201164287864998e-10,7.880820290961312e-11,5.44017753582065e-11,3.696121269781457e-11,2.4497776072229157e-11,1.5851329887728524e-11,9.995746790573325e-12,6.136279492200601e-12,3.66404340900335e-12,2.126775617798312e-12
0.0,49,49.0,0.0,30.0,0.0,0.0,0.0,0.0,-13.0,0.0,2.0,0.0,0.0,0.0,1.5673581474914788e-10,1.0578525655300491e-10,7.133210563171457e-11,4.7932251776599626e-11,3.182463829090522e-11,2.095456276703584e-11,1.36800244258608e-11,8.823725396040146e-12,5.622549638820733e-12,3.548126968973096e-12,2.2314340861644416e-12,1.3936165940130005e-12,8.628951346968976e-13,5.263627253148089e-13,3.1243997880617113e-13,1.7969250466745768e-13,9.937054384508597e-14,3.1343793690482356e-09,2.406962758672715e-09,1.788468285847967e-09,1.2857395158806117e-09,9.425785490912087e-10,6.999177538854587e-10,5.309264904608882e-10,3.988885404439545e-10,2.9754076217538597e-10,2.186204746133901e-10,1.582839487180141e-10,1.1354847590699973e-10,7.98437960141672e-11,5.508405166380278e-11,3.740255645254302e-11,2.4776150552591602e-11,1.6023513387075977e-11,1.0100240883944587e-11,6.198127444411786e-12,3.698958585374477e-12,2.1446070735990343e-12
0.0,50,50.0,0.0,30.0,0.0,0.0,0.0,0.0,-13.0,0.0,2.0,0.0,0.0,0.0,1.589272339784491e-10,1.0718792073613343e-10,7.222259578432014e-11,4.8492322903505926e-11,3.217024310626834e-11,2.1165419227724763e-11,1.3807028822123164e-11,8.898458558273364e-12,5.664673356172524e-12,3.569875914940597e-12,2.241199256542602e-12,1.3972041742451718e-12,8.641098965839202e-13,5.270915719648304e-13,3.1327263041828523e-13,1.8056965326406697e-13,1.0012481562498749e-13,3.1236525883914313e-09,2.4077971581449934e-09,1.797230658304115e-09,1.2979351300001964e-09,9.54376197144391e-10,7.098183218445015e-10,5.388164303498083e-10,4.049097099905756e-10,3.0200354146700284e-10,2.218415209031074e-10,1.605439990204294e-10,1.1511228784145827e-10,8.089622381413689e-11,5.577639474747692e-11,3.784970900227268e-11,2.5057635061894265e-11,1.6197212775230774e-11,1.0205421654097258e-11,6.260383436863702e-12,3.734314725496239e-12,2.162993218098243e-12
0.0,51,51.0,0.0,30.0,0.0,0.0,0.0,0.0,-13.0,0.0,2.0,0.0,0.0,0.0,1.6116025434238688e-10,1.0861519640667982e-10,7.312753570722237e-11,4.906079220494434e-11,3.2520639780698615e-11,2.1378966696074514e-11,1.3935560869474141e-11,8.974165476420895e-12,5.707586911125444e-12,3.5923381552491825e-12,2.2515291178073347e-12,1.4011185471299407e-12,8.654207946976301e-13,5.277753576871251e-13,3.140160123698927e-13,1.8136972097362254e-13,1.0082855171903326e-13,3.1144501417906015e-09,2.409976013977855e-09,1.8070220162800711e-09,1.3108095922275337e-09,9.666096257265693e-10,7.200064166735741e-10,5.469062153640085e-10,4.1107089272966727e-10,3.0656266669118793e-10,2.2512779487153867e-10,1.6284691870196194e-10,1.1670372052071983e-10,8.196589419329378e-11,5.6479062285301136e-11,3.830283635351146e-11,2.5342338647184465e-11,1.637249340871124e-11,1.0311306204103154e-11,6.323013687023936e-12,3.770040593779747e-12,2.181861631823586e-12
0.0,52,52.0,0.0,30.0,0.0,0.0,0.0,0.0,-13.0,0.0,2.0,0.0,0.0,0.0,1.634357911001588e-10,1.1006758443115698e-10,7.404719573998348e-11,4.963780192877112e-11,3.287590229993171e-11,2.1595243182128012e-11,1.4065629092231965e-11,9.050820754094018e-12,5.7512392036304125e-12,3.6154632099677205e-12,2.262397934649114e-12,1.4053621457558041e-12,8.66844963853166e-13,5.28431279526089e-13,3.1468093978423635e-13,1.820977798331674e-13,1.0148389312932389e-13,3.1068504770122124e-09,2.4135456137001264e-09,1.8178652281451131e-09,1.3243736266002125e-09,9.792862296548264e-10,7.304882411211e-10,5.552006835648015e-10,4.173756177230454e-10,3.1122055803308594e-10,2.2848088561887206e-10,1.6519373683930975e-10,1.1832342381461895e-10,8.305321763116254e-11,5.719231243146452e-11,3.876210421632431e-11,2.5630370546383297e-11,1.6549423774813895e-11,1.0417920060096067e-11,6.385996967877495e-12,3.806077781077589e-12,2.201146600627333e-12
0.0,53,53.0,0.0,30.0,0.0,0.0,0.0,0.0,-13.0,0.0,2.0,0.0,0.0,0.0,1.6575478324956683e-10,1.1154559743636668e-10,7.498185221971975e-11,5.022349736780934e-11,3.323610573299648e-11,2.1814287516122138e-11,1.4197245418814483e-11,9.128405976200653e-12,5.795586628095211e-12,3.639204384191006e-12,2.27377903739661e-12,1.4099341641583388e-12,8.683967384618232e-13,5.290751530649976e-13,3.1527786299252075e-13,1.82758887688129e-13,1.020929982958875e-13,3.1009315838180978e-09,2.4185512263462923e-09,1.8297824791130074e-09,1.3386379463606084e-09,9.924136870388566e-10,7.412702731773821e-10,5.637048548624576e-10,4.238275211773069e-10,3.159797014714564e-10,2.3190241867342483e-10,1.6758550156616495e-10,1.1997205619165746e-10,8.415860734754909e-11,5.791640364595091e-11,3.922767765529958e-11,2.5921839566276397e-11,1.672807423078953e-11,1.0525295236356203e-11,6.449322646402759e-12,3.842379467975359e-12,2.220789233012887e-12
0.0,54,54.0,0.0,30.0,0.0,0.0,0.0,0.0,-13.0,0.0,2.0,0.0,0.0,0.0,1.6811819419480893e-10,1.1304976011251716e-10,7.593178758135009e-11,5.0818026928265195e-11,3.360132633818985e-11,2.2036139173034636e-11,1.4330424362392458e-11,9.206908538913412e-12,5.840592354348227e-12,3.663518891751827e-12,2.2856454191638694e-12,1.4148310615990272e-12,8.700878482313037e-13,5.297214136296337e-13,3.158168290680004e-13,1.8335807153429109e-13,1.0265803856875614e-13,3.0967707152680316e-09,2.4250369716930287e-09,1.8427952671289354e-09,1.353613303673981e-09,1.0059999939364617e-09,7.523592803324172e-10,5.724239377567276e-10,4.3043035037975163e-10,3.2084265166635826e-10,2.3539405781461787e-10,1.7002328113566183e-10,1.2165028538360583e-10,8.528247957448438e-11,5.865159465660129e-11,3.969972086703361e-11,2.6216853629005373e-11,1.6908516012835054e-11,1.0633468607631738e-11,6.512988923984458e-12,3.878909187366737e-12,2.240737418594365e-12
0.0,55,55.0,0.0,30.0,0.0,0.0,0.0,0.0,-13.0,0.0,2.0,0.0,0.0,0.0,1.7052701243034988e-10,1.1458060952895871e-10,7.689729046880234e-11,5.142154218731719e-11,3.397164166032359e-11,2.2260838177154317e-11,1.4465182385316173e-11,9.286320637652741e-12,5.886225617101571e-12,3.688367871145296e-12,2.297970229631728e-12,1.4200470299839943e-12,8.719276222055758e-13,5.303831313719898e-13,3.1630744802992027e-13,1.839003104061187e-13,1.0318119372877166e-13,3.0944441020075107e-09,2.433045698005635e-09,1.8569244104717385e-09,1.3693105452050663e-09,1.020053499884882e-09,7.637623335476049e-10,5.813633361401703e-10,4.371879677920446e-10,3.258120349348241e-10,2.389575069552088e-10,1.7250816503159313e-10,1.2335878911791733e-10,8.642525392464217e-11,5.939814453085799e-11,4.017839706426685e-11,2.6515519456398577e-11,1.7090820469188832e-11,1.0742480552112461e-11,6.5770012727607565e-12,3.9156396179839666e-12,2.2609456556801664e-12
0.0,56,56.0,0.0,30.0,0.0,0.0,0.0,0.0,-13.0,0.0,2.0,0.0,0.0,0.0,1.7298225224210676e-10,1.161386954613512e-10,7.787865585681578e-11,5.203419794419223e-11,3.434713061650951e-11,2.2488425061759902e-11,1.4601537413286374e-11,9.366638401238647e-12,5.932461031247882e-12,3.713716316837425e-12,2.310727174982251e-12,1.425574422070002e-12,8.739231969325142e-13,5.310720387933537e-13,3.167588640675215e-13,1.8439051812210848e-13,1.0366464748580815e-13,3.0940266626306493e-09,2.4426188710441945e-09,1.8721900682634464e-09,1.3857406734530252e-09,1.034582944076252e-09,7.754868208957706e-10,5.905286561854398e-10,4.441043553048764e-10,3.3089055229666547e-10,2.4259451206485603e-10,1.7504126510977059e-10,1.2509825589456698e-10,8.758735382998877e-11,6.015631283473786e-11,4.066386844878228e-11,2.68179423668459e-11,1.7275058478677476e-11,1.0852373831074413e-11,6.6413710583142304e-12,3.952551431862164e-12,2.2813747744454686e-12
0.0,57,57.0,0.0,30.0,0.0,0.0,0.0,0.0,-13.0,0.0,2.0,0.0,0.0,0.0,1.7548495442732843e-10,1.1772458072946816e-10,7.887618518261857e-11,5.265615226810717e-11,3.472787356988685e-11,2.2718940865334844e-11,1.4739508470043835e-11,9.44786115869752e-12,5.979277945146108e-12,3.7395329461335195e-12,2.3238908338229287e-12,1.4314041393292381e-12,8.760797250477744e-13,5.317985691713827e-13,3.171797319885325e-13,1.848335261921405e-13,1.041105829090021e-13,3.095591713768424e-09,2.453796477290223e-09,1.8886117750210583e-09,1.4029149136550063e-09,1.0495974919368328e-09,7.875404608421034e-10,5.999257133469495e-10,4.511836186614185e-10,3.36080982577045e-10,2.4630686312214796e-10,1.776237167559767e-10,1.2686938578903905e-10,8.876920702885507e-11,6.092635985905261e-11,4.1156296256969393e-11,2.7124226163677474e-11,1.746130002208912e-11,1.0963192674107366e-11,6.706114336849823e-12,3.989632211539169e-12,2.301991580166094e-12
0.0,58,58.0,0.0,30.0,0.0,0.0,0.0,0.0,-13.0,0.0,2.0,0.0,0.0,0.0,1.7803618703465198e-10,1.1933884154512605e-10,7.989018648657233e-11,5.32875665456148e-11,3.511395239198884e-11,2.2952427150740462e-11,1.4879115407851092e-11,9.529990824530677e-12,6.0266598398314235e-12,3.765790018893734e-12,2.3374368989216647e-12,1.437525979371417e-12,8.784005810770076e-13,5.325719043154255e-13,3.1757819896296933e-13,1.8523406717493256e-13,1.0452117776666147e-13,3.099210684136175e-09,2.46661694453514e-09,1.9062084902942297e-09,1.4208447859705109e-09,1.0651067718645277e-09,7.99931315157805e-10,6.095605395150518e-10,4.5842999206056113e-10,3.4138618555607264e-10,2.500963960864185e-10,1.8025668005118524e-10,1.2867289126755142e-10,8.997124608368454e-11,6.170854689546638e-11,4.165584086366127e-11,2.7434473097408307e-11,1.7649613878866284e-11,1.1074982041786729e-11,6.771250813703904e-12,4.0268754470120965e-12,2.3227684386553578e-12
0.0,59,59.0,0.0,30.0,0.0,0.0,0.0,0.0,-13.0,0.0,2.0,0.0,0.0,0.0,1.8063704612590423e-10,1.2098206787e-10,8.092097456083968e-11,5.392860552916104e-11,3.5505450515139166e-11,2.3188926037653585e-11,1.502037871313996e-11,9.61303138828728e-12,6.074593778709371e-12,3.792463124671757e-12,2.3513423543028495e-12,1.4439289436631053e-12,8.80887561766974e-13,5.334000300779963e-13,3.179618915142928e-13,1.8559675874857612e-13,1.0489859977326569e-13,3.1049528373678186e-09,2.481117083110009e-09,1.9249986643038717e-09,1.4395421825548414e-09,1.081120911879613e-09,8.126678014787764e-10,6.194393903668146e-10,4.658478429527679e-10,3.4680910515854603e-10,2.539649948842255e-10,1.8294134093831312e-10,1.305094980043039e-10,9.119390891534316e-11,6.250313654752144e-11,4.21626619314889e-11,2.774878388696744e-11,1.7840067425936836e-11,1.1187787040544323e-11,6.836802949455568e-12,4.064279617898683e-12,2.3436828235320614e-12
0.0,60,60.0,0.0,30.0,0.0,0.0,0.0,0.0,-13.0,0.0,2.0,0.0,0.0,0.0,1.832886565612405e-10,1.2265486378322235e-10,8.196887110516026e-11,5.4579437388080436e-11,3.590245297657619e-11,2.3428480241536123e-11,1.5163319370339383e-11,9.696988494828608e-12,6.12306990966202e-12,3.819530949363563e-12,2.3655855967907918e-12,1.4506015069504933e-12,8.835410787465971e-13,5.342897980928838e-13,3.183379076081357e-13,1.859260887260948e-13,1.052450017570039e-13,3.1128850090550213e-09,2.4973320511198784e-09,1.945000320327009e-09,1.459019449021852e-09,1.0976505759504934e-09,8.257587055433783e-10,6.295687529615705e-10,4.734416770421487e-10,3.5235277267939916e-10,2.5791459340831186e-10,1.856789123875668e-10,1.3237994569352996e-10,9.243763934306537e-11,6.331039306423247e-11,4.267691859459068e-11,2.806725778732115e-11,1.8032726519153204e-11,1.1301652467249435e-11,6.902795199844477e-12,4.101847362726651e-12,2.364716842387089e-12
0.0,61,61.0,0.0,30.0,0.0,0.0,0.0,0.0,-13.0,0.0,2.0,0.0,0.0,0.0,1.85992172809264e-10,1.243578478588112e-10,8.303420488892274e-11,5.524023376279431e-11,3.630504645604847e-11,2.3671133114629838e-11,1.5307958770073812e-11,9.781869102541432e-12,6.172081019488298e-12,3.846975031208614e-12,2.3801465104893834e-12,1.4575318503030864e-12,8.863603417790604e-13,5.352469922807881e-13,3.187128136032133e-13,1.8622640121298577e-13,1.0556251677411146e-13,3.1230713639786477e-09,2.515295347063007e-09,1.9662311543624617e-09,1.4792894696880448e-09,1.1147069997705993e-09,8.392131931658655e-10,6.39955353631781e-10,4.812161435080978e-10,3.5802031004228936e-10,2.6194717752924146e-10,1.884706355598024e-10,1.3428498885162487e-10,9.370288762184109e-11,6.413058268610394e-11,4.319876966704013e-11,2.8389992692820018e-11,1.8227655440897727e-11,1.1416622463579174e-11,6.9692533759950215e-12,4.139584734623948e-12,2.385856756369502e-12
0.0,62,62.0,0.0,30.0,0.0,0.0,0.0,0.0,-13.0,0.0,2.0,0.0,0.0,0.0,1.8874877978374155e-10,1.2609165355301842e-10,8.411731191883309e-11,5.591116982263355e-11,3.671331930852243e-11,2.3916928686108553e-11,1.545431865064293e-11,9.867681207835523e-12,6.221622139126689e-12,3.874779513998138e-12,2.3950065020011518e-12,1.4647080600654197e-12,8.893435312912171e-13,5.362763987576292e-13,3.190926457607721e-13,1.8650188406757014e-13,1.058532532059202e-13,3.135573180045441e-09,2.535038833149957e-09,1.988708652357192e-09,1.5003657558845273e-09,1.1323020257855204e-09,8.530408220253181e-10,6.50606166220014e-10,4.891760404588449e-10,3.638149330905427e-10,2.66064787121841e-10,1.9131778096900502e-10,1.3622539760653711e-10,9.499011097134355e-11,6.496397399552499e-11,4.3728373867818204e-11,2.8717085267253386e-11,1.8424916900025505e-11,1.1532740262627426e-11,7.036204111983389e-12,4.1775005407480546e-12,2.407092505286595e-12
0.0,63,63.0,0.0,30.0,0.0,0.0,0.0,0.0,-13.0,0.0,2.0,0.0,0.0,0.0,1.915596937085416e-10,1.2785692960173653e-10,8.521853561160921e-11,5.6592424327456686e-11,3.712736159345328e-11,2.4165911699698726e-11,1.5602421063989918e-11,9.95443362543253e-12,6.271690197069843e-12,3.902930903611191e-12,2.4101485034540188e-12,1.4721182952546714e-12,8.924879592501634e-13,5.373818778909991e-13,3.194829159564086e-13,1.8675655778729796e-13,1.0611928988058041e-13,3.1504486658987456e-09,2.556592792476271e-09,2.0124502249767087e-09,1.5222625365257637e-09,1.1504481373018629e-09,8.672515533731702e-10,6.615284207112425e-10,4.973263206276068e-10,3.6973995491122777e-10,2.7026951811012605e-10,1.9422164964632788e-10,1.3820195847313392e-10,9.629977409241616e-11,6.581083826532124e-11,4.4265890055506894e-11,2.9048631093017556e-11,1.8624572072538578e-11,1.1650048012361542e-11,7.1036744274781005e-12,4.215605761431864e-12,2.4284172480341224e-12
