Line_number,Fiducial,Easting,Northing,Height,Elevation,tx_pitch,tx_roll,tx_yaw,txrx_dx,txrx_dy,txrx_dz,rx_pitch,rx_roll,rx_yaw,S0Z_time_1.431e-04,S0Z_time_1.801e-04,S0Z_time_2.266e-04,S0Z_time_2.846e-04,S0Z_time_3.581e-04,S0Z_time_4.506e-04,S0Z_time_5.671e-04,S0Z_time_7.136e-04,S0Z_time_8.981e-04,S0Z_time_1.131e-03,S0Z_time_1.423e-03,S0Z_time_1.791e-03,S0Z_time_2.255e-03,S0Z_time_2.838e-03,S0Z_time_3.573e-03,S0Z_time_4.498e-03,S0Z_time_5.662e-03,S1Z_time_1.409e-05,S1Z_time_1.610e-05,S1Z_time_1.909e-05,S1Z_time_2.360e-05,S1Z_time_2.960e-05,S1Z_time_3.709e-05,S1Z_time_4.609e-05,S1Z_time_5.759e-05,S1Z_time_7.209e-05,S1Z_time_9.060e-05,S1Z_time_1.141e-04,S1Z_time_1.431e-04,S1Z_time_1.801e-04,S1Z_time_2.266e-04,S1Z_time_2.846e-04,S1Z_time_3.581e-04,S1Z_time_4.506e-04,S1Z_time_5.671e-04,S1Z_time_7.136e-04,S1Z_time_8.981e-04,S1Z_time_1.131e-03
0.0,0,0.0,0.0,30.0,0.0,0.0,0.0,0.0,-13.0,0.0,2.0,0.0,0.0,0.0,5.550756549036701e-11,3.136262883294606e-11,2.2644156267776863e-11,1.598419884649059e-11,1.2162556673724563e-11,9.472172193876677e-12,7.120274655482264e-12,5.566492198723752e-12,4.1748095744601994e-12,3.1425824417109107e-12,2.490961019217981e-12,1.7437888321513713e-12,1.2906729080467228e-12,9.71154882578471e-13,6.529267583614377e-13,4.620303976162212e-13,2.944583375834147e-13,3.957374425927417e-09,3.0740965289941012e-09,2.151551239205753e-09,1.2466825099318743e-09,7.890941353944337e-10,4.666568214002503e-10,3.048272495358415e-10,2.1481927210322486e-10,1.2752811088929237e-10,9.052206082694687e-11,5.108974892599015e-11,3.275606459546091e-11,2.1715025402404564e-11,1.5478739713340873e-11,1.1606282690301736e-11,8.209342236866133e-12,5.824398152832894e-12,4.133215451167971e-12,2.967225929299978e-12,2.063410985064059e-12,1.4152314508272604e-12
0.0,1,1.0,0.0,30.0,0.0,0.0,0.0,0.0,-13.0,0.0,2.0,0.0,0.0,0.0,6.128375616940845e-11,3.709856184262686e-11,2.284107234977303e-11,1.6261739583271768e-11,1.1370291181963775e-11,8.575333969290562e-12,6.672487365842013e-12,5.143178427345558e-12,4.100501797378803e-12,3.0521450445106494e-12,2.227992177946352e-12,1.6791768757550997e-12,1.2213719067414503e-12,8.65048966816156e-13,5.791410339271839e-13,3.9571069501920105e-13,2.6636463144107785e-13,4.077497822030528e-09,2.9945960481769878e-09,2.1364572573304872e-09,1.3420960549311377e-09,7.610318928025982e-10,4.735015408384673e-10,3.121310896985983e-10,2.1415397342737932e-10,1.5303147089160862e-10,9.663035133351732e-11,6.016102698264236e-11,3.798301712111361e-11,2.368287292014614e-11,1.6070245868689765e-11,1.0837985159470728e-11,7.779242200583821e-12,5.4243611194334335e-12,4.031215884003906e-12,2.8409388394019697e-12,1.9432391249687323e-12,1.3098673428247181e-12
0.0,2,2.0,0.0,30.0,0.0,0.0,0.0,0.0,-13.0,0.0,2.0,0.0,0.0,0.0,6.576813748367064e-11,4.052964725662599e-11,2.5184319055987984e-11,1.6398900378731908e-11,1.183819196684283e-11,8.577202549020544e-12,6.468088428660819e-12,5.024983162594947e-12,3.793830291054977e-12,2.544953445798419e-12,2.09713035246858e-12,1.540014276795366e-12,1.1109619356503434e-12,8.465986037069275e-13,5.696884623517762e-13,3.8275994439218755e-13,2.4476811664112166e-13,4.283662718469137e-09,3.11241405566916e-09,2.209563832552022e-09,1.2732061502871086e-09,7.556551980763271e-10,4.566783977007912e-10,3.14250945422102e-10,2.2436873178847344e-10,1.547391701347092e-10,1.0855971252465449e-10,6.883707920162821e-11,4.2336653465448947e-11,2.63608155830761e-11,1.7535153211536803e-11,1.125726789852599e-11,7.480336170836051e-12,5.537944203433074e-12,3.720605604452848e-12,2.61142764452004e-12,1.8921353527808384e-12,1.2150099338585131e-12
0.0,3,3.0,0.0,30.0,0.0,0.0,0.0,0.0,-13.0,0.0,2.0,0.0,0.0,0.0,7.300928335968638e-11,4.665845143652402e-11,2.7202191039331173e-11,1.796978938255193e-11,1.0983854812626207e-11,8.377024478932824e-12,6.024303929321822e-12,4.746769281913205e-12,3.5124866356073496e-12,2.4828456889880975e-12,1.914132954967542e-12,1.5042609055630138e-12,1.0359259134752222e-12,8.045110958661923e-13,5.289498794829105e-13,3.793778742060608e-13,2.439628904095804e-13,4.090359617829458e-09,3.1567859577527765e-09,2.191233523495382e-09,1.2446463220234434e-09,7.734717562225239e-10,5.022943982981732e-10,3.578275078361198e-10,2.403631717669964e-10,1.5643559010703547e-10,1.077912165653156e-10,7.366751797728317e-11,4.965331408086219e-11,3.2808803121229854e-11,1.9178693123617092e-11,1.2305259572593709e-11,8.035518646161074e-12,5.118998640891271e-12,3.413754467302228e-12,2.4162553489666953e-12,1.5896502454575784e-12,1.1308557823068485e-12
0.0,4,4.0,0.0,30.0,0.0,0.0,0.0,0.0,-13.0,0.0,2.0,0.0,0.0,0.0,7.840001399914513e-11,4.961360847302292e-11,2.9367818710965276e-11,1.8916018703496347e-11,1.2165495703010557e-11,8.515813729927594e-12,5.8673269496292895e-12,4.172494790335281e-12,3.1875579503950218e-12,2.621804398761235e-12,1.8801699387629287e-12,1.2909237194370951e-12,9.673512809628874e-13,7.067162810972958e-13,4.929804875498201e-13,3.4081978398267005e-13,2.2396271787732116e-13,4.056803758633999e-09,3.0423604372808585e-09,2.0360151106739116e-09,1.2836534483646913e-09,7.364269162826725e-10,4.759584099691803e-10,3.662611307202584e-10,2.3032308150206038e-10,1.63469615330128e-10,1.2140859936462193e-10,8.08903351581115e-11,5.274825111146774e-11,3.43916006362045e-11,2.1791703482469805e-11,1.2898359627123188e-11,8.042217476303086e-12,5.439762089974725e-12,3.4591358941419245e-12,2.3800040591541734e-12,1.5461533130521008e-12,1.0917126354570052e-12
0.0,5,5.0,0.0,30.0,0.0,0.0,0.0,0.0,-13.0,0.0,2.0,0.0,0.0,0.0,8.469393012613606e-11,5.662094818629045e-11,3.1334147656280774e-11,1.9950699551343278e-11,1.2933695095278999e-11,8.100146197812132e-12,5.884197655258524e-12,4.122650425673683e-12,2.9703422019064596e-12,2.2877091126773737e-12,1.6718593161825062e-12,1.2421962631329095e-12,9.00402355297428e-13,6.553885313434664e-13,4.584089328446903e-13,3.313103556762952e-13,2.0630654022784226e-13,4.140510153556237e-09,2.993342486674917e-09,1.9379342764406734e-09,1.2197010244999502e-09,7.837843739529455e-10,4.85778965183631e-10,3.3777492517691535e-10,2.423104485773598e-10,1.7672637977946667e-10,1.1946843330838167e-10,8.593885978227233e-11,5.803309823315937e-11,3.712918480908385e-11,2.385193816338029e-11,1.5459016522158093e-11,9.185673180415269e-12,5.665736099679135e-12,3.5892280544805427e-12,2.375922290052071e-12,1.516650900308034e-12,1.0164842674718807e-12
0.0,6,6.0,0.0,30.0,0.0,0.0,0.0,0.0,-13.0,0.0,2.0,0.0,0.0,0.0,8.766360176194029e-11,5.5347857607150097e-11,3.6339124408744197e-11,2.262926619366502e-11,1.4301266496028227e-11,8.101249372470145e-12,5.534329431299479e-12,3.864484260155874e-12,2.9439534202422935e-12,2.2093692127261287e-12,1.6283590222206063e-12,1.2193498109783693e-12,8.299414909852235e-13,6.297986651643674e-13,4.2094709009651966e-13,2.8321817384488184e-13,1.9476903945731134e-13,4.0407277366290295e-09,3.0536530113727282e-09,2.001445417364024e-09,1.2277715880606526e-09,7.416033411537275e-10,4.78433714597184e-10,3.357321538811372e-10,2.4001237625630177e-10,1.750835611995765e-10,1.1982005912614408e-10,9.013188962484701e-11,6.141682749435855e-11,3.87391235180948e-11,2.611207155751026e-11,1.4755693700375e-11,9.366063053129628e-12,5.746697174070348e-12,3.5012734733424788e-12,2.235178057197876e-12,1.6019293866211219e-12,9.517297276398e-13
0.0,7,7.0,0.0,30.0,0.0,0.0,0.0,0.0,-13.0,0.0,2.0,0.0,0.0,0.0,8.837621923240662e-11,5.956031842723752e-11,3.7379351554101504e-11,2.380804708445002e-11,1.4668018440858902e-11,8.912494404046809e-12,5.9685152996407045e-12,3.901354590606663e-12,2.7530354704367935e-12,2.0433822291405105e-12,1.471249455626442e-12,1.1106417607414924e-12,8.139698598513898e-13,5.445155757611567e-13,4.0735581379616975e-13,2.7073081589866654e-13,1.9147649725297603e-13,4.033551466538276e-09,3.1126124664345026e-09,2.0244336012878355e-09,1.2439167489506143e-09,7.616919856747256e-10,4.757010766766525e-10,3.4099746027224765e-10,2.3279039459218156e-10,1.6662776473447502e-10,1.2987653190513162e-10,8.869147114965266e-11,6.446031040851703e-11,4.366139565931964e-11,2.8104578111277352e-11,1.6795466897453214e-11,1.0509451143212089e-11,5.976003431042788e-12,3.893586599033413e-12,2.144923823161745e-12,1.5067643430205673e-12,9.239876464112164e-13
0.0,8,8.0,0.0,30.0,0.0,0.0,0.0,0.0,-13.0,0.0,2.0,0.0,0.0,0.0,8.866085144679559e-11,6.035701916785263e-11,3.9402652400329445e-11,2.4237596731237016e-11,1.552523567111581e-11,9.462074664062294e-12,5.891727712202977e-12,3.970199298246454e-12,2.6776455905484932e-12,2.1036157002450577e-12,1.518544469080768e-12,1.0888220272181353e-12,7.687713847491821e-13,5.127782735121376e-13,3.6137381247321516e-13,2.7038642961228647e-13,1.759570098257785e-13,4.1617268712393934e-09,3.040442356269619e-09,1.9630714894466693e-09,1.2157622293814424e-09,8.083468830918841e-10,4.849573586526743e-10,3.547499027653132e-10,2.424851885496519e-10,1.7856830613454504e-10,1.2926812765586974e-10,9.644134516588869e-11,6.491423086689549e-11,4.563004126901679e-11,2.7733254611508246e-11,1.8294843243704298e-11,1.115436369239241e-11,6.593611802044668e-12,3.817225363354596e-12,2.195416443303115e-12,1.4695529842571568e-12,9.087830765991817e-13
0.0,9,9.0,0.0,30.0,0.0,0.0,0.0,0.0,-13.0,0.0,2.0,0.0,0.0,0.0,9.399633460778386e-11,6.429636476190843e-11,3.9013554433755134e-11,2.4476535854981958e-11,1.6801328733539163e-11,9.626202538389711e-12,6.215307325779272e-12,3.911901689652615e-12,2.599153284378934e-12,1.8206212802092663e-12,1.3240518831681849e-12,1.0289029154776083e-12,7.571840563692422e-13,5.204354803328505e-13,3.7463331780274975e-13,2.484843059066014e-13,1.5990067908662853e-13,4.271394470827126e-09,3.017539946413048e-09,1.9732137327074154e-09,1.2014655135246654e-09,7.640317817565146e-10,4.735267765789561e-10,3.469882355084151e-10,2.486956047778212e-10,1.8251863395305267e-10,1.2804855364276695e-10,9.174776639287323e-11,6.948866506157594e-11,4.789839980636301e-11,2.989232580073479e-11,1.975856766382855e-11,1.194944188075877e-11,7.052625470390803e-12,4.192516016422588e-12,2.522440365671766e-12,1.5660388993381952e-12,9.291300853294118e-13
0.0,10,10.0,0.0,30.0,0.0,0.0,0.0,0.0,-13.0,0.0,2.0,0.0,0.0,0.0,9.692587490882592e-11,6.434083474940583e-11,4.11815907064327e-11,2.7510413065760632e-11,1.6979755030286756e-11,1.1024708155167866e-11,6.640920832597033e-12,4.066303515308039e-12,2.731026407830412e-12,1.7800993281290163e-12,1.2424702095803279e-12,9.404864557063264e-13,6.905439486957672e-13,4.562141783416386e-13,3.5019982223702446e-13,2.3249212262660755e-13,1.6196347755549568e-13,4.003552318123056e-09,3.095689930854403e-09,1.9742966102130363e-09,1.1839603959998737e-09,7.672793524935141e-10,4.957303658685421e-10,3.4016789205061355e-10,2.4215568134580177e-10,1.8813026713405957e-10,1.32776919619696e-10,9.995149602633333e-11,7.015514548573942e-11,4.8844617956667646e-11,3.265040749290253e-11,2.1530150004026167e-11,1.3269388210956106e-11,7.69819942147212e-12,4.533896039818053e-12,2.6847758980083145e-12,1.43562765497036e-12,9.004975321441053e-13
0.0,11,11.0,0.0,30.0,0.0,0.0,0.0,0.0,-13.0,0.0,2.0,0.0,0.0,0.0,9.467057151610983e-11,6.383242713274022e-11,4.1446853787652096e-11,2.889535876361015e-11,1.780804385968957e-11,1.1008196395899075e-11,6.8484835658117944e-12,4.255085504548661e-12,2.698595633525899e-12,1.926151851502916e-12,1.24304829569947e-12,8.834632668248137e-13,6.445143600649821e-13,4.3982231558606103e-13,3.116242334644007e-13,2.201155321989126e-13,1.528826556543714e-13,3.97687539523204e-09,2.8724726559512247e-09,1.927065058234153e-09,1.229289668466177e-09,7.601692388546266e-10,4.954319023495705e-10,3.322942372175259e-10,2.364134706430481e-10,1.8929683634409916e-10,1.3387292853397405e-10,1.0229913655082093e-10,7.141717001336891e-11,4.97459091416527e-11,3.468990133495511e-11,2.1758052010514533e-11,1.3742944422940595e-11,8.367160865806289e-12,4.742539745922254e-12,2.6077942442628536e-12,1.4945600147263831e-12,9.26927510319128e-13
0.0,12,12.0,0.0,30.0,0.0,0.0,0.0,0.0,-13.0,0.0,2.0,0.0,0.0,0.0,9.749236662513239e-11,6.131107438259516e-11,4.6321518139478354e-11,2.8137366435685577e-11,1.902764895210238e-11,1.206299206083979e-11,6.79546073385003e-12,4.3733042553174066e-12,2.6691877811137838e-12,1.8726757690726197e-12,1.2281347730514398e-12,8.584437113094742e-13,5.758993739730833e-13,4.201707970299721e-13,2.941058247667438e-13,2.0305986122594134e-13,1.4407990745664096e-13,3.998376052940736e-09,3.007925911612531e-09,1.9381669047858147e-09,1.1954778351918545e-09,7.295044802857115e-10,4.898010752031829e-10,3.5254777931150477e-10,2.584762683295657e-10,1.8716436349810523e-10,1.3829680071926176e-10,9.78500811160913e-11,7.050393906114568e-11,5.03156206863329e-11,3.3161118713499867e-11,2.290471479923169e-11,1.443287267461418e-11,9.15993753440946e-12,4.968841208466217e-12,2.7554701084698672e-12,1.7002573716729982e-12,8.877178958743945e-13
0.0,13,13.0,0.0,30.0,0.0,0.0,0.0,0.0,-13.0,0.0,2.0,0.0,0.0,0.0,1.0140154948942645e-10,6.895530148856307e-11,4.3144728440339564e-11,3.1848357027423105e-11,1.951289102362789e-11,1.2320899951141511e-11,7.322744393870532e-12,4.444156977145612e-12,2.8795664475434194e-12,1.7988640021587754e-12,1.2283897892478093e-12,8.831236007365394e-13,6.051353592489356e-13,4.3873068846656527e-13,2.8926172181299347e-13,1.887140527245082e-13,1.24836098720806e-13,3.970670404317761e-09,2.748435778149867e-09,1.8815799655409982e-09,1.1504632724940418e-09,7.60690894178602e-10,4.861478624313236e-10,3.6495488261249594e-10,2.5418085959016406e-10,1.8294727179028105e-10,1.3581135415502428e-10,1.0211089003846428e-10,7.359618988507819e-11,5.09823896607546e-11,3.627459891808466e-11,2.493690248216674e-11,1.5407853161410803e-11,8.914906570741035e-12,5.349611614844811e-12,2.9642008580844044e-12,1.5770030200175577e-12,9.425719490624619e-13
0.0,14,14.0,0.0,30.0,0.0,0.0,0.0,0.0,-13.0,0.0,2.0,0.0,0.0,0.0,9.888792814412163e-11,6.568440762843955e-11,4.924026521126101e-11,3.0009476723956437e-11,1.9075860257290864e-11,1.2578251070671531e-11,7.913172255037725e-12,4.784312218882244e-12,2.9755102564012812e-12,1.788848226515744e-12,1.1592974842300412e-12,7.746101538373477e-13,5.780066463151933e-13,3.9492870247657317e-13,2.7421132312510523e-13,1.9169961564731039e-13,1.2103813424742543e-13,3.657505579671083e-09,2.8844250430431495e-09,1.9529629412771418e-09,1.1214352670246944e-09,7.586536782191016e-10,4.888581139200642e-10,3.536323092491683e-10,2.604205296658049e-10,1.8922175509218295e-10,1.373445814673891e-10,1.0009615170357951e-10,7.22151418292694e-11,5.407805232708342e-11,3.6503478344126626e-11,2.6374275178556145e-11,1.72042443410822e-11,9.773350266198338e-12,5.800166189809479e-12,3.368313357488906e-12,1.771290490927495e-12,9.598769720969248e-13
0.0,15,15.0,0.0,30.0,0.0,0.0,0.0,0.0,-13.0,0.0,2.0,0.0,0.0,0.0,1.0205651859190217e-10,6.973873667739524e-11,4.893147126552666e-11,3.3331678408642553e-11,2.0494039892208386e-11,1.3137228572225192e-11,7.84958304915013e-12,4.6168246746569575e-12,2.984970869615589e-12,1.892229155605885e-12,1.2128376087784819e-12,7.848358791976143e-13,5.523684327952895e-13,3.777767979350221e-13,2.492795477417637e-13,1.8352752012843112e-13,1.1928184642572052e-13,3.731911386913276e-09,2.8262041332429475e-09,1.966750367588919e-09,1.1804725686278993e-09,7.358775180851479e-10,4.993509379317972e-10,3.604895964149525e-10,2.6359121701588356e-10,2.0165731130467462e-10,1.3824222119657592e-10,1.082905877785881e-10,7.596665375697257e-11,5.193369693227294e-11,3.736455252863607e-11,2.5933466411068787e-11,1.791461914293103e-11,1.0328870597700119e-11,6.421692143577677e-12,3.3910413419374888e-12,1.7997298154506598e-12,1.0016997443126312e-12
0.0,16,16.0,0.0,30.0,0.0,0.0,0.0,0.0,-13.0,0.0,2.0,0.0,0.0,0.0,1.0112252393673951e-10,7.227519318813228e-11,4.755204252409435e-11,3.223392533886142e-11,2.1388604536875326e-11,1.3672387019912895e-11,8.65868643672913e-12,5.3003206819900984e-12,3.127982540525199e-12,1.7518456437445134e-12,1.1252269234425089e-12,7.678617201843897e-13,5.318920822254671e-13,3.3801513375627403e-13,2.497191041102563e-13,1.8124260351521554e-13,1.1573853940561962e-13,3.9213697386101155e-09,2.8734168173931677e-09,1.8778951969713895e-09,1.1836022208294571e-09,7.130179053083915e-10,4.972952152959968e-10,3.63735471401141e-10,2.527354908529656e-10,2.0459420210733464e-10,1.3976982498384384e-10,1.0301344735929762e-10,7.533846631952695e-11,5.3302350359099304e-11,3.7414352448594284e-11,2.60181367715486e-11,1.6514067908188e-11,1.090471640120458e-11,6.289538556128982e-12,3.6016641342510726e-12,1.961634118979419e-12,1.112783491012081e-12
0.0,17,17.0,0.0,30.0,0.0,0.0,0.0,0.0,-13.0,0.0,2.0,0.0,0.0,0.0,1.0412798712690283e-10,7.222558347939107e-11,5.0164375044066034e-11,3.18647792997541e-11,2.136475070243155e-11,1.412591669803116e-11,9.014759107702291e-12,5.442331897543884e-12,3.0376284788507856e-12,1.8756855955529413e-12,1.2100585884261222e-12,7.59283960606862e-13,5.105626430309808e-13,3.4732534909069363e-13,2.455604867727482e-13,1.581513670138759e-13,1.083079995871326e-13,3.9486936402254626e-09,2.6258717422825748e-09,1.8937437549502265e-09,1.1860606442657515e-09,7.87362070881507e-10,5.185891958182661e-10,3.8032089853595015e-10,2.7372616342421646e-10,1.979945846078563e-10,1.4536244663148214e-10,1.0618684123622306e-10,7.531206654136798e-11,5.445470257609109e-11,3.8112384982419974e-11,2.6442020029305194e-11,1.72514225038798e-11,1.0978355347895898e-11,6.766843797029578e-12,3.692405660999448e-12,1.9956168259424315e-12,1.1356796452367526e-12
0.0,18,18.0,0.0,30.0,0.0,0.0,0.0,0.0,-13.0,0.0,2.0,0.0,0.0,0.0,1.0507771279366913e-10,7.08490802980245e-11,4.887175432557205e-11,3.314948515075948e-11,2.2939256866732338e-11,1.4025448664070376e-11,8.051148649881071e-12,5.292415632144671e-12,3.226946398134275e-12,1.9417209108002606e-12,1.2569935398307172e-12,7.649618095486029e-13,4.853978242160329e-13,3.295336981845032e-13,2.336179762712731e-13,1.4769253916764627e-13,1.0527515770853572e-13,3.7112184551682615e-09,2.7216761674304236e-09,1.8745731308743053e-09,1.1376459703538548e-09,7.450975431028439e-10,5.141611688463839e-10,3.767186360635927e-10,2.7090899280096347e-10,1.9176585355082242e-10,1.4264124243806854e-10,1.0592571108623805e-10,7.577590467014617e-11,5.444230107299251e-11,3.954389706653949e-11,2.7520702994078784e-11,1.850399906864179e-11,1.1019830209913036e-11,6.8387181672738034e-12,3.9622878545648124e-12,2.0358077417689595e-12,1.1570671668542903e-12
0.0,19,19.0,0.0,30.0,0.0,0.0,0.0,0.0,-13.0,0.0,2.0,0.0,0.0,0.0,1.0418722952979758e-10,7.45120266655181e-11,5.268196140168657e-11,3.3200030656761454e-11,2.3508159594354378e-11,1.5467541818492988e-11,9.5090463653775e-12,5.722122358222759e-12,3.3186223717510502e-12,1.918639523289625e-12,1.2100778371583835e-12,7.392886390215066e-13,4.850523230800369e-13,3.286767249586682e-13,2.1910970348925178e-13,1.474273582508997e-13,9.522291518460044e-14,3.7140857281151686e-09,2.9506205458451173e-09,1.909404275736984e-09,1.1729231221149595e-09,7.26896494190061e-10,5.138598961715361e-10,3.765530925666872e-10,2.821991137507784e-10,1.9753868026110828e-10,1.5005090049788833e-10,1.0778167137719806e-10,7.357024958779832e-11,5.34728005488133e-11,3.9824184062869406e-11,2.741877668790983e-11,1.916316256606904e-11,1.166681041623533e-11,7.365756807443568e-12,4.173242744547426e-12,2.3050464868222137e-12,1.1832241590465224e-12
0.0,20,20.0,0.0,30.0,0.0,0.0,0.0,0.0,-13.0,0.0,2.0,0.0,0.0,0.0,1.1180007859963246e-10,6.892770236063656e-11,5.1881941893865776e-11,3.3001861323328775e-11,2.2922087263977373e-11,1.48609698225314e-11,9.571733091715574e-12,6.032566360366109e-12,3.5975177860766327e-12,1.9441329483810026e-12,1.2372268345156438e-12,7.409227368751211e-13,4.69735681464671e-13,3.0223207031861005e-13,2.0630685915735033e-13,1.3994351964070587e-13,9.517018521926925e-14,3.8014278821847915e-09,2.7962932616043165e-09,1.8388245095744506e-09,1.1608078718255722e-09,7.601549995594807e-10,5.186463823305863e-10,3.6638279327794585e-10,2.649208204161084e-10,2.10669960285284e-10,1.4533645474838483e-10,1.1073455917536614e-10,7.728105483198577e-11,5.56030587203284e-11,4.139202128406174e-11,2.7500381007986757e-11,1.860617018181904e-11,1.235280086464951e-11,7.778727332556722e-12,4.483702486318124e-12,2.4517845003682594e-12,1.32062876037425e-12
0.0,21,21.0,0.0,30.0,0.0,0.0,0.0,0.0,-13.0,0.0,2.0,0.0,0.0,0.0,1.0909624884728264e-10,7.07308906895602e-11,5.1683383920904245e-11,3.5322126559934195e-11,2.3186253837094125e-11,1.5162725341707618e-11,1.0507520046302602e-11,5.884157719275265e-12,3.6051999019161897e-12,2.1581636685885678e-12,1.2066588723012043e-12,7.50002787508468e-13,4.825206276568343e-13,3.0202053345191744e-13,1.988798063481131e-13,1.4292532515149974e-13,9.37455777033013e-14,3.5381763167488134e-09,2.695458030845772e-09,1.9435863169274964e-09,1.121245815098034e-09,7.915315622028749e-10,5.246607601792013e-10,3.7609801621151444e-10,2.631126475604354e-10,2.066189917861695e-10,1.4987128052913884e-10,1.1273376784314342e-10,8.072789278330569e-11,5.692217642943032e-11,4.194106662339311e-11,2.781743840805647e-11,1.9132016352463863e-11,1.2709863878348806e-11,7.553189256922775e-12,4.280665824953847e-12,2.6069946542312888e-12,1.333874811761486e-12
0.0,22,22.0,0.0,30.0,0.0,0.0,0.0,0.0,-13.0,0.0,2.0,0.0,0.0,0.0,1.1252767091442328e-10,7.459267696453325e-11,5.0761809768913104e-11,3.498678869867287e-11,2.3271600147243103e-11,1.519672965652109e-11,1.0116920641354543e-11,6.1263838108958764e-12,3.9263765116481054e-12,2.1210824415792605e-12,1.3471989391216566e-12,7.371630200483892e-13,4.754957421556192e-13,3.0924459946493227e-13,2.0463726351080664e-13,1.3021355514102716e-13,8.641339810889642e-14,3.6759754533623553e-09,2.6846720421998227e-09,1.7722170222662756e-09,1.1796327832171744e-09,7.395848046839947e-10,5.22377632139923e-10,3.7351563781249283e-10,2.814576958753054e-10,2.0454822671921933e-10,1.5770070428545186e-10,1.1174008721088968e-10,7.88828408432083e-11,5.81746090821592e-11,4.201470693076237e-11,2.953626073554836e-11,1.950130167809512e-11,1.243552605742558e-11,7.788285314470659e-12,4.626487265309931e-12,2.6539196097088045e-12,1.4630554463547261e-12
0.0,23,23.0,0.0,30.0,0.0,0.0,0.0,0.0,-13.0,0.0,2.0,0.0,0.0,0.0,1.07640587621521e-10,7.789672010281929e-11,4.95013433812751e-11,3.550604248600899e-11,2.371496810183343e-11,1.5293058308186216e-11,1.0264935870152483e-11,6.4057766305761605e-12,3.9806620879003555e-12,2.2558253878370978e-12,1.3385619843013942e-12,7.614707596352716e-13,4.675047854035653e-13,2.992341469257312e-13,1.9255803050325267e-13,1.2408518814438216e-13,8.594912884362437e-14,3.5860098277066947e-09,2.5771790392387e-09,1.8986970466520878e-09,1.1096029299380055e-09,7.727971614066292e-10,5.846027189001732e-10,3.9455072166521864e-10,2.7814884237271007e-10,2.0636718645819054e-10,1.5589674171750042e-10,1.1335173409493372e-10,8.29674032321307e-11,5.990794575838298e-11,4.130775163224723e-11,2.8557034727925185e-11,1.895397882761542e-11,1.2579477465920531e-11,7.756599862244691e-12,4.8003052562790164e-12,2.702111100855209e-12,1.5201748656677525e-12
0.0,24,24.0,0.0,30.0,0.0,0.0,0.0,0.0,-13.0,0.0,2.0,0.0,0.0,0.0,1.1060493097960387e-10,7.387433684220428e-11,5.3605353711117404e-11,3.659966683771429e-11,2.53785033923494e-11,1.6526683182642133e-11,1.0081924319184285e-11,6.6227523278744595e-12,3.969448948032166e-12,2.3890593073584605e-12,1.4028577195905454e-12,8.159460191133864e-13,4.643865722500536e-13,2.995689116629202e-13,1.829338985937591e-13,1.1830696920309913e-13,8.371669381117512e-14,3.6500921927689546e-09,2.863636874283235e-09,1.7737863342948658e-09,1.2595773843269253e-09,7.884307102927752e-10,5.624439121745597e-10,4.012552924093623e-10,2.9215084426863385e-10,2.0120009494601713e-10,1.5755441116467254e-10,1.1220907110108965e-10,7.786487968956163e-11,5.874298546047357e-11,4.0809476588233596e-11,2.881836657486357e-11,1.9086214052777294e-11,1.2968486496468555e-11,7.733126458151316e-12,4.851896467050219e-12,2.8395534032657227e-12,1.484779700953775e-12
0.0,25,25.0,0.0,30.0,0.0,0.0,0.0,0.0,-13.0,0.0,2.0,0.0,0.0,0.0,1.1350075727481975e-10,7.125074665782651e-11,5.1632948018294536e-11,3.697110494891272e-11,2.4679289309510398e-11,1.6378435403967036e-11,1.062834014946371e-11,6.474892464769856e-12,4.132855435908069e-12,2.34583086604581e-12,1.4063086084383862e-12,8.54264722096945e-13,4.695938107023357e-13,3.013337304017091e-13,1.8413300779458946e-13,1.180951080861163e-13,8.06167232869197e-14,3.6357834338345415e-09,2.706179326931782e-09,1.919439114055868e-09,1.1645714602775817e-09,7.696498672459086e-10,5.448851210117788e-10,3.951366269441318e-10,2.9225303587648376e-10,2.0741823154166342e-10,1.5382606920994366e-10,1.1294704755027054e-10,8.684019675523167e-11,6.137596262725858e-11,4.36511237303343e-11,2.7793586065184634e-11,2.0139473387049942e-11,1.308414416601356e-11,8.782677946858474e-12,5.166010845836967e-12,2.890307961223255e-12,1.5793946765466727e-12
0.0,26,26.0,0.0,30.0,0.0,0.0,0.0,0.0,-13.0,0.0,2.0,0.0,0.0,0.0,1.172437849935543e-10,7.603595054648552e-11,5.194418258478596e-11,3.67516981697571e-11,2.545679106127628e-11,1.680262872343458e-11,1.0906860278589354e-11,6.8021351346318065e-12,4.286618939311189e-12,2.45277340581055e-12,1.3941067954464755e-12,7.936633139297208e-13,4.759854911759771e-13,2.8231204003361564e-13,1.7815822732185199e-13,1.1267166981766363e-13,7.919421042163226e-14,3.538462655929635e-09,2.6067383308443014e-09,1.8423970824844754e-09,1.1155861158965637e-09,7.523338607129663e-10,5.719027108466033e-10,3.865281838665753e-10,2.9787359029225236e-10,2.3057877186649024e-10,1.6342409176803454e-10,1.185830510176972e-10,9.060684803307858e-11,5.910530341802885e-11,4.0222694152818887e-11,2.8872137722919975e-11,1.9459061618846022e-11,1.3111531299226729e-11,8.20001703997708e-12,5.2485962405539556e-12,3.0279147408976594e-12,1.5729985847143098e-12
0.0,27,27.0,0.0,30.0,0.0,0.0,0.0,0.0,-13.0,0.0,2.0,0.0,0.0,0.0,1.203341044761515e-10,7.998814060850027e-11,5.0844125825026207e-11,3.823372191850266e-11,2.3990309418298712e-11,1.7527892450091852e-11,1.0961264781530855e-11,6.914882479238591e-12,4.372472753875983e-12,2.5387229224818352e-12,1.5150977246631464e-12,8.580010009340517e-13,4.839066345068253e-13,3.070191644020847e-13,1.676212092250033e-13,1.1271789583530851e-13,7.175216721462607e-14,3.5718265570404144e-09,2.644637935068702e-09,1.8048726834476128e-09,1.2119831394165357e-09,7.837135050632696e-10,5.591698691258783e-10,3.9261065089629874e-10,2.9024643630711685e-10,2.220694563908609e-10,1.6233695038686973e-10,1.2256843981419148e-10,8.46326711187279e-11,6.24957183764455e-11,4.3095884148859256e-11,3.0895335064392127e-11,2.0060903045376127e-11,1.3277464121318023e-11,8.74691755021568e-12,4.9893301018710815e-12,3.0952715142403788e-12,1.672797017608964e-12
0.0,28,28.0,0.0,30.0,0.0,0.0,0.0,0.0,-13.0,0.0,2.0,0.0,0.0,0.0,1.1654893666932672e-10,8.35124171051084e-11,5.494705603704779e-11,3.8458027979282823e-11,2.6817709120484036e-11,1.759602200555844e-11,1.1966302165577121e-11,6.877634566344393e-12,4.134603615337969e-12,2.6225983787570447e-12,1.5633257627315685e-12,8.711038827173081e-13,4.59217590239409e-13,2.9550855637892774e-13,1.783226739578583e-13,1.1556716648093762e-13,6.868767370098812e-14,3.687973192665332e-09,2.500815601181461e-09,1.7312547674752145e-09,1.0759325659379163e-09,8.262987433536731e-10,5.110877375665239e-10,4.1579623611037105e-10,2.987928810506611e-10,2.2103735882381965e-10,1.7091962883303042e-10,1.2181794453462994e-10,8.843586830374628e-11,6.638214486194632e-11,4.511663455196618e-11,3.2469589118868427e-11,1.9577907790301717e-11,1.2653773257591692e-11,8.583104288268604e-12,5.322341583263261e-12,3.133169262569187e-12,1.7719015556668991e-12
0.0,29,29.0,0.0,30.0,0.0,0.0,0.0,0.0,-13.0,0.0,2.0,0.0,0.0,0.0,1.2132830209770306e-10,8.177535272082342e-11,5.7095541301300066e-11,3.808984128673781e-11,2.62849423598999e-11,1.7810114724173755e-11,1.0488382380986891e-11,7.1382119002839096e-12,4.54014538103149e-12,2.581323889678439e-12,1.628246657320885e-12,9.116381600373204e-13,5.126834376544298e-13,2.8485192509958483e-13,1.7313239999272586e-13,1.0954075782015043e-13,7.229521402498906e-14,3.6388166813836276e-09,2.7262729050097938e-09,1.7832905604146234e-09,1.131345150482818e-09,7.890143280452426e-10,5.331181598065454e-10,4.2422927159758784e-10,2.953537066455063e-10,2.3063800314643336e-10,1.7153232831838345e-10,1.18435104035606e-10,8.517693795104166e-11,5.903562356446523e-11,4.389827100597464e-11,3.049453432917727e-11,2.050165004243019e-11,1.3561370231254774e-11,8.576087155608718e-12,5.060052619406607e-12,3.1079922635580323e-12,1.7065482697839205e-12
0.0,30,30.0,0.0,30.0,0.0,0.0,0.0,0.0,-13.0,0.0,2.0,0.0,0.0,0.0,1.2085407890208305e-10,8.173971374461081e-11,5.5125172072888964e-11,3.749138909494901e-11,2.5416050481177372e-11,1.6680674712111675e-11,1.155660389179663e-11,7.563794125893762e-12,4.467656762239888e-12,2.757967062978413e-12,1.6370405403101464e-12,9.560130188185092e-13,4.994650131132134e-13,3.026822616367758e-13,1.7318119563245985e-13,1.1037009695401863e-13,6.819915291564528e-14,3.609127958477127e-09,2.480302314062642e-09,1.7606354716827467e-09,1.189616544622434e-09,7.919724845170956e-10,5.540274116133908e-10,3.956725892043619e-10,3.0833078903632436e-10,2.332308971344688e-10,1.7283444842447995e-10,1.2410265478782034e-10,8.910598391279579e-11,5.960382277414223e-11,4.6291211970759234e-11,2.8748311998243365e-11,2.026009349404298e-11,1.3884874874072146e-11,8.896333318477335e-12,5.2124478168012055e-12,3.251271939965054e-12,1.8736244436147214e-12
0.0,31,31.0,0.0,30.0,0.0,0.0,0.0,0.0,-13.0,0.0,2.0,0.0,0.0,0.0,1.251211462391506e-10,8.747945384788991e-11,5.767297767826848e-11,4.055867380011046e-11,2.5895494222690064e-11,1.7281120063776583e-11,1.1750834983536074e-11,7.493866176515458e-12,4.775012371125939e-12,2.9138370214508086e-12,1.5165786151838574e-12,9.46520168391939e-13,4.992351002398761e-13,2.882687750172436e-13,1.6999153420125279e-13,1.0567663398169083e-13,6.611607133672844e-14,3.387630571951867e-09,2.663195989340571e-09,1.7859151807806035e-09,1.1209642757558124e-09,7.778818646384762e-10,5.611327704648398e-10,4.380046393266405e-10,3.0403711647909927e-10,2.242931819438235e-10,1.8303389159828807e-10,1.229732870239945e-10,8.877609540693892e-11,6.374781379153837e-11,4.387676468019448e-11,3.1122292220951596e-11,2.0800325268943496e-11,1.3674684291644506e-11,8.85368786144551e-12,5.5458599756918105e-12,3.0312093374276088e-12,1.7764199560198029e-12
0.0,32,32.0,0.0,30.0,0.0,0.0,0.0,0.0,-13.0,0.0,2.0,0.0,0.0,0.0,1.2662052849699425e-10,8.737068298149413e-11,5.555278721252371e-11,4.105197378079801e-11,2.587246941805453e-11,1.720882701169405e-11,1.1423933274125115e-11,7.292086371867725e-12,4.709919175798211e-12,2.9943503565811837e-12,1.6532905780526826e-12,9.084586891439268e-13,5.495172364972862e-13,3.040618149489013e-13,1.8032285276902998e-13,1.0323591959013526e-13,6.634349488511061e-14,3.4019974309299656e-09,2.5131373631611887e-09,1.7345909326330159e-09,1.1784957597760309e-09,7.589132931478422e-10,5.44723833915355e-10,4.1808782802485436e-10,3.1115391547831664e-10,2.3635579991109913e-10,1.623429936488159e-10,1.31801032547839e-10,9.342257482271723e-11,6.401770139178267e-11,4.6932524416101946e-11,3.243151743493139e-11,1.9664722678947328e-11,1.3969872502216791e-11,9.248970278872392e-12,5.5238279590762824e-12,3.3128060454232267e-12,1.86004100387229e-12
0.0,33,33.0,0.0,30.0,0.0,0.0,0.0,0.0,-13.0,0.0,2.0,0.0,0.0,0.0,1.284547718832931e-10,8.657581747779406e-11,5.847552238004258e-11,4.1682346932400554e-11,2.650767875230885e-11,1.7442271846436772e-11,1.2446602366942683e-11,7.570587148778452e-12,4.717963769897552e-12,2.9399771385848196e-12,1.718630481521841e-12,9.37213071053682e-13,5.681526074314178e-13,3.1081115769627287e-13,1.7688638026640988e-13,1.0619627337055384e-13,6.232780958031747e-14,3.4232824493796577e-09,2.57009855685962e-09,1.7995536007568012e-09,1.1517824436544929e-09,8.109238942947645e-10,5.750411193616476e-10,4.404947106787254e-10,3.228563190019574e-10,2.402459201949231e-10,1.7877335434561677e-10,1.29075435506684e-10,8.870009431616504e-11,6.964401317721929e-11,4.5296198682203766e-11,3.1372639103219586e-11,2.1146062991541185e-11,1.3349086006740285e-11,8.80097002184864e-12,5.670230052475452e-12,3.3511046627556937e-12,1.9204923962683207e-12
0.0,34,34.0,0.0,30.0,0.0,0.0,0.0,0.0,-13.0,0.0,2.0,0.0,0.0,0.0,1.2979762772416986e-10,8.514535766316662e-11,5.85160594894712e-11,4.253479358361071e-11,2.660021504960727e-11,1.793262909512587e-11,1.1537918753980258e-11,7.992676590719732e-12,4.878592479375776e-12,3.013047623335959e-12,1.730564721764425e-12,9.978743492547942e-13,5.599313619528362e-13,3.06976635118286e-13,1.6871494556608111e-13,1.090029964047581e-13,6.50544640038801e-14,3.560632549219298e-09,2.4199616148839063e-09,1.7654756282153352e-09,1.188556786422991e-09,8.288128324348266e-10,6.06262406149819e-10,4.338389249235836e-10,3.3981026174792524e-10,2.2718176225214673e-10,1.8028397962397878e-10,1.253231790862625e-10,9.520893367768961e-11,6.947663591440001e-11,4.53432472112665e-11,3.313867480938396e-11,2.1405560418443394e-11,1.484078383864054e-11,9.214432511648074e-12,5.569341388137618e-12,3.419383674376706e-12,1.9189554462202906e-12
0.0,35,35.0,0.0,30.0,0.0,0.0,0.0,0.0,-13.0,0.0,2.0,0.0,0.0,0.0,1.3283315754738468e-10,8.655069590672938e-11,5.956824383702684e-11,3.7450412790992536e-11,2.6744768190191072e-11,1.7807542696761883e-11,1.2464332225185779e-11,7.971307061070489e-12,4.955515691955121e-12,3.0214397635856285e-12,1.8300279816737975e-12,1.022903477447653e-12,6.00738823904874e-13,3.2370176785150756e-13,1.7709194327637722e-13,1.0711581969736628e-13,6.231024590166163e-14,3.510682381069708e-09,2.614863919351976e-09,1.6752075478333636e-09,1.1811047858791614e-09,8.404505501448735e-10,5.609385937418108e-10,4.3537926655809894e-10,3.2016978856743416e-10,2.5034619025677114e-10,1.746340466403473e-10,1.3046675313912728e-10,9.12806368856078e-11,6.962543052044116e-11,4.729414741685378e-11,3.193105549957915e-11,2.0563696302526154e-11,1.4198947290165197e-11,9.290798267494761e-12,5.695326578475906e-12,3.461336887125463e-12,2.0042878218004837e-12
0.0,36,36.0,0.0,30.0,0.0,0.0,0.0,0.0,-13.0,0.0,2.0,0.0,0.0,0.0,1.2450015583335182e-10,8.641720654261284e-11,5.915370019175353e-11,4.212050257441497e-11,2.7911491080384874e-11,1.807128048760791e-11,1.1646337374158875e-11,8.030805915629554e-12,4.936584805098978e-12,2.8023680210050387e-12,1.7461229815030261e-12,1.1068001153664833e-12,5.893826802134379e-13,3.1200010384828603e-13,1.8947810350615763e-13,1.0449129303925e-13,6.384816218739145e-14,3.2882584047364113e-09,2.636748435195969e-09,1.7512520259790807e-09,1.1732777447615647e-09,8.085512920420962e-10,5.882577646205225e-10,4.3545345856575437e-10,3.5122533275676583e-10,2.4343372230087017e-10,1.8778732343391216e-10,1.35529296193135e-10,9.466907794635702e-11,6.591784843277573e-11,4.717423272774813e-11,3.354135606716931e-11,2.21859561382027e-11,1.4814498060888096e-11,9.476069094185358e-12,5.57916987990083e-12,3.4717710371823954e-12,2.10916176790022e-12
0.0,37,37.0,0.0,30.0,0.0,0.0,0.0,0.0,-13.0,0.0,2.0,0.0,0.0,0.0,1.254004474308913e-10,9.063195927903696e-11,6.210944615534369e-11,4.3015501314581315e-11,2.839119725539635e-11,1.7971147220212546e-11,1.2183071942761662e-11,8.165507583225132e-12,5.265114201477062e-12,3.167567662944651e-12,1.819298214030032e-12,1.0465672596077522e-12,5.870435680607787e-13,3.1808723172096776e-13,1.8073230036249882e-13,1.0553024728561279e-13,6.390819322423976e-14,3.3460692603637463e-09,2.503151694173933e-09,1.7805194081716341e-09,1.2001437085887518e-09,8.697044182981594e-10,6.207993244237791e-10,4.4374170329906086e-10,3.105642885104104e-10,2.4044093558377127e-10,1.8696554491490148e-10,1.3496171665622676e-10,9.876902100316109e-11,6.739428544207128e-11,4.9342042690331946e-11,3.373994383397234e-11,2.2589162207171805e-11,1.4013850087808025e-11,8.946517813681188e-12,5.753737486749027e-12,3.40271479820548e-12,2.0248079331864176e-12
0.0,38,38.0,0.0,30.0,0.0,0.0,0.0,0.0,-13.0,0.0,2.0,0.0,0.0,0.0,1.2950220872456364e-10,9.649552821533492e-11,6.079748309739491e-11,4.175299792476214e-11,2.724821126163031e-11,1.9056433555980565e-11,1.2813513964790655e-11,8.61799328110338e-12,4.906412835173307e-12,3.3718141920495713e-12,1.9558370669748615e-12,1.0842805197649855e-12,6.043562098917085e-13,3.3924472709366585e-13,1.8914868485404762e-13,1.111678276197818e-13,5.969181453174082e-14,3.4021774899092944e-09,2.4817602734741657e-09,1.7901338908847405e-09,1.1983553541836923e-09,8.6989411842837e-10,6.054659876872494e-10,4.690168579378717e-10,3.3302193081049e-10,2.49488124004118e-10,1.9381491841135067e-10,1.3190068758901207e-10,1.0046657107560655e-10,6.925447619933665e-11,4.6365401320247044e-11,3.605196286752583e-11,2.1215411747744212e-11,1.4491246873849479e-11,9.174383987549765e-12,5.673751202416685e-12,3.628723974047273e-12,2.0484654180583385e-12
0.0,39,39.0,0.0,30.0,0.0,0.0,0.0,0.0,-13.0,0.0,2.0,0.0,0.0,0.0,1.3415676292539072e-10,9.614553018466581e-11,6.36220288997699e-11,4.145933298974161e-11,2.845815233665485e-11,1.773351418662095e-11,1.2567550709143659e-11,8.10504908545901e-12,5.344517094189573e-12,3.2247951496921e-12,1.8727108685881463e-12,1.0785111739445495e-12,6.373093470993771e-13,3.2646820003909084e-13,1.9052381627384025e-13,1.062375678831264e-13,6.546391142143679e-14,3.1678454461929262e-09,2.434491041268244e-09,1.8375227046829899e-09,1.2062258853172612e-09,8.637615435927835e-10,6.232265237319115e-10,4.591486010615396e-10,3.379971194800257e-10,2.57193777672013e-10,1.9605245810221098e-10,1.369209396027152e-10,9.780423182074543e-11,6.871980016458504e-11,4.6460642540180136e-11,3.261601808300722e-11,2.2606170396101455e-11,1.4230028679009606e-11,9.389987496116596e-12,5.768999519451173e-12,3.4407899477635697e-12,2.0919082412510317e-12
0.0,40,40.0,0.0,30.0,0.0,0.0,0.0,0.0,-13.0,0.0,2.0,0.0,0.0,0.0,1.5101104039497635e-10,8.757465120744073e-11,6.140284182567706e-11,4.261992096242381e-11,2.877961416704073e-11,1.9176823984293143e-11,1.357502964316886e-11,8.601729700470121e-12,5.176216143392567e-12,3.2519392427752708e-12,2.068296051097773e-12,1.1162147812672115e-12,6.41339565578366e-13,3.4989820063622495e-13,1.8455020130191309e-13,1.0026704646105794e-13,5.866778598384616e-14,3.367093535979932e-09,2.475518497222102e-09,1.8523122786379102e-09,1.2340671554524168e-09,8.750401297873882e-10,6.213265292360019e-10,4.6469749688590616e-10,3.513419115502291e-10,2.643695587414242e-10,1.90305804887876e-10,1.4074858817461663e-10,9.97583955576962e-11,7.156808713941283e-11,4.831523292351549e-11,3.436915816364342e-11,2.3538310002800385e-11,1.4496014797179392e-11,9.679063554408036e-12,5.842002229821737e-12,3.615213539519127e-12,2.1381294361147863e-12
0.0,41,41.0,0.0,30.0,0.0,0.0,0.0,0.0,-13.0,0.0,2.0,0.0,0.0,0.0,1.4270831207358012e-10,9.676610791347702e-11,6.313803837992608e-11,4.428533670425837e-11,2.8498363357368815e-11,1.8649914950066752e-11,1.2429112672008183e-11,8.169822993415793e-12,5.363012904679814e-12,3.0035099148687463e-12,1.9863616047072326e-12,1.1555441906094892e-12,6.779639000611663e-13,3.532730493013521e-13,2.0196418792861511e-13,1.1076320519584061e-13,5.94382744819946e-14,3.287472891664272e-09,2.3802737735176936e-09,1.7531755876869527e-09,1.1774721334011699e-09,9.135752344421352e-10,5.902973436172567e-10,4.787904867734611e-10,3.687821953171475e-10,2.514608234546849e-10,1.9992997855245093e-10,1.372805106410633e-10,9.885184726272752e-11,7.34927577062297e-11,5.098479751917402e-11,3.499370122158269e-11,2.3734097696882352e-11,1.5608443348992484e-11,9.20908126854611e-12,6.000523902823869e-12,3.668122756592752e-12,2.2821476256772406e-12
0.0,42,42.0,0.0,30.0,0.0,0.0,0.0,0.0,-13.0,0.0,2.0,0.0,0.0,0.0,1.4339841251663597e-10,8.999172623302561e-11,6.256788716718809e-11,4.394057583799916e-11,2.8902340329246947e-11,2.0836693996207368e-11,1.2390758366676391e-11,7.988942433479033e-12,5.174984270612102e-12,3.238410536392964e-12,1.848218704739847e-12,1.21510311909634e-12,6.512001117830758e-13,3.678685976436915e-13,1.9527482237454746e-13,1.1164891257520598e-13,6.088556859884124e-14,3.1933749037624083e-09,2.3625717484060674e-09,1.7502207979678567e-09,1.1464150185397702e-09,8.721734309844899e-10,6.379342306943498e-10,4.864756976973847e-10,3.6065975564653354e-10,2.5833626963353876e-10,2.0818561609212107e-10,1.4734548864994186e-10,1.0223520561912798e-10,7.232309717871736e-11,5.140983511610181e-11,3.169534081790342e-11,2.2797078382863262e-11,1.4887798306554513e-11,9.740528640501267e-12,5.95281459411531e-12,3.506990930993869e-12,2.016232921487096e-12
0.0,43,43.0,0.0,30.0,0.0,0.0,0.0,0.0,-13.0,0.0,2.0,0.0,0.0,0.0,1.4260224765605097e-10,9.928785444081143e-11,6.722662334730646e-11,4.507180568815435e-11,2.9955627599825286e-11,2.004349498268432e-11,1.2678324086429081e-11,8.704784355486657e-12,4.921405911437025e-12,3.1772097359752285e-12,1.9494024241283317e-12,1.2478811203595434e-12,7.111171393443052e-13,3.85597078614494e-13,2.0840216046343598e-13,1.0979844123379671e-13,5.929650834234571e-14,3.3357792129510932e-09,2.476436489107439e-09,1.738957558187005e-09,1.253188955868216e-09,8.585760438081184e-10,6.420242994005463e-10,4.997597432923777e-10,3.6438095014256564e-10,2.6450707561788143e-10,1.9593048764103635e-10,1.4691132198558223e-10,1.0107970062329199e-10,6.802143962849237e-11,5.3078834132561423e-11,3.44506001421954e-11,2.277461004157369e-11,1.4844067780031133e-11,9.171982721139503e-12,5.961057803882127e-12,3.6226626104230615e-12,2.160499505230643e-12
0.0,44,44.0,0.0,30.0,0.0,0.0,0.0,0.0,-13.0,0.0,2.0,0.0,0.0,0.0,1.3930217365954642e-10,9.682259934269623e-11,6.898311133666183e-11,4.468685497164488e-11,2.8851356713698506e-11,1.9195181898425158e-11,1.2732559974434992e-11,8.749633289585955e-12,5.3202690597323795e-12,3.3386485848155353e-12,1.97238970059182e-12,1.1728062506686232e-12,7.274202968814521e-13,3.8781268462454664e-13,2.0534190491026107e-13,1.154366551807571e-13,6.029870318763292e-14,3.2210626862364087e-09,2.4032618157174826e-09,1.7381538986804991e-09,1.2267883015013969e-09,9.212642677924272e-10,6.645837787494077e-10,4.920291808529575e-10,3.785237071397601e-10,2.757427533598189e-10,2.047919587575315e-10,1.4647911396207316e-10,1.055006320242897e-10,7.808569666340974e-11,5.114485590679684e-11,3.40484966375211e-11,2.301397967291721e-11,1.5082395998557014e-11,1.0137814506712286e-11,6.052286910202736e-12,3.6047119015152174e-12,2.043154073148052e-12
0.0,45,45.0,0.0,30.0,0.0,0.0,0.0,0.0,-13.0,0.0,2.0,0.0,0.0,0.0,1.5458752512042816e-10,9.425642872832193e-11,7.010732241502644e-11,4.7173520303334375e-11,2.968257039753801e-11,1.9973388185040663e-11,1.3113574718426982e-11,8.5090801617617e-12,5.303710351683305e-12,3.3155212951032284e-12,2.0619357791845306e-12,1.1571126960117223e-12,6.872284799458599e-13,3.942928722951332e-13,2.1060530704199958e-13,1.1474852662871643e-13,5.881780212396135e-14,3.168957827648244e-09,2.4923928140265087e-09,1.7749650992503415e-09,1.1650785325578318e-09,9.125155575306155e-10,6.516639345355504e-10,4.907307637406007e-10,3.6077305666911016e-10,2.7292220011574785e-10,2.0712047811984165e-10,1.4942968004387267e-10,1.1062172323372749e-10,7.061223014303532e-11,4.908136525335455e-11,3.6451287659320477e-11,2.2653245444798212e-11,1.537843067726651e-11,1.029044996444195e-11,5.988428150273722e-12,3.9218036931997815e-12,2.232100419817345e-12
0.0,46,46.0,0.0,30.0,0.0,0.0,0.0,0.0,-13.0,0.0,2.0,0.0,0.0,0.0,1.4923060895562346e-10,9.903329358792043e-11,6.923410107611654e-11,4.558120717374526e-11,3.031866185871202e-11,2.0709989735148435e-11,1.3452030541319457e-11,9.010760251454751e-12,5.421150924185285e-12,3.4090266952950643e-12,2.185050666701087e-12,1.2616543447656888e-12,6.918168780870399e-13,3.8386555196722474e-13,2.0718064637646485e-13,1.0848403380453496e-13,5.906555908951928e-14,3.1231979436612962e-09,2.2899250293946826e-09,1.882041448018417e-09,1.2330640427855624e-09,8.777402556033298e-10,6.776162369906171e-10,5.190723589972131e-10,3.7759885182294706e-10,2.734618701982417e-10,2.1869827587054025e-10,1.5860695763945035e-10,1.0879304908616664e-10,7.419274608047083e-11,5.356371346644555e-11,3.409539559899142e-11,2.5012988041293236e-11,1.6111519044286718e-11,1.0051132953087393e-11,5.954922756088021e-12,3.856777447058923e-12,2.1858389607579476e-12
0.0,47,47.0,0.0,30.0,0.0,0.0,0.0,0.0,-13.0,0.0,2.0,0.0,0.0,0.0,1.5069028987986807e-10,1.0484959194038301e-10,6.807015740027103e-11,4.689723718473199e-11,3.1007749044160075e-11,2.018740906983301e-11,1.250352708620022e-11,8.456388729303862e-12,5.6993810373214636e-12,3.397150004436283e-12,2.328190166763249e-12,1.327703969511752e-12,7.22117342673209e-13,4.083920999209289e-13,2.366672930698377e-13,1.1481858064782117e-13,6.116546803041924e-14,3.149379663071617e-09,2.422256479613523e-09,1.7432918107277534e-09,1.243118948232659e-09,9.599843657263636e-10,6.818055051930991e-10,5.061840275054943e-10,3.9194697898885335e-10,2.919787814544217e-10,2.0853890185743597e-10,1.5131561144370729e-10,1.10847477998919e-10,7.819882793937019e-11,5.627932729172919e-11,3.553068368012835e-11,2.388260524679787e-11,1.5947865443699292e-11,1.0145006668783294e-11,5.848210076786825e-12,3.783186747094558e-12,2.1500140835948306e-12
0.0,48,48.0,0.0,30.0,0.0,0.0,0.0,0.0,-13.0,0.0,2.0,0.0,0.0,0.0,1.5834648869443225e-10,1.0188124131208169e-10,6.995705027827644e-11,4.7629768106539e-11,3.1786120373401837e-11,2.0647504966543257e-11,1.343030191657703e-11,8.516045393324331e-12,5.474481431988545e-12,3.3476451274741023e-12,2.244426118883494e-12,1.2830705463669323e-12,7.028138021640647e-13,4.1857456425951667e-13,2.1107986102973828e-13,1.1459696135555326e-13,6.249768495670685e-14,3.050863153426856e-09,2.388036418091005e-09,1.8060737920079159e-09,1.2033860076562238e-09,9.740151779479501e-10,7.04395600712066e-10,5.130028967517269e-10,4.166975742133955e-10,2.835518907420912e-10,2.2228705741482833e-10,1.545767495136677e-10,1.1851036830148815e-10,7.962249027433163e-11,5.412389318851623e-11,3.683839513400398e-11,2.4490371800535573e-11,1.5869554270562668e-11,9.996255058477122e-12,6.172454720269451e-12,3.708194775616072e-12,2.2211536290057834e-12
0.0,49,49.0,0.0,30.0,0.0,0.0,0.0,0.0,-13.0,0.0,2.0,0.0,0.0,0.0,1.5793647649975454e-10,1.0779634685999235e-10,7.179554678643109e-11,4.788868824007688e-11,3.1433214870809804e-11,2.109721245068104e-11,1.3765109977953036e-11,8.739100382892814e-12,5.798278290327994e-12,3.5942021222456786e-12,2.1214408992925914e-12,1.2649950241231255e-12,7.355231623326199e-13,4.1824463255197803e-13,2.1996654398856458e-13,1.1898459481016983e-13,6.423044341813001e-14,3.1092612254328058e-09,2.4195312167240507e-09,1.7604802497012792e-09,1.2510626523107287e-09,9.515758610605213e-10,6.630531695341803e-10,5.698218626292917e-10,3.867932309041147e-10,2.9066454648870067e-10,2.1661716487106817e-10,1.550926566985073e-10,1.1133218484254558e-10,8.060136263349969e-11,5.486006245038216e-11,3.691437729236066e-11,2.370393670305734e-11,1.5625464901013617e-11,1.0222762962453671e-11,6.325534939103005e-12,3.642299367281513e-12,2.2210679595821644e-12
0.0,50,50.0,0.0,30.0,0.0,0.0,0.0,0.0,-13.0,0.0,2.0,0.0,0.0,0.0,1.4710325745635529e-10,1.0845287884319863e-10,7.128247708529689e-11,5.001527279142865e-11,3.2604803073662446e-11,2.191851988634931e-11,1.3662391818647498e-11,8.898733289648074e-12,5.52770503256058e-12,3.645013911615429e-12,2.1945574269580823e-12,1.3029060075559516e-12,7.867204863157803e-13,4.0138369836153703e-13,2.3688733260465157e-13,1.1866109182782862e-13,6.417307556905248e-14,2.949165192241201e-09,2.4189984916988533e-09,1.7562659252696258e-09,1.2523370821114636e-09,9.945501328113055e-10,6.805190584425825e-10,5.319531562046975e-10,4.1030014480454373e-10,3.0635833488055025e-10,2.1290550410341245e-10,1.5872644273018578e-10,1.210717916255837e-10,7.979587382866878e-11,5.888541204635764e-11,3.823066779001622e-11,2.5491973822587287e-11,1.5150994375196795e-11,1.0146193459060048e-11,6.596331681282567e-12,3.781218184587156e-12,2.1943511606881926e-12
0.0,51,51.0,0.0,30.0,0.0,0.0,0.0,0.0,-13.0,0.0,2.0,0.0,0.0,0.0,1.5907199317043535e-10,1.103379749085261e-10,7.105010129692664e-11,4.8333584663689105e-11,3.16265255224208e-11,2.0685347132650594e-11,1.4633874761183457e-11,8.650849159058923e-12,5.839804929558445e-12,3.5939540601894385e-12,2.2865112995110604e-12,1.349658126586604e-12,7.679315822341634e-13,4.446971112229319e-13,2.3089414962742204e-13,1.2380622841517222e-13,6.318974824573286e-14,3.0645043418756012e-09,2.4418108770119726e-09,1.735238356721531e-09,1.367537625526214e-09,9.783937451248565e-10,7.537687948168836e-10,5.471594359555402e-10,4.054892942946447e-10,3.164517235833161e-10,2.33258319265989e-10,1.5859503596419218e-10,1.174253649314829e-10,8.258428385596328e-11,5.619536650923529e-11,3.700500618569375e-11,2.4434337005661886e-11,1.7608927805163215e-11,1.0740064627860766e-11,6.70857228645291e-12,3.66466080356812e-12,2.102703781350018e-12
0.0,52,52.0,0.0,30.0,0.0,0.0,0.0,0.0,-13.0,0.0,2.0,0.0,0.0,0.0,1.7003211089269094e-10,1.0671527730218443e-10,7.625826673051396e-11,5.061590533911808e-11,3.35597778126777e-11,2.155301251432386e-11,1.4524542435692729e-11,9.145323320960692e-12,5.672307012617123e-12,3.563325355686058e-12,2.1458348708148413e-12,1.330426533608881e-12,7.91636790063159e-13,4.5329062674377245e-13,2.3550834045837377e-13,1.2410529575023412e-13,6.389991810279715e-14,3.082269849729605e-09,2.3614483980234923e-09,1.8176031682305702e-09,1.313227805461058e-09,1.0330807048138224e-09,7.245676968526429e-10,5.817359122078159e-10,4.09808830463059e-10,3.094772470018338e-10,2.2677355829032083e-10,1.6435822434851913e-10,1.1401253078876343e-10,8.194263196809042e-11,5.785759720537208e-11,3.914018115270647e-11,2.593956877992026e-11,1.6333016617488566e-11,1.0116465903319486e-11,6.541635088650779e-12,3.612833578729776e-12,2.364649467063034e-12
0.0,53,53.0,0.0,30.0,0.0,0.0,0.0,0.0,-13.0,0.0,2.0,0.0,0.0,0.0,1.6581816950488282e-10,1.1456986173626075e-10,7.461894516448272e-11,4.8992564638976386e-11,3.4459925682140055e-11,2.2234354070959013e-11,1.4223974145037094e-11,9.00687854634935e-12,6.0567086842181335e-12,3.8076272340378275e-12,2.2050166131368575e-12,1.3243345829271375e-12,7.793460567393146e-13,4.2801448758536033e-13,2.4037973185632675e-13,1.2880815456846238e-13,6.259926026877169e-14,3.034405838757038e-09,2.4865661729420425e-09,1.834896772358105e-09,1.2495428524806819e-09,9.987619079968736e-10,7.616984583085969e-10,5.813478050782193e-10,4.354234918032086e-10,3.1056663358319636e-10,2.2788177512343904e-10,1.6562522843565195e-10,1.2314518804744377e-10,8.155664271520777e-11,5.675853275842965e-11,3.976342283499658e-11,2.5644041009882758e-11,1.5986439548903675e-11,1.0674102637179867e-11,6.71584347264995e-12,3.82460664142821e-12,2.2781460316694115e-12
0.0,54,54.0,0.0,30.0,0.0,0.0,0.0,0.0,-13.0,0.0,2.0,0.0,0.0,0.0,1.6656545788865694e-10,1.131895164078677e-10,7.794557188298207e-11,5.135140798546257e-11,3.307327595878748e-11,2.1641021245834514e-11,1.456351853447104e-11,8.845897775712057e-12,5.679380589710407e-12,3.7019826640190924e-12,2.2934015765303173e-12,1.332775764586411e-12,7.942976765041805e-13,4.711979023676656e-13,2.355801955973569e-13,1.3020483756751496e-13,6.518504220894464e-14,3.209919456153522e-09,2.339255520659648e-09,1.8224842289206893e-09,1.3486333600796955e-09,9.856766624253244e-10,7.449169474507369e-10,5.717427995779735e-10,4.380648583901099e-10,3.0449095890660685e-10,2.33625064818838e-10,1.6797164256849721e-10,1.201983557120925e-10,8.935016867589423e-11,5.762273214968847e-11,4.0824802995711774e-11,2.662163307964682e-11,1.6692052306426258e-11,1.08255867232176e-11,6.579052648511513e-12,3.986999457878579e-12,2.2641083681561637e-12
0.0,55,55.0,0.0,30.0,0.0,0.0,0.0,0.0,-13.0,0.0,2.0,0.0,0.0,0.0,1.7601034542390275e-10,1.1294927318276147e-10,7.640261506193705e-11,5.33251268672532e-11,3.383483257387879e-11,2.2220558915732847e-11,1.472212087191512e-11,9.775400827550953e-12,5.807309604453583e-12,3.710731284137037e-12,2.308998175254483e-12,1.3642282313253974e-12,7.946923506613091e-13,4.724590571394344e-13,2.4702752169106666e-13,1.3815573645791212e-13,6.562023488176293e-14,3.1216672761336097e-09,2.4777692389773328e-09,1.882248460878409e-09,1.3333479726554644e-09,9.792381956252004e-10,7.450778284984941e-10,5.997127719793534e-10,4.5390485868260066e-10,3.2006395890821733e-10,2.5340350067695133e-10,1.7142565570385052e-10,1.2634484957403667e-10,8.640248881718113e-11,5.900740982700348e-11,4.1323112935636986e-11,2.7537968556187222e-11,1.7693887930012592e-11,1.0773766159232953e-11,6.683103264586427e-12,4.012921811652048e-12,2.465649519476343e-12
0.0,56,56.0,0.0,30.0,0.0,0.0,0.0,0.0,-13.0,0.0,2.0,0.0,0.0,0.0,1.6877947721362651e-10,1.1590705806543305e-10,7.579761073649312e-11,5.197545815377914e-11,3.39089005505311e-11,2.2993529454550233e-11,1.4180446728069394e-11,9.91712823743398e-12,6.067538812700957e-12,3.5588065533735708e-12,2.2478284730217407e-12,1.3647496230102017e-12,7.780799011965528e-13,4.834538178841561e-13,2.484109389124432e-13,1.3230499173740697e-13,6.70793699688624e-14,3.0990719896802187e-09,2.4267979094385577e-09,1.8772968402516806e-09,1.4094709162489912e-09,1.0182274708456075e-09,7.688423375836216e-10,5.738141047942176e-10,4.117104196300879e-10,3.297026088322808e-10,2.3190623767043384e-10,1.8024377735897275e-10,1.258243521330859e-10,8.854633722933332e-11,5.957443164888908e-11,3.899453422502065e-11,2.7644993251440803e-11,1.7454247028248626e-11,1.0509702972257017e-11,6.895477015789259e-12,3.913349224375177e-12,2.398569088235547e-12
0.0,57,57.0,0.0,30.0,0.0,0.0,0.0,0.0,-13.0,0.0,2.0,0.0,0.0,0.0,1.7890141001683772e-10,1.1734354858510384e-10,8.140223588052881e-11,5.367172771301715e-11,3.2848105369163915e-11,2.3349265863998555e-11,1.5761762346362128e-11,9.752324062983213e-12,6.016816417684738e-12,3.757653423064935e-12,2.273275658534295e-12,1.3800935725381575e-12,8.226498333015244e-13,4.619091671079985e-13,2.579577548456106e-13,1.4533970305798332e-13,6.853907797431247e-14,3.2069985284068953e-09,2.4426860560396546e-09,1.884534450494204e-09,1.3978398913250825e-09,1.1025937750982262e-09,7.784991971784429e-10,6.186649311732453e-10,4.679443035488496e-10,3.249657144071155e-10,2.487736344556921e-10,1.7951862333277171e-10,1.2803135290984938e-10,8.668609994257435e-11,6.136877874539355e-11,4.108385288437573e-11,2.615945742237992e-11,1.706364308779259e-11,1.0768820005055369e-11,6.847680194849484e-12,4.244021658646709e-12,2.345290637222512e-12
0.0,58,58.0,0.0,30.0,0.0,0.0,0.0,0.0,-13.0,0.0,2.0,0.0,0.0,0.0,1.7107272920059226e-10,1.1710616147199352e-10,7.982542882291e-11,5.232675018174804e-11,3.5539779570968535e-11,2.2830397475479107e-11,1.4379981730869686e-11,9.926450483713388e-12,6.176522739479362e-12,3.7791244963028225e-12,2.3457120204472473e-12,1.4153583720917731e-12,8.392660539939027e-13,4.599396108932934e-13,2.723422402866656e-13,1.4340765892039052e-13,6.816460503836274e-14,2.9411353246123925e-09,2.5518141107954785e-09,1.890010843300213e-09,1.415420771682217e-09,1.0656493391466245e-09,8.146769284782604e-10,6.630230716960564e-10,4.59169350671117e-10,3.3718603574959657e-10,2.470172464541502e-10,1.797634234153001e-10,1.260201531531328e-10,9.033678532313241e-11,6.156803257499084e-11,4.096275084411931e-11,2.6819290754164415e-11,1.769406572418179e-11,1.089124389913817e-11,6.3893910729151946e-12,3.995861957863842e-12,2.3582873829149154e-12
0.0,59,59.0,0.0,30.0,0.0,0.0,0.0,0.0,-13.0,0.0,2.0,0.0,0.0,0.0,1.7400828847912413e-10,1.242465071232006e-10,8.290257151521282e-11,5.5234216280482163e-11,3.5711696525594563e-11,2.3778654673332656e-11,1.490294569021642e-11,9.325813073561997e-12,6.25527698351576e-12,3.927121586795694e-12,2.2605284386838612e-12,1.4109366975332393e-12,8.441817251504628e-13,5.053581078758818e-13,2.7334460216434034e-13,1.4443104383392099e-13,7.127350601941897e-14,3.101425071618824e-09,2.4674139296751564e-09,1.8903386192601254e-09,1.4114723158715907e-09,1.14144130076565e-09,8.053059357583943e-10,6.340598572880898e-10,4.704828188714266e-10,3.4721718801022144e-10,2.467935419251865e-10,1.8953758524913702e-10,1.2986487850437655e-10,9.299644245080395e-11,6.465538928818553e-11,4.156028712502535e-11,2.8535291267591944e-11,1.802494646279778e-11,1.1407771136925341e-11,7.027702040505271e-12,4.509996854185137e-12,2.3416254975870174e-12
0.0,60,60.0,0.0,30.0,0.0,0.0,0.0,0.0,-13.0,0.0,2.0,0.0,0.0,0.0,1.7078570626541737e-10,1.2735015342505907e-10,8.15819720073224e-11,5.554715723072575e-11,3.4606159789462666e-11,2.5353131080686185e-11,1.5754572208601745e-11,1.0310376745273875e-11,5.916390695656743e-12,3.691667339443872e-12,2.4930100328282444e-12,1.3445563844491394e-12,8.5954923377958e-13,4.976960941272248e-13,2.620633039243592e-13,1.4291805058149787e-13,7.802742294306122e-14,3.055315692351206e-09,2.566521098783195e-09,2.064739738474256e-09,1.4950165730530801e-09,1.1139225739555238e-09,8.47135957450952e-10,6.243919058016809e-10,4.849794303684119e-10,3.483815488756023e-10,2.6167197486279586e-10,1.9489112458406144e-10,1.338790064178474e-10,8.884577090053178e-11,6.702681378032969e-11,4.25920633219053e-11,2.7929011616867814e-11,1.7656185231237243e-11,1.0830065506327483e-11,6.993645684695371e-12,4.0472142742798005e-12,2.3526135049910196e-12
0.0,61,61.0,0.0,30.0,0.0,0.0,0.0,0.0,-13.0,0.0,2.0,0.0,0.0,0.0,1.7136481474506501e-10,1.2419997787154701e-10,8.061006192925224e-11,5.692822445974588e-11,3.592069632623628e-11,2.46252484356043e-11,1.4767654684312876e-11,9.57484112980093e-12,6.177578585738044e-12,3.848558923282163e-12,2.2387724606506e-12,1.5041131969995972e-12,8.431489947866537e-13,4.649645224660493e-13,2.6902148789106337e-13,1.5102377802325747e-13,7.021479703302707e-14,3.2315592817379115e-09,2.5404699399937843e-09,1.957121666867776e-09,1.464664109711602e-09,1.1328509500134299e-09,8.531630830695963e-10,6.553890813337015e-10,4.668850387884697e-10,3.5539567543431485e-10,2.653843316519141e-10,1.948373396802923e-10,1.4052797553354032e-10,9.3745289089673e-11,7.009742109138123e-11,4.2394730670980904e-11,2.8928219774664356e-11,1.8417113398275345e-11,1.1226365454437871e-11,7.2640883725395665e-12,4.2670620923305524e-12,2.575300646982697e-12
0.0,62,62.0,0.0,30.0,0.0,0.0,0.0,0.0,-13.0,0.0,2.0,0.0,0.0,0.0,1.7697328996711015e-10,1.2558382845412604e-10,8.358571803501324e-11,5.651687416295017e-11,3.8692010656388555e-11,2.4092863832154662e-11,1.5434564886517273e-11,9.68470299961537e-12,5.973048357789827e-12,3.7257821958319455e-12,2.500997492189505e-12,1.509053517744991e-12,8.670461581272838e-13,4.603706129045426e-13,2.8068461136437766e-13,1.3970177446344222e-13,7.804146588952104e-14,3.245062165604244e-09,2.5434658879784283e-09,2.0500388102674365e-09,1.4561387363001066e-09,1.0797920505216442e-09,8.319709518273079e-10,6.380160733843852e-10,4.881137741438386e-10,3.8513644780713513e-10,2.636442090334384e-10,1.7878700628714776e-10,1.3450894441873932e-10,9.437971258607596e-11,6.501250207680455e-11,4.468226287915941e-11,2.854041031467616e-11,1.8430734000779784e-11,1.1317049379645672e-11,6.781270597441988e-12,4.197868635672456e-12,2.4192818319669158e-12
0.0,63,63.0,0.0,30.0,0.0,0.0,0.0,0.0,-13.0,0.0,2.0,0.0,0.0,0.0,1.865971902807074e-10,1.2312587671313688e-10,9.218994340405925e-11,5.807122918402252e-11,3.718587978845702e-11,2.38911144821604e-11,1.642321968512483e-11,9.64421185882783e-12,6.310658474294212e-12,3.9038419986959154e-12,2.406093580830281e-12,1.4296430172092455e-12,8.754970296402659e-13,5.012285353344062e-13,2.5665754332193977e-13,1.4673758244814507e-13,7.401143870576334e-14,3.2784743571404893e-09,2.5725384354370666e-09,2.0737635511825895e-09,1.5057932397576882e-09,1.1860297575893015e-09,8.87282498513959e-10,6.323826445434283e-10,5.046800812635723e-10,3.751944460983348e-10,2.6427719552251676e-10,1.9766474301218716e-10,1.3429321605561552e-10,9.735202308349558e-11,6.618647157071052e-11,4.69849351139004e-11,3.062754519573417e-11,1.8247128097026788e-11,1.1990621465846703e-11,7.499642120350561e-12,4.0117854941265564e-12,2.448370366071136e-12
