Line_number,Fiducial,Easting,Northing,Height,Elevation,tx_pitch,tx_roll,tx_yaw,txrx_dx,txrx_dy,txrx_dz,rx_pitch,rx_roll,rx_yaw,S0Z_time_1.431e-04,S0Z_time_1.801e-04,S0Z_time_2.266e-04,S0Z_time_2.846e-04,S0Z_time_3.581e-04,S0Z_time_4.506e-04,S0Z_time_5.671e-04,S0Z_time_7.136e-04,S0Z_time_8.981e-04,S0Z_time_1.131e-03,S0Z_time_1.423e-03,S0Z_time_1.791e-03,S0Z_time_2.255e-03,S0Z_time_2.838e-03,S0Z_time_3.573e-03,S0Z_time_4.498e-03,S0Z_time_5.662e-03,S1Z_time_1.409e-05,S1Z_time_1.610e-05,S1Z_time_1.909e-05,S1Z_time_2.360e-05,S1Z_time_2.960e-05,S1Z_time_3.709e-05,S1Z_time_4.609e-05,S1Z_time_5.759e-05,S1Z_time_7.209e-05,S1Z_time_9.060e-05,S1Z_time_1.141e-04,S1Z_time_1.431e-04,S1Z_time_1.801e-04,S1Z_time_2.266e-04,S1Z_time_2.846e-04,S1Z_time_3.581e-04,S1Z_time_4.506e-04,S1Z_time_5.671e-04,S1Z_time_7.136e-04,S1Z_time_8.981e-04,S1Z_time_1.131e-03
0.0,0,0.0,0.0,30.0,0.0,0.0,0.0,0.0,-13.0,0.0,2.0,0.0,0.0,0.0,1.0795193839508071e-10,8.061228284951161e-11,4.9227657694690964e-11,3.229474366268417e-11,1.8792858054058046e-11,1.1211176426207767e-11,5.942389526442838e-12,3.3004364124749757e-12,1.6974722484468726e-12,8.64019031565962e-13,3.993635148571297e-13,1.884968412090217e-13,8.83794356362572e-14,3.6090902938845536e-14,1.7222124051655474e-14,6.7678187729701006e-15,3.508529676341686e-15,4.2111111109307835e-09,3.1103189937714873e-09,2.1410844352232468e-09,1.267479250085637e-09,7.861004509957507e-10,4.881468427789119e-10,3.433634008382031e-10,2.531599649669751e-10,1.9077046720596828e-10,1.608352247293962e-10,1.1294604923753343e-10,8.144139800666548e-11,5.864471188799721e-11,3.9046751410763044e-11,2.5626678177233487e-11,1.5137098006656762e-11,9.278997812279489e-12,5.517005627291587e-12,2.697745949953882e-12,1.3926169144191368e-12,6.204979944730726e-13
0.0,1,1.0,0.0,30.0,0.0,0.0,0.0,0.0,-13.0,0.0,2.0,0.0,0.0,0.0,1.0927010796330601e-10,7.763611864401699e-11,5.50570395528088e-11,3.562577214837695e-11,2.211263597287099e-11,1.28963043982633e-11,6.802826045940064e-12,3.921840174705966e-12,2.0318082621281316e-12,1.061387869860247e-12,5.531985341591675e-13,2.461626862589071e-13,1.15903304511645e-13,5.06870475603468e-14,2.4847855309795978e-14,8.770295235431945e-15,3.1777347962331087e-15,4.289668684340087e-09,3.0224186142300253e-09,2.159760846781347e-09,1.2930803781033159e-09,7.300861205603363e-10,4.794145103643137e-10,3.4363057593332754e-10,2.519653555331294e-10,1.8583557285144493e-10,1.453647724798497e-10,1.1056259029876184e-10,8.24431171522348e-11,5.890392303486652e-11,4.081806192802236e-11,2.7947695272152097e-11,1.6727211233391284e-11,1.0321856169573615e-11,6.105344565314989e-12,3.236678986023771e-12,1.6941563047857326e-12,7.925420717818992e-13
0.0,2,2.0,0.0,30.0,0.0,0.0,0.0,0.0,-13.0,0.0,2.0,0.0,0.0,0.0,1.0862514837429582e-10,7.208534098070389e-11,4.989163771044827e-11,3.472791931698113e-11,2.1600294875187093e-11,1.3302255178802439e-11,8.07009476075612e-12,4.511279418835473e-12,2.3379405558102208e-12,1.277711631058259e-12,6.3530013048634e-13,3.030829377846028e-13,1.4098634111339388e-13,6.962819151815656e-14,3.031668689365003e-14,1.2640935928707457e-14,4.743978065569948e-15,4.243045000376234e-09,3.1204491924471814e-09,1.9766140069919632e-09,1.2231856779500758e-09,7.80322989966342e-10,4.838651607400316e-10,3.3916321383530943e-10,2.3590101165814804e-10,1.820820515417572e-10,1.385100383651147e-10,1.0517763851924011e-10,8.174072479459178e-11,6.33310953900095e-11,4.257630409103942e-11,2.8179819362590972e-11,1.8670927174688726e-11,1.1313875779606147e-11,6.1166887851015866e-12,3.727518769185188e-12,1.8821755663936828e-12,9.83921119514063e-13
0.0,3,3.0,0.0,30.0,0.0,0.0,0.0,0.0,-13.0,0.0,2.0,0.0,0.0,0.0,1.030682479050072e-10,7.483212333529366e-11,5.291274240257553e-11,3.574187656299812e-11,2.3811416694912077e-11,1.4969829774153727e-11,9.27630194131447e-12,4.926318868848716e-12,2.773581347127829e-12,1.382079013576611e-12,7.166261146268446e-13,3.547581305710414e-13,1.76373691380407e-13,7.964140367723332e-14,3.6850669361630394e-14,1.4189392185814348e-14,5.5402065672261165e-15,4.1072951681319245e-09,3.110568429054747e-09,2.1158178381688365e-09,1.2597553672392744e-09,7.846881734453208e-10,4.814224428440309e-10,3.197327946661712e-10,2.3213047894444875e-10,1.7919452776286333e-10,1.3969864104753376e-10,1.0847672048390825e-10,8.153467252054332e-11,6.056150418346956e-11,4.2973335385292646e-11,2.8845135862825255e-11,1.9374758157201585e-11,1.2091967986554542e-11,6.9952711062947845e-12,3.902204733114959e-12,2.030499827484783e-12,1.0900876362383152e-12
0.0,4,4.0,0.0,30.0,0.0,0.0,0.0,0.0,-13.0,0.0,2.0,0.0,0.0,0.0,1.0231330618138116e-10,7.153921920967802e-11,5.240655342346099e-11,3.633643510515568e-11,2.389562610290735e-11,1.6663849202154976e-11,9.62761751824226e-12,5.182046886813936e-12,3.1580691082534567e-12,1.638499265883998e-12,8.197211657786674e-13,4.3029653176823205e-13,2.1568714155734877e-13,1.0291375135514075e-13,4.588486151507704e-14,1.8939952499518235e-14,8.200377452537378e-15,4.2376799178792485e-09,3.0635408991142805e-09,1.9588052281436163e-09,1.2469445481101186e-09,7.518591730379764e-10,4.911864724873376e-10,3.116721558403704e-10,2.3128032415891216e-10,1.779964196409752e-10,1.3125270630734892e-10,1.0205245816134808e-10,8.069858390317992e-11,6.167540047524354e-11,4.187805502904178e-11,2.9448238373268066e-11,2.0120986437916852e-11,1.2608463770865593e-11,7.779282211606635e-12,4.099186562075891e-12,2.394228353358298e-12,1.167772438278752e-12
0.0,5,5.0,0.0,30.0,0.0,0.0,0.0,0.0,-13.0,0.0,2.0,0.0,0.0,0.0,9.734692171762428e-11,6.977755934767149e-11,5.0472143943235103e-11,3.469745834185878e-11,2.2641459908696268e-11,1.6304571873796347e-11,1.0243719410730285e-11,6.02006836829246e-12,3.3594843464632187e-12,1.8819456061301313e-12,9.464945802265077e-13,5.044796801161653e-13,2.4247272143930915e-13,1.2258535840803842e-13,5.492596232409164e-14,2.5881143815653198e-14,9.647412485448447e-15,4.173583779130983e-09,3.0849308551630466e-09,2.040790853039418e-09,1.2481559918822554e-09,7.33302248301736e-10,4.86690246247692e-10,3.3050851294239384e-10,2.2257952456644964e-10,1.6968668448062325e-10,1.3283861421527594e-10,1.0069189663738562e-10,7.19815245027827e-11,5.712766963305162e-11,3.99514320198552e-11,3.007230459402097e-11,2.070122440630106e-11,1.2822468372797817e-11,8.196719733643264e-12,4.6303863969241285e-12,2.5798991931481927e-12,1.3942158013483592e-12
0.0,6,6.0,0.0,30.0,0.0,0.0,0.0,0.0,-13.0,0.0,2.0,0.0,0.0,0.0,9.624246228311985e-11,7.241637162317523e-11,5.17851719031666e-11,3.587996221510121e-11,2.5184812921722593e-11,1.59373717912575e-11,1.0732870358173088e-11,6.176209402819873e-12,3.6259249884585957e-12,1.9083204473468848e-12,1.0928065612000191e-12,5.490157184269961e-13,2.750722126013796e-13,1.333494907059958e-13,6.420144669980954e-14,2.707322044254842e-14,1.0858365216822637e-14,4.112878217198673e-09,3.0714600479608663e-09,2.0156232416992164e-09,1.1746360570074583e-09,6.748432314036919e-10,4.902908168537453e-10,3.5217039541004934e-10,2.3973422889701166e-10,1.7888867982943275e-10,1.25054808313755e-10,9.31825530575041e-11,7.284137782219484e-11,5.589448562665467e-11,3.908631328025633e-11,2.916870040895955e-11,1.9802981385720337e-11,1.3209731202660325e-11,8.607568780521629e-12,5.0670591208447805e-12,2.7303653773844454e-12,1.4874435174041872e-12
0.0,7,7.0,0.0,30.0,0.0,0.0,0.0,0.0,-13.0,0.0,2.0,0.0,0.0,0.0,9.726784006990136e-11,6.778086249611228e-11,5.0487172974740426e-11,3.6168521516607285e-11,2.5299119230682728e-11,1.693157002204121e-11,1.1182483757127537e-11,6.4037872077792545e-12,3.928929728404226e-12,2.242166674422855e-12,1.2171425906851687e-12,6.074179599580774e-13,3.154163718367054e-13,1.5168993089556388e-13,7.117493411654202e-14,3.3154266194781406e-14,1.3999250082075567e-14,4.148877158663205e-09,2.9747890863688406e-09,2.0003168145660593e-09,1.1928330975725445e-09,7.637160253903317e-10,4.944077878407736e-10,3.4489269804375204e-10,2.3885494875395263e-10,1.7370482343570927e-10,1.3980288939894322e-10,9.618391313192953e-11,6.854250730794937e-11,5.416359078635759e-11,3.732630194319013e-11,3.0688210829476595e-11,2.0800545553419246e-11,1.33243161159074e-11,8.433265628253861e-12,5.040557510624145e-12,2.9719535804570992e-12,1.595146136577903e-12
0.0,8,8.0,0.0,30.0,0.0,0.0,0.0,0.0,-13.0,0.0,2.0,0.0,0.0,0.0,9.523538232955644e-11,7.352461920704569e-11,4.922707065073539e-11,3.474550664435661e-11,2.539150347351254e-11,1.6892993512464418e-11,1.042933877050269e-11,6.750480610652998e-12,4.017994942218761e-12,2.40331894269188e-12,1.3556720555002401e-12,7.12282411728581e-13,3.5651305960717563e-13,1.7291348754960356e-13,7.944355193851723e-14,3.765250013099883e-14,1.428894498798498e-14,4.062609639577933e-09,3.04747936709648e-09,2.0344661211440425e-09,1.2767085254079617e-09,7.437858979611374e-10,4.850541472502496e-10,3.5132798126422517e-10,2.492812094870737e-10,1.8635796960001932e-10,1.2551065997387764e-10,9.847003045620814e-11,7.415784175038774e-11,5.400014684259536e-11,4.191321576332858e-11,2.904127066501338e-11,1.8557384654976893e-11,1.3881898917375298e-11,8.163838029896346e-12,5.1326438521231e-12,3.0727401009621635e-12,1.769211630785202e-12
0.0,9,9.0,0.0,30.0,0.0,0.0,0.0,0.0,-13.0,0.0,2.0,0.0,0.0,0.0,9.42222230755878e-11,6.769558517055986e-11,5.065564728898147e-11,3.302160508300826e-11,2.5141044438353753e-11,1.6321088528179058e-11,1.0478420869887301e-11,7.031650326759894e-12,4.255102657634503e-12,2.5054597163678654e-12,1.4276143251111416e-12,7.528498428576981e-13,4.0503458821166165e-13,2.009577073341641e-13,8.994556493976841e-14,4.264987572305023e-14,1.863801029440298e-14,3.823148557990741e-09,3.09561957434266e-09,1.955799419462493e-09,1.2556246921261024e-09,7.468114922106141e-10,5.050074266159262e-10,3.3670608724281033e-10,2.528069899290811e-10,1.8020144244446622e-10,1.3343382998483248e-10,9.809623983075619e-11,7.179102313366636e-11,5.18109321442868e-11,3.784707065682057e-11,3.0031062964860726e-11,2.076609931349104e-11,1.3566881569389995e-11,9.001029408504859e-12,5.237476950533348e-12,3.1506375163599347e-12,1.6497889565946346e-12
0.0,10,10.0,0.0,30.0,0.0,0.0,0.0,0.0,-13.0,0.0,2.0,0.0,0.0,0.0,9.462327016812728e-11,6.74421602413827e-11,4.806900881416189e-11,3.480127473576091e-11,2.351617262259589e-11,1.6922904983977293e-11,1.1287790263292564e-11,7.2615512755478874e-12,4.520079395468387e-12,2.5569025762949327e-12,1.4097166923589741e-12,8.146861846715082e-13,4.2494481334906834e-13,2.1438885949888224e-13,1.0715032757694068e-13,4.84022804710534e-14,2.235434143970043e-14,4.036276346925155e-09,2.9452912928438776e-09,1.936936361021212e-09,1.210031829469436e-09,7.598190284351124e-10,4.968743770026947e-10,3.575181242524201e-10,2.5727927570611383e-10,1.8893076612973392e-10,1.3087475112459185e-10,9.682571045957412e-11,7.333509717756527e-11,5.2325732820729916e-11,3.983246953369813e-11,2.5858344250338544e-11,2.0578257124526326e-11,1.3112906638227693e-11,8.715934524539074e-12,5.376898190373006e-12,3.2999573450073597e-12,1.793647703121482e-12
0.0,11,11.0,0.0,30.0,0.0,0.0,0.0,0.0,-13.0,0.0,2.0,0.0,0.0,0.0,1.0351301967372016e-10,6.905181506887997e-11,4.7772745717365e-11,3.5331944078717525e-11,2.4810456145666504e-11,1.6798943437481816e-11,1.1783605959736427e-11,7.53263189592705e-12,4.721782721088266e-12,2.628439023584425e-12,1.5422789953018544e-12,8.466772058490818e-13,4.647714145249354e-13,2.385234452632194e-13,1.1638319347879296e-13,5.270828678099895e-14,2.3154674783829297e-14,3.970216717635234e-09,3.0448158279227903e-09,2.0659502987872874e-09,1.223253861785969e-09,7.46363802788123e-10,4.892819390110313e-10,3.4985622946633923e-10,2.2890962206595172e-10,1.8401290394635756e-10,1.3168004563030687e-10,9.507447945328419e-11,7.118150680645905e-11,5.060592777324698e-11,3.848667916580143e-11,2.732133950071992e-11,1.9963954495428803e-11,1.2494028670942689e-11,8.837280449832455e-12,5.234288674214372e-12,3.228769985053512e-12,1.934850696322843e-12
0.0,12,12.0,0.0,30.0,0.0,0.0,0.0,0.0,-13.0,0.0,2.0,0.0,0.0,0.0,9.699207678692356e-11,7.108103604680659e-11,5.0902213650677464e-11,3.485416340695832e-11,2.459209532503633e-11,1.5979102712231612e-11,1.1374237732718365e-11,7.634913823927388e-12,5.08430995981099e-12,2.7645393928200298e-12,1.6566194099054254e-12,8.990098479849478e-13,4.83027727688037e-13,2.5809434182407756e-13,1.237135451105998e-13,5.63756134948949e-14,2.4645510958130086e-14,4.12099102172302e-09,3.047341479307273e-09,1.8438322606678857e-09,1.1904841888433726e-09,7.581203712259557e-10,4.909374551628644e-10,3.488122305652279e-10,2.5263078499745535e-10,1.8918146771643482e-10,1.3348009431961786e-10,1.0631888263966483e-10,7.248084223469714e-11,5.1304630988512876e-11,3.79379314222318e-11,2.735721564189971e-11,1.8684372806811523e-11,1.317193499854585e-11,8.962578864865479e-12,5.600074092105052e-12,3.2949368369931094e-12,1.9540249100779483e-12
0.0,13,13.0,0.0,30.0,0.0,0.0,0.0,0.0,-13.0,0.0,2.0,0.0,0.0,0.0,9.91568734961521e-11,6.944702953499224e-11,4.777611983941339e-11,3.279454571230408e-11,2.4007020583985614e-11,1.6861750565483297e-11,1.2186348773688237e-11,8.074197187180709e-12,4.850683667272138e-12,2.785660868086932e-12,1.6070089752721223e-12,8.907683561470912e-13,5.518503025338885e-13,2.686087816773398e-13,1.349737356417467e-13,6.324222889591303e-14,2.78426453916606e-14,4.112832899429777e-09,2.883359650225763e-09,1.9378424941892547e-09,1.1884591643416273e-09,7.790110725679359e-10,4.982674280679805e-10,3.4994841846720104e-10,2.636610516026535e-10,1.928161999826629e-10,1.3290115349317903e-10,1.0022555921860698e-10,7.055421283633013e-11,5.526149423854049e-11,3.800849823697298e-11,2.5090537287900006e-11,1.8678058439083713e-11,1.3292842916318674e-11,8.676775189530647e-12,5.508740615438468e-12,3.321046601326531e-12,2.039646165436348e-12
0.0,14,14.0,0.0,30.0,0.0,0.0,0.0,0.0,-13.0,0.0,2.0,0.0,0.0,0.0,9.682375341808939e-11,7.282171670433521e-11,4.8409970109378577e-11,3.5050355467660184e-11,2.430793371734623e-11,1.6612658936039007e-11,1.1573207805979645e-11,7.671280756564961e-12,4.5920665801536174e-12,2.918519518491446e-12,1.805045435917722e-12,9.966090901121683e-13,5.462236814077531e-13,2.801909540414582e-13,1.3775197461728278e-13,6.74122220992556e-14,3.023676493438037e-14,4.136302716222677e-09,2.903881032816058e-09,1.914178555004766e-09,1.1775750248901893e-09,7.935295652064433e-10,4.997523291067801e-10,3.472014036231665e-10,2.584155025465914e-10,1.92733503217178e-10,1.3920007475721243e-10,1.0222524896301424e-10,7.202067566203008e-11,5.209774106916286e-11,3.74429370120662e-11,2.703759276650653e-11,1.948180093956299e-11,1.3075932085011383e-11,8.259895460874459e-12,5.276866194875898e-12,3.5206559723959496e-12,1.9626243257941997e-12
0.0,15,15.0,0.0,30.0,0.0,0.0,0.0,0.0,-13.0,0.0,2.0,0.0,0.0,0.0,1.0855494364588106e-10,7.300459249699855e-11,4.748380794271701e-11,3.280599503294065e-11,2.386029326190393e-11,1.6715760857181636e-11,1.1295604394484718e-11,7.39027472592968e-12,4.918415705293116e-12,3.021979590166585e-12,1.827102278706943e-12,1.025628504573568e-12,6.207568880258628e-13,2.9991819685116925e-13,1.5260172745600626e-13,7.852038741946891e-14,3.682652204134352e-14,4.281087165329984e-09,3.015287883316564e-09,1.9943279461501292e-09,1.174883777355197e-09,7.112440099084216e-10,5.043359946145812e-10,3.53722675475241e-10,2.5605998996299944e-10,1.9211128171083914e-10,1.3855754512179527e-10,1.0113848088043835e-10,7.291451588677552e-11,5.1048120202769467e-11,3.727467321040385e-11,2.7619629743421263e-11,1.8755794088073387e-11,1.2675924448352502e-11,8.404622330468024e-12,5.576262891090591e-12,3.4857070735244342e-12,2.0331969530766596e-12
0.0,16,16.0,0.0,30.0,0.0,0.0,0.0,0.0,-13.0,0.0,2.0,0.0,0.0,0.0,1.0015568148207788e-10,6.842594501343044e-11,5.0338376686238546e-11,3.324057632377309e-11,2.2781445855453182e-11,1.6144579705518076e-11,1.1092290200624723e-11,7.682493495805171e-12,5.029565801256458e-12,3.1904273100481666e-12,1.8526008671945235e-12,1.0470789922485267e-12,5.739545368226675e-13,3.1081663270109245e-13,1.5636133032802945e-13,7.913772457907157e-14,3.905012861078131e-14,4.092613284413993e-09,2.7463696867730394e-09,1.9286154168359016e-09,1.1460769861841404e-09,7.599392935612408e-10,4.957075453934246e-10,3.569808391931575e-10,2.727182308296518e-10,1.955830449505961e-10,1.4250433255344384e-10,1.0675220870439086e-10,7.233577137137028e-11,5.2729416491696565e-11,3.797698788588824e-11,2.7392595240225826e-11,1.9008151043965134e-11,1.2841167172931714e-11,8.687751273392128e-12,5.5595226397227555e-12,3.486377540269396e-12,2.1179764295877947e-12
0.0,17,17.0,0.0,30.0,0.0,0.0,0.0,0.0,-13.0,0.0,2.0,0.0,0.0,0.0,1.0106270859245227e-10,6.933267198596644e-11,4.9959900686076126e-11,3.576395457310649e-11,2.3973242715958334e-11,1.6096215998329145e-11,1.1914320788679331e-11,7.620652195484011e-12,5.023097983289448e-12,2.9601733787103625e-12,1.915195738370164e-12,1.1347917834864636e-12,6.220628777911706e-13,3.4409831546369014e-13,1.671688153693449e-13,8.294692018719017e-14,4.1152193683122055e-14,4.046541406852952e-09,2.7556955968117586e-09,1.8993233357863585e-09,1.1359818594041817e-09,7.760558327954664e-10,4.932001548125365e-10,3.6535655089797776e-10,2.6518862695893447e-10,1.8896731442540385e-10,1.4611832660695653e-10,9.825492043946204e-11,7.754132803331028e-11,5.1832354730520376e-11,4.035350392325889e-11,2.7265801004973155e-11,1.8796304195429518e-11,1.2287939296893636e-11,8.574929208088136e-12,5.4026452035654036e-12,3.382338762022663e-12,2.086021386714507e-12
0.0,18,18.0,0.0,30.0,0.0,0.0,0.0,0.0,-13.0,0.0,2.0,0.0,0.0,0.0,1.022509035641443e-10,7.350610802395867e-11,4.807301894598774e-11,3.4442062267322854e-11,2.4098862224244026e-11,1.6799471083702847e-11,1.1586274111472052e-11,7.872317831261507e-12,5.062073316677662e-12,3.1467773745171104e-12,1.9403991450634083e-12,1.191250242875432e-12,6.52911916834116e-13,3.604229349345422e-13,1.8208921545251907e-13,9.563478140025758e-14,4.362259466830582e-14,3.908135834106933e-09,2.7197160931949317e-09,1.930772110921868e-09,1.2147022561306878e-09,7.812883389000188e-10,5.206160562485842e-10,3.547050204496628e-10,2.61435071779164e-10,1.9053597080452802e-10,1.473689700887461e-10,1.069069425734698e-10,7.698515493843887e-11,5.4958080466982624e-11,3.823646494901595e-11,2.6423781682532087e-11,1.8086896990531077e-11,1.2281640908689491e-11,8.215682673771957e-12,5.64414598337629e-12,3.4826123499545305e-12,2.1329466878889294e-12
0.0,19,19.0,0.0,30.0,0.0,0.0,0.0,0.0,-13.0,0.0,2.0,0.0,0.0,0.0,1.1544497847588565e-10,7.516313893774343e-11,5.102221568659006e-11,3.4997767465905944e-11,2.3634584067337368e-11,1.721692952500316e-11,1.1703667989864304e-11,7.894054209413463e-12,5.266424208941506e-12,3.1005218349117075e-12,1.9269458376502258e-12,1.1945889876899206e-12,6.889482881087728e-13,3.6519379074617444e-13,1.9666988101577464e-13,9.793905523005212e-14,4.478114526613097e-14,3.730408765569713e-09,2.8284672488521924e-09,1.9052439754800683e-09,1.1345927880410315e-09,7.636970058717223e-10,5.025574589293113e-10,3.504731916802909e-10,2.7179025601501094e-10,2.0451778573076443e-10,1.40997559102643e-10,1.0746156718582437e-10,7.532403037141472e-11,5.6168789125514005e-11,3.9031034521311035e-11,2.768866814217886e-11,1.8603538576398298e-11,1.2305477106361184e-11,8.745768410647972e-12,5.531868438432711e-12,3.4342344309888007e-12,2.061435531574456e-12
0.0,20,20.0,0.0,30.0,0.0,0.0,0.0,0.0,-13.0,0.0,2.0,0.0,0.0,0.0,1.0433154366072805e-10,7.635476804918054e-11,5.128842275585877e-11,3.472249099660346e-11,2.3280936394093107e-11,1.6627987207790044e-11,1.1022825968246335e-11,7.599579019076637e-12,4.8563323711339314e-12,3.2527422459488097e-12,2.011829049496707e-12,1.213338541242606e-12,7.064331483103797e-13,3.6691331380988704e-13,1.9949564503357198e-13,1.0006015066756643e-13,4.7727004251521356e-14,3.7409495439140044e-09,2.78066396668742e-09,1.7945384868562459e-09,1.1700082684902623e-09,7.846659335983717e-10,4.892165085335526e-10,3.7004677827300157e-10,2.747061641361551e-10,2.0052740944502976e-10,1.529210409483298e-10,1.0459179394562394e-10,7.578977335843043e-11,5.381466086944785e-11,3.912876626425376e-11,2.7612720730858056e-11,1.900483119790712e-11,1.2276968586652963e-11,8.116300746333364e-12,5.437315706998978e-12,3.474347198703453e-12,1.974346021686965e-12
0.0,21,21.0,0.0,30.0,0.0,0.0,0.0,0.0,-13.0,0.0,2.0,0.0,0.0,0.0,1.0859171038270766e-10,7.679483702716877e-11,5.1856592539799514e-11,3.549886334165605e-11,2.496268408707276e-11,1.638309198606519e-11,1.1619533470391191e-11,7.580977053527676e-12,5.190502117636182e-12,3.3062982032281026e-12,1.9974752756092833e-12,1.1954730050746047e-12,6.978405678604094e-13,3.7200627803876816e-13,2.0471630969592076e-13,1.081356754424301e-13,5.242155300133738e-14,3.661196690170416e-09,2.709049501400928e-09,1.8388121941977013e-09,1.1830988753999e-09,7.80982572612424e-10,5.372217074114549e-10,3.627780856846447e-10,2.832728519462409e-10,2.0814722137184965e-10,1.4896708744323564e-10,1.1030340934755838e-10,7.960196261057637e-11,5.823936723785037e-11,3.905025164153057e-11,2.8058542263134027e-11,1.8071611785185375e-11,1.2586054723243104e-11,7.703522708355758e-12,5.436582143753532e-12,3.3911846579523314e-12,1.941239393433587e-12
0.0,22,22.0,0.0,30.0,0.0,0.0,0.0,0.0,-13.0,0.0,2.0,0.0,0.0,0.0,1.0502521246987029e-10,7.343087072185123e-11,5.126617319903376e-11,3.529135728982195e-11,2.394382936537232e-11,1.6421603966513304e-11,1.1091542840982742e-11,7.990872933420975e-12,5.08505666704871e-12,3.353142123899805e-12,2.0791675260655784e-12,1.2506464121355464e-12,7.321110972710688e-13,4.052655927433898e-13,2.1237923119496135e-13,1.15715975678008e-13,5.369679051615086e-14,3.651936394517385e-09,2.9189842040894357e-09,1.9239437013840566e-09,1.1232852727529232e-09,7.267867613213817e-10,5.206589902543058e-10,3.812805544824189e-10,2.8072063834143416e-10,1.9847964111321568e-10,1.4576214919918407e-10,1.1034519597001551e-10,7.85131968386277e-11,5.4177941562607114e-11,4.174086332166134e-11,2.798276380653168e-11,1.8379156969547407e-11,1.242887003329555e-11,7.978986761200632e-12,5.1526955098155076e-12,3.2246932676193214e-12,2.096072627192324e-12
0.0,23,23.0,0.0,30.0,0.0,0.0,0.0,0.0,-13.0,0.0,2.0,0.0,0.0,0.0,1.1119127868766415e-10,7.704444595143307e-11,5.147982961099769e-11,3.744909261613458e-11,2.4755105494527094e-11,1.785057869395405e-11,1.1609225481990644e-11,7.763568496938856e-12,5.157032724726831e-12,3.3597963720512294e-12,2.166766731160571e-12,1.226768663013463e-12,7.445161819647435e-13,4.1017448252919904e-13,2.1524657445700087e-13,1.1185831755648862e-13,5.633318888661848e-14,3.746683935530905e-09,2.6231901779791253e-09,1.7666725410805433e-09,1.0986249533623895e-09,7.639624166485963e-10,5.235043387082179e-10,3.716829976263112e-10,2.771184812340406e-10,2.2210015994039595e-10,1.5647305343834423e-10,1.1055557891384405e-10,7.869032832607599e-11,5.763128540760595e-11,3.9828402501917106e-11,2.867858412399838e-11,1.861204797873906e-11,1.2116471069178211e-11,7.695812479223394e-12,5.0401280855158695e-12,3.4237047398937326e-12,2.0673968026536613e-12
0.0,24,24.0,0.0,30.0,0.0,0.0,0.0,0.0,-13.0,0.0,2.0,0.0,0.0,0.0,1.0949389312590522e-10,7.912513893970582e-11,5.235468644332408e-11,3.577462981918473e-11,2.2699014450723697e-11,1.6963212591860987e-11,1.1297221265182967e-11,7.384699189719919e-12,5.134443776535717e-12,3.3067301757635044e-12,2.0821801883447994e-12,1.2321511489086576e-12,7.803446450065502e-13,4.1978362077651684e-13,2.342943015272164e-13,1.189997056162392e-13,5.817443066721276e-14,3.612456252011813e-09,2.718674322793618e-09,1.8141880609835347e-09,1.178744294958566e-09,7.674413917729318e-10,5.468420794386656e-10,3.9146400642007614e-10,2.847137236375479e-10,2.119145541413607e-10,1.5682260158318426e-10,1.1134891367547948e-10,8.195056888892518e-11,5.97881827348812e-11,3.896019456126162e-11,2.6532314970148224e-11,1.8524826539247147e-11,1.2436318962591268e-11,8.007597386979419e-12,5.193112479339919e-12,3.2047980743550103e-12,2.002108403987517e-12
0.0,25,25.0,0.0,30.0,0.0,0.0,0.0,0.0,-13.0,0.0,2.0,0.0,0.0,0.0,1.159347919556662e-10,7.898560367822818e-11,5.466172354177277e-11,3.547253215364825e-11,2.6187864154148623e-11,1.7507250826600383e-11,1.1191254962367169e-11,7.589614302717376e-12,5.105206889040691e-12,3.457634580429031e-12,2.0954437830367034e-12,1.2781907865851428e-12,7.647887795434332e-13,4.193676532320614e-13,2.3752066051231635e-13,1.2340654289486271e-13,5.937214582438668e-14,3.6914362699282362e-09,2.5755013890283736e-09,1.8158619506194863e-09,1.1813636534282609e-09,7.919316632811797e-10,5.420714791654371e-10,3.8548473315562877e-10,2.838647287335471e-10,2.062599490791123e-10,1.6222358559898312e-10,1.1087259956372752e-10,8.019516625793826e-11,5.7563878579543483e-11,4.199010095079054e-11,2.8485535080873262e-11,1.9217424960644245e-11,1.3043547822574574e-11,8.08215460173411e-12,5.142663966647963e-12,3.464550845816684e-12,1.9683753540407457e-12
0.0,26,26.0,0.0,30.0,0.0,0.0,0.0,0.0,-13.0,0.0,2.0,0.0,0.0,0.0,1.1401393915897444e-10,7.919009934603741e-11,5.337222243247013e-11,3.825543593984319e-11,2.4690895256268513e-11,1.6922835904632318e-11,1.1363937255249865e-11,7.610120381007628e-12,5.2569063826094525e-12,3.3260838723302795e-12,2.0862600309681356e-12,1.2696194568936546e-12,7.857976253645657e-13,4.4527966336471177e-13,2.3813901328266075e-13,1.2180281347884093e-13,6.603999059398562e-14,3.4964464409215658e-09,2.6732581787038366e-09,1.8852088597907906e-09,1.1423974977057791e-09,7.642727289743552e-10,5.422054671502244e-10,3.9405179901458114e-10,3.018819297520702e-10,2.0669210917489507e-10,1.6341800770989479e-10,1.204834418865832e-10,8.604913545356099e-11,5.835057683488358e-11,4.033517974338334e-11,2.7811204669531952e-11,1.985997827851469e-11,1.2061613828347883e-11,8.342365296894999e-12,5.2736871379371596e-12,3.3685328488550734e-12,1.9869688026624384e-12
0.0,27,27.0,0.0,30.0,0.0,0.0,0.0,0.0,-13.0,0.0,2.0,0.0,0.0,0.0,1.1818242629940815e-10,7.809289579582971e-11,5.115017598594079e-11,3.6912679223828696e-11,2.5055545235697867e-11,1.686199034638303e-11,1.203085865689238e-11,7.900266058690956e-12,5.284170700587072e-12,3.18135793508262e-12,2.1553892222270298e-12,1.347701492095356e-12,8.141152437049503e-13,4.816047057412469e-13,2.3763878999070034e-13,1.3110548632914054e-13,6.751226313374582e-14,3.5907308124972522e-09,2.479200767165398e-09,1.7997582512863393e-09,1.2016766169214329e-09,7.64038850213307e-10,5.708990068892291e-10,3.938456487908236e-10,2.9971038742694673e-10,2.2767567849108134e-10,1.6503001414615495e-10,1.1774353535418328e-10,8.56491909219421e-11,6.022853473040149e-11,4.165988540189489e-11,2.8952586462676607e-11,1.9971034866865287e-11,1.251896329986958e-11,8.287096749524105e-12,5.235811609808494e-12,3.3715357803292407e-12,2.033972966340382e-12
0.0,28,28.0,0.0,30.0,0.0,0.0,0.0,0.0,-13.0,0.0,2.0,0.0,0.0,0.0,1.218024070882402e-10,7.882392714557198e-11,5.3304872909567e-11,3.9473526317540414e-11,2.5276489851604294e-11,1.7105749304150112e-11,1.1571433336860729e-11,7.650949835099136e-12,5.291133376042813e-12,3.189497459738641e-12,2.241019832145131e-12,1.2690059307426874e-12,8.000142812288379e-13,4.698530996441788e-13,2.415556051439041e-13,1.3825579131416777e-13,7.03044664903418e-14,3.677575409649923e-09,2.532395945124249e-09,1.8033807833306413e-09,1.1677901906652912e-09,7.707237540995276e-10,5.600418908552631e-10,3.9468163978627477e-10,2.929465288232429e-10,2.2604794055196577e-10,1.5805441720639283e-10,1.2181725869781174e-10,9.103362390765853e-11,5.942053603075761e-11,4.1360905587634845e-11,2.983797172548388e-11,1.9079601659021094e-11,1.2800594224368908e-11,8.402290028303468e-12,5.412996198586629e-12,3.288357039041563e-12,2.1156969495140934e-12
0.0,29,29.0,0.0,30.0,0.0,0.0,0.0,0.0,-13.0,0.0,2.0,0.0,0.0,0.0,1.1732473070233248e-10,8.185696606444247e-11,6.054819157708912e-11,3.8562238984942224e-11,2.621301722827735e-11,1.720268508081974e-11,1.2186201140113195e-11,8.035064905262279e-12,5.140640867761149e-12,3.3687482965524857e-12,2.191008943617132e-12,1.3685755819746479e-12,8.345251365501503e-13,4.737635565604478e-13,2.716811890294688e-13,1.3880193215221305e-13,6.900050781823968e-14,3.502884288894344e-09,2.602845963630417e-09,1.7643924764555208e-09,1.168044498426261e-09,7.692008755218142e-10,5.512850018947494e-10,4.134402117109358e-10,3.031474180199613e-10,2.2530697418858487e-10,1.5644073432164724e-10,1.1824995951743057e-10,9.045680830445871e-11,6.256697580085394e-11,4.182623203011378e-11,3.0323974648996213e-11,1.9319985667131612e-11,1.2687551271309152e-11,8.499845525503504e-12,5.249973340240292e-12,3.205526904511722e-12,1.9489883748136045e-12
0.0,30,30.0,0.0,30.0,0.0,0.0,0.0,0.0,-13.0,0.0,2.0,0.0,0.0,0.0,1.2165194886026642e-10,8.376646655621756e-11,5.667626940576773e-11,3.799136253457092e-11,2.678776001091821e-11,1.7472342640000277e-11,1.1361613478203331e-11,7.458488217181494e-12,4.7629582763131015e-12,3.3898273931242983e-12,2.1209970510813685e-12,1.302686751464939e-12,8.26397865461065e-13,4.4990726765888656e-13,2.6754952833391747e-13,1.3506392347434836e-13,7.169250932002548e-14,3.396885633992145e-09,2.6846770373819824e-09,1.7691830307917177e-09,1.1992850044644937e-09,7.785156174167396e-10,5.753714960040166e-10,4.185180321831738e-10,3.1040909748572077e-10,2.22062621786845e-10,1.712241402117274e-10,1.203292686942426e-10,8.713122447904065e-11,6.495161430213168e-11,4.121561614879652e-11,3.083030699405451e-11,1.960252846791559e-11,1.3432696586497932e-11,8.600803888036876e-12,5.545919259124912e-12,3.2614762919173378e-12,2.000645298523239e-12
0.0,31,31.0,0.0,30.0,0.0,0.0,0.0,0.0,-13.0,0.0,2.0,0.0,0.0,0.0,1.2126097508544567e-10,8.586260075409789e-11,5.5132697886331905e-11,4.009996360044614e-11,2.6457366196813774e-11,1.7238346329987974e-11,1.1461248233197375e-11,7.762922727952955e-12,5.196645953361223e-12,3.397680672564823e-12,2.087267609925036e-12,1.2545151932575895e-12,8.15568563729108e-13,4.683462540460268e-13,2.834057216966384e-13,1.4332770160363168e-13,7.790084451230716e-14,3.430241783510731e-09,2.6388832977353847e-09,1.7115134538237812e-09,1.1456494833498183e-09,7.691706945194934e-10,5.587011222346678e-10,3.899891043100187e-10,2.9350368920790127e-10,2.2469858437638408e-10,1.7111628917813016e-10,1.2397399205667548e-10,8.63974353827018e-11,6.635797506339996e-11,4.500000067796595e-11,3.171155756720834e-11,2.00680766179966e-11,1.259968598624695e-11,8.178477252175339e-12,4.9204128925622085e-12,3.267300310044237e-12,1.958393080832525e-12
0.0,32,32.0,0.0,30.0,0.0,0.0,0.0,0.0,-13.0,0.0,2.0,0.0,0.0,0.0,1.256265943445332e-10,8.473018679487719e-11,5.851019370179195e-11,3.9996866572016284e-11,2.750409564791107e-11,1.806818926609222e-11,1.1010810529872727e-11,7.77089019166813e-12,5.1412544050770745e-12,3.3165417156892988e-12,2.1278852675507243e-12,1.403435932276252e-12,7.988246743377629e-13,4.675905083735514e-13,2.7022093458652617e-13,1.448749430476463e-13,7.56356308707388e-14,3.6442633479317373e-09,2.509567939194599e-09,1.7411483052313028e-09,1.1442075084416922e-09,8.253954702237022e-10,5.836662853566553e-10,4.314277773723456e-10,3.1957489549504387e-10,2.26790564388894e-10,1.776581892524131e-10,1.2560748342663543e-10,8.694361885653137e-11,6.58679491449052e-11,4.3534853706456957e-11,2.9650799964342666e-11,2.0428921781487732e-11,1.356055093180898e-11,8.50398438786317e-12,5.183537868911453e-12,3.3787329711853752e-12,1.947995550710258e-12
0.0,33,33.0,0.0,30.0,0.0,0.0,0.0,0.0,-13.0,0.0,2.0,0.0,0.0,0.0,1.2661917340668814e-10,8.619070697375416e-11,5.7081367536324696e-11,4.2125615196449466e-11,2.741961081213636e-11,1.8893829303414333e-11,1.1458533813053106e-11,7.879941605948692e-12,5.320048994221323e-12,3.2711189383179977e-12,2.1162209374253556e-12,1.3001128144115508e-12,7.939551011020099e-13,4.876436225300038e-13,2.7960111250661727e-13,1.5378730163916474e-13,7.789410939003731e-14,3.318438888957801e-09,2.549156076979691e-09,1.806026004731679e-09,1.2054277307910794e-09,7.96303060538108e-10,5.8940449988435e-10,4.291338743715352e-10,3.051353348338721e-10,2.395333596424266e-10,1.7798182268657513e-10,1.359890965720795e-10,9.058184563474825e-11,6.81275706821539e-11,4.508988553336121e-11,3.116451421713307e-11,2.16748530542203e-11,1.33329802046026e-11,8.402047702992335e-12,5.167046950471141e-12,3.276078322540615e-12,1.925427854950584e-12
0.0,34,34.0,0.0,30.0,0.0,0.0,0.0,0.0,-13.0,0.0,2.0,0.0,0.0,0.0,1.2868422444395946e-10,8.657744989365629e-11,6.251458849152814e-11,4.263994413513122e-11,2.8561781737555567e-11,1.7942812205425894e-11,1.2507218048863091e-11,7.663539610999622e-12,4.911811207942221e-12,3.2197529069277414e-12,2.2173650557950834e-12,1.4289239066596056e-12,8.575493390083861e-13,5.026639663241235e-13,2.815404188956891e-13,1.5200801960819637e-13,7.937223022267563e-14,3.3718974020212484e-09,2.5782506431583417e-09,1.729803054142165e-09,1.1717755781510073e-09,8.568863895377144e-10,5.752024407525997e-10,4.3524708254468843e-10,3.2731329222713547e-10,2.4474537280065913e-10,1.7648861671759325e-10,1.2783148121575136e-10,9.531630499423872e-11,6.508776376997533e-11,4.6874356699140857e-11,3.17158300077207e-11,2.108492672857246e-11,1.3149158852876894e-11,8.355896634083965e-12,5.220675207114711e-12,3.2974885424497853e-12,2.024221130614118e-12
0.0,35,35.0,0.0,30.0,0.0,0.0,0.0,0.0,-13.0,0.0,2.0,0.0,0.0,0.0,1.345511212595637e-10,8.804965363941733e-11,6.068384545968273e-11,4.038324935683611e-11,2.6889387204033383e-11,1.7426113514992688e-11,1.1921051294279029e-11,8.128989712072312e-12,5.253734199225237e-12,3.4007230705410024e-12,2.2015030559720562e-12,1.37529753256052e-12,8.640752112996767e-13,5.075450902800603e-13,2.890011908563761e-13,1.531067124777619e-13,8.038370301796392e-14,3.271287620892328e-09,2.582115485408716e-09,1.7975182596060481e-09,1.2023447545737013e-09,8.108142206084619e-10,5.836412153312531e-10,4.5129951875398394e-10,3.289751123400067e-10,2.5025182627306033e-10,1.8272256203266966e-10,1.3187125096957184e-10,9.108550402857412e-11,6.696225590870316e-11,4.6524753403502834e-11,3.310584920895071e-11,2.116319001097861e-11,1.4147552763742373e-11,8.658038070127042e-12,5.092939108858132e-12,3.284835840566516e-12,2.036678573135247e-12
0.0,36,36.0,0.0,30.0,0.0,0.0,0.0,0.0,-13.0,0.0,2.0,0.0,0.0,0.0,1.2777870553261296e-10,8.971513004194247e-11,6.125670849023958e-11,4.245628523640337e-11,2.7931507951962328e-11,1.7642207038837155e-11,1.17396926584567e-11,8.21194956001743e-12,5.073428881189053e-12,3.345125437124218e-12,2.1879460061326903e-12,1.4298283096436042e-12,8.690814400671703e-13,5.216540848531231e-13,2.741136990291484e-13,1.5806936052417633e-13,8.102843107479961e-14,3.3711577291629497e-09,2.5237267353786936e-09,1.7827859875825176e-09,1.2005621984180947e-09,8.652126922998433e-10,6.035091968139487e-10,4.4117140001872056e-10,3.417208789219669e-10,2.3891547834935805e-10,1.8084250209688857e-10,1.3978018478167375e-10,9.899062320342904e-11,6.595533233356355e-11,5.0063668707939584e-11,3.148403652277026e-11,2.1802283248155952e-11,1.4703209444864282e-11,8.742190360673093e-12,5.0554509521719234e-12,3.4065005253613103e-12,1.883293299312854e-12
0.0,37,37.0,0.0,30.0,0.0,0.0,0.0,0.0,-13.0,0.0,2.0,0.0,0.0,0.0,1.299837350073097e-10,9.00511341447923e-11,6.168689384699516e-11,4.074369923567196e-11,2.6541263957125625e-11,1.8637519602945606e-11,1.27142940019389e-11,8.41350992877532e-12,5.305553002623388e-12,3.3477586670849053e-12,2.082839885408916e-12,1.4121868029870631e-12,8.654721329904367e-13,5.199670563770587e-13,2.8614218571502464e-13,1.583352044122993e-13,8.796663153272804e-14,3.4401626949540013e-09,2.5452595143676444e-09,1.8553278825823744e-09,1.1437836516710062e-09,8.357460620454492e-10,6.232992460785588e-10,4.5878343905774043e-10,3.549606041798366e-10,2.5636484773001036e-10,1.8130444014433432e-10,1.3335724810099876e-10,1.0387782408471563e-10,6.96199201221072e-11,4.69239284458495e-11,3.286665271396303e-11,2.193859824136553e-11,1.4570479062320517e-11,8.631713361426581e-12,5.4341355439967944e-12,3.3592885669905005e-12,1.952242036443199e-12
0.0,38,38.0,0.0,30.0,0.0,0.0,0.0,0.0,-13.0,0.0,2.0,0.0,0.0,0.0,1.391867047768593e-10,8.985581719024443e-11,6.068807807921795e-11,4.145504168725182e-11,2.986089155706022e-11,1.9396078773815133e-11,1.2611219425714916e-11,8.161628152516604e-12,4.988345739574728e-12,3.063978780400254e-12,2.068105402025131e-12,1.346983520540715e-12,8.076324007146621e-13,5.049209996824528e-13,2.9390777159722704e-13,1.6181731628578551e-13,8.837091709391523e-14,3.339240581185633e-09,2.3569816320094677e-09,1.6268879785342124e-09,1.2170167322101694e-09,8.627270133544466e-10,5.956766471351854e-10,4.664947721427399e-10,3.6108932628173123e-10,2.707822397478859e-10,1.9474864480166648e-10,1.3727453163043745e-10,9.394827097165729e-11,6.816676595703163e-11,4.616765092694913e-11,3.278426941902558e-11,2.089675146691402e-11,1.3392875761975266e-11,9.120509416360451e-12,5.334766435902365e-12,3.1524549906471856e-12,1.900129363130904e-12
0.0,39,39.0,0.0,30.0,0.0,0.0,0.0,0.0,-13.0,0.0,2.0,0.0,0.0,0.0,1.335919160798776e-10,9.491660439209413e-11,6.381685978808743e-11,4.413412934547484e-11,2.89571428329251e-11,1.9770603638076467e-11,1.1775784370491538e-11,7.762024701258633e-12,5.318774522980295e-12,3.398892833492419e-12,2.1381360077493835e-12,1.3094053738010887e-12,8.55919948391502e-13,4.924830779951903e-13,2.8992861593035714e-13,1.604323737603014e-13,8.716187842006155e-14,3.4983935241951457e-09,2.5583540052094495e-09,1.7331436398111133e-09,1.2109462233215596e-09,8.652774548060006e-10,5.98861271171982e-10,4.746325575483756e-10,3.315739013992407e-10,2.5970438076665634e-10,1.932964663157656e-10,1.396906472971534e-10,1.0541604322504108e-10,7.116404073446006e-11,4.9258204822252636e-11,3.4362413040791464e-11,2.159813354142709e-11,1.4740847817057124e-11,9.393913476775342e-12,5.532907019341256e-12,3.2820168645797356e-12,2.040463354837494e-12
0.0,40,40.0,0.0,30.0,0.0,0.0,0.0,0.0,-13.0,0.0,2.0,0.0,0.0,0.0,1.448265817982294e-10,9.502181812720515e-11,6.131890896703801e-11,4.401916585670353e-11,2.846177942963105e-11,1.957429950801061e-11,1.3598421345424533e-11,8.644201994671706e-12,5.5112181526446525e-12,3.431144634520589e-12,2.2134084213370615e-12,1.3602018042375671e-12,8.347588230038024e-13,5.274919058910263e-13,2.939569333479884e-13,1.7085528255470108e-13,8.790525462501594e-14,3.357375517418092e-09,2.4274425307275884e-09,1.685105186813937e-09,1.1931707957630756e-09,8.5244873864943e-10,6.53559098181496e-10,4.739577629635001e-10,3.433245818319716e-10,2.571522134438452e-10,1.930336575443449e-10,1.3683281795561183e-10,1.0191979484251485e-10,6.897070488214979e-11,4.979608267177719e-11,3.358259049873406e-11,2.2434756449996234e-11,1.491224413883114e-11,8.804134556768729e-12,5.7157767086386565e-12,3.428928541724648e-12,1.9410092367229805e-12
0.0,41,41.0,0.0,30.0,0.0,0.0,0.0,0.0,-13.0,0.0,2.0,0.0,0.0,0.0,1.3571578241178566e-10,9.597103705721437e-11,6.13340547544021e-11,4.322599824297634e-11,2.952553034772342e-11,1.9686688737110208e-11,1.1814420511977614e-11,8.38348494343085e-12,5.1832602676877234e-12,3.4459896044073032e-12,2.2223561180485963e-12,1.3742101073133792e-12,8.475705095125949e-13,4.952081814592693e-13,3.175618899764049e-13,1.698659038295005e-13,8.860562256023541e-14,3.0583305617706886e-09,2.5553976464929665e-09,1.8322266232391605e-09,1.1828355573395786e-09,8.857461655868496e-10,6.240635027477414e-10,4.6556672250155914e-10,3.671898833124156e-10,2.6635556974799804e-10,1.9727822350530153e-10,1.5075025241156034e-10,9.742390579228729e-11,7.177116124221463e-11,4.992046770025633e-11,3.266859512400196e-11,2.2596379853401742e-11,1.4587658876761896e-11,9.374948578210897e-12,5.399720976892824e-12,3.4114803335289193e-12,2.109900486506645e-12
0.0,42,42.0,0.0,30.0,0.0,0.0,0.0,0.0,-13.0,0.0,2.0,0.0,0.0,0.0,1.4281188974930385e-10,9.887643856471747e-11,6.781067428891472e-11,4.566790769588799e-11,3.0891170101505795e-11,1.983464036642607e-11,1.3108215940330546e-11,8.656501566353854e-12,5.4464224313900776e-12,3.5910251710938318e-12,2.1604587180149504e-12,1.4178354312244613e-12,8.611402922068924e-13,5.494968503078097e-13,2.9374890719731336e-13,1.6945747390910387e-13,9.350396399989135e-14,3.1916777044284375e-09,2.448293896253012e-09,1.7113469048710734e-09,1.1620383336110845e-09,8.716016230561665e-10,6.59029025895598e-10,4.90797486351635e-10,3.4046546102451086e-10,2.737322794748677e-10,2.0592054836643996e-10,1.3901457969204888e-10,1.0704064568064258e-10,7.024991218756668e-11,5.2200191519697454e-11,3.376644894335356e-11,2.364275761208122e-11,1.4023132294964881e-11,9.940559749766139e-12,5.842899352522579e-12,3.5640540413713214e-12,2.0774697895577094e-12
0.0,43,43.0,0.0,30.0,0.0,0.0,0.0,0.0,-13.0,0.0,2.0,0.0,0.0,0.0,1.420696733789829e-10,9.451656764388728e-11,6.800144993529197e-11,4.376450281256682e-11,2.9348598207282704e-11,1.994157350248149e-11,1.3044344594994464e-11,8.432630283909022e-12,5.400622496126456e-12,3.488085660592973e-12,2.1728592086672623e-12,1.3715134985593958e-12,9.341849514962861e-13,5.100393900548398e-13,3.024967380009218e-13,1.6605669753938558e-13,9.055928220137796e-14,3.198905956698188e-09,2.488448651989796e-09,1.680443443421306e-09,1.2110486288958464e-09,8.759955893781469e-10,6.011072869330716e-10,4.791448151351776e-10,3.706110292392466e-10,2.7182108373080294e-10,2.0606943473396652e-10,1.4159351498527147e-10,1.0906910996517006e-10,7.543784085495946e-11,4.8691819573997654e-11,3.503817256153982e-11,2.3746221399449245e-11,1.5162941147146232e-11,9.612199035131778e-12,5.949746911814213e-12,3.4915464058505297e-12,2.0135518955771985e-12
0.0,44,44.0,0.0,30.0,0.0,0.0,0.0,0.0,-13.0,0.0,2.0,0.0,0.0,0.0,1.4507135184154324e-10,9.556088401623804e-11,6.92872887252858e-11,4.463562375901913e-11,3.098718355047055e-11,1.9985511084845722e-11,1.3410914552675734e-11,8.39597244069903e-12,5.627703465149903e-12,3.445180395524831e-12,2.1100239364416573e-12,1.3612513397828192e-12,8.767723824852737e-13,5.31622323036526e-13,3.040375274393e-13,1.6551519204130995e-13,9.753285876270132e-14,3.0331262447227547e-09,2.3732357750509513e-09,1.8142063242622905e-09,1.2810988960493592e-09,8.757677431335241e-10,6.390768796454742e-10,5.01376432356378e-10,3.863439467429188e-10,2.733453869346018e-10,2.0141433476367838e-10,1.4702767178453494e-10,1.050115730624365e-10,7.350739493800071e-11,5.114049677763427e-11,3.39153430216668e-11,2.3221071495668462e-11,1.4343146804531423e-11,9.909043429170183e-12,5.732987052603345e-12,3.6303504524490346e-12,2.1694945327211374e-12
0.0,45,45.0,0.0,30.0,0.0,0.0,0.0,0.0,-13.0,0.0,2.0,0.0,0.0,0.0,1.4195666478649724e-10,1.0077664833696393e-10,6.63953263414467e-11,4.523082358269366e-11,2.99198056568696e-11,1.9516878367836286e-11,1.334509589271464e-11,8.2271332181974e-12,5.477692785896033e-12,3.3640177221871383e-12,2.3482141149892644e-12,1.3741008226825912e-12,8.846909625612027e-13,5.135477848496443e-13,3.062704719372483e-13,1.8024704068632612e-13,9.148018967352368e-14,3.161800699209429e-09,2.47976712121726e-09,1.7888277010112903e-09,1.2562378519849505e-09,9.03345770878189e-10,6.740770164721999e-10,4.979981238015584e-10,3.8355288268499486e-10,2.741577266187128e-10,2.0542638926370814e-10,1.465299121027678e-10,1.04962461527622e-10,7.623856619490788e-11,5.145240353595695e-11,3.725162041812019e-11,2.5206493372562724e-11,1.592830276451973e-11,9.945738636036905e-12,6.052468693752644e-12,3.6138214484665587e-12,1.99063626746969e-12
0.0,46,46.0,0.0,30.0,0.0,0.0,0.0,0.0,-13.0,0.0,2.0,0.0,0.0,0.0,1.415460130179313e-10,1.0097501553836623e-10,6.817619389340766e-11,4.96000964630672e-11,2.987981388699117e-11,2.177939588339103e-11,1.2889587893986411e-11,8.610995935543942e-12,5.232665688308687e-12,3.64948725397598e-12,2.1883707576032567e-12,1.3277309490747332e-12,9.046408430272449e-13,4.937952171899448e-13,3.1614393706457423e-13,1.713089107510353e-13,9.82816805483075e-14,3.255180868143582e-09,2.4117833358208326e-09,1.8296941325290019e-09,1.2476810080272964e-09,8.991752693064351e-10,6.475728491203515e-10,4.803045113565811e-10,3.5671512380559843e-10,2.8932073286084787e-10,2.0604750104930113e-10,1.5487571539860957e-10,1.1465891090454909e-10,7.896358155271593e-11,5.111268620696464e-11,3.5522689748601283e-11,2.3549402667697873e-11,1.6041892399082644e-11,1.0039499207364625e-11,5.871726864178721e-12,3.756887375341051e-12,2.0678751301596492e-12
0.0,47,47.0,0.0,30.0,0.0,0.0,0.0,0.0,-13.0,0.0,2.0,0.0,0.0,0.0,1.4851593417431085e-10,1.0511786254407412e-10,6.678321513635797e-11,4.839660968613233e-11,3.3518562622875565e-11,2.151324068842426e-11,1.3347016046048047e-11,8.98478141327907e-12,5.771588882877812e-12,3.5526918614107366e-12,2.2813543985115057e-12,1.3729462376842221e-12,8.588670637198655e-13,5.354980093620829e-13,3.030256077885766e-13,1.8354996909240172e-13,9.526361017275829e-14,3.2063125301390877e-09,2.3665670245509517e-09,1.8081448899615863e-09,1.2429823547181908e-09,9.193772958928656e-10,6.679727925565284e-10,5.201217392957095e-10,3.788511095381783e-10,3.0341877087645336e-10,2.0360828311760294e-10,1.5302449363362566e-10,1.0867480565419937e-10,7.831355626425755e-11,5.388457282455474e-11,3.7111039097625944e-11,2.452600822091868e-11,1.518475058251405e-11,1.0397700296905814e-11,6.055880923584208e-12,3.567438678515874e-12,2.118861912805725e-12
0.0,48,48.0,0.0,30.0,0.0,0.0,0.0,0.0,-13.0,0.0,2.0,0.0,0.0,0.0,1.615883524368128e-10,1.0187665767331124e-10,7.08014028404668e-11,4.79037746812769e-11,3.019002550945989e-11,2.018456188014597e-11,1.3612254965365245e-11,8.635679286282924e-12,5.827571915240196e-12,3.3896380869618303e-12,2.2129313396172745e-12,1.4072752008357116e-12,8.377488576809539e-13,5.192375672991419e-13,3.097848052287815e-13,1.7604264965866147e-13,1.0225020698640435e-13,3.1060096091158773e-09,2.4261093519705475e-09,1.7485177044761714e-09,1.209420927402131e-09,8.633761539839207e-10,6.972578419178354e-10,5.23243743412246e-10,4.006114461021297e-10,2.9318405707653496e-10,2.2362029154986153e-10,1.531184884116796e-10,1.1562595471379432e-10,7.480170487960851e-11,5.507716744328468e-11,3.5961730424667923e-11,2.382496000617514e-11,1.5982169295446957e-11,9.463308434873914e-12,6.365310576181603e-12,3.827984496142913e-12,2.169285941260593e-12
0.0,49,49.0,0.0,30.0,0.0,0.0,0.0,0.0,-13.0,0.0,2.0,0.0,0.0,0.0,1.5441066416961926e-10,1.0850825421282932e-10,6.592728583932241e-11,4.729712351933472e-11,3.18588995413636e-11,2.112036046028069e-11,1.3737320427664563e-11,8.76776693132217e-12,5.4395300739729975e-12,3.640389487912308e-12,2.2773864360204766e-12,1.3606591648010675e-12,8.695374590371536e-13,5.362933306569092e-13,3.1787473740518225e-13,1.8538175286729764e-13,9.655620049590818e-14,3.0650362031787815e-09,2.3655612147122615e-09,1.8714619770758994e-09,1.3250071692100266e-09,9.042562147861191e-10,7.315888365607051e-10,5.070093343800262e-10,3.937056629630135e-10,2.9108164107630757e-10,2.1032230749169006e-10,1.6699997797388076e-10,1.103150879503476e-10,8.172306273284609e-11,5.491797827914307e-11,3.6373357377600536e-11,2.431166678661575e-11,1.576223677734827e-11,1.0189279186133364e-11,6.337345530288762e-12,3.679352513478464e-12,2.1928880163684285e-12
0.0,50,50.0,0.0,30.0,0.0,0.0,0.0,0.0,-13.0,0.0,2.0,0.0,0.0,0.0,1.597073631204299e-10,1.0844640565315939e-10,6.996786920461636e-11,5.08151084893293e-11,3.3826127990601123e-11,2.0581674085230343e-11,1.3593477151856789e-11,9.001673840771087e-12,5.7241933730678785e-12,3.634273066450065e-12,2.2228489778569475e-12,1.4395870622835536e-12,8.547508780758959e-13,5.122727787901325e-13,3.133803216797693e-13,1.7457769533836079e-13,9.631455239789328e-14,3.0693301121079044e-09,2.41404299803802e-09,1.7589412019965455e-09,1.3000031831390619e-09,9.338473964992941e-10,7.077907647405713e-10,5.451614272857282e-10,3.922900390333456e-10,3.125507499658099e-10,2.2495727848513635e-10,1.6665941719242846e-10,1.17134578539397e-10,8.285089861485514e-11,5.668992248258947e-11,3.7827792154754143e-11,2.4997537087951517e-11,1.5855466756497448e-11,1.0103329892698112e-11,6.425205102093377e-12,3.6974731691755776e-12,2.1570877041302387e-12
0.0,51,51.0,0.0,30.0,0.0,0.0,0.0,0.0,-13.0,0.0,2.0,0.0,0.0,0.0,1.5738713712244404e-10,1.1382116359727829e-10,7.294200532216057e-11,4.782726664290282e-11,3.378108988467584e-11,2.162277839237106e-11,1.4380822738544999e-11,8.841826653389237e-12,5.772601227656401e-12,3.6255588976145924e-12,2.166983314931822e-12,1.4371720362201601e-12,8.665994017166846e-13,5.135055228167066e-13,3.157380969622747e-13,1.791664521430665e-13,9.947588612892747e-14,3.158921909687081e-09,2.3724024966663763e-09,1.8562685334396921e-09,1.3006857565844343e-09,9.859511698960515e-10,7.514192421748511e-10,5.583346778985298e-10,4.061058929036403e-10,3.105807636071485e-10,2.2414843642425235e-10,1.5932302724579333e-10,1.1003397935253848e-10,8.243138839660094e-11,6.009785855914104e-11,4.0040763117551625e-11,2.6448005577364825e-11,1.5567514462463866e-11,9.818887740366234e-12,6.19120007244325e-12,3.670291050005579e-12,2.128386607910581e-12
0.0,52,52.0,0.0,30.0,0.0,0.0,0.0,0.0,-13.0,0.0,2.0,0.0,0.0,0.0,1.6156667997129858e-10,1.1274015507551749e-10,7.466881757207405e-11,5.042260252485349e-11,3.05419374238952e-11,2.1927624248497025e-11,1.4104286524804054e-11,9.220871959178255e-12,5.622931283220589e-12,3.651010544781595e-12,2.2097235466331637e-12,1.2996433980875084e-12,8.792315022614901e-13,5.141190837783627e-13,3.1481918972473957e-13,1.870892404429497e-13,1.0255843728484998e-13,3.1963900103043493e-09,2.392731113998866e-09,1.6545867519950219e-09,1.3740558328950765e-09,9.448519341527577e-10,7.077920065812787e-10,5.667901630605837e-10,4.235712524203557e-10,3.069512854221905e-10,2.1721519678706553e-10,1.7299648881571438e-10,1.1821673626504527e-10,8.055919455594758e-11,5.559466487983729e-11,4.001024746540958e-11,2.5448743737841534e-11,1.666718861906e-11,1.0235314325958832e-11,6.549774412823445e-12,3.7810740730128966e-12,2.3190881209041535e-12
0.0,53,53.0,0.0,30.0,0.0,0.0,0.0,0.0,-13.0,0.0,2.0,0.0,0.0,0.0,1.6679485122460917e-10,1.1684387615871843e-10,7.461905173085448e-11,4.927282545689691e-11,3.1479751153870415e-11,2.1448598877325787e-11,1.3761018762375082e-11,9.138738118791429e-12,5.8778768922112195e-12,3.6182626052495994e-12,2.272666112163483e-12,1.4191983331118542e-12,8.430327386867542e-13,4.888751280395633e-13,2.8713805125141846e-13,1.8624155460119504e-13,1.0530017520089956e-13,3.193066422762178e-09,2.5650717516741915e-09,1.8530565198126362e-09,1.370863892371786e-09,9.838556675786172e-10,7.472906715256644e-10,5.518388462029547e-10,4.284127353480687e-10,3.1249674375011017e-10,2.4508132661708506e-10,1.7979377999110485e-10,1.255743145789942e-10,8.620581503310625e-11,5.7083156065125446e-11,3.710130889994535e-11,2.6950448182448108e-11,1.5990448575284746e-11,1.0375864380438246e-11,6.427787645481946e-12,3.823482492588691e-12,2.270461855151915e-12
0.0,54,54.0,0.0,30.0,0.0,0.0,0.0,0.0,-13.0,0.0,2.0,0.0,0.0,0.0,1.6846983267995892e-10,1.1352143446745698e-10,7.462810620062525e-11,5.111466896077646e-11,3.409878935084185e-11,2.260939212297372e-11,1.4347661241129315e-11,8.965112380875382e-12,5.906378410684242e-12,3.650961254887486e-12,2.2529915907704655e-12,1.491110533507779e-12,8.635649012117107e-13,5.082951352177806e-13,3.134047054681256e-13,1.8326084861786784e-13,9.987934456128644e-14,3.0207546680837665e-09,2.3369828364707187e-09,1.737990104122346e-09,1.3314313213523312e-09,9.961062233253447e-10,7.617970341709199e-10,5.586382295534615e-10,4.2881773318723975e-10,3.2437481548168126e-10,2.3234314536695215e-10,1.6674259709860637e-10,1.2031121287192718e-10,8.421282683408863e-11,5.66959321769382e-11,4.156516705728567e-11,2.6607507839456336e-11,1.6133722530065398e-11,1.1169956964961353e-11,6.697921282769115e-12,3.9714850304965784e-12,2.2321729787935778e-12
0.0,55,55.0,0.0,30.0,0.0,0.0,0.0,0.0,-13.0,0.0,2.0,0.0,0.0,0.0,1.6877997489354866e-10,1.1841338136884941e-10,7.865722208049445e-11,5.253014894457586e-11,3.607197230686941e-11,2.1497707681019402e-11,1.417352205429461e-11,9.40440514741484e-12,5.838997956115961e-12,3.675087284540758e-12,2.3746321077521614e-12,1.4287681524303802e-12,8.673667249535319e-13,5.193835977570496e-13,3.2097891203802684e-13,1.8722408920835735e-13,1.0093855383357326e-13,3.020851292092644e-09,2.3374847878063155e-09,1.893688516383842e-09,1.4169311011082331e-09,1.0002494349709157e-09,7.442158277022628e-10,5.857760234496691e-10,4.209904060749908e-10,3.2121986971923876e-10,2.435297403753093e-10,1.7284252558329339e-10,1.2804587163561842e-10,8.641610074822465e-11,5.863830768564268e-11,4.253585479196369e-11,2.6783479778166257e-11,1.7190412508293652e-11,1.0838455427942263e-11,6.528639066250435e-12,3.777465077592851e-12,2.261097774751394e-12
0.0,56,56.0,0.0,30.0,0.0,0.0,0.0,0.0,-13.0,0.0,2.0,0.0,0.0,0.0,1.7003395070857907e-10,1.1610972197942067e-10,7.731246138146336e-11,5.26710489682542e-11,3.393229081004499e-11,2.136386686812573e-11,1.5086749936637097e-11,9.696611894878098e-12,6.08144840669624e-12,3.579469022874243e-12,2.3730520350280635e-12,1.4472627891678326e-12,9.071128371207385e-13,5.398197778752212e-13,3.1092478465577444e-13,1.8027290883254671e-13,1.011799047203594e-13,3.312398065459971e-09,2.4663043319714916e-09,1.866716571511391e-09,1.4061553675218487e-09,1.0221982523029762e-09,8.123864965807941e-10,6.056846683228741e-10,4.419482939929135e-10,3.4613871339578233e-10,2.4245833228442895e-10,1.774222097410339e-10,1.269914501247261e-10,8.68781031231458e-11,6.156962038593139e-11,4.062598952261071e-11,2.558245697774389e-11,1.7365262074473438e-11,1.0666434324225553e-11,6.401324144581849e-12,4.073138380046716e-12,2.212721108895094e-12
0.0,57,57.0,0.0,30.0,0.0,0.0,0.0,0.0,-13.0,0.0,2.0,0.0,0.0,0.0,1.7874572194596342e-10,1.1595553184681027e-10,7.865168472959637e-11,5.3479200177862084e-11,3.628073225781101e-11,2.2695624460002868e-11,1.4410918266752261e-11,9.419238305518947e-12,6.2268843567913656e-12,4.0444121307796755e-12,2.2077041521311112e-12,1.4039400489477215e-12,8.818929713636811e-13,5.060393373638388e-13,2.9525404106168294e-13,1.8391133949506478e-13,1.024424258091238e-13,3.2187787667299226e-09,2.4009920711374105e-09,1.850237235764988e-09,1.3862887216770275e-09,1.0936578917535077e-09,7.973086154837211e-10,6.167244587872749e-10,4.633565219499166e-10,3.381465435451287e-10,2.441649055127985e-10,1.6969974585959792e-10,1.2678378347769532e-10,8.714469412646831e-11,6.074682217958795e-11,4.291495272811135e-11,2.5865522042704388e-11,1.7252071234091537e-11,1.1366587099035444e-11,6.731246324402425e-12,3.773222868677474e-12,2.331498223879608e-12
0.0,58,58.0,0.0,30.0,0.0,0.0,0.0,0.0,-13.0,0.0,2.0,0.0,0.0,0.0,1.765244803808816e-10,1.2008571437798027e-10,7.5422238993875e-11,5.373436972913773e-11,3.6052815498443764e-11,2.3280464656722533e-11,1.5377709511124874e-11,9.298480497605934e-12,6.151737357290449e-12,3.7035305383074385e-12,2.3254364566461912e-12,1.4687694354675981e-12,8.734879006817996e-13,5.197581336823292e-13,3.192401311416967e-13,1.720625847109289e-13,1.0805247183637263e-13,3.0987072660333753e-09,2.4155092542122765e-09,1.9173580967028667e-09,1.4699778630683559e-09,1.0851661060640876e-09,7.899287715288112e-10,6.004428217846125e-10,4.5235746990839825e-10,3.46260222643622e-10,2.4259710652090313e-10,1.7995578063667214e-10,1.2523521323129854e-10,9.406056258443439e-11,6.096579777317229e-11,4.1017936898957764e-11,2.713984624117778e-11,1.7179515824609855e-11,1.1033078929466223e-11,7.017360021668422e-12,4.0652205447685526e-12,2.3310345046202086e-12
0.0,59,59.0,0.0,30.0,0.0,0.0,0.0,0.0,-13.0,0.0,2.0,0.0,0.0,0.0,1.7495315737488302e-10,1.2388796807295466e-10,8.291007381643149e-11,5.16254122754251e-11,3.556193290210831e-11,2.3774632516867955e-11,1.3947412494424832e-11,9.703103918187328e-12,6.444844448530087e-12,3.777282355694978e-12,2.4188332469863427e-12,1.4573843338908039e-12,8.801470724293287e-13,5.361227310835482e-13,3.117901965317717e-13,1.9390542952574415e-13,1.0761399349869718e-13,3.1538898201208496e-09,2.4110429770517633e-09,1.939443203300691e-09,1.3777596366764626e-09,1.0954486580098965e-09,7.800182713045654e-10,5.78946324272898e-10,4.5667449640361125e-10,3.643977986324279e-10,2.4609906302048336e-10,1.8299949786200582e-10,1.2883961353798516e-10,9.167932475278197e-11,6.456873306056146e-11,4.058099592681847e-11,2.941068161188165e-11,1.7435987448793973e-11,1.103682487794212e-11,6.810912795030209e-12,3.952112733236032e-12,2.3054288378171114e-12
0.0,60,60.0,0.0,30.0,0.0,0.0,0.0,0.0,-13.0,0.0,2.0,0.0,0.0,0.0,1.855171938067818e-10,1.1643725449671642e-10,7.925978915211243e-11,5.507470255362837e-11,3.761970288791457e-11,2.2437992543585003e-11,1.637369876999811e-11,1.001907060984519e-11,6.166980755794165e-12,3.8719349632679674e-12,2.3527574021629895e-12,1.367466161360746e-12,8.755433861492294e-13,5.247283832386638e-13,3.1995603948504153e-13,1.8808737946207378e-13,1.0517990731001911e-13,3.1238298830903487e-09,2.5376371233367055e-09,1.9467526752100184e-09,1.425819643013186e-09,1.1702625613853183e-09,8.447031265548427e-10,6.562471956011325e-10,4.642086134145086e-10,3.606431742776411e-10,2.6292244859351276e-10,1.8644108679762322e-10,1.408979883990925e-10,9.113989947755545e-11,6.260941841844817e-11,4.1613508981242984e-11,2.847394314079891e-11,1.7802195370909528e-11,1.1981272823115984e-11,7.087491332268295e-12,4.045323089643303e-12,2.33128086170872e-12
0.0,61,61.0,0.0,30.0,0.0,0.0,0.0,0.0,-13.0,0.0,2.0,0.0,0.0,0.0,1.8914656649462284e-10,1.23572991966359e-10,8.31972423633274e-11,5.348959423599814e-11,3.7218758060183066e-11,2.3021651032871532e-11,1.3926834811627664e-11,1.0035249519240516e-11,6.113464548150533e-12,3.999105518360626e-12,2.4356406120916432e-12,1.441223658399531e-12,8.598160198442388e-13,5.561872120477775e-13,3.242974762308199e-13,1.8509583329295916e-13,1.0709546006769192e-13,3.2813023768078952e-09,2.443783591979063e-09,1.9038927864875255e-09,1.5073626993637011e-09,1.1073375459615575e-09,8.694103855492044e-10,6.443373769960664e-10,4.922580932027421e-10,3.5130291092891985e-10,2.6204372457206613e-10,1.877691584074487e-10,1.3285111513097874e-10,9.523529902601495e-11,6.661201638256743e-11,4.301496070007803e-11,2.8369735124985773e-11,1.9549267479953934e-11,1.1523819300220257e-11,7.2326523686222065e-12,4.137300749554725e-12,2.3648646087804236e-12
0.0,62,62.0,0.0,30.0,0.0,0.0,0.0,0.0,-13.0,0.0,2.0,0.0,0.0,0.0,1.951268401976031e-10,1.256105619911313e-10,8.235301250065015e-11,5.6640864002860874e-11,3.5619614695819354e-11,2.3864343338436148e-11,1.5449832749808942e-11,1.0047738344554549e-11,5.9486819695768775e-12,3.91818649765616e-12,2.3769219827180805e-12,1.4403181579812095e-12,8.96564372432119e-13,5.505250001281252e-13,3.282173459598565e-13,1.7642337962941914e-13,1.0472127076322303e-13,3.2371802879802644e-09,2.5660429353262263e-09,2.054886325489258e-09,1.4774535751773506e-09,1.1328274003065628e-09,8.73723302911038e-10,6.534257351052765e-10,4.962763022164892e-10,3.681839225560431e-10,2.5123637594206844e-10,1.9179588628675352e-10,1.366585052352542e-10,9.725627813751002e-11,6.503711900647788e-11,4.3703184182336435e-11,2.920887398782118e-11,1.805175180356522e-11,1.1756785266405532e-11,6.91409181466708e-12,4.250020560856436e-12,2.58069540947648e-12
0.0,63,63.0,0.0,30.0,0.0,0.0,0.0,0.0,-13.0,0.0,2.0,0.0,0.0,0.0,1.8645492837486322e-10,1.2771470059582982e-10,8.117435758340726e-11,5.5675009418141774e-11,3.815472888731511e-11,2.4801616726307814e-11,1.6389889719248757e-11,1.0093050527876348e-11,6.376063957839048e-12,3.815389172687717e-12,2.4023411020309444e-12,1.4467757111749116e-12,8.605137177312379e-13,5.409234218946302e-13,3.1820594502598955e-13,1.8692411544916553e-13,1.0371581598461944e-13,3.1573370106554152e-09,2.4458380986071318e-09,2.079318182451276e-09,1.4428872252514053e-09,1.1396707966818865e-09,8.80590261134409e-10,6.625616023287107e-10,4.72331951298715e-10,3.646682333267235e-10,2.5859137181997425e-10,1.9613238330161346e-10,1.2904745703807795e-10,9.545308486756406e-11,6.88218497308155e-11,4.327827035394717e-11,2.9156268866921384e-11,1.8090361206668753e-11,1.1376223507820692e-11,6.861915483773841e-12,4.4833139127885076e-12,2.532792809225812e-12
