Line_number,Fiducial,Easting,Northing,Height,Elevation,tx_pitch,tx_roll,tx_yaw,txrx_dx,txrx_dy,txrx_dz,rx_pitch,rx_roll,rx_yaw,S0Z_time_1.431e-04,S0Z_time_1.801e-04,S0Z_time_2.266e-04,S0Z_time_2.846e-04,S0Z_time_3.581e-04,S0Z_time_4.506e-04,S0Z_time_5.671e-04,S0Z_time_7.136e-04,S0Z_time_8.981e-04,S0Z_time_1.131e-03,S0Z_time_1.423e-03,S0Z_time_1.791e-03,S0Z_time_2.255e-03,S0Z_time_2.838e-03,S0Z_time_3.573e-03,S0Z_time_4.498e-03,S0Z_time_5.662e-03,S1Z_time_1.409e-05,S1Z_time_1.610e-05,S1Z_time_1.909e-05,S1Z_time_2.360e-05,S1Z_time_2.960e-05,S1Z_time_3.709e-05,S1Z_time_4.609e-05,S1Z_time_5.759e-05,S1Z_time_7.209e-05,S1Z_time_9.060e-05,S1Z_time_1.141e-04,S1Z_time_1.431e-04,S1Z_time_1.801e-04,S1Z_time_2.266e-04,S1Z_time_2.846e-04,S1Z_time_3.581e-04,S1Z_time_4.506e-04,S1Z_time_5.671e-04,S1Z_time_7.136e-04,S1Z_time_8.981e-04,S1Z_time_1.131e-03
0.0,0,0.0,0.0,30.0,0.0,0.0,0.0,0.0,-13.0,0.0,2.0,0.0,0.0,0.0,1.028234392263977e-09,8.34592196908816e-10,6.230093852102515e-10,4.2830262526946413e-10,3.2420895801035464e-10,2.3742639770945056e-10,1.558222184396998e-10,1.1560034148117842e-10,7.979127542751942e-11,5.6183390344516776e-11,3.893689221203656e-11,2.5010493240707257e-11,1.5401103422277176e-11,1.016791558069061e-11,6.141644317454812e-12,3.2214766383170495e-12,1.930178909053664e-12,6.915757214237348e-09,5.989090409721275e-09,5.674432956624455e-09,4.351065277701285e-09,3.646084598144351e-09,3.146089700784495e-09,2.480415523873898e-09,2.0944815828661866e-09,1.7234063551006856e-09,1.3589531204027412e-09,1.0728031316716257e-09,8.189153560114393e-10,6.274714993088427e-10,4.5885403471643877e-10,3.2672733435153847e-10,2.387115404898228e-10,1.7035578301177956e-10,1.0879257188336068e-10,7.052173153827354e-11,4.8610160789194174e-11,3.003918647478872e-11
0.0,1,1.0,0.0,30.0,0.0,0.0,0.0,0.0,-13.0,0.0,2.0,0.0,0.0,0.0,1.1057987497447456e-09,8.305200759744272e-10,6.389635208496785e-10,4.598636054667119e-10,3.1685587187294653e-10,2.3175074428161854e-10,1.6395211243711276e-10,1.1137757587124437e-10,8.18316826425027e-11,5.891244142516052e-11,3.6919250656033506e-11,2.5680419166885293e-11,1.679114849728069e-11,9.860448882833982e-12,5.898556036620637e-12,3.4048816734768096e-12,1.8053613818932453e-12,6.876165272663719e-09,5.661508401565898e-09,5.168285614717025e-09,4.332831978823337e-09,3.807400968115591e-09,3.135286904341728e-09,2.549982672533981e-09,2.1741983218141367e-09,1.6531304366011374e-09,1.3282984910158753e-09,1.0546862214576233e-09,7.897726407774261e-10,6.139255065454585e-10,4.6346921541193907e-10,3.203410832553353e-10,2.405413816139778e-10,1.6162932986856162e-10,1.1178142918743242e-10,7.336157942173608e-11,4.7779620205778505e-11,2.9447215645532054e-11
0.0,2,2.0,0.0,30.0,0.0,0.0,0.0,0.0,-13.0,0.0,2.0,0.0,0.0,0.0,1.0822338226509707e-09,8.344623078524233e-10,5.878222881291756e-10,4.5161452625143597e-10,3.3017285547414e-10,2.283822542270173e-10,1.6285514525187515e-10,1.1471754788873781e-10,8.150922169964037e-11,5.923806245295432e-11,3.8661089088415915e-11,2.5866460479453298e-11,1.6613838300721115e-11,1.0335039262385444e-11,6.034017206821619e-12,3.468449434784944e-12,1.8314026610176006e-12,6.303973416210983e-09,6.312145068038478e-09,5.2402792537651746e-09,4.6664852156011965e-09,3.828183046181493e-09,3.0361071761281053e-09,2.518339821748517e-09,1.9933503736393727e-09,1.642017762308407e-09,1.350908947141691e-09,1.0544865775413802e-09,7.947274881727951e-10,6.384559620001324e-10,4.5320283768702887e-10,3.2064839023584903e-10,2.347017543088432e-10,1.6653827422898774e-10,1.1037297743089234e-10,7.266402624780247e-11,4.7400688802188354e-11,2.9772888924963324e-11
0.0,3,3.0,0.0,30.0,0.0,0.0,0.0,0.0,-13.0,0.0,2.0,0.0,0.0,0.0,1.1017470539102123e-09,8.020089586621471e-10,6.324852345585074e-10,4.49926868185014e-10,3.2396207727906175e-10,2.2584415842244825e-10,1.6213963984087715e-10,1.1814526402935396e-10,7.766103792362061e-11,5.6107787548648896e-11,3.8253433852612767e-11,2.5314457316175412e-11,1.654934851702129e-11,1.0197460033625486e-11,6.404043398683755e-12,3.3996253576663243e-12,1.737622134895864e-12,6.405164620866143e-09,6.304883015066972e-09,5.472435881647464e-09,4.33050395001145e-09,3.9051712883867185e-09,3.12163410550747e-09,2.472924444365095e-09,2.0888692908019355e-09,1.630900046177129e-09,1.354269279738527e-09,1.0761095646090988e-09,7.829036406920034e-10,6.124045466027477e-10,4.386159690355758e-10,3.2464820702716514e-10,2.300074360764051e-10,1.6496019299666103e-10,1.1422232317799867e-10,7.207015575860342e-11,4.524619004357581e-11,2.932677273389753e-11
0.0,4,4.0,0.0,30.0,0.0,0.0,0.0,0.0,-13.0,0.0,2.0,0.0,0.0,0.0,1.1030554685463118e-09,7.725883041436277e-10,6.076022317554373e-10,4.2120203591365146e-10,3.3308955177736717e-10,2.318424714750378e-10,1.6882980635079756e-10,1.0774923954347281e-10,7.975640978046197e-11,5.496145163251477e-11,3.811421379670201e-11,2.600900266536035e-11,1.664061024383823e-11,9.684281606562864e-12,5.77044173944682e-12,3.4316932729812344e-12,1.7579447893935376e-12,6.726558788149867e-09,6.061116269219312e-09,5.263090082152859e-09,4.326913920810127e-09,3.7949993040881665e-09,2.9937149808253073e-09,2.451766605478806e-09,2.058595791392408e-09,1.6360575859268697e-09,1.341839512085631e-09,1.0532690265915264e-09,8.102456960793006e-10,5.730212417893333e-10,4.5873546623645673e-10,3.1793499948568355e-10,2.437940980679687e-10,1.6258636302116557e-10,1.0673776444043227e-10,7.014802447543297e-11,4.4917496318619174e-11,3.091362701913135e-11
0.0,5,5.0,0.0,30.0,0.0,0.0,0.0,0.0,-13.0,0.0,2.0,0.0,0.0,0.0,1.0976937354420879e-09,7.946163316341965e-10,6.340970011665049e-10,4.354120583172441e-10,3.203380982347718e-10,2.2059387983446997e-10,1.6057826704986125e-10,1.1812703872782003e-10,8.144209308815932e-11,5.4991221502281377e-11,3.874930527633411e-11,2.5947549828173997e-11,1.728744453894701e-11,1.0179432072036958e-11,5.865365280920323e-12,3.2833555065716875e-12,1.8329549845782267e-12,6.594063950791937e-09,6.025534047772728e-09,5.34336845019876e-09,4.401166834649894e-09,3.61712830307711e-09,2.984549969758007e-09,2.491782766249793e-09,2.0703741740469074e-09,1.6880451007756645e-09,1.3591379828816491e-09,1.0566377526185561e-09,8.437559834758992e-10,6.191958568708366e-10,4.5648615580308916e-10,3.2007561590207153e-10,2.3827359222336513e-10,1.5794487618298437e-10,1.1167812869276499e-10,7.289600276925775e-11,4.601819733552709e-11,3.151946678145424e-11
0.0,6,6.0,0.0,30.0,0.0,0.0,0.0,0.0,-13.0,0.0,2.0,0.0,0.0,0.0,9.919410756168171e-10,8.079746138294918e-10,6.031115580837352e-10,4.370620610083918e-10,3.193339740461604e-10,2.424187341509607e-10,1.6039783380637158e-10,1.2106943187491285e-10,8.223278802657688e-11,5.60143779239504e-11,3.9632062836293485e-11,2.701943372494422e-11,1.6917538194901755e-11,9.941183621327374e-12,5.695029088531843e-12,3.2928769282999525e-12,1.8681370214814645e-12,6.918460894231684e-09,5.969153981265139e-09,5.369498020056926e-09,4.380914803617074e-09,3.6808166832697236e-09,3.013282153957171e-09,2.5098851284494284e-09,2.168338331327487e-09,1.6541273245554654e-09,1.3320155385332348e-09,1.0355601948564952e-09,7.849185208722032e-10,5.84708307527034e-10,4.435268265882116e-10,3.312299447225351e-10,2.3198534040160507e-10,1.656923551417861e-10,1.0811974532668387e-10,7.385600264722278e-11,4.7829492504963806e-11,3.078882682853342e-11
0.0,7,7.0,0.0,30.0,0.0,0.0,0.0,0.0,-13.0,0.0,2.0,0.0,0.0,0.0,1.1091544810202182e-09,7.550074589200882e-10,6.055510127235754e-10,4.188674944625163e-10,3.1857203525305956e-10,2.2388737809150795e-10,1.6351395252819245e-10,1.1547047691790125e-10,8.033631421891584e-11,5.671729750405562e-11,3.6487912677716015e-11,2.5333893604447705e-11,1.660424369503312e-11,1.029787135284842e-11,5.764666918722766e-12,3.185404620963527e-12,1.7793195110950911e-12,6.643779290387329e-09,6.093407740148349e-09,5.262198786096874e-09,4.541749617123316e-09,3.766967765305303e-09,2.771420773286658e-09,2.5235539971946435e-09,2.111285794187991e-09,1.6893357947786608e-09,1.3399658147965789e-09,1.0611257619446623e-09,8.100814983617925e-10,5.902688458510402e-10,4.300135797754594e-10,3.400360799368126e-10,2.41174712681864e-10,1.637236105090788e-10,1.1409896924938095e-10,7.375573090111697e-11,4.706249016656952e-11,3.063326413595534e-11
0.0,8,8.0,0.0,30.0,0.0,0.0,0.0,0.0,-13.0,0.0,2.0,0.0,0.0,0.0,1.083424968003115e-09,7.867320019026361e-10,5.783197323792205e-10,4.2661770759555435e-10,3.1485982073637475e-10,2.362803342952344e-10,1.664581562729241e-10,1.2205798218214628e-10,8.05176174234703e-11,5.517837006583402e-11,4.044637730818826e-11,2.617027270533488e-11,1.5103507820782012e-11,9.581666540287353e-12,5.7875074310522996e-12,3.365935387855562e-12,1.8670733352119675e-12,6.937890998116278e-09,6.0844594457671755e-09,5.24363826450207e-09,4.321900010270334e-09,3.6794165484296744e-09,3.0565789804982177e-09,2.5049700837200316e-09,2.0835037499944215e-09,1.6314057460639346e-09,1.3507098366915024e-09,9.806361404189442e-10,8.101318707877559e-10,5.837311299770428e-10,4.3193720409361024e-10,3.25827261636197e-10,2.193169531621852e-10,1.5338727329555913e-10,1.0881770723685987e-10,7.718525747590079e-11,4.953905430165275e-11,3.2212756247087016e-11
0.0,9,9.0,0.0,30.0,0.0,0.0,0.0,0.0,-13.0,0.0,2.0,0.0,0.0,0.0,1.1301761110598297e-09,8.330663749333432e-10,6.02171125913873e-10,4.3962106406982906e-10,3.214889959764812e-10,2.2967166593237916e-10,1.6385979540095257e-10,1.1253365794971775e-10,8.545186368400344e-11,5.627497141635714e-11,3.639497554141998e-11,2.5675000918902006e-11,1.679024226787987e-11,9.69924431691834e-12,5.7051771399901195e-12,3.202273060258852e-12,1.7868070854181062e-12,6.531399755602902e-09,5.706174798259602e-09,5.3963288926692315e-09,4.480039341584369e-09,3.6248086067558694e-09,3.127161316071915e-09,2.4546300350969473e-09,2.0487698220725616e-09,1.6237830043457187e-09,1.2578952886583561e-09,9.85916235593673e-10,8.020630878312662e-10,5.94905322871653e-10,4.6073299599156505e-10,3.1533841198590294e-10,2.394790044286671e-10,1.6389066774008317e-10,1.113413528384401e-10,7.394365037302902e-11,5.039765725549253e-11,3.2609002546703594e-11
0.0,10,10.0,0.0,30.0,0.0,0.0,0.0,0.0,-13.0,0.0,2.0,0.0,0.0,0.0,1.0337211487846926e-09,8.130231326268393e-10,5.598713143173556e-10,4.54789649672003e-10,3.241108266054554e-10,2.473780451368995e-10,1.6086332113217767e-10,1.1222864809169466e-10,8.395944900359337e-11,5.532754921806922e-11,3.875022590146566e-11,2.6662847513570267e-11,1.699004626045125e-11,1.0044500630144641e-11,5.7486692800063244e-12,3.0336928177974227e-12,1.8147477152064205e-12,6.63987355850554e-09,6.07558560490869e-09,5.490037269977121e-09,4.399256741024588e-09,3.806532814593279e-09,3.2515631071927156e-09,2.5780006129914664e-09,2.158852917421058e-09,1.6853866796197715e-09,1.2807290470132877e-09,1.083972427467566e-09,7.986025109891974e-10,6.098176891804607e-10,4.4934510676749815e-10,3.429949138094289e-10,2.3625839001374173e-10,1.592531102955617e-10,1.155231988363724e-10,7.235175118505845e-11,4.965360885518159e-11,3.102896329272203e-11
0.0,11,11.0,0.0,30.0,0.0,0.0,0.0,0.0,-13.0,0.0,2.0,0.0,0.0,0.0,1.1836017406458554e-09,8.32279734502223e-10,6.013058603480262e-10,4.622210826059014e-10,3.45217698139442e-10,2.3507947022530967e-10,1.7331160670152604e-10,1.208854139582401e-10,8.10592447136057e-11,5.785465342374101e-11,3.854098685390242e-11,2.512207980334585e-11,1.601405355638685e-11,9.710346377726806e-12,5.864181828762307e-12,3.1011381682724613e-12,1.745608192792656e-12,6.998669146712746e-09,5.743817893203794e-09,5.1397192495542356e-09,4.3378358578237765e-09,3.5800585438495504e-09,3.0486498764228435e-09,2.6068748141598245e-09,2.083076758526343e-09,1.7937416257908878e-09,1.3488116730481422e-09,1.0512019427601983e-09,8.661594388117707e-10,5.807090245198997e-10,4.4484640060934876e-10,3.4181458186473085e-10,2.3791007770379646e-10,1.6320862563953663e-10,1.1167315345711525e-10,7.451380393821707e-11,5.045449010999446e-11,3.129167768341437e-11
0.0,12,12.0,0.0,30.0,0.0,0.0,0.0,0.0,-13.0,0.0,2.0,0.0,0.0,0.0,1.016946389181935e-09,8.348547478591446e-10,6.202698217437278e-10,4.2492817631518656e-10,3.2774481075828745e-10,2.3205245146017638e-10,1.6117817983053873e-10,1.1559043990770412e-10,8.460545459752093e-11,5.672792602185176e-11,3.9511291757085156e-11,2.431382244758949e-11,1.6562959011422923e-11,9.876134018222964e-12,5.619253064811861e-12,3.2662987754960483e-12,1.5890452453507816e-12,6.833728183718559e-09,5.968160074746945e-09,5.202361407725574e-09,4.232583152899315e-09,3.6378982282570773e-09,3.0576658422062283e-09,2.6188580802505906e-09,2.139405755174639e-09,1.6658222561412412e-09,1.278233620815939e-09,1.0598126572032349e-09,7.765806108018446e-10,6.107894969570728e-10,4.117656348398606e-10,3.3517712459404223e-10,2.2108357940267838e-10,1.6547333168090966e-10,1.1051789255553214e-10,6.98981789130934e-11,5.055228730438185e-11,3.165987814139997e-11
0.0,13,13.0,0.0,30.0,0.0,0.0,0.0,0.0,-13.0,0.0,2.0,0.0,0.0,0.0,1.0537374880156765e-09,8.074277481522628e-10,5.957395491543023e-10,4.395109202760923e-10,3.1239492021493207e-10,2.2629591594215004e-10,1.603768478515946e-10,1.1903245646241332e-10,8.472917471042823e-11,5.876582005295246e-11,3.898676174363946e-11,2.662226230239795e-11,1.675941855586213e-11,9.976668793700933e-12,5.653501011158844e-12,3.1718278226312174e-12,1.7138176429899552e-12,6.784247559012195e-09,6.075508036804536e-09,5.220408079877188e-09,4.413762062802394e-09,3.671524681894408e-09,3.1059085164130422e-09,2.5694312509992196e-09,2.0825205258021192e-09,1.6164609484049697e-09,1.368835599303265e-09,1.0344454989000252e-09,8.069011704830778e-10,6.151078988254872e-10,4.4211600759751986e-10,3.308819814074462e-10,2.2606126124752298e-10,1.6318834047350895e-10,1.1147189033168655e-10,7.613190609488545e-11,4.922942285509077e-11,3.2476529655372524e-11
0.0,14,14.0,0.0,30.0,0.0,0.0,0.0,0.0,-13.0,0.0,2.0,0.0,0.0,0.0,1.0961885892245085e-09,7.903765219069424e-10,6.054581479496209e-10,4.4537694932832756e-10,3.326374984091088e-10,2.2550174316623e-10,1.668870583567162e-10,1.2033643592910846e-10,8.400765130712796e-11,5.8182309505479967e-11,3.6926135097800976e-11,2.6299554658758578e-11,1.642487319474066e-11,9.303029203050623e-12,5.534620878163577e-12,3.44350091538005e-12,1.7485453880558858e-12,6.853433068039112e-09,6.177829461496124e-09,5.388208454793408e-09,4.270933879989633e-09,3.5122158683097413e-09,3.109818952690044e-09,2.5320268449891018e-09,2.1222151909206917e-09,1.7160836478851238e-09,1.3326209902667965e-09,1.0111923426624845e-09,8.250207496579956e-10,6.053044128213954e-10,4.298079752179157e-10,3.250062042508942e-10,2.3623819843337565e-10,1.6296159882498083e-10,1.1002472009958423e-10,7.618407944086489e-11,5.007446136144957e-11,3.2133825314905146e-11
0.0,15,15.0,0.0,30.0,0.0,0.0,0.0,0.0,-13.0,0.0,2.0,0.0,0.0,0.0,1.009487069974011e-09,7.923140164869863e-10,5.779011046656451e-10,4.500766824471464e-10,3.3025042919761503e-10,2.5193198873426084e-10,1.6149797940866808e-10,1.2132536558510433e-10,8.66454503691479e-11,5.99784450062643e-11,3.813892831531902e-11,2.735628232097992e-11,1.60323042988946e-11,9.749117580017205e-12,5.545884080137071e-12,3.00324238879174e-12,1.6319603983863529e-12,6.493907312637649e-09,6.221559362094684e-09,5.26920918391909e-09,4.681352970135544e-09,3.753156672526639e-09,2.9597545095996114e-09,2.4922710497739924e-09,2.02090232346e-09,1.7077287497101587e-09,1.3443807035221111e-09,1.095183663274841e-09,8.125023278168301e-10,5.904158808708842e-10,4.428683610284772e-10,3.404445492482754e-10,2.2985129215591112e-10,1.656862933278732e-10,1.1482723021164647e-10,7.772754005801201e-11,4.792626295856332e-11,3.242664229075187e-11
0.0,16,16.0,0.0,30.0,0.0,0.0,0.0,0.0,-13.0,0.0,2.0,0.0,0.0,0.0,1.0856814750961746e-09,8.089769545907973e-10,5.56399587418484e-10,4.336251902720653e-10,3.372093215774712e-10,2.2499537709807168e-10,1.6917899906978489e-10,1.1923310876794639e-10,8.380780410581493e-11,5.690554292788657e-11,4.016329534464814e-11,2.555317385211084e-11,1.5666354738966732e-11,9.066264530315437e-12,5.502315569864655e-12,3.0208541271804513e-12,1.5884388647616984e-12,6.807885443274687e-09,6.107799550570235e-09,5.467811172568664e-09,4.5797015124987415e-09,3.786909691029293e-09,3.1719048960921966e-09,2.4966762855832347e-09,2.0673437512413946e-09,1.7553414001876681e-09,1.3092989095913353e-09,9.883107809694336e-10,7.698931224676103e-10,6.024621197340764e-10,4.5392372928058767e-10,3.2336220927814944e-10,2.392447279003171e-10,1.6444827166064708e-10,1.1496172303572565e-10,7.498766437658837e-11,4.71442360811012e-11,3.1953966470498955e-11
0.0,17,17.0,0.0,30.0,0.0,0.0,0.0,0.0,-13.0,0.0,2.0,0.0,0.0,0.0,1.0372740555176379e-09,7.999162900150355e-10,5.984212582109415e-10,4.4344105494969813e-10,3.223114945879778e-10,2.189146157905848e-10,1.778219624166568e-10,1.18024489834547e-10,9.001616061987545e-11,5.913535007365416e-11,3.9236792791560084e-11,2.5760650039047465e-11,1.6174210630629456e-11,1.0370677712410151e-11,5.764954521374201e-12,3.0419852076492753e-12,1.6746251659918635e-12,6.802858898736909e-09,5.8980430742627945e-09,5.227488873789041e-09,4.3281732234440395e-09,3.7804794067236826e-09,3.057801171558054e-09,2.5007903639451903e-09,2.1996029060043393e-09,1.7106852025032904e-09,1.3639692855023758e-09,1.0162803059861721e-09,8.402556752304385e-10,6.206920395943877e-10,4.285974199487127e-10,3.3950786081751607e-10,2.1452723231231304e-10,1.6407649195474534e-10,1.0960982670954452e-10,7.404913013713736e-11,5.3623831953047665e-11,3.090781207133871e-11
0.0,18,18.0,0.0,30.0,0.0,0.0,0.0,0.0,-13.0,0.0,2.0,0.0,0.0,0.0,1.0564611416779843e-09,7.9490314835742e-10,6.142430926811825e-10,4.4578513785574083e-10,3.259733600928577e-10,2.33859588767095e-10,1.7045350744027358e-10,1.1468417645177586e-10,8.16145337856982e-11,6.097444206372905e-11,4.141546400282055e-11,2.5691542677910532e-11,1.600006668363996e-11,1.0016060224373953e-11,5.448876396421944e-12,3.1729460395195282e-12,1.5819973317231083e-12,6.770940658327643e-09,6.0376929292092055e-09,5.213128264429458e-09,4.295796205513573e-09,3.5522644121196287e-09,3.040536394820782e-09,2.4396892644807248e-09,2.15381194177669e-09,1.656006489172919e-09,1.3283282281814644e-09,1.0811163644787272e-09,7.649484918374169e-10,6.143396570848778e-10,4.407964289629531e-10,3.307337450833681e-10,2.4168467012379064e-10,1.6041809545935153e-10,1.1031130049580532e-10,7.544679783037984e-11,5.0636442257681295e-11,3.4092144831053355e-11
0.0,19,19.0,0.0,30.0,0.0,0.0,0.0,0.0,-13.0,0.0,2.0,0.0,0.0,0.0,1.0896778889613403e-09,7.699042055960103e-10,5.760062641229176e-10,4.3986992438443435e-10,3.3182509621373597e-10,2.29196488134776e-10,1.6215207900788093e-10,1.1541696812825395e-10,8.543385894454471e-11,5.589362772992073e-11,4.009142411476659e-11,2.548018048806536e-11,1.719167887796824e-11,9.743272656896451e-12,5.279495354805605e-12,3.142814418503009e-12,1.6579093938847018e-12,6.837134434641679e-09,5.958003032085314e-09,5.076745076282552e-09,4.51673855893348e-09,3.7061043545397537e-09,3.012306310075384e-09,2.7056195834146287e-09,1.9804435167906313e-09,1.6993366288317665e-09,1.327444217499919e-09,1.0881417118711517e-09,7.626205800160083e-10,6.005860346613062e-10,4.6464098184052627e-10,3.1831166272576005e-10,2.3902913260289963e-10,1.5852410153289244e-10,1.1269280442347443e-10,7.687288559003253e-11,5.2242320119507953e-11,3.4692486354267535e-11
0.0,20,20.0,0.0,30.0,0.0,0.0,0.0,0.0,-13.0,0.0,2.0,0.0,0.0,0.0,1.1704770688606082e-09,8.179671151817304e-10,5.773729641874068e-10,4.376967878033059e-10,3.3238891581021535e-10,2.3720735889566206e-10,1.6464335693456878e-10,1.1771809867478454e-10,8.477605278692885e-11,5.495132548478559e-11,4.06982608333104e-11,2.5313509577515487e-11,1.5926450478123312e-11,9.578279328965084e-12,5.607516707473677e-12,2.9691424999501767e-12,1.4787408080641261e-12,6.740819156597218e-09,6.221714295028045e-09,5.334686509913426e-09,4.5280581856441874e-09,3.5998541098856775e-09,3.0114689450467145e-09,2.5124508307103365e-09,2.098170427134684e-09,1.621835947585912e-09,1.2885115435322913e-09,1.0297820724889299e-09,8.040723115714121e-10,5.98461554845307e-10,4.5454442633375877e-10,3.1170430037717243e-10,2.2067808695007308e-10,1.6186409870248698e-10,1.0562385887663535e-10,7.368619697832637e-11,4.857534738614434e-11,3.369921956855002e-11
0.0,21,21.0,0.0,30.0,0.0,0.0,0.0,0.0,-13.0,0.0,2.0,0.0,0.0,0.0,1.087717481360973e-09,8.266213854274086e-10,5.784162233572216e-10,4.3068845863345953e-10,3.119207542220877e-10,2.242740587117575e-10,1.6139557873822812e-10,1.2230941167398156e-10,8.331390640316654e-11,6.110992495069728e-11,3.984346166438987e-11,2.643094389025771e-11,1.5942491798462358e-11,9.9996840139791e-12,5.6212529447890055e-12,3.1342207222626057e-12,1.5582144929279707e-12,6.6097830350017866e-09,5.8749790726379295e-09,5.498356853175324e-09,4.358627273727557e-09,3.68594379676098e-09,3.2492906980791277e-09,2.4842665795340465e-09,2.1920311758537413e-09,1.5921491368373827e-09,1.3143694836740104e-09,1.0078658142938663e-09,8.037394507078655e-10,6.007977051203162e-10,4.385299034856787e-10,3.347047820761878e-10,2.3011688663726664e-10,1.6417636645308004e-10,1.1585928032851659e-10,7.591465224227148e-11,5.2147581146276295e-11,3.243341102913047e-11
0.0,22,22.0,0.0,30.0,0.0,0.0,0.0,0.0,-13.0,0.0,2.0,0.0,0.0,0.0,1.132669345102819e-09,8.265958080408751e-10,6.164935165569374e-10,4.372207296407234e-10,3.089932844833903e-10,2.339367015054337e-10,1.6998730591733654e-10,1.2122089896380124e-10,8.582940566056484e-11,5.6694685641783326e-11,3.74924791825015e-11,2.550178926487402e-11,1.5929246581625435e-11,9.648219172125811e-12,5.407564799312977e-12,2.987830828607978e-12,1.5552497067462378e-12,6.499204558019589e-09,6.031200464707335e-09,5.2970388145395035e-09,4.293274653376479e-09,3.69370184389708e-09,3.0606939198243095e-09,2.511836972495576e-09,2.1364082086507482e-09,1.6289611511613435e-09,1.2992953116960576e-09,1.002618444271319e-09,8.18887272411075e-10,6.210326889473852e-10,4.4524515655266605e-10,3.3826052433025475e-10,2.2985525063051667e-10,1.6038578001938032e-10,1.129165878139182e-10,7.443415566972179e-11,5.2768283311990736e-11,3.4120781095723543e-11
0.0,23,23.0,0.0,30.0,0.0,0.0,0.0,0.0,-13.0,0.0,2.0,0.0,0.0,0.0,1.101993460158522e-09,8.072145918990282e-10,6.039500428395552e-10,4.531898631461672e-10,3.31143968495283e-10,2.306764928325174e-10,1.5861787501954192e-10,1.2062257221141985e-10,8.574270936896279e-11,5.851479559828651e-11,3.972878412326177e-11,2.521363473088106e-11,1.5507839525901817e-11,9.362636273827206e-12,5.360898579770726e-12,2.928554950998182e-12,1.4991226225553997e-12,6.661571215618198e-09,6.045866094602001e-09,5.339785347717614e-09,4.491424500492192e-09,3.5174742366347643e-09,2.9932470719650215e-09,2.424522598659661e-09,2.0991372279082812e-09,1.646495682009017e-09,1.321093680311004e-09,9.997753071861551e-10,8.336755769439163e-10,6.279794752038325e-10,4.6018739192633485e-10,3.31089738837269e-10,2.3223971851095148e-10,1.707427120011314e-10,1.1543124178917387e-10,7.869355654210959e-11,5.354562654252797e-11,3.392085100322509e-11
0.0,24,24.0,0.0,30.0,0.0,0.0,0.0,0.0,-13.0,0.0,2.0,0.0,0.0,0.0,1.0757756716250233e-09,7.847555379803741e-10,6.072142735174796e-10,4.380562651343057e-10,3.253048279189413e-10,2.433910135288887e-10,1.735624877127542e-10,1.2819758578979285e-10,8.411306432656495e-11,5.77762229888683e-11,3.8688789172347226e-11,2.5894913560349853e-11,1.5665359040595568e-11,9.419392249089697e-12,4.987327824963478e-12,3.0189998076337218e-12,1.4651884226015472e-12,6.620557072395918e-09,5.770768393535317e-09,5.305087671031845e-09,4.4625873492487885e-09,3.829916860669017e-09,3.083367348867876e-09,2.581390248852951e-09,2.03118514082961e-09,1.6683199349175815e-09,1.357365007524536e-09,1.0912016336842984e-09,7.932669259212201e-10,6.265976475553851e-10,4.4355051705698984e-10,3.1469279460876484e-10,2.4106911205453434e-10,1.7029753250486748e-10,1.1695956648258433e-10,7.85931888115077e-11,5.111758139136793e-11,3.4795342386798674e-11
0.0,25,25.0,0.0,30.0,0.0,0.0,0.0,0.0,-13.0,0.0,2.0,0.0,0.0,0.0,1.1068009964118924e-09,8.275706756346057e-10,5.951915302963786e-10,4.529557992879246e-10,3.1464087612908554e-10,2.2942680806946383e-10,1.637030119270764e-10,1.2342531182313706e-10,8.369607813149592e-11,6.102005017133346e-11,4.1844802905277094e-11,2.6512293732855572e-11,1.6196837086765284e-11,9.357933624140142e-12,5.327757056654916e-12,2.944433738691805e-12,1.557214943636201e-12,6.411689396331733e-09,5.843376316436901e-09,5.084335741726753e-09,4.360248074117829e-09,3.998304629908612e-09,2.8503687218624034e-09,2.607688031733143e-09,2.1247450736592993e-09,1.7053155915102739e-09,1.285124868066229e-09,1.0120343513990085e-09,8.140370163915765e-10,6.108291221272991e-10,4.5019708698956345e-10,3.420069548102495e-10,2.3220368761433326e-10,1.630940344912211e-10,1.0730835603132884e-10,7.847500722549736e-11,5.3204910644947345e-11,3.361912928325537e-11
0.0,26,26.0,0.0,30.0,0.0,0.0,0.0,0.0,-13.0,0.0,2.0,0.0,0.0,0.0,1.0963987721856723e-09,8.09655183398444e-10,6.130488217015144e-10,4.455120491874748e-10,3.2699889229698593e-10,2.360438638519554e-10,1.724864351438337e-10,1.1692308122621095e-10,8.256755324590507e-11,5.7797872451381574e-11,4.171290712465885e-11,2.6227749574586064e-11,1.5053864305836603e-11,9.493910644417489e-12,5.207777668736936e-12,2.783775338657856e-12,1.4166227057084637e-12,6.608803762414188e-09,6.018392812733784e-09,5.060351904314078e-09,4.5750429458590495e-09,3.7585963827820944e-09,2.9973551104323586e-09,2.3376330645037196e-09,1.9406331584684935e-09,1.6538219416698135e-09,1.3740944053285363e-09,1.0892120110355905e-09,7.803267955039168e-10,6.121102699666385e-10,4.639917009123008e-10,3.292277290876434e-10,2.365923241856293e-10,1.6901011778026435e-10,1.1667470432264234e-10,7.998775775965273e-11,5.2321196103042314e-11,3.3799112660226756e-11
0.0,27,27.0,0.0,30.0,0.0,0.0,0.0,0.0,-13.0,0.0,2.0,0.0,0.0,0.0,1.015697827340648e-09,7.809856726073781e-10,6.276348453538514e-10,4.149659682491436e-10,3.127089673239378e-10,2.2984917499652823e-10,1.669628280300907e-10,1.3228301319421025e-10,8.460910301809435e-11,5.827218592435281e-11,3.9561904430036974e-11,2.611985051018226e-11,1.5555114410220346e-11,9.745099701520268e-12,4.874691711840147e-12,2.8747711182182076e-12,1.491299284040289e-12,6.863766860320215e-09,6.2155616553393765e-09,5.229311584184096e-09,4.267434230704081e-09,3.6222792788230156e-09,3.0295806264919257e-09,2.530416568405863e-09,2.0598003580970303e-09,1.6521008657455285e-09,1.3875746214506846e-09,1.0806812755225575e-09,7.834719274377067e-10,5.910081718348586e-10,4.3112223251381373e-10,3.431040431810371e-10,2.3326224233940494e-10,1.683863621345724e-10,1.1258336223608432e-10,7.660038616333313e-11,5.365147554306186e-11,3.4986305418109304e-11
0.0,28,28.0,0.0,30.0,0.0,0.0,0.0,0.0,-13.0,0.0,2.0,0.0,0.0,0.0,1.1190541998333476e-09,8.155405669157789e-10,5.971651027667344e-10,4.2204009151153713e-10,3.404733044616982e-10,2.4751873980157277e-10,1.6456548079655126e-10,1.2031119268069231e-10,8.573970766925332e-11,6.079945453084647e-11,4.170217932420409e-11,2.5684279996826196e-11,1.568676504306562e-11,9.182178472514887e-12,5.353360299410092e-12,2.8188222160017843e-12,1.41067134265593e-12,6.919780107272289e-09,5.805305173967111e-09,5.621788994055278e-09,4.769343226558053e-09,3.692437335435195e-09,2.994832478338591e-09,2.5081312996011882e-09,1.986655748117144e-09,1.6509960212454542e-09,1.320436721444087e-09,1.0718199133088026e-09,7.678931202511428e-10,6.139180974477784e-10,4.4885098563554877e-10,3.2913653968940997e-10,2.333741113409752e-10,1.6591401523595658e-10,1.1707876034842184e-10,8.209249628935594e-11,5.349621707002322e-11,3.4057089958258466e-11
0.0,29,29.0,0.0,30.0,0.0,0.0,0.0,0.0,-13.0,0.0,2.0,0.0,0.0,0.0,1.0687353011315803e-09,7.781681503567657e-10,6.287635602946251e-10,4.559392165090251e-10,3.2276985815043833e-10,2.4368838484490654e-10,1.6793426043754317e-10,1.1116110813596458e-10,8.282675515303956e-11,5.8080761106391396e-11,4.1969561084865064e-11,2.5442605237962155e-11,1.5507341512963862e-11,9.208723499466591e-12,5.385657684686551e-12,2.723547277389424e-12,1.3919392381213912e-12,7.0195474234105016e-09,6.225590576920664e-09,5.271584426775834e-09,4.150374591134248e-09,3.6467429137823132e-09,3.0020595699730213e-09,2.63727572203334e-09,2.0965821178289327e-09,1.6381084600238414e-09,1.2719392142836082e-09,9.824242554431424e-10,8.029261745909936e-10,6.205361388489456e-10,4.42843783918206e-10,3.463511212190464e-10,2.3340574669356906e-10,1.692837952586307e-10,1.1661337945513043e-10,7.961166427729313e-11,5.163084626350851e-11,3.481599097334119e-11
0.0,30,30.0,0.0,30.0,0.0,0.0,0.0,0.0,-13.0,0.0,2.0,0.0,0.0,0.0,1.0833501048137697e-09,8.193037863396642e-10,6.009891747631796e-10,4.407561653227431e-10,3.3942682318739877e-10,2.373089868968287e-10,1.6499986242450538e-10,1.2311913231473997e-10,8.32598061385405e-11,5.990965741481179e-11,4.1374926333925086e-11,2.6268841994759214e-11,1.6077232919513617e-11,8.742372167651405e-12,5.227838070019353e-12,2.678129665805972e-12,1.4444863331334793e-12,6.859753715741415e-09,5.973494431270203e-09,5.411386848036869e-09,4.553124913675627e-09,3.731685321205781e-09,3.056970139858138e-09,2.4714391540269014e-09,2.1018847994184346e-09,1.6134754600912295e-09,1.2899112120752514e-09,1.0704769202781202e-09,8.105100455561016e-10,6.136228178548803e-10,4.446668892779266e-10,3.460078247820036e-10,2.4421114964344243e-10,1.6058579134551788e-10,1.1506946553512422e-10,7.88488692317374e-11,5.2568633584518635e-11,3.4641375590217253e-11
0.0,31,31.0,0.0,30.0,0.0,0.0,0.0,0.0,-13.0,0.0,2.0,0.0,0.0,0.0,1.1078071493083964e-09,7.954183930346154e-10,6.077993646095236e-10,4.397013871390763e-10,3.232305909030942e-10,2.344631294675786e-10,1.687736768437677e-10,1.2885641220209507e-10,8.662360576112834e-11,6.302256548023814e-11,4.107456933461271e-11,2.5434950977200975e-11,1.5074582450273238e-11,9.48168119710514e-12,4.8615419749539685e-12,2.5923177136082555e-12,1.3828561504456353e-12,6.659788261079128e-09,6.302812225259111e-09,5.332540826706762e-09,4.444375725124531e-09,3.751374377197084e-09,3.0524167428401077e-09,2.4725249205198144e-09,2.0987662292865986e-09,1.6905288011374087e-09,1.3111709615723153e-09,1.0326922689819676e-09,7.845472495610259e-10,6.355650715703845e-10,4.442321799683006e-10,3.519708128533766e-10,2.3036228101118944e-10,1.6676127068011707e-10,1.2069861945566052e-10,8.22199129163781e-11,5.55880485390183e-11,3.360891495121874e-11
0.0,32,32.0,0.0,30.0,0.0,0.0,0.0,0.0,-13.0,0.0,2.0,0.0,0.0,0.0,1.101567138708945e-09,8.32163609552967e-10,6.072345834115106e-10,4.3513579388130273e-10,3.235616696331533e-10,2.458003308979274e-10,1.7214432284594542e-10,1.2447965848374103e-10,9.07873189504466e-11,6.286152090095701e-11,4.108914800968121e-11,2.579713399836547e-11,1.601155517149227e-11,8.806716362287407e-12,5.0122127046312e-12,2.584068814479006e-12,1.3611743863835599e-12,6.71030509094069e-09,5.9819881358625666e-09,5.31714686002304e-09,4.492270104869095e-09,3.809568737396227e-09,2.941112065474297e-09,2.432702340936964e-09,1.9619698665210463e-09,1.6001254925120678e-09,1.2785008349504717e-09,1.04023543018724e-09,7.896467068094474e-10,6.254720202310924e-10,4.755405138018833e-10,3.3547891209221074e-10,2.2840766037696209e-10,1.5581022769890753e-10,1.162632641623562e-10,7.888892921095218e-11,5.337396643523236e-11,3.355530505407218e-11
0.0,33,33.0,0.0,30.0,0.0,0.0,0.0,0.0,-13.0,0.0,2.0,0.0,0.0,0.0,1.1161938273503655e-09,8.12133710217882e-10,5.718826395284629e-10,4.394735199206695e-10,3.298351864751742e-10,2.235249314217857e-10,1.705413758176841e-10,1.3060703389108224e-10,8.545240522244904e-11,5.6596465379675816e-11,4.10077615277957e-11,2.559666155690927e-11,1.473754013074298e-11,9.003433137302405e-12,5.029023873150637e-12,2.474080458812317e-12,1.3235300846161947e-12,6.634112331822898e-09,6.096933151081695e-09,5.000673734600787e-09,4.704429449108106e-09,3.6668494384218746e-09,3.1007472706864876e-09,2.486294791125654e-09,2.00386515487244e-09,1.6957995959607064e-09,1.3076984000504759e-09,1.0045226007018183e-09,8.077465578645716e-10,6.150282318117132e-10,4.251925661194012e-10,3.4045489706255e-10,2.343341009402643e-10,1.749213924986028e-10,1.1674778483810151e-10,7.955139468119749e-11,5.476783061740156e-11,3.552036982670529e-11
0.0,34,34.0,0.0,30.0,0.0,0.0,0.0,0.0,-13.0,0.0,2.0,0.0,0.0,0.0,1.139758627164734e-09,8.186372666326162e-10,6.027502814016008e-10,4.226382922683788e-10,3.196909503113283e-10,2.3175245301706824e-10,1.7997173550687498e-10,1.244630207696149e-10,8.723051666986513e-11,5.851154542768601e-11,3.9767463288849e-11,2.470129731485941e-11,1.469814363097799e-11,8.862446670264958e-12,4.742789764443421e-12,2.466997939341274e-12,1.2867988258712868e-12,6.456375821542533e-09,6.0505299316439546e-09,5.357413244168158e-09,4.645403727081275e-09,3.5399564049721834e-09,3.0707199950951704e-09,2.4466980002369132e-09,2.044491719801984e-09,1.6598805964511646e-09,1.3150332902083216e-09,1.0613045862845001e-09,7.948666871232175e-10,5.993471086793839e-10,4.2565442717746165e-10,3.2301239252355967e-10,2.309783538928106e-10,1.6749343849605617e-10,1.166861357533444e-10,8.732938921022692e-11,5.907702902125637e-11,3.591651538229226e-11
0.0,35,35.0,0.0,30.0,0.0,0.0,0.0,0.0,-13.0,0.0,2.0,0.0,0.0,0.0,1.0842446543531242e-09,7.985707042479969e-10,5.849488267528344e-10,4.561026192737402e-10,3.1052157961359083e-10,2.3150245407836795e-10,1.7977615632352295e-10,1.2653362997795064e-10,8.837734212586843e-11,5.873865909651886e-11,4.0837485663801204e-11,2.637841747440199e-11,1.542958321840449e-11,9.337221306712334e-12,4.9094071343869814e-12,2.506269753972035e-12,1.3184157955060438e-12,6.6912260722839134e-09,6.238527509551113e-09,5.153274515763635e-09,4.477182446145676e-09,3.6983858570858033e-09,3.1056367927973495e-09,2.5916779070199163e-09,2.1694511525468706e-09,1.696170052945132e-09,1.2980181888403642e-09,9.945521722260158e-10,8.009760224196355e-10,6.011638044974974e-10,4.5250017003525513e-10,3.351447944842922e-10,2.363392272630757e-10,1.6539220849925555e-10,1.1822275208982007e-10,8.164539484301027e-11,5.4691983514251054e-11,3.57816732214718e-11
0.0,36,36.0,0.0,30.0,0.0,0.0,0.0,0.0,-13.0,0.0,2.0,0.0,0.0,0.0,1.1030800452492988e-09,7.455431776328318e-10,6.168777844076847e-10,4.3950484339268437e-10,3.279442437868044e-10,2.3561204199211615e-10,1.8102188444626525e-10,1.3398918065399444e-10,9.206623218900548e-11,6.03889418149879e-11,3.975365088443653e-11,2.488947073134954e-11,1.4467377647894175e-11,8.734719642248743e-12,4.953302847987456e-12,2.7107709963061926e-12,1.27735789393104e-12,6.738409504542262e-09,6.0674960863930485e-09,5.382578327902879e-09,4.346814632520432e-09,3.768708957522925e-09,3.075434045007334e-09,2.4580958067579365e-09,2.0969198893198896e-09,1.6360575830968695e-09,1.3571130587648467e-09,1.0080364876387708e-09,7.939713646908358e-10,6.269767739441641e-10,4.411630872919031e-10,3.3434619189923504e-10,2.4772602169979503e-10,1.6826897060176593e-10,1.1989939226549487e-10,7.820306165567617e-11,5.601472862141755e-11,3.597242449016252e-11
0.0,37,37.0,0.0,30.0,0.0,0.0,0.0,0.0,-13.0,0.0,2.0,0.0,0.0,0.0,1.0640201022103125e-09,8.224184033108471e-10,5.791049741095227e-10,4.6118869555152775e-10,2.9950055221508294e-10,2.264542823281109e-10,1.7363238521006497e-10,1.2745154360388215e-10,8.570445630243097e-11,6.112824368184522e-11,4.169431433280196e-11,2.594676881081916e-11,1.549328356093905e-11,8.47483855325043e-12,4.605408194081363e-12,2.594753130791904e-12,1.2916647691001592e-12,7.004891526367211e-09,5.959179385765369e-09,5.246475141189515e-09,4.184275016096917e-09,3.8461910161743835e-09,2.8723247089406463e-09,2.5358296110003526e-09,2.130693921701151e-09,1.6576722530918709e-09,1.2753599502309174e-09,1.0375685896961731e-09,8.044138185671487e-10,6.08334281680118e-10,4.718339906110855e-10,3.3839671469072796e-10,2.4602732459071166e-10,1.6832498353167412e-10,1.2170300879809163e-10,8.214823734551726e-11,5.489499082185389e-11,3.7589178630998574e-11
0.0,38,38.0,0.0,30.0,0.0,0.0,0.0,0.0,-13.0,0.0,2.0,0.0,0.0,0.0,1.0561259784241424e-09,8.438596779746476e-10,5.997796498365583e-10,4.382839645636677e-10,3.3152552679567967e-10,2.4575298334393506e-10,1.798450850953358e-10,1.247739183000685e-10,8.899205979440021e-11,6.129953650326995e-11,3.666800404469859e-11,2.576779340310269e-11,1.552191395254455e-11,8.493325168253204e-12,4.596575034454614e-12,2.4622795800080762e-12,1.2127039347446508e-12,6.502575197928215e-09,6.1293732171879914e-09,5.310538779998445e-09,4.259727523682427e-09,3.6832765632872663e-09,3.0457399861675866e-09,2.632457395811238e-09,2.067395900472438e-09,1.6508242001775214e-09,1.2917758824248408e-09,1.0174041369806324e-09,7.572480649865696e-10,5.951178553802026e-10,4.572748498833732e-10,3.193977778918257e-10,2.3323976966400293e-10,1.727501672201607e-10,1.2326584897914908e-10,8.453672371126756e-11,5.886059845562045e-11,3.5210593555007224e-11
0.0,39,39.0,0.0,30.0,0.0,0.0,0.0,0.0,-13.0,0.0,2.0,0.0,0.0,0.0,1.0613519208649298e-09,7.638232457733183e-10,5.961444637729814e-10,4.5734103424085696e-10,3.307147636648971e-10,2.54265324256517e-10,1.7197218845541966e-10,1.30629401853815e-10,9.01940500963584e-11,5.996649186653984e-11,4.015375538063956e-11,2.556920954835768e-11,1.4793440791020186e-11,8.400687271595714e-12,4.470484108959798e-12,2.4515009550510725e-12,1.2380343155949082e-12,6.730337949716297e-09,6.174355420327526e-09,5.337565646062128e-09,4.320096704387204e-09,3.6084982095838994e-09,2.862936227155939e-09,2.641360500296549e-09,2.11655869178508e-09,1.6140691867024545e-09,1.3726260665528186e-09,1.0821593405555013e-09,7.81809160400943e-10,5.982806159961983e-10,4.678781433503883e-10,3.096634978903857e-10,2.4201927917250263e-10,1.8082276481835436e-10,1.245519474508937e-10,8.607941835729069e-11,5.726548289006657e-11,3.784225656220998e-11
0.0,40,40.0,0.0,30.0,0.0,0.0,0.0,0.0,-13.0,0.0,2.0,0.0,0.0,0.0,1.0399070858775846e-09,8.078885690812157e-10,6.221291817028345e-10,4.403830435531921e-10,3.291164925161824e-10,2.484871732099452e-10,1.653406459707188e-10,1.2853692441766793e-10,8.965271254279417e-11,5.936810093263673e-11,3.9961909026902046e-11,2.4508711428122965e-11,1.43289679786351e-11,8.70124491823565e-12,4.5141451473807675e-12,2.4726728283406814e-12,1.2264317622823132e-12,6.532448066688636e-09,6.214479030363056e-09,5.298107174751797e-09,4.597193225390053e-09,3.807842183954994e-09,2.9661895514829185e-09,2.6058004609499746e-09,2.1060850954494472e-09,1.6740406023060074e-09,1.373458799739114e-09,1.0819547128302705e-09,8.184844719069358e-10,5.989893298774879e-10,4.2799627476108017e-10,3.284456321974463e-10,2.4075394742407793e-10,1.6927674692212097e-10,1.2401997109577983e-10,8.725858178215256e-11,5.871332477346521e-11,3.547758440374978e-11
0.0,41,41.0,0.0,30.0,0.0,0.0,0.0,0.0,-13.0,0.0,2.0,0.0,0.0,0.0,1.0495218344548536e-09,8.232986009230959e-10,5.948830821022214e-10,4.4923086842304117e-10,3.2540744340797367e-10,2.3959116838817254e-10,1.8148985345748826e-10,1.3061845269492766e-10,8.957786061094407e-11,5.978073930698564e-11,4.107455347962601e-11,2.5669567429142093e-11,1.5091308122723397e-11,8.547049995525074e-12,4.6013638845516285e-12,2.3309240734417463e-12,1.1964490723809251e-12,6.664729450498331e-09,6.075151153753842e-09,5.5472292617794046e-09,4.707597220966547e-09,3.633109862168669e-09,3.1791465864957912e-09,2.4762447062299083e-09,2.066160517539357e-09,1.5580265164084232e-09,1.3355792264886794e-09,9.995911600429074e-10,8.281371360380104e-10,6.087197985245984e-10,4.522507037740885e-10,3.415909341789273e-10,2.4079518242463447e-10,1.733338910840417e-10,1.2914171607041658e-10,8.692183934828671e-11,5.737290932928993e-11,3.6642542072310574e-11
0.0,42,42.0,0.0,30.0,0.0,0.0,0.0,0.0,-13.0,0.0,2.0,0.0,0.0,0.0,1.0985734804473313e-09,8.251581870486894e-10,6.191548232382453e-10,4.49156166197045e-10,3.2830527884262175e-10,2.572791338083832e-10,1.7795983298569218e-10,1.3073127548819098e-10,8.823150475525974e-11,6.24874352226672e-11,3.9319910069931296e-11,2.3762698948679897e-11,1.414008982256761e-11,8.493653638673507e-12,4.594276314693844e-12,2.4897425103652557e-12,1.135588002197782e-12,6.7139866627323375e-09,6.076822725273712e-09,5.425718066193923e-09,4.413821045152385e-09,3.6919805037676427e-09,2.9991554484829404e-09,2.499704800093214e-09,2.0089900953237546e-09,1.715866721364169e-09,1.2888865586400454e-09,1.0309447163960325e-09,7.896716649631808e-10,6.338717662623946e-10,4.379341986234017e-10,3.3276289820524797e-10,2.4674794417549123e-10,1.7742168048768202e-10,1.246452596992726e-10,8.723535653413107e-11,5.944402948519192e-11,3.7393553922917995e-11
0.0,43,43.0,0.0,30.0,0.0,0.0,0.0,0.0,-13.0,0.0,2.0,0.0,0.0,0.0,1.1043831142639453e-09,7.380848461753692e-10,5.738827001058588e-10,4.265542463849355e-10,3.26861418154151e-10,2.4534795815326856e-10,1.768251553226238e-10,1.2275861109306284e-10,8.999062140828824e-11,6.019576294100298e-11,3.6965871181027634e-11,2.489055827656416e-11,1.4857141052176726e-11,7.91194434739062e-12,4.346879028242573e-12,2.397606470412679e-12,1.1606361823060094e-12,6.842791557924582e-09,5.780507834303233e-09,5.277188949474503e-09,4.543487712263546e-09,3.881110588107819e-09,2.9609567858184006e-09,2.5669227640677657e-09,1.9681825912369653e-09,1.6126842876197265e-09,1.2939722288761813e-09,1.0324991099619014e-09,7.864176230079595e-10,5.962421323249411e-10,4.22843076508267e-10,3.291621687918429e-10,2.3294994346966326e-10,1.794157309800252e-10,1.2044450281771702e-10,8.58046686961791e-11,5.826057846170893e-11,3.614202605991711e-11
0.0,44,44.0,0.0,30.0,0.0,0.0,0.0,0.0,-13.0,0.0,2.0,0.0,0.0,0.0,1.081272632435742e-09,8.023480708176308e-10,6.233908575538199e-10,4.625304838621911e-10,3.2861543154179007e-10,2.572648636964414e-10,1.806378802670132e-10,1.2990825456932578e-10,9.184779175391868e-11,5.684133082236501e-11,3.865429289867378e-11,2.293646724052611e-11,1.46120859444008e-11,7.906473797576131e-12,4.4881575280573976e-12,2.401871349485597e-12,1.1331824056134223e-12,6.8984514943697265e-09,6.295646933105318e-09,5.015638075176909e-09,4.225823146095444e-09,3.793908222674032e-09,3.0586966443899055e-09,2.5329026992198213e-09,2.1863328523684864e-09,1.6631462626776844e-09,1.3636770195340985e-09,1.0457961798295373e-09,7.935509378105373e-10,5.959127712866236e-10,4.499879317150368e-10,3.2995749434668264e-10,2.3716169352263773e-10,1.8706968123476668e-10,1.3189450560684586e-10,8.785348106007698e-11,5.5488665691512386e-11,3.85919622196886e-11
0.0,45,45.0,0.0,30.0,0.0,0.0,0.0,0.0,-13.0,0.0,2.0,0.0,0.0,0.0,1.0182168504261761e-09,8.315654474372219e-10,5.628382917036967e-10,4.672108321529514e-10,3.2734369188596154e-10,2.5137599894855644e-10,1.7697953164349447e-10,1.303632527655449e-10,9.303974233663962e-11,6.078844766246732e-11,3.805716872194038e-11,2.525127521437022e-11,1.4103473938011717e-11,8.289196220180095e-12,4.4680232454188125e-12,2.1993527262810898e-12,1.098824762228549e-12,6.682775207660908e-09,6.1767981146767084e-09,5.261271698379406e-09,4.328051364931337e-09,3.6695599190480834e-09,3.031157422214123e-09,2.529908745027936e-09,2.0206969562016693e-09,1.6747123468711838e-09,1.2976335998328178e-09,1.0089400782951621e-09,7.983096518508968e-10,5.769930605886669e-10,4.628339863562043e-10,3.3864995276599053e-10,2.4513267059115627e-10,1.8374033289538599e-10,1.300198838431824e-10,8.142629926035426e-11,6.370686934713948e-11,3.602020833589695e-11
0.0,46,46.0,0.0,30.0,0.0,0.0,0.0,0.0,-13.0,0.0,2.0,0.0,0.0,0.0,1.135722304426279e-09,8.487783272276637e-10,5.875486353549861e-10,4.5168061134596e-10,3.1282595030769464e-10,2.5396619702609967e-10,1.9277121273369835e-10,1.2773569672800645e-10,9.398547601371353e-11,6.250741436638386e-11,3.870785574632578e-11,2.4965327310137356e-11,1.4158774811734499e-11,8.349037231748171e-12,4.285400932956023e-12,2.2101951301739473e-12,1.0473175587249794e-12,6.619243484783208e-09,5.885652125637837e-09,5.129842722316326e-09,4.400130993418658e-09,3.8716642917332814e-09,3.0665725398069537e-09,2.6704981784445257e-09,2.1142428302857722e-09,1.714358496925017e-09,1.3478200671009606e-09,1.0280143389862475e-09,7.832610260289688e-10,5.992553499354546e-10,4.3730976536986885e-10,3.3692216293744633e-10,2.5495104243801323e-10,1.755035869912692e-10,1.2522897229387666e-10,9.156456102427956e-11,5.989256053630903e-11,3.635584364446165e-11
0.0,47,47.0,0.0,30.0,0.0,0.0,0.0,0.0,-13.0,0.0,2.0,0.0,0.0,0.0,1.0511486875134535e-09,8.351770651685234e-10,5.765357601516774e-10,4.775147579839789e-10,3.4119993830880676e-10,2.5328504454211553e-10,1.8383475640254225e-10,1.3317768201947927e-10,9.052012075469031e-11,6.205260550388632e-11,3.603071325577342e-11,2.4780172274401413e-11,1.3753675134074484e-11,8.367490098982291e-12,4.320094724676446e-12,2.2402073339744297e-12,1.0709033170982143e-12,6.569609231091826e-09,5.716311333224553e-09,5.371885376662687e-09,4.588864441693563e-09,3.7152125044052335e-09,3.1068717618578316e-09,2.505970285207476e-09,2.1133640484625503e-09,1.6914663493966675e-09,1.3527771044112825e-09,1.0386890879929064e-09,7.784285406055748e-10,6.134962635132103e-10,4.4877439840895506e-10,3.344936021482098e-10,2.499393336889286e-10,1.811414531280708e-10,1.3281236290350685e-10,8.942514291776187e-11,6.278610738422729e-11,3.694575493353523e-11
0.0,48,48.0,0.0,30.0,0.0,0.0,0.0,0.0,-13.0,0.0,2.0,0.0,0.0,0.0,1.0883120676610919e-09,8.52096934098376e-10,6.350435964007861e-10,4.679025640702487e-10,3.277783919836406e-10,2.53040867951069e-10,1.768891196836111e-10,1.3447175708973134e-10,9.147369809643989e-11,5.751647864629843e-11,3.756455060298004e-11,2.432270865668738e-11,1.3864503583250979e-11,7.889205007261031e-12,4.196045816651993e-12,2.1015462681111356e-12,1.0195809641108282e-12,6.666433719023128e-09,6.142293241509198e-09,5.327911609114426e-09,4.593294162073429e-09,3.6785726810193822e-09,3.1544421632932565e-09,2.6324176654946637e-09,2.0943057084683122e-09,1.6177606692047106e-09,1.359814364691553e-09,1.0082390947945178e-09,7.376147134772321e-10,6.083572578574629e-10,4.5246825766212733e-10,3.603381060129731e-10,2.4517033493676673e-10,1.8213365170013693e-10,1.2802901259564236e-10,9.260064792378247e-11,5.944809497297159e-11,3.674625373619139e-11
0.0,49,49.0,0.0,30.0,0.0,0.0,0.0,0.0,-13.0,0.0,2.0,0.0,0.0,0.0,1.0163236896702252e-09,8.204903213168859e-10,5.875348415081446e-10,4.469164010485277e-10,3.275124187890263e-10,2.52511943618648e-10,1.8656559744241778e-10,1.3035552210597033e-10,8.916391032834208e-11,6.310832179302113e-11,3.903747160986842e-11,2.435288935368121e-11,1.3958986361359578e-11,7.35625491348347e-12,4.133276799024879e-12,1.9936034480102092e-12,9.896343694761034e-13,6.755197839267494e-09,6.173440475760438e-09,5.092760117895938e-09,4.491382526730801e-09,3.820600041042638e-09,2.9572293017028046e-09,2.483727301499472e-09,2.1753149097989994e-09,1.7363325162389535e-09,1.2683775086018096e-09,1.0665496451903998e-09,7.710723503029253e-10,6.260331593267534e-10,4.459669105414022e-10,3.545898504709421e-10,2.4656428908164574e-10,1.768604265422259e-10,1.300748673712765e-10,8.619149843092934e-11,5.70422932255615e-11,3.60730975256882e-11
0.0,50,50.0,0.0,30.0,0.0,0.0,0.0,0.0,-13.0,0.0,2.0,0.0,0.0,0.0,1.0951848303102835e-09,8.010894850359294e-10,6.473307059928716e-10,4.618226420021372e-10,3.287081799206895e-10,2.458330446942488e-10,1.9004349862700025e-10,1.3141993969707425e-10,8.885758151964291e-11,6.000670119596945e-11,3.807308768266313e-11,2.1803884328412004e-11,1.3262815217546484e-11,7.564744727318958e-12,3.992790046523517e-12,2.0071726300795252e-12,1.0339678077212456e-12,6.524662638458283e-09,6.444150565574616e-09,5.4306190037147715e-09,4.363887015332162e-09,3.3757702927360133e-09,3.1214743308422035e-09,2.49456578244446e-09,1.9983688690947903e-09,1.593640091444399e-09,1.3730131316994214e-09,1.018405568435841e-09,7.881114200067108e-10,6.262664760604177e-10,4.701609038506243e-10,3.372437613161386e-10,2.5571231671602497e-10,1.7869859910852502e-10,1.345202495782592e-10,8.992080232898713e-11,5.796478334374807e-11,3.792242251008518e-11
0.0,51,51.0,0.0,30.0,0.0,0.0,0.0,0.0,-13.0,0.0,2.0,0.0,0.0,0.0,1.0799637783333745e-09,8.025167874480011e-10,5.969603344286008e-10,4.477686892929329e-10,3.411736090144323e-10,2.5368302512767205e-10,1.8044400255777484e-10,1.336106523054165e-10,9.367859940651836e-11,5.927087755125198e-11,4.0451950250804245e-11,2.464620701956169e-11,1.3681869556598717e-11,7.593738421589232e-12,3.9960146097762335e-12,2.060699726098152e-12,1.0001784192417092e-12,6.733290013002106e-09,6.070916068711533e-09,5.60650920094178e-09,4.5222969794771455e-09,3.958814976434008e-09,3.0868742099625284e-09,2.4387930926809614e-09,2.019748534007913e-09,1.7672973795874577e-09,1.2790275248245483e-09,1.0427214754572174e-09,8.300551628382288e-10,6.158394418393328e-10,4.773164819824415e-10,3.4680125573733653e-10,2.4236189631685033e-10,1.8267647246796103e-10,1.305943477815326e-10,9.073363453091471e-11,5.4823211585667174e-11,3.600033772615018e-11
0.0,52,52.0,0.0,30.0,0.0,0.0,0.0,0.0,-13.0,0.0,2.0,0.0,0.0,0.0,1.0782310745592178e-09,7.685863744194103e-10,5.952675119652392e-10,4.570354049744638e-10,3.3415464958446676e-10,2.597461921977984e-10,1.7592712626963724e-10,1.3166360333072675e-10,9.418284413719274e-11,6.223207789750581e-11,3.964149794598125e-11,2.1978936726222296e-11,1.3157961493173294e-11,7.2423998479694984e-12,3.912460697201608e-12,1.93887812652033e-12,9.702319895136566e-13,7.046778027071777e-09,6.1283140023511115e-09,5.610894559130955e-09,4.5172528572014795e-09,3.6103624602330872e-09,3.0713647299308872e-09,2.581248228369904e-09,2.119420173314045e-09,1.648469756846139e-09,1.2714583355864382e-09,1.0021664654668232e-09,7.771506282538514e-10,6.066639572113581e-10,4.669389101126976e-10,3.3309841118394895e-10,2.520308582522199e-10,1.9543238916454074e-10,1.3519200290790941e-10,9.045562924692444e-11,5.853914566108482e-11,3.550296179625409e-11
0.0,53,53.0,0.0,30.0,0.0,0.0,0.0,0.0,-13.0,0.0,2.0,0.0,0.0,0.0,1.11773638298734e-09,7.964333330021891e-10,6.15956345491548e-10,4.5284267193556067e-10,3.5335525899468406e-10,2.75709558770975e-10,1.883144288281691e-10,1.3474039402473154e-10,8.933814528646453e-11,5.813876290037055e-11,3.902356438700868e-11,2.2915411593679456e-11,1.3387640121969558e-11,7.174868256198736e-12,3.651067310178741e-12,1.9667528838942728e-12,9.036893103441972e-13,6.657966576522467e-09,6.135012294804864e-09,5.3360979514611115e-09,4.4734146059318945e-09,3.784121453421431e-09,3.056475462200427e-09,2.5559506285335975e-09,2.0770677929578014e-09,1.6143055305973536e-09,1.2883949359470357e-09,1.006031708886403e-09,8.328183785813136e-10,6.238830316895299e-10,4.4322304120402134e-10,3.408716790038767e-10,2.5329192772005213e-10,1.9205380362308455e-10,1.31264018923508e-10,8.87748218363146e-11,5.691941108469192e-11,3.896356769550481e-11
0.0,54,54.0,0.0,30.0,0.0,0.0,0.0,0.0,-13.0,0.0,2.0,0.0,0.0,0.0,1.104494270103292e-09,8.231833038904952e-10,6.091076171845292e-10,4.410369739382232e-10,3.321877817504116e-10,2.5662022247297797e-10,1.862895572572385e-10,1.331916980127003e-10,9.196145784005327e-11,6.24234918883306e-11,3.590584013019675e-11,2.154780990718305e-11,1.3113940464368313e-11,7.088235882165382e-12,3.8928609784359614e-12,1.972918587802988e-12,9.49840609069763e-13,6.791832276466065e-09,6.182134772377234e-09,5.16971204918431e-09,4.380322717738263e-09,3.805203143023197e-09,3.2042179639880387e-09,2.5555126660608854e-09,2.0411358539969042e-09,1.7228282167652226e-09,1.2775202482717466e-09,9.752869419089553e-10,7.863923618702868e-10,5.712610703693688e-10,4.5266960865017955e-10,3.5248733419325986e-10,2.637911450963472e-10,1.799889512960517e-10,1.3624326323055242e-10,9.061426940715182e-11,6.120625667955101e-11,3.786566388824356e-11
0.0,55,55.0,0.0,30.0,0.0,0.0,0.0,0.0,-13.0,0.0,2.0,0.0,0.0,0.0,1.1088842122554404e-09,8.218195089327584e-10,5.892816510742201e-10,4.67487591358283e-10,3.567619627741256e-10,2.756346735478306e-10,1.9002614632094442e-10,1.368857394473861e-10,9.352720151827368e-11,5.91655859241528e-11,3.7079793300234606e-11,2.2544848591054482e-11,1.2475624197748024e-11,7.1371747911955985e-12,3.7418752119889925e-12,1.7773339607011256e-12,8.950014524374587e-13,6.737151082091602e-09,6.065462501727028e-09,5.448588942449658e-09,4.5322203811468205e-09,3.784507943959886e-09,3.137588873647468e-09,2.5532317479104305e-09,1.9530574702298205e-09,1.6812181990440025e-09,1.3071051456362043e-09,1.0373426279758156e-09,7.98123246122163e-10,6.232998304797434e-10,4.545925098143668e-10,3.4496464458464995e-10,2.6948595195392165e-10,1.9707203744722164e-10,1.3374588844485684e-10,8.924322318538979e-11,6.235522141879933e-11,3.9347775760381726e-11
0.0,56,56.0,0.0,30.0,0.0,0.0,0.0,0.0,-13.0,0.0,2.0,0.0,0.0,0.0,1.0418648569448643e-09,7.959319714345344e-10,6.163474515528724e-10,4.730988188514353e-10,3.561663880551539e-10,2.5923382452073297e-10,1.8517465907914407e-10,1.2899503548739796e-10,8.81219839956639e-11,5.990158263173198e-11,3.851409829532403e-11,2.0182271342034993e-11,1.26926476949409e-11,6.9790516608386905e-12,3.466782270381356e-12,1.8298808831112074e-12,8.921224158967259e-13,6.5799455963707335e-09,6.15398559277132e-09,5.312356950406596e-09,4.3701281304820935e-09,3.736743162744057e-09,3.2484583520958553e-09,2.5791308399908356e-09,2.102199700530845e-09,1.68896596281011e-09,1.2995864321397761e-09,1.0273780810605545e-09,8.475390322931707e-10,6.233076546773223e-10,4.76142004215134e-10,3.4719430857147287e-10,2.7480731272532206e-10,1.9450801091523826e-10,1.3457569110185712e-10,9.477281606739857e-11,5.880904174612137e-11,3.7736728308945356e-11
0.0,57,57.0,0.0,30.0,0.0,0.0,0.0,0.0,-13.0,0.0,2.0,0.0,0.0,0.0,1.151426680385758e-09,8.097023461854037e-10,6.193125066664746e-10,4.629261077419883e-10,3.4369030452544694e-10,2.7309550491236704e-10,1.9376952006646164e-10,1.3372235297594588e-10,8.97722291409252e-11,5.871324542507558e-11,3.6678832963867886e-11,2.2460170695000944e-11,1.2793014449945783e-11,6.78338845034988e-12,3.5145657560772847e-12,1.757909398316648e-12,8.768020693495495e-13,6.8997662997848426e-09,6.2450812326850394e-09,5.049789283526743e-09,4.271468477903151e-09,3.6540420034447533e-09,3.091839436551291e-09,2.3522359538354265e-09,2.0221638995943055e-09,1.6923885386806005e-09,1.3342498637022905e-09,1.0626354195831606e-09,7.872653392055876e-10,6.484016263194724e-10,4.719454799684597e-10,3.5414904206670676e-10,2.717364616595597e-10,2.0149519236516603e-10,1.3418919965892289e-10,9.563290270257566e-11,6.316458482610445e-11,3.8000972909040826e-11
0.0,58,58.0,0.0,30.0,0.0,0.0,0.0,0.0,-13.0,0.0,2.0,0.0,0.0,0.0,1.115909513651256e-09,7.88611335436517e-10,6.29863320730785e-10,4.909804419695354e-10,3.5067346834566384e-10,2.456657356319284e-10,1.9881874702126617e-10,1.3740711234604856e-10,8.584275793193243e-11,5.820066188605698e-11,3.489001995203563e-11,2.1509471144852492e-11,1.2168056321691247e-11,6.797605205268587e-12,3.578039809176284e-12,1.7250922570756078e-12,8.176838089246525e-13,6.725941420641474e-09,5.512771896809386e-09,5.308251282190306e-09,4.443811831459729e-09,3.6850328227987927e-09,3.1729753283797087e-09,2.628183211146602e-09,2.2147640836680976e-09,1.5733070702064258e-09,1.4353664061266185e-09,1.0466793187385519e-09,8.021184234367355e-10,5.954350128906824e-10,4.724306968349377e-10,3.5857767202575734e-10,2.704850126306762e-10,2.019244335852711e-10,1.392754648644094e-10,9.118050345643481e-11,6.726446303829292e-11,3.423735403390022e-11
0.0,59,59.0,0.0,30.0,0.0,0.0,0.0,0.0,-13.0,0.0,2.0,0.0,0.0,0.0,1.1149755643676386e-09,8.10506177319528e-10,6.073991439313347e-10,4.432564919591672e-10,3.606546230558065e-10,2.7648899345900694e-10,1.8177749531471777e-10,1.2989090282169883e-10,8.933088020437691e-11,5.739147341904004e-11,3.828041749314743e-11,2.134195255725296e-11,1.2891806072125827e-11,6.606353525274477e-12,3.4120116485355905e-12,1.7006822378049835e-12,8.232276901359755e-13,6.7300314130410464e-09,6.034960111995971e-09,5.311577758819307e-09,4.38471741789748e-09,3.6631585665577003e-09,3.072879807493877e-09,2.4436279808044074e-09,2.0799738192425952e-09,1.648169863408571e-09,1.2967553838286095e-09,9.858664875600524e-10,8.265878500794067e-10,6.228859753410709e-10,4.65967577941409e-10,3.4196955258007215e-10,2.7667184868931754e-10,2.018261215911532e-10,1.4121107999037038e-10,9.909155157883061e-11,6.05344659463099e-11,3.8706449309387036e-11
0.0,60,60.0,0.0,30.0,0.0,0.0,0.0,0.0,-13.0,0.0,2.0,0.0,0.0,0.0,1.070482702007546e-09,8.566764909499333e-10,6.140613939447391e-10,4.7440101662092e-10,3.5731891422623865e-10,2.583263111537112e-10,1.8798408542595206e-10,1.3763915034320552e-10,9.045560972163085e-11,6.15277264833753e-11,3.571369975076534e-11,2.1371628428110686e-11,1.234805334315999e-11,6.433928525941845e-12,3.189492030519748e-12,1.6328563866428788e-12,7.906688817069443e-13,6.960711328034222e-09,6.292873280435663e-09,5.140742353426644e-09,4.30349104376176e-09,3.6950543441135327e-09,3.0957171679261425e-09,2.6061564987857482e-09,2.093934834028778e-09,1.6078945852685224e-09,1.3475235113749965e-09,1.039120851155552e-09,7.863042562578008e-10,6.329733093038858e-10,4.578923292548995e-10,3.6752043553715864e-10,2.593350139901155e-10,1.8911116286726611e-10,1.4504460332991258e-10,9.798352684252455e-11,6.29145083474744e-11,3.8304656777216e-11
0.0,61,61.0,0.0,30.0,0.0,0.0,0.0,0.0,-13.0,0.0,2.0,0.0,0.0,0.0,1.0716552613665284e-09,8.111382002991202e-10,6.445061422831522e-10,4.663107586953239e-10,3.6147682674210616e-10,2.6039005607187377e-10,1.9119227450234996e-10,1.3345051354692491e-10,9.415492090084052e-11,6.048660221498373e-11,3.6020798621310393e-11,1.9605971835093395e-11,1.168133065940401e-11,6.336783878040672e-12,3.2093981776738074e-12,1.6307804008198494e-12,7.651004938794198e-13,6.615943923156294e-09,5.757199184315458e-09,5.22424220077597e-09,4.607602103974431e-09,3.6940819462844705e-09,2.9277777879422504e-09,2.593481861219618e-09,2.0976223213851806e-09,1.7385874365762207e-09,1.3041280195905396e-09,1.0037316556475441e-09,8.144014665621661e-10,6.181462945440749e-10,4.767793281971765e-10,3.661797952234348e-10,2.8557961711755285e-10,2.0127044773324722e-10,1.4078715893209926e-10,9.625492800447949e-11,5.84374839367158e-11,3.890167681264562e-11
0.0,62,62.0,0.0,30.0,0.0,0.0,0.0,0.0,-13.0,0.0,2.0,0.0,0.0,0.0,1.0856657176621254e-09,8.200495171351311e-10,5.94062304603143e-10,4.671867120478049e-10,3.825065741490426e-10,2.6519782851189786e-10,1.9442487136189693e-10,1.3290639931654515e-10,9.257707921927889e-11,5.940664171114757e-11,3.544397479031933e-11,2.0978134721083267e-11,1.1488401469002848e-11,6.481261397117943e-12,2.9744876949453906e-12,1.4503925049379034e-12,7.010340857582907e-13,6.229797017115899e-09,6.3362077793622735e-09,5.3441344820923136e-09,4.35021135535256e-09,3.5869224550637265e-09,3.028954197670899e-09,2.5049353282646395e-09,2.1568111732952677e-09,1.641453601210957e-09,1.3075284678986518e-09,1.0540227350084661e-09,8.023035869926595e-10,6.337225638330575e-10,4.848232101733708e-10,3.7287919054707923e-10,2.6992023135061505e-10,2.0134686564351733e-10,1.4057808303188743e-10,9.888298571426477e-11,6.426290810068937e-11,3.6920626475881413e-11
0.0,63,63.0,0.0,30.0,0.0,0.0,0.0,0.0,-13.0,0.0,2.0,0.0,0.0,0.0,1.1096250723544437e-09,7.721583834758138e-10,6.120291055329786e-10,4.675790373704523e-10,3.728724094308781e-10,2.6505218381335595e-10,1.875176776072776e-10,1.283788693053666e-10,9.130646049701697e-11,5.3383734449641995e-11,3.302405113954725e-11,2.0823146292445394e-11,1.185805817783366e-11,6.047245126980215e-12,2.965718836124994e-12,1.4680480799717017e-12,7.154189246191309e-13,6.803177442427602e-09,6.049158778993409e-09,5.282611682897461e-09,4.5278696718523895e-09,3.6560255971878073e-09,3.130517611761634e-09,2.549125288785283e-09,2.078484030031518e-09,1.622699941929929e-09,1.3584355686842522e-09,1.0421272144163034e-09,8.256292640002361e-10,6.34444665942883e-10,4.901293314928713e-10,3.7116770658110237e-10,2.9297506799369195e-10,2.0464060253765502e-10,1.5335486275687426e-10,9.363127915929322e-11,6.29635170976407e-11,3.594762247955232e-11
