Line_number,Fiducial,Easting,Northing,Height,Elevation,tx_pitch,tx_roll,tx_yaw,txrx_dx,txrx_dy,txrx_dz,rx_pitch,rx_roll,rx_yaw,S0Z_time_3.834e-04,S0Z_time_3.924e-04,S0Z_time_4.039e-04,S0Z_time_4.184e-04,S0Z_time_4.364e-04,S0Z_time_4.589e-04,S0Z_time_4.869e-04,S0Z_time_5.224e-04,S0Z_time_5.679e-04,S0Z_time_6.249e-04,S0Z_time_6.969e-04,S0Z_time_7.879e-04,S0Z_time_9.019e-04,S0Z_time_1.046e-03,S0Z_time_1.227e-03,S0Z_time_1.456e-03,S0Z_time_1.744e-03,S0Z_time_2.109e-03,S0Z_time_2.567e-03,S0Z_time_3.145e-03,S0Z_time_3.864e-03,S0Z_time_4.745e-03,S0Z_time_5.821e-03,S0Z_time_7.140e-03,S0Z_time_8.754e-03,S0Z_time_1.073e-02,S1Z_time_2.057e-05,S1Z_time_2.607e-05,S1Z_time_3.307e-05,S1Z_time_4.206e-05,S1Z_time_5.356e-05,S1Z_time_6.807e-05,S1Z_time_8.607e-05,S1Z_time_1.086e-04,S1Z_time_1.366e-04,S1Z_time_1.721e-04,S1Z_time_2.176e-04,S1Z_time_2.746e-04,S1Z_time_3.466e-04,S1Z_time_4.376e-04,S1Z_time_5.516e-04,S1Z_time_6.956e-04,S1Z_time_8.771e-04,S1Z_time_1.106e-03,S1Z_time_1.394e-03
0.0,0,0.0,0.0,30.0,0.0,0.0,0.0,0.0,-13.0,0.0,2.0,0.0,0.0,0.0,6.498772159701225e-10,5.986732761073618e-10,5.561869885181756e-10,5.378695080970256e-10,4.563810776962872e-10,4.1476892148997056e-10,3.41599052256887e-10,3.157751338944038e-10,2.647689802700565e-10,2.2163720365673133e-10,1.7275908550140418e-10,1.3344073624621289e-10,1.023508527759002e-10,7.996266100920096e-11,5.784032100277964e-11,4.2512459801173286e-11,3.007612607573649e-11,2.00297291613722e-11,1.3921798075032281e-11,8.346807208339372e-12,4.9475705955517874e-12,3.058360023995482e-12,1.7065479810722649e-12,8.968454228360184e-13,4.723180435584876e-13,2.4570409835072065e-13,5.536150932066064e-09,4.40658314775182e-09,3.4462069871736064e-09,2.597112333018912e-09,2.024101516683114e-09,1.5299458639618097e-09,1.213218417237841e-09,8.715397119679026e-10,7.330445395822137e-10,5.24239496388719e-10,3.8352634132642325e-10,2.6347705678224626e-10,1.8473342779173974e-10,1.206898416276175e-10,7.87952795807926e-11,5.1033142881226114e-11,3.460830549050776e-11,2.119359554363388e-11,1.255210722806242e-11
0.0,1,1.0,0.0,30.0,0.0,0.0,0.0,0.0,-13.0,0.0,2.0,0.0,0.0,0.0,6.099251280245835e-10,6.611823213020091e-10,5.661326976020664e-10,4.989729981920506e-10,4.596176155679347e-10,3.871723969574253e-10,3.747830076579381e-10,3.1930517976132147e-10,2.7300728020088247e-10,2.2130253677400654e-10,1.749035572465999e-10,1.3144211781338817e-10,1.0393451639438415e-10,8.005574376429804e-11,5.792104910534682e-11,4.3047172409345065e-11,2.916490629672729e-11,2.0610628957284437e-11,1.3299495975772413e-11,8.515298550663262e-12,4.8182055708758776e-12,2.998863811644541e-12,1.702647523117675e-12,8.872771830593926e-13,4.846023473297035e-13,2.590307834792061e-13,5.340807947784561e-09,3.966880848580433e-09,3.4415799940039018e-09,2.5951053463970737e-09,1.958365395818358e-09,1.593237959354021e-09,1.1374352122108035e-09,9.494212704328788e-10,6.922851096639308e-10,5.036334779927076e-10,3.6855754546693455e-10,2.766983614108754e-10,1.8143885423218698e-10,1.1838177342225677e-10,8.168006927237225e-11,5.0538194138646675e-11,3.232251528638905e-11,1.983705211115343e-11,1.2278306667441354e-11
0.0,2,2.0,0.0,30.0,0.0,0.0,0.0,0.0,-13.0,0.0,2.0,0.0,0.0,0.0,6.929801264116237e-10,6.396693115593971e-10,5.694517199711053e-10,5.279383940509476e-10,4.614611854292447e-10,3.9833284155490294e-10,3.6659815232794617e-10,2.990370558143232e-10,2.483753630888369e-10,2.051971782585814e-10,1.7184239107719675e-10,1.382973452658235e-10,1.0366012036147592e-10,7.833714323360755e-11,5.843647552887402e-11,4.1324773843910736e-11,3.004236296318773e-11,2.075541087471684e-11,1.3373396782333066e-11,8.34285452916259e-12,5.022574439219293e-12,2.9717342716416337e-12,1.724258451178184e-12,9.452373808268166e-13,4.758219398936456e-13,2.548654822748465e-13,5.553034210141812e-09,4.273261258187798e-09,3.3105140338008415e-09,2.5160456991177297e-09,2.118214312008852e-09,1.5156051529174768e-09,1.163571618616052e-09,9.267152859037399e-10,7.084374959235514e-10,5.127417117522362e-10,3.788813892379212e-10,2.524636319049504e-10,1.8686872380845652e-10,1.235123861102322e-10,8.219591911117279e-11,5.2401844398976267e-11,3.2200588394900754e-11,2.068608360710395e-11,1.2910428624847917e-11
0.0,3,3.0,0.0,30.0,0.0,0.0,0.0,0.0,-13.0,0.0,2.0,0.0,0.0,0.0,6.4946105641079e-10,6.265039160102019e-10,5.579096367167835e-10,5.056152001955667e-10,4.6060718479852604e-10,4.309599910943796e-10,3.6049845852919797e-10,3.144823114870698e-10,2.6311827707473564e-10,2.2226657808855349e-10,1.805151984118688e-10,1.2986237943622798e-10,1.0448435235535573e-10,7.82695624550823e-11,5.713606860519438e-11,4.256550716670001e-11,2.967222228845225e-11,2.1106103721126944e-11,1.3843867844921317e-11,8.353866132697541e-12,5.031724960220586e-12,2.894542412356147e-12,1.6552809844380714e-12,8.64271528869273e-13,4.445595060841059e-13,2.3378360550580367e-13,5.440705607641063e-09,4.118440580354996e-09,3.3723184498716395e-09,2.539191966117171e-09,1.930743887226819e-09,1.5653142575190754e-09,1.1887695092779771e-09,9.358393467857432e-10,7.563340268686233e-10,4.997329712883429e-10,3.798552437867919e-10,2.695395872540973e-10,1.8557467843480473e-10,1.2350015938611073e-10,7.891657777216583e-11,5.220661569069841e-11,3.222682274041973e-11,2.0286567919103915e-11,1.2435032434740674e-11
0.0,4,4.0,0.0,30.0,0.0,0.0,0.0,0.0,-13.0,0.0,2.0,0.0,0.0,0.0,6.420103008590299e-10,6.235724122962377e-10,5.691676813337156e-10,5.20217776547357e-10,4.820827573404792e-10,4.181839419516298e-10,3.723927737252757e-10,3.030055539251298e-10,2.553933769232393e-10,2.1263611636366244e-10,1.7269142682641364e-10,1.3072439242619056e-10,1.062466439938992e-10,8.079190286513305e-11,5.9957877131964e-11,4.27898560200344e-11,3.185824794769687e-11,2.0207635507753593e-11,1.3441094053415625e-11,8.74677436194419e-12,5.138327262185349e-12,2.990633138514009e-12,1.5926114474666673e-12,9.28109355814272e-13,4.598384597407516e-13,2.2871358287928755e-13,5.223560797231481e-09,4.225129617401844e-09,3.4994809007734853e-09,2.726866145046536e-09,1.991114371066177e-09,1.5822744754183773e-09,1.1788958607695467e-09,8.811958973276768e-10,7.182466585065221e-10,5.025800620286181e-10,3.6057291549667e-10,2.749792167130657e-10,1.8387217128470758e-10,1.1700618924238807e-10,8.042698560529214e-11,5.434277024255946e-11,3.266329808405309e-11,2.002726158438052e-11,1.2434471946556275e-11
0.0,5,5.0,0.0,30.0,0.0,0.0,0.0,0.0,-13.0,0.0,2.0,0.0,0.0,0.0,6.662189354854055e-10,6.01422812680349e-10,5.350029026692612e-10,5.330298418684655e-10,4.677960145187523e-10,4.052763748172261e-10,3.7228409351841284e-10,3.2404559594802116e-10,2.6750511583533485e-10,2.0603908610109734e-10,1.7575155786726638e-10,1.3871404169239324e-10,1.0906454474195896e-10,7.712589972456101e-11,5.894599701177861e-11,4.30678645520743e-11,2.970174367052305e-11,2.093879654655467e-11,1.3222326357581632e-11,8.157123959001599e-12,5.048954113742586e-12,2.9279764372666044e-12,1.6426134577943329e-12,8.743639780290655e-13,4.567432994421474e-13,2.357904649030408e-13,5.650846895818699e-09,4.149224995939633e-09,3.355824938415738e-09,2.583048428907521e-09,1.993278061998367e-09,1.6217668900665825e-09,1.2223566266734202e-09,9.194696100911845e-10,7.020275431488121e-10,5.030568489668082e-10,3.651567742420152e-10,2.622324952656625e-10,1.7725587304601128e-10,1.1609696007578221e-10,8.11332601639895e-11,4.964418458488001e-11,3.3731685515433584e-11,2.111669668848324e-11,1.256434616204262e-11
0.0,6,6.0,0.0,30.0,0.0,0.0,0.0,0.0,-13.0,0.0,2.0,0.0,0.0,0.0,6.624592434122515e-10,6.216549718081682e-10,5.458683923598961e-10,5.340594816942433e-10,4.889961540394512e-10,4.1119357351476263e-10,3.4813040614460875e-10,2.9851266054962527e-10,2.669372198577046e-10,2.0897778402370738e-10,1.7232595357956851e-10,1.3974829767279322e-10,1.0669207918377492e-10,7.985544742716893e-11,6.158017094344279e-11,4.3369363419820335e-11,3.0154924414237756e-11,2.1060045144955424e-11,1.3525231666239348e-11,8.961661740881497e-12,4.9589465213708396e-12,2.891360522303967e-12,1.6790179438571353e-12,8.75147967245694e-13,4.334393784075559e-13,2.439654558642855e-13,5.730151316257375e-09,4.336514915310564e-09,3.3483986566655758e-09,2.5946339527766565e-09,2.001422402203718e-09,1.5839759484585004e-09,1.15983486791738e-09,9.240054856767412e-10,6.806836370621295e-10,5.259979486031915e-10,3.8885025458843764e-10,2.712398557361561e-10,1.8702296890512362e-10,1.2511098483658968e-10,8.015873087764322e-11,5.129875228308994e-11,3.2191426897076085e-11,2.100646621937648e-11,1.3420737473445513e-11
0.0,7,7.0,0.0,30.0,0.0,0.0,0.0,0.0,-13.0,0.0,2.0,0.0,0.0,0.0,6.768498665552227e-10,6.371935943315741e-10,5.878422859134948e-10,5.108506659214811e-10,4.490681782161547e-10,4.285100301821101e-10,3.534018799589174e-10,3.1823252067671414e-10,2.516704324412906e-10,2.194398367316605e-10,1.7379043956074341e-10,1.305096542599214e-10,1.076443181874276e-10,8.249273904598968e-11,5.607136356600357e-11,4.3601478316177876e-11,3.1021170116846974e-11,2.1619458821321856e-11,1.404439241509895e-11,8.621348101709347e-12,5.098856939470832e-12,2.952561289080748e-12,1.6274053938622334e-12,8.830697932002152e-13,4.572242038652236e-13,2.3594714362151547e-13,5.602699864120996e-09,4.174031146217783e-09,3.4195500982742844e-09,2.5742037151745787e-09,2.043277843866587e-09,1.4775504630540787e-09,1.1736721920644015e-09,9.305293834229431e-10,7.074418657353767e-10,4.982010197344263e-10,3.8091636210223324e-10,2.739203028237023e-10,1.8308973824016714e-10,1.1383848535908788e-10,8.171764301993273e-11,5.1921962518380954e-11,3.24953415291356e-11,2.073278521978764e-11,1.350056258473224e-11
0.0,8,8.0,0.0,30.0,0.0,0.0,0.0,0.0,-13.0,0.0,2.0,0.0,0.0,0.0,6.407275418075956e-10,6.452637284111064e-10,5.83301560988648e-10,5.578339960756877e-10,4.6340723998496347e-10,4.214836134261414e-10,3.6264684726161653e-10,3.082134582008621e-10,2.6771972469961287e-10,2.1346041879048543e-10,1.7101965914082904e-10,1.314797053945024e-10,1.0767707093339944e-10,8.50813046051894e-11,5.873644875992433e-11,4.417213226072028e-11,3.011763480511791e-11,2.07495839345109e-11,1.3516696109169728e-11,8.198523177987416e-12,5.1593440318150385e-12,2.9150025781998455e-12,1.6725905974815466e-12,8.882604257402388e-13,4.4378276235797417e-13,2.2731016805151967e-13,5.45267099843046e-09,4.153474428911456e-09,3.3000810104241234e-09,2.6569042039821665e-09,2.0416498952799067e-09,1.5077070448930465e-09,1.22659623863825e-09,9.147942895954049e-10,7.128473198583825e-10,5.078659995531664e-10,3.771595291775049e-10,2.524329865023571e-10,1.8389206949877915e-10,1.251511790624392e-10,8.203939390069307e-11,4.967391600990804e-11,3.0891781453833286e-11,2.0619159152632538e-11,1.2721883896437032e-11
0.0,9,9.0,0.0,30.0,0.0,0.0,0.0,0.0,-13.0,0.0,2.0,0.0,0.0,0.0,6.615469157173582e-10,6.003266770038796e-10,5.641749974388199e-10,5.201881269829195e-10,4.743470056538372e-10,4.1209069398751104e-10,3.715867754795424e-10,3.307229199810136e-10,2.564532448240143e-10,2.2133741483946445e-10,1.7328921617841789e-10,1.336751275584883e-10,9.811807818937169e-11,8.093283319680372e-11,5.865799288107235e-11,4.5089036342232855e-11,3.0384703901609293e-11,2.118378854692568e-11,1.3073167627138375e-11,8.323031579122017e-12,4.924368180473356e-12,2.9922855213630664e-12,1.646999994180457e-12,8.712053412489015e-13,4.266523652816784e-13,2.2637114720465665e-13,5.524072556728172e-09,4.2424708267616805e-09,3.4005960783373293e-09,2.6780823853321516e-09,2.116241467074023e-09,1.593048495720864e-09,1.1894012100186526e-09,9.473820644677522e-10,7.064238330925631e-10,5.228850082665111e-10,3.7812917597080916e-10,2.576813621319668e-10,1.7190556242619187e-10,1.1714028550145568e-10,8.252547341545479e-11,5.3624879002248965e-11,3.427348230806042e-11,2.061058752851708e-11,1.298656777507409e-11
0.0,10,10.0,0.0,30.0,0.0,0.0,0.0,0.0,-13.0,0.0,2.0,0.0,0.0,0.0,6.649930351872549e-10,6.066693536476846e-10,5.544793977598118e-10,5.423357195870306e-10,4.768813335918934e-10,4.195884782151564e-10,3.7319167004661414e-10,3.058438626224927e-10,2.474008477777039e-10,2.0929068218731805e-10,1.67251789316518e-10,1.361282740656377e-10,1.0350542522875242e-10,7.909025421756274e-11,6.118741128371281e-11,4.4336055066543116e-11,3.1103423362674515e-11,2.03277217703457e-11,1.3649142260171021e-11,8.11987337577993e-12,4.981749711670499e-12,2.777660316739103e-12,1.6090946764766416e-12,8.188137131192897e-13,4.3379394782350103e-13,2.171380664302947e-13,5.431757937673193e-09,4.398853362522187e-09,3.408737012990239e-09,2.478205488687699e-09,1.930401408474497e-09,1.567130820862182e-09,1.2227847375861249e-09,9.365203675187233e-10,6.550519330850654e-10,5.003381237519097e-10,3.722999138225006e-10,2.603604588871443e-10,1.9034445244778453e-10,1.226179117554835e-10,8.313834044690046e-11,5.1566632124242984e-11,3.413279446549177e-11,2.0968137109468465e-11,1.3041981135438166e-11
0.0,11,11.0,0.0,30.0,0.0,0.0,0.0,0.0,-13.0,0.0,2.0,0.0,0.0,0.0,6.670488422221761e-10,6.134387309782193e-10,5.413757257288908e-10,4.857179899929094e-10,4.780749562489168e-10,4.166889412840093e-10,3.58666517508558e-10,3.176973603004108e-10,2.5170560468190777e-10,2.1595131550960078e-10,1.8001266142534106e-10,1.3664052552186656e-10,1.0597810207337906e-10,8.028466609333388e-11,6.15113263817046e-11,4.3940199319839954e-11,3.188797175636433e-11,2.095094999540528e-11,1.2841717351356237e-11,8.338750672834035e-12,5.444894734938779e-12,2.6797097398883208e-12,1.5503586189576164e-12,8.035005401681238e-13,4.447861037813845e-13,2.1896817249253474e-13,5.406120154633393e-09,4.158579435724189e-09,3.4227316018611182e-09,2.691537943611322e-09,1.998021281537491e-09,1.5314691897389647e-09,1.2383856657095552e-09,8.932107448888778e-10,6.888981482334028e-10,5.364723561200076e-10,3.7269507400467244e-10,2.50962868989494e-10,1.782878763240108e-10,1.261361251733047e-10,8.098391184422407e-11,5.1863432891359746e-11,3.4932573788161807e-11,2.0621317430210775e-11,1.324481463371703e-11
0.0,12,12.0,0.0,30.0,0.0,0.0,0.0,0.0,-13.0,0.0,2.0,0.0,0.0,0.0,6.498880824786751e-10,6.345300895642085e-10,5.710862928207012e-10,5.124160254690597e-10,4.6239502124611137e-10,4.174024569343808e-10,3.7627346177031203e-10,3.090255354327391e-10,2.7359120762144085e-10,2.1007356940680855e-10,1.6836295827491096e-10,1.3386992512260122e-10,9.92588676164337e-11,8.145022680419478e-11,6.102204808242744e-11,4.355018299775133e-11,3.231792987359862e-11,2.133822812010623e-11,1.3703540365628688e-11,8.05165041522523e-12,4.812326136694631e-12,2.701585150945291e-12,1.511050182065585e-12,7.566170412418084e-13,4.304709766276374e-13,1.9548098486653456e-13,5.3322888156816e-09,4.232534077534125e-09,3.2225518849619627e-09,2.518927406015334e-09,2.01785018702459e-09,1.6208571203048158e-09,1.1884480861721625e-09,8.962923442317167e-10,7.161371581764869e-10,4.942252841209917e-10,3.577523985586369e-10,2.6906142109551595e-10,1.8639989424190176e-10,1.1829602453918613e-10,7.85434186016594e-11,5.0779524856475616e-11,3.377961675379461e-11,2.08941706689497e-11,1.3320766854891963e-11
0.0,13,13.0,0.0,30.0,0.0,0.0,0.0,0.0,-13.0,0.0,2.0,0.0,0.0,0.0,6.587802570796359e-10,6.448083963868578e-10,5.688674232670914e-10,4.710903658700641e-10,4.897111401848628e-10,4.072171213964275e-10,3.568016183887104e-10,2.974124965606404e-10,2.6007537490125316e-10,2.077381924011595e-10,1.7284162573502692e-10,1.3638708246808175e-10,1.0553924976413983e-10,7.898327645407358e-11,6.179155132461014e-11,4.3248314404266063e-11,3.057497031898957e-11,2.037466141188945e-11,1.3722401527366258e-11,8.723419518582178e-12,4.6646456663709494e-12,2.769748951745984e-12,1.5912058538536183e-12,8.213920463381491e-13,4.224898856574048e-13,2.077035642228605e-13,5.265379809711007e-09,4.215840827356252e-09,3.4315030397313097e-09,2.53555891247187e-09,1.974957372189899e-09,1.6677499590434876e-09,1.2109799435637195e-09,9.138924524718973e-10,6.834957437047608e-10,5.223883700560019e-10,3.7207219163896214e-10,2.6573454839830456e-10,1.7156393411410893e-10,1.1844867631287362e-10,8.016864935083115e-11,5.431866027940983e-11,3.4472825165464435e-11,2.230866396663436e-11,1.33918312161023e-11
0.0,14,14.0,0.0,30.0,0.0,0.0,0.0,0.0,-13.0,0.0,2.0,0.0,0.0,0.0,6.495288054652503e-10,5.979431869561923e-10,5.444638718258232e-10,5.132416426089798e-10,4.776032608287933e-10,4.200446393967781e-10,3.7844060491834357e-10,3.1697932082759136e-10,2.4842761944639344e-10,2.1239207815377417e-10,1.7498384933456475e-10,1.3666725910646676e-10,1.097077679390325e-10,7.881932097254384e-11,5.781398407343748e-11,4.394437259749526e-11,2.9648923902521736e-11,1.9620148381805704e-11,1.309672979677665e-11,8.199871600780434e-12,4.940354156451744e-12,2.799143054013757e-12,1.5141011497304755e-12,8.266559356227662e-13,4.2402673358757595e-13,2.0865567830883692e-13,5.4645999255049465e-09,4.350447244936351e-09,3.306381564356975e-09,2.5424205822588736e-09,2.0400791761659504e-09,1.5553329919559787e-09,1.1698982049696772e-09,9.581606549321109e-10,7.069080245171022e-10,5.223543636609042e-10,3.8057164456874654e-10,2.752175426290236e-10,1.8104276700794481e-10,1.1460940739129632e-10,8.06682988966505e-11,5.117723831435248e-11,3.403519403865869e-11,2.1295481773476566e-11,1.3045222357667477e-11
0.0,15,15.0,0.0,30.0,0.0,0.0,0.0,0.0,-13.0,0.0,2.0,0.0,0.0,0.0,6.404771418906395e-10,6.409256206322758e-10,6.006403131315779e-10,5.631754035694361e-10,4.756681892390142e-10,3.9008071500535697e-10,3.7794524292433815e-10,3.0273809510222156e-10,2.655021459463041e-10,2.1155719458994497e-10,1.7290129695920183e-10,1.3428399825334184e-10,1.0978695073536354e-10,8.301029645329466e-11,6.103280267463173e-11,4.459398484556526e-11,3.193800781423733e-11,2.0021030681525005e-11,1.3278889980168084e-11,8.140968092928007e-12,4.626455231191149e-12,2.816145986039747e-12,1.525744240763704e-12,7.907529901361165e-13,3.995498926327077e-13,2.1434729014764895e-13,5.150598622295469e-09,4.23326518264468e-09,3.174269829969315e-09,2.608657406181335e-09,2.0237687869648106e-09,1.5308204405845818e-09,1.171169141848112e-09,9.419503971502374e-10,6.752988044316769e-10,5.325999353761614e-10,3.792497986328654e-10,2.705081051170948e-10,1.7392433085293337e-10,1.2796534350046462e-10,7.993209412714992e-11,5.04432002866655e-11,3.242262403714746e-11,2.0947114491100607e-11,1.3146921537907047e-11
0.0,16,16.0,0.0,30.0,0.0,0.0,0.0,0.0,-13.0,0.0,2.0,0.0,0.0,0.0,6.642725332053985e-10,6.105269584185042e-10,5.779850936218633e-10,5.282965028498648e-10,4.622960604589433e-10,4.130131158216773e-10,3.711683329992051e-10,3.191358198521008e-10,2.6261500701487383e-10,2.2355517627230947e-10,1.8552951872482396e-10,1.3343134607886124e-10,1.0401852896757433e-10,8.258300077755853e-11,6.29176833020642e-11,4.59067506719845e-11,3.1369973453287914e-11,2.0288169511081556e-11,1.3569075231978483e-11,8.037768263637371e-12,4.810327251073708e-12,2.7487976038213737e-12,1.3583145477569912e-12,7.586205251087848e-13,4.255696616216053e-13,2.1039116173449962e-13,5.606123941861767e-09,4.060441690247701e-09,3.0988174718473813e-09,2.634379975208615e-09,2.0035840398673385e-09,1.6876401569818351e-09,1.2138121425986028e-09,8.968869631076249e-10,7.103025626859526e-10,5.231355775189088e-10,3.802226245232687e-10,2.645916312090293e-10,1.8970636601904777e-10,1.182876859509894e-10,8.250442175090943e-11,5.553635695059648e-11,3.2324743210769603e-11,2.0021698469915093e-11,1.3667193535398401e-11
0.0,17,17.0,0.0,30.0,0.0,0.0,0.0,0.0,-13.0,0.0,2.0,0.0,0.0,0.0,7.251065699254668e-10,6.081235866924487e-10,5.532156897965017e-10,5.215188832703334e-10,4.743506198513267e-10,4.265417598588558e-10,3.776192677796826e-10,3.1392161417907116e-10,2.5759867082265934e-10,2.2797396412150805e-10,1.6601948039706688e-10,1.320773654758378e-10,1.0721837850035337e-10,8.029365644192537e-11,6.061280981055874e-11,4.6247721468539635e-11,3.114735421638961e-11,2.075298809120102e-11,1.3996431210194104e-11,8.295307368842808e-12,5.078202727308404e-12,2.6929850740901027e-12,1.5009157998916998e-12,7.490997576454293e-13,3.9988325577921535e-13,2.0181585725963793e-13,5.271341357225165e-09,4.290631519240183e-09,3.218527721891629e-09,2.4856892991466124e-09,2.068970350719566e-09,1.572521585959717e-09,1.2012786269768026e-09,9.30311075452245e-10,7.236025886453581e-10,5.233949637584503e-10,3.661898519533525e-10,2.7097281753701e-10,1.7925977997196621e-10,1.212688735617202e-10,8.003136766841663e-11,5.428186708626346e-11,3.4200588121602477e-11,2.1705784973225593e-11,1.34577301144489e-11
0.0,18,18.0,0.0,30.0,0.0,0.0,0.0,0.0,-13.0,0.0,2.0,0.0,0.0,0.0,6.491330993739426e-10,6.092799277574615e-10,5.701018476952057e-10,5.45728935297414e-10,4.5325612636237117e-10,4.2736917594426057e-10,3.734991093547639e-10,3.184019869327247e-10,2.6469851472001697e-10,2.1326235557509147e-10,1.685184759976164e-10,1.3929911996431306e-10,1.0521203982800811e-10,8.286472255133627e-11,6.096477921164398e-11,4.252593169029546e-11,2.9150672920647787e-11,2.1494732496802714e-11,1.3452847710889227e-11,7.900711920384678e-12,4.735548582916043e-12,2.5843919845195455e-12,1.4621958379003786e-12,7.826801223019674e-13,4.0211614675541637e-13,1.9456903694184143e-13,5.554687304795972e-09,4.270707289251183e-09,3.2701541811618934e-09,2.806251154538189e-09,2.081622324933622e-09,1.5853179223436032e-09,1.1724774475074088e-09,8.819549567543004e-10,7.038013140339045e-10,4.931795893760745e-10,3.6974627245588613e-10,2.6627175612267984e-10,1.864622457673749e-10,1.214723617223117e-10,8.700730618395814e-11,5.247545909810981e-11,3.4813723546910454e-11,2.2875936933629855e-11,1.3421454777029605e-11
0.0,19,19.0,0.0,30.0,0.0,0.0,0.0,0.0,-13.0,0.0,2.0,0.0,0.0,0.0,6.608388870561788e-10,6.241719993091569e-10,5.591622210949715e-10,5.217445891591179e-10,4.965637104749968e-10,4.028428675651469e-10,3.659514929165216e-10,3.051054116426415e-10,2.455260639830248e-10,2.2890077160130974e-10,1.7255810916815813e-10,1.4069540240562945e-10,9.971363434796733e-11,8.329354209368803e-11,5.747195981074863e-11,4.6593517127953866e-11,3.046770901774561e-11,2.1288932705685276e-11,1.3498270203227623e-11,7.983128213795601e-12,4.729576775430588e-12,2.566653439975315e-12,1.4002378193385643e-12,7.722576265353977e-13,3.9322747725186693e-13,1.9920133123713782e-13,5.423297470675709e-09,3.991024807396717e-09,3.3249389863524993e-09,2.6033379438115405e-09,1.927428206684446e-09,1.5886064563780177e-09,1.2320191669497143e-09,9.044454883603217e-10,6.538743518220024e-10,5.290026301496846e-10,3.789821014022284e-10,2.8109529689271024e-10,1.8034548096241886e-10,1.1609080051694794e-10,8.384109248487363e-11,5.191756316667611e-11,3.4308358799930024e-11,2.1234868499053114e-11,1.3433806081295243e-11
0.0,20,20.0,0.0,30.0,0.0,0.0,0.0,0.0,-13.0,0.0,2.0,0.0,0.0,0.0,6.405116635550934e-10,6.397355060638369e-10,5.722982396235758e-10,5.019018274229416e-10,4.753488905657954e-10,4.050849743131336e-10,3.5687233882277533e-10,3.2204361671349226e-10,2.5873500027139133e-10,2.111245106002914e-10,1.7932391395402363e-10,1.3703008701314028e-10,1.0644767063430845e-10,8.608062121495444e-11,6.305282229008095e-11,4.422950839512992e-11,3.124544768650432e-11,1.981316210358257e-11,1.25621103515727e-11,7.801298099836042e-12,4.7316729017774575e-12,2.703494969101878e-12,1.4552585937131676e-12,7.378387892493693e-13,3.6660140710963607e-13,2.0015013199835835e-13,5.502344250040315e-09,4.30221671640505e-09,3.2427870034489316e-09,2.5884095644009043e-09,1.9528450595541677e-09,1.5775589150789398e-09,1.19275699679593e-09,8.987932250019042e-10,6.9543042217745e-10,5.356413124432514e-10,3.720672517936346e-10,2.7383011867581354e-10,1.875289092231452e-10,1.1600309500499108e-10,8.0342757476845e-11,5.0773285761158984e-11,3.4721162160654485e-11,2.1546252896366898e-11,1.337912036245852e-11
0.0,21,21.0,0.0,30.0,0.0,0.0,0.0,0.0,-13.0,0.0,2.0,0.0,0.0,0.0,6.560305149145274e-10,6.203526848856238e-10,5.613361714164055e-10,4.901564999175603e-10,4.689662622735781e-10,3.938383748439116e-10,3.672361977882363e-10,2.9835295696179954e-10,2.608923527416403e-10,2.115251037593302e-10,1.808305643557342e-10,1.3545253037486242e-10,1.10440901486867e-10,7.955323349909779e-11,6.22304956698311e-11,4.3674874975299843e-11,2.999241227748e-11,2.1169668183942378e-11,1.3599428111417092e-11,8.311228699279422e-12,4.622752923223268e-12,2.611575611548398e-12,1.3935530763780145e-12,8.053747988197319e-13,3.859387605791626e-13,1.8754579766712443e-13,5.453618934257992e-09,4.24204945774988e-09,3.4562523736968463e-09,2.660107386872935e-09,2.038737129193696e-09,1.536361873654522e-09,1.1731381705270454e-09,9.174883870435033e-10,7.440174241144428e-10,4.754634074569244e-10,3.7679376924416464e-10,2.5021030537333186e-10,1.8249889717264045e-10,1.1999850875830693e-10,8.205778664344829e-11,5.3815726540564976e-11,3.497791396925212e-11,2.2222466169297405e-11,1.3746438421334284e-11
0.0,22,22.0,0.0,30.0,0.0,0.0,0.0,0.0,-13.0,0.0,2.0,0.0,0.0,0.0,6.658504287065879e-10,6.297688083184886e-10,5.564947319079426e-10,5.238715651112301e-10,4.5757056020134803e-10,3.9852802954603866e-10,3.703084503409985e-10,3.0087898093435975e-10,2.81757616967231e-10,2.1107360855190684e-10,1.7601480450614236e-10,1.3730738531637968e-10,1.0425550584716842e-10,7.853135620326698e-11,6.28365007975065e-11,4.5667427195998226e-11,3.224231031141548e-11,2.126236902766145e-11,1.2954308884142951e-11,8.457425672190373e-12,4.822984957479528e-12,2.458327866190775e-12,1.4417240497888233e-12,6.826274682474858e-13,3.8040515295966613e-13,1.8131242085943897e-13,5.546403168606558e-09,4.1574456776409336e-09,3.372086498273875e-09,2.6536669616802533e-09,1.9062376388568145e-09,1.5657110692937881e-09,1.1778798074110914e-09,9.1501891605193e-10,7.01865150055523e-10,5.360655077576705e-10,3.7440735193462644e-10,2.664984856665808e-10,1.7688947354680366e-10,1.2629241169937533e-10,7.94481856616349e-11,4.977546536700215e-11,3.3749686537905044e-11,2.3947511988440432e-11,1.3656563068863596e-11
0.0,23,23.0,0.0,30.0,0.0,0.0,0.0,0.0,-13.0,0.0,2.0,0.0,0.0,0.0,7.233015399964509e-10,6.233821883110468e-10,5.621479920979026e-10,5.380091383647946e-10,4.703763787886121e-10,4.198550584629202e-10,3.7182521221756727e-10,3.148402523964964e-10,2.6680876795218415e-10,2.01076213377857e-10,1.69217199492373e-10,1.3611897692659818e-10,1.0771816418776602e-10,8.703621578179953e-11,6.235526752630453e-11,4.503580082473226e-11,3.235845588537076e-11,2.0005284482682262e-11,1.3148728034932994e-11,8.323458617723259e-12,4.394359204980426e-12,2.5817766635570767e-12,1.4009389667281302e-12,6.847939147330387e-13,3.6690326452953473e-13,1.8213213630837128e-13,5.5745044482759954e-09,4.252838942078383e-09,3.403976932342191e-09,2.6470392172426826e-09,1.9791589327048326e-09,1.5445454683959271e-09,1.2202293768683454e-09,9.021124406018956e-10,6.953294017606854e-10,5.208475776149435e-10,3.8384997510491723e-10,2.5923306192623867e-10,1.7084465829546606e-10,1.1817668389657246e-10,8.714511595558986e-11,5.240855115661324e-11,3.50556256065822e-11,2.2843546740337218e-11,1.2888960165322924e-11
0.0,24,24.0,0.0,30.0,0.0,0.0,0.0,0.0,-13.0,0.0,2.0,0.0,0.0,0.0,6.580863007582013e-10,5.957928361609556e-10,5.837734808096136e-10,5.087800632901471e-10,4.822929632363003e-10,4.1651064990192615e-10,3.705187650827977e-10,3.2880201673075246e-10,2.563266846557745e-10,2.1600709610121717e-10,1.865382534346559e-10,1.3717813765301224e-10,1.0784945493965164e-10,8.172989310478075e-11,6.214278796371654e-11,4.297665924021342e-11,3.132154099384274e-11,2.125915310699557e-11,1.2474041057005556e-11,7.492092224422762e-12,4.5108330180823146e-12,2.57185037759705e-12,1.3473615219826464e-12,6.987667745880993e-13,3.588274783658102e-13,1.7596073355186326e-13,5.507765099069473e-09,4.182587424854264e-09,3.2353006203810007e-09,2.711868387484029e-09,2.06183271774068e-09,1.5328959002992281e-09,1.2243879264097218e-09,9.179376078010873e-10,6.902328276044104e-10,4.986337350108703e-10,3.8755428042748437e-10,2.565925611027363e-10,1.8545680939431608e-10,1.2270762026336025e-10,8.050678334315329e-11,5.6194650789262664e-11,3.641768764507109e-11,2.3284594556145403e-11,1.4246649349357257e-11
0.0,25,25.0,0.0,30.0,0.0,0.0,0.0,0.0,-13.0,0.0,2.0,0.0,0.0,0.0,6.775104120087886e-10,6.389697643133342e-10,5.698164770275219e-10,5.202894580597533e-10,4.45437518793349e-10,4.329253002026871e-10,3.558664301645714e-10,2.917144719429007e-10,2.7152265639398364e-10,2.0830111802432305e-10,1.7863532494375123e-10,1.3624286765041177e-10,1.0840746814126181e-10,8.440282031166519e-11,6.524035517135401e-11,4.4925435822214584e-11,2.9973341513566176e-11,2.106947630645943e-11,1.3542089227877452e-11,7.701956407049866e-12,4.472339069053928e-12,2.3822416671866037e-12,1.308030952335518e-12,7.34137361667404e-13,3.5179926281455724e-13,1.7158676944921544e-13,5.314952501069878e-09,4.238456959112962e-09,3.357449662958399e-09,2.6253478415521045e-09,2.0858101681956966e-09,1.72411386393504e-09,1.2682216951620474e-09,9.173043689352383e-10,6.875644249228707e-10,4.998041353487077e-10,3.706842448596544e-10,2.663424480462446e-10,1.7792168522716326e-10,1.2299811985701236e-10,8.245023405779682e-11,5.5606691164701675e-11,3.498272164424922e-11,2.2448899962599577e-11,1.3519685857048438e-11
0.0,26,26.0,0.0,30.0,0.0,0.0,0.0,0.0,-13.0,0.0,2.0,0.0,0.0,0.0,6.684248341480203e-10,6.161853299717999e-10,6.05762690804763e-10,5.455461311751106e-10,4.845244060838472e-10,4.259776290074718e-10,3.708145933105642e-10,3.132350432730023e-10,2.678197151625474e-10,2.28541986529626e-10,1.8132661114639848e-10,1.3990635196079135e-10,1.103553427433119e-10,8.3328738032281e-11,6.068774206112159e-11,4.2166317601804e-11,3.1987264362511213e-11,2.0300393717818286e-11,1.3454379209381534e-11,7.922014212903702e-12,4.4451964827528505e-12,2.551522085622332e-12,1.322277794557997e-12,7.014384192984141e-13,3.4960844030383993e-13,1.7380775795199632e-13,5.817654471803304e-09,4.121926922743453e-09,3.251478441624517e-09,2.513330647735209e-09,2.0218919782150994e-09,1.5271270044413694e-09,1.2402742807756462e-09,9.722527510849128e-10,6.982870459995926e-10,5.152143754886547e-10,3.6627143967161314e-10,2.5633301304714855e-10,1.7360380019845828e-10,1.2361650457890515e-10,8.316767801935202e-11,5.79979642539624e-11,3.406035481002133e-11,2.333370917121958e-11,1.4487833061486575e-11
0.0,27,27.0,0.0,30.0,0.0,0.0,0.0,0.0,-13.0,0.0,2.0,0.0,0.0,0.0,6.708130060257607e-10,6.079709011076567e-10,5.870937856053669e-10,5.337592343025896e-10,4.701388589612508e-10,3.884186057135309e-10,3.725438674078349e-10,3.150450465929715e-10,2.502316498826306e-10,2.0979862510470151e-10,1.72638561582322e-10,1.3997311973253603e-10,1.1147012960190584e-10,8.676474334014646e-11,6.44353010267801e-11,4.341378162618691e-11,3.241532452761317e-11,2.051690192153066e-11,1.2815286122825354e-11,7.447303432088183e-12,4.515375550730901e-12,2.4170394575189656e-12,1.252261443524708e-12,7.192140144544657e-13,3.511356931360649e-13,1.7473309780188864e-13,5.441877889006542e-09,4.1904308061517826e-09,3.2995494867800413e-09,2.5648394522467386e-09,2.0554903121946093e-09,1.5671137070849958e-09,1.2143426027028503e-09,8.984680352914641e-10,6.827484910960094e-10,5.180620777848982e-10,3.4866936609413776e-10,2.652680743909092e-10,1.7708508366190322e-10,1.2312992462563356e-10,8.407852452103772e-11,5.524094206373186e-11,3.812097249567794e-11,2.3243277994343123e-11,1.4054672658661139e-11
0.0,28,28.0,0.0,30.0,0.0,0.0,0.0,0.0,-13.0,0.0,2.0,0.0,0.0,0.0,6.39565514333671e-10,6.035240212181018e-10,5.92615627159462e-10,5.192291390606059e-10,4.4555150476626974e-10,4.195347605047113e-10,3.5865682865217477e-10,3.1842430740053435e-10,2.5177339699172325e-10,2.2463465781440708e-10,1.7278132695365862e-10,1.3762224462413134e-10,1.1235876832046785e-10,8.676995748802997e-11,6.708645910358323e-11,4.65702756154825e-11,2.925330196667364e-11,1.9935399049092143e-11,1.3696925330646152e-11,7.831127084743298e-12,4.253114625564238e-12,2.5187877560904124e-12,1.319548010164459e-12,6.642891378140766e-13,3.3857474600752523e-13,1.7406760409049407e-13,5.3859879355117575e-09,4.27334234222144e-09,3.2941407009118307e-09,2.5579852537527968e-09,2.120252534322339e-09,1.6368142022972943e-09,1.2113535088192694e-09,9.319874681999813e-10,6.812076014560706e-10,5.344630312642189e-10,3.533476136527555e-10,2.552746780238366e-10,1.7280731179184775e-10,1.2480105554857074e-10,8.041809505896765e-11,5.371295675986465e-11,3.495254689492851e-11,2.3007218640982754e-11,1.4427082503880162e-11
0.0,29,29.0,0.0,30.0,0.0,0.0,0.0,0.0,-13.0,0.0,2.0,0.0,0.0,0.0,6.477715091360985e-10,6.268706459885868e-10,5.663979689513163e-10,5.111973229068187e-10,4.873424233764584e-10,4.1886416590144735e-10,3.553302401717745e-10,3.126225235211553e-10,2.6318164213833445e-10,2.1958629094925955e-10,1.7775337996685543e-10,1.4158180452617287e-10,1.0933361751484866e-10,8.800165521712765e-11,6.566967178645311e-11,4.576998583203337e-11,3.203918127486073e-11,1.9704757184072382e-11,1.2375113798845528e-11,7.605299770538501e-12,4.7459538132837574e-12,2.4279587007891866e-12,1.2978749251003775e-12,6.57557148466296e-13,3.3340711213212363e-13,1.7133258478884927e-13,5.679201168668669e-09,4.042587693918495e-09,3.3017306641443907e-09,2.5819166961432165e-09,2.1144338846643594e-09,1.5680427704480945e-09,1.2551360085952067e-09,8.738651819986113e-10,6.925494369332021e-10,5.271169702187731e-10,3.4939195993882096e-10,2.604577203436699e-10,1.875046246626278e-10,1.232706179627465e-10,8.107865451977595e-11,5.491275989181925e-11,3.534675211180706e-11,2.1941099892472817e-11,1.4418650608995392e-11
0.0,30,30.0,0.0,30.0,0.0,0.0,0.0,0.0,-13.0,0.0,2.0,0.0,0.0,0.0,6.705452573046451e-10,6.043579336067501e-10,5.684313382353508e-10,5.296281171137273e-10,4.5453234170682155e-10,4.260503562705061e-10,3.643440431394434e-10,3.0059122732325645e-10,2.4511187183067555e-10,2.1607146918563763e-10,1.731634677321891e-10,1.3761030042692404e-10,1.0811913120541325e-10,8.402785583104909e-11,6.278846216355827e-11,4.3808268551855494e-11,3.152360155528561e-11,2.0973608324528314e-11,1.3003798934395113e-11,7.63446241302951e-12,4.4602848853064e-12,2.442513103610542e-12,1.3312503235894185e-12,6.314905389527072e-13,3.377277605594874e-13,1.6326113732331846e-13,5.3227519751467475e-09,4.410997983005866e-09,3.4267794655111766e-09,2.536082079371626e-09,2.002789375067322e-09,1.5636795272921396e-09,1.1702438462998235e-09,8.986282012089206e-10,6.910106301306095e-10,5.119571149548047e-10,3.5959934815357734e-10,2.684377385681727e-10,1.7695643406445226e-10,1.207622621474863e-10,8.693823847012184e-11,5.696405395634861e-11,3.9055536026729896e-11,2.4580666175550035e-11,1.3311129666876696e-11
0.0,31,31.0,0.0,30.0,0.0,0.0,0.0,0.0,-13.0,0.0,2.0,0.0,0.0,0.0,6.563372101462217e-10,6.389988749282336e-10,5.895152058475469e-10,5.269823621171649e-10,4.778075307311931e-10,4.110513116297739e-10,3.712720616903723e-10,2.9154485922704355e-10,2.7481696925834907e-10,2.209059192361234e-10,1.8225409855463958e-10,1.460610024827749e-10,1.0815066396735691e-10,8.457889131882969e-11,6.445048118359821e-11,4.5819716996862454e-11,3.0628222701453066e-11,2.0032465104579213e-11,1.2377871660486916e-11,7.634070000038239e-12,4.218492325644182e-12,2.438803155507178e-12,1.284457984949852e-12,6.509197809291161e-13,3.4080546062443313e-13,1.6080109494721157e-13,5.7557033074139e-09,4.47002059128475e-09,3.3387525802353922e-09,2.631102416391665e-09,1.8590731068458816e-09,1.5594967713310551e-09,1.2187464543202945e-09,8.405329563252109e-10,7.09277311242313e-10,5.161000160189955e-10,3.5297570985690445e-10,2.586261009659147e-10,1.8009541923931765e-10,1.1933248302532952e-10,8.136854176940736e-11,5.6971697351096154e-11,3.752100538309087e-11,2.3289363817020164e-11,1.4613963299670613e-11
0.0,32,32.0,0.0,30.0,0.0,0.0,0.0,0.0,-13.0,0.0,2.0,0.0,0.0,0.0,6.281006858512626e-10,6.250942025321239e-10,5.600727337734711e-10,5.269091059684048e-10,4.669028645199106e-10,4.1317100636769435e-10,3.671504535391572e-10,3.259602931849655e-10,2.4223409615418583e-10,2.2367939491100624e-10,1.8259202290702735e-10,1.4568848825445882e-10,1.1098903286175727e-10,8.249515740449967e-11,6.722190717438011e-11,4.788383009415571e-11,3.0782810340082665e-11,1.976986652810694e-11,1.2622711677621077e-11,7.575114850095317e-12,4.3659622933784214e-12,2.3237287152064262e-12,1.2329266699910552e-12,6.51039699585242e-13,3.003687780062549e-13,1.5421906346761922e-13,5.340317879702064e-09,4.1944867887544265e-09,3.240042895815754e-09,2.781036914253884e-09,2.0851231490300287e-09,1.675007485781633e-09,1.213962747788565e-09,9.170802523842119e-10,6.872819362396172e-10,4.92771826953262e-10,3.7943203530402555e-10,2.5609888631675187e-10,1.805182243374471e-10,1.2443075168176446e-10,8.323791775822063e-11,5.797374228470652e-11,3.509270996783528e-11,2.379108916768845e-11,1.4677389396897727e-11
0.0,33,33.0,0.0,30.0,0.0,0.0,0.0,0.0,-13.0,0.0,2.0,0.0,0.0,0.0,6.408289181190736e-10,6.436822493959735e-10,5.753223364413818e-10,5.085146693540528e-10,4.78298407331592e-10,4.285942607688137e-10,3.6072682119781156e-10,3.176058867756952e-10,2.6023450542058934e-10,2.2663244959777508e-10,1.7082088417449985e-10,1.4468846857826014e-10,1.1867349248398866e-10,8.568065969642231e-11,6.517822887403927e-11,4.543254032187656e-11,3.058136142800116e-11,2.0989178925085384e-11,1.256879718123727e-11,7.646715962383382e-12,4.185861353340572e-12,2.4002334540755634e-12,1.2270246584400035e-12,6.27295805715687e-13,3.08598304763096e-13,1.4053117440193552e-13,5.547790617923649e-09,4.178484040354195e-09,3.342666041894406e-09,2.5859501443306705e-09,2.0442809060495653e-09,1.5127961652344583e-09,1.1980340922140865e-09,9.188403843901434e-10,6.897104281247645e-10,5.03225138462194e-10,3.4578846379659323e-10,2.432495662234449e-10,1.7971563267497285e-10,1.235839959247961e-10,8.741072180750931e-11,5.6533307019812294e-11,3.737445097816806e-11,2.3934384803466274e-11,1.4050139405708566e-11
0.0,34,34.0,0.0,30.0,0.0,0.0,0.0,0.0,-13.0,0.0,2.0,0.0,0.0,0.0,6.356458295450236e-10,6.128555167914158e-10,5.990526896563741e-10,5.446987578855484e-10,4.602178531355375e-10,4.1480143338468825e-10,3.688030256472921e-10,3.225186011779779e-10,2.6210501286513107e-10,2.1550825242171895e-10,1.8097510607640273e-10,1.467762388567558e-10,1.1530745362927924e-10,9.399640603135239e-11,6.6234967414148e-11,4.642162287887136e-11,3.0812906073233355e-11,2.0578121131527807e-11,1.2839044411424557e-11,7.623309940418035e-12,4.219972949907246e-12,2.2556118511851682e-12,1.2704461357691596e-12,6.675502266204115e-13,3.160022669994281e-13,1.5140116561724953e-13,5.3483919638055586e-09,4.259006454593173e-09,3.312325888282362e-09,2.611502342771038e-09,2.033251089194335e-09,1.5455518209734118e-09,1.2039972993502459e-09,9.288927835750818e-10,7.393574697889411e-10,5.061671428446906e-10,3.4496871888981876e-10,2.5107615415606987e-10,2.0069746588470848e-10,1.2013090427128144e-10,8.268513362334235e-11,5.402474273280711e-11,3.8820262567274297e-11,2.386821778897826e-11,1.4973614869658192e-11
0.0,35,35.0,0.0,30.0,0.0,0.0,0.0,0.0,-13.0,0.0,2.0,0.0,0.0,0.0,6.598517563562112e-10,6.051346542361647e-10,5.670114696165297e-10,5.339942662521616e-10,4.745131071700991e-10,4.2103275299259955e-10,3.446638978510906e-10,2.99345807789573e-10,2.596142363827198e-10,2.2401505117167918e-10,1.8137100185177853e-10,1.4112684869980335e-10,1.1070191134860379e-10,8.9242315455355e-11,6.426786692389916e-11,4.601249755849601e-11,3.146763835192345e-11,2.158646163135036e-11,1.2943527507988127e-11,7.381466747233615e-12,4.153919646756359e-12,2.283747198740034e-12,1.153996491361755e-12,6.30093646601366e-13,3.0382065463092995e-13,1.5011036327616886e-13,5.5888496738985454e-09,4.123079171865832e-09,3.177794983042792e-09,2.5290268481249707e-09,2.032432356431615e-09,1.6081469732546085e-09,1.2328480183388094e-09,9.49851244754475e-10,6.78641440450216e-10,5.259562705355157e-10,3.699853378745856e-10,2.699232613522464e-10,1.762488145426946e-10,1.2467945738421251e-10,8.519311787148715e-11,5.6400402822099475e-11,3.794850517485874e-11,2.4469363893453455e-11,1.4677715691149934e-11
0.0,36,36.0,0.0,30.0,0.0,0.0,0.0,0.0,-13.0,0.0,2.0,0.0,0.0,0.0,6.818550775691368e-10,6.213292473554074e-10,5.7218011926732e-10,5.465581626112494e-10,4.74182951216728e-10,3.98393128141772e-10,3.901487103777239e-10,3.180908228865119e-10,2.639795528486694e-10,2.3579253584207513e-10,1.819600789820331e-10,1.4137588381444517e-10,1.1141612185882632e-10,8.981277292396466e-11,6.258305592669905e-11,4.768210567226236e-11,3.2074708095315766e-11,2.0615566895636838e-11,1.2316934868079093e-11,7.219448584138756e-12,3.9205206733761365e-12,2.2947640508204195e-12,1.184014970318929e-12,5.889372337637719e-13,2.98520954362049e-13,1.404270585218596e-13,5.249686496761138e-09,4.128717377502365e-09,3.293085315911859e-09,2.5606502728372092e-09,1.93795974336997e-09,1.5552959039844735e-09,1.1446852162877533e-09,8.850952379648659e-10,6.922635903726563e-10,5.138433698888981e-10,3.665125023671638e-10,2.40161005733201e-10,1.983036749886693e-10,1.286710251653522e-10,9.016901817742983e-11,5.811383420533379e-11,3.9858569173181525e-11,2.3871978145762716e-11,1.5323556696202947e-11
0.0,37,37.0,0.0,30.0,0.0,0.0,0.0,0.0,-13.0,0.0,2.0,0.0,0.0,0.0,6.511929239780129e-10,6.37821636275457e-10,5.440644322676516e-10,5.321754798730431e-10,4.905080906384944e-10,4.2658255225780186e-10,3.7828408661384205e-10,3.1312266643072714e-10,2.680280611331357e-10,2.3345581390622694e-10,1.8400531209260416e-10,1.4899972908567926e-10,1.1038341472200878e-10,8.707757416070865e-11,6.18358146083749e-11,4.6168809163844586e-11,3.271166900389551e-11,2.0598519527847624e-11,1.1727507806360509e-11,7.148110711257681e-12,4.0705794830329774e-12,2.1067522017006467e-12,1.2083331554443866e-12,5.78253663249333e-13,2.844854509723316e-13,1.3827824685365346e-13,5.381811430259026e-09,4.303090410189835e-09,3.2662099011141904e-09,2.5349239979063345e-09,2.021487629128346e-09,1.484952897370039e-09,1.2022819436413341e-09,9.158393861895586e-10,7.06865065084e-10,4.913252565538111e-10,3.6989861996851357e-10,2.5545779958347877e-10,1.8502759222571648e-10,1.2912295568296027e-10,8.705912649001504e-11,5.8116271156307346e-11,3.883564224864047e-11,2.3123546963741865e-11,1.4477174270362736e-11
0.0,38,38.0,0.0,30.0,0.0,0.0,0.0,0.0,-13.0,0.0,2.0,0.0,0.0,0.0,6.518729809892102e-10,6.113042931793539e-10,5.919627017710224e-10,5.299031361222217e-10,4.599914500627507e-10,4.135977260337673e-10,3.7955546725468057e-10,3.124281265538609e-10,2.6029709119401147e-10,2.3163691352960302e-10,1.933929163323465e-10,1.4878605883667233e-10,1.1433262396864932e-10,9.192572225761258e-11,6.410194194385482e-11,4.507162056001864e-11,3.084599569638942e-11,1.961945131913353e-11,1.2264564583870568e-11,7.1820130041210834e-12,4.13206547005374e-12,2.188317600767826e-12,1.1616496443393939e-12,5.699945296619503e-13,2.9612997226735514e-13,1.4028560218371535e-13,5.453173648996042e-09,4.147845586156764e-09,3.394279874022388e-09,2.462630091130432e-09,2.054841757303252e-09,1.5662187280770567e-09,1.2266530156811952e-09,9.172833202505022e-10,7.129775934258016e-10,5.1796324515646e-10,3.649140810247308e-10,2.489576682350559e-10,1.7759477786343996e-10,1.2832082509203884e-10,8.709358741300871e-11,5.693385786030184e-11,3.993952563529018e-11,2.3705122707965594e-11,1.4754916938851218e-11
0.0,39,39.0,0.0,30.0,0.0,0.0,0.0,0.0,-13.0,0.0,2.0,0.0,0.0,0.0,6.528495348860295e-10,6.286555498004354e-10,5.718657605785157e-10,5.228287821436705e-10,4.613805448943158e-10,4.2465203561598496e-10,3.7975125294328516e-10,3.326113311927679e-10,2.749256824887519e-10,2.282995454969711e-10,1.832398104720422e-10,1.5504887136499507e-10,1.1381593674842867e-10,8.623161699066319e-11,6.509288664087013e-11,4.4868356776320434e-11,3.0628960732195116e-11,2.0543243245323377e-11,1.2328580876482628e-11,7.474050694016395e-12,4.031588724523494e-12,2.198057296095934e-12,1.114108540973635e-12,5.829789450372693e-13,2.6446254906860763e-13,1.4127098714280596e-13,5.332845619322947e-09,4.303316203466598e-09,3.394414576464609e-09,2.6102915775462482e-09,2.026974946554662e-09,1.4856027605657078e-09,1.2283334730321147e-09,9.611726079759022e-10,6.808187140930976e-10,5.065468563856076e-10,3.6977180704838724e-10,2.717417596238151e-10,1.8096118982151008e-10,1.3064089772038368e-10,8.648054163924316e-11,5.997358228536174e-11,3.735077615342965e-11,2.3008122986219968e-11,1.5149109310426437e-11
0.0,40,40.0,0.0,30.0,0.0,0.0,0.0,0.0,-13.0,0.0,2.0,0.0,0.0,0.0,6.66500546547235e-10,6.122016206206708e-10,5.647898638809931e-10,5.236780462350463e-10,4.614910478166141e-10,4.000885666282122e-10,3.7046678128815316e-10,3.291568151243369e-10,2.5896632518966357e-10,2.351161635415355e-10,1.9257719248296194e-10,1.5230323481264053e-10,1.1261616200457904e-10,9.10602013822909e-11,6.397566663100345e-11,4.631269201510869e-11,2.968885445003436e-11,2.0145125562626752e-11,1.2105166059831662e-11,6.942243496153593e-12,3.895000522589764e-12,2.070245916619399e-12,1.1063764603053329e-12,6.03748979639608e-13,2.5649819352794076e-13,1.400468107087941e-13,5.236995298098458e-09,4.208646863418511e-09,3.1883193142461075e-09,2.56560375934352e-09,1.9292821360968397e-09,1.5503915432593758e-09,1.264871408556413e-09,9.211465447075316e-10,6.925671649761501e-10,5.128664515289074e-10,3.676920034355346e-10,2.5849354572787275e-10,1.8085007259280735e-10,1.2785617063577056e-10,9.008824724497003e-11,6.076568662464526e-11,3.916117286854757e-11,2.578842372317636e-11,1.4250967968188361e-11
0.0,41,41.0,0.0,30.0,0.0,0.0,0.0,0.0,-13.0,0.0,2.0,0.0,0.0,0.0,6.614594381482582e-10,6.124910928727862e-10,5.86717256302539e-10,5.435141873153425e-10,4.5277143995154157e-10,4.380942881254921e-10,3.6670171145481507e-10,3.1936933563732714e-10,2.680932188096373e-10,2.2050405868752886e-10,1.8672297494070327e-10,1.4702460460889338e-10,1.1941787962319336e-10,8.683633190712537e-11,6.264451717411885e-11,4.617635193039392e-11,2.980385755321955e-11,1.9894749084217058e-11,1.2072995211271109e-11,6.678299030004129e-12,3.873709869971478e-12,2.0756576547372483e-12,1.1291091945279928e-12,5.731598380170473e-13,2.661593999950464e-13,1.2710340000987258e-13,5.414831078656171e-09,3.96935027058288e-09,3.2714920386671922e-09,2.700162156145681e-09,2.0154860051784575e-09,1.65414891199717e-09,1.1360574483175098e-09,9.141373123509938e-10,6.322662358573389e-10,5.028806959622812e-10,3.713411087806947e-10,2.772958077604828e-10,1.7674025304904342e-10,1.2264792679890361e-10,9.032184346816823e-11,6.10010647056482e-11,4.018192193158267e-11,2.435907724543498e-11,1.467506768023357e-11
0.0,42,42.0,0.0,30.0,0.0,0.0,0.0,0.0,-13.0,0.0,2.0,0.0,0.0,0.0,6.484270047971011e-10,6.274178560180887e-10,5.807180904077037e-10,5.280856365525671e-10,4.775818321795387e-10,3.9396173479985355e-10,3.6780673810568485e-10,3.0218936947295257e-10,2.8021480154904907e-10,2.1640979588835863e-10,1.834092173097973e-10,1.5095137551637272e-10,1.2030118861248465e-10,8.69706222838509e-11,6.523412841873407e-11,4.6617176249655e-11,3.1344714152238306e-11,1.9708497933748834e-11,1.2029300482164708e-11,6.9235815123128136e-12,4.150385106856158e-12,2.0457927681036445e-12,1.0452830648514203e-12,5.62132742191673e-13,2.6920535072617937e-13,1.3401771321364612e-13,5.161011367744565e-09,4.1923636134583995e-09,3.3306472029690393e-09,2.5806744634174127e-09,2.019380758210339e-09,1.3949277831976225e-09,1.181588522508845e-09,9.135158185900163e-10,6.948630436869507e-10,4.928448508853164e-10,3.4883165384104293e-10,2.6533160248502933e-10,1.8609406040413394e-10,1.2280852704228966e-10,9.217559694649912e-11,5.96168732954499e-11,3.937014873679773e-11,2.3813962712132148e-11,1.491717453796583e-11
0.0,43,43.0,0.0,30.0,0.0,0.0,0.0,0.0,-13.0,0.0,2.0,0.0,0.0,0.0,6.175460813938234e-10,6.109646101881481e-10,5.855869598529387e-10,5.328863933662551e-10,4.809102492793782e-10,4.38819856377469e-10,3.695442458757403e-10,3.274428670454768e-10,2.7000377876059825e-10,2.403613923785156e-10,1.881805340458262e-10,1.4835874188227343e-10,1.1647281960066818e-10,8.835090074374938e-11,6.277186649849993e-11,4.240935198307639e-11,2.996436618433089e-11,2.0588110292587875e-11,1.2138905219620993e-11,6.634831077068672e-12,3.949684289625844e-12,2.1413421915916544e-12,1.0442110217967152e-12,5.177090782575818e-13,2.4528336625969185e-13,1.215274626954097e-13,5.635788183762565e-09,4.0099580836774955e-09,3.433700005623378e-09,2.5583759467772232e-09,1.9691842271530115e-09,1.5382206745276887e-09,1.2172442845020052e-09,9.158905557240014e-10,6.599023898079874e-10,4.958310741530079e-10,3.6875988787910705e-10,2.668870954573198e-10,1.947542218326264e-10,1.2953622346869452e-10,9.068939446878742e-11,6.165702067106273e-11,3.934398142163543e-11,2.3614412641324807e-11,1.5099912204645113e-11
0.0,44,44.0,0.0,30.0,0.0,0.0,0.0,0.0,-13.0,0.0,2.0,0.0,0.0,0.0,6.888119041017302e-10,6.379690257962856e-10,5.574170782133798e-10,5.347829787583497e-10,5.091063923595259e-10,4.2798764533024037e-10,3.660406681403794e-10,3.2732430713459355e-10,2.789621283153183e-10,2.410721057156737e-10,1.8984802623344697e-10,1.4820093931246902e-10,1.171204417231522e-10,8.383915775842297e-11,6.429254855166446e-11,4.519529242347609e-11,2.9440385462643965e-11,1.984046080381791e-11,1.1637775652782652e-11,6.77590494087303e-12,3.829949977322693e-12,2.005113072271893e-12,1.0528038290422011e-12,5.293801456606073e-13,2.42200340431774e-13,1.2577803242462592e-13,5.2571443875415615e-09,4.3900505020438015e-09,3.3827369455444314e-09,2.59754294698696e-09,1.8865720791030643e-09,1.5451903968095907e-09,1.1448397826231829e-09,9.32052969028034e-10,7.077924679012293e-10,4.953443467199569e-10,3.5942573887583235e-10,2.626086206247458e-10,1.8757105353880998e-10,1.2630122506591414e-10,8.66342754828081e-11,6.077259603563498e-11,4.14410114498748e-11,2.4301588228462094e-11,1.485981350637346e-11
0.0,45,45.0,0.0,30.0,0.0,0.0,0.0,0.0,-13.0,0.0,2.0,0.0,0.0,0.0,6.590876366215855e-10,6.06367527772505e-10,5.793234907129095e-10,5.40779624687112e-10,4.75616353027758e-10,4.279319774773155e-10,3.8996955558455896e-10,3.3816141977835723e-10,2.634278929279983e-10,2.334033901557984e-10,1.927658121777062e-10,1.5192121011171102e-10,1.2135331251714383e-10,9.000139487028351e-11,6.720482720354613e-11,4.6328629411317744e-11,2.9171105746676474e-11,1.9441259005027503e-11,1.1441636472595586e-11,6.950977982144488e-12,3.852869181075508e-12,1.941379577063849e-12,1.0345524865730323e-12,5.356561201079109e-13,2.463602988603543e-13,1.1306332464628944e-13,5.287769144056746e-09,4.24811351878919e-09,3.2442841105114704e-09,2.491092844767411e-09,1.919491069976134e-09,1.6344910543774827e-09,1.1903310483531817e-09,9.019382060252769e-10,6.937707421691528e-10,5.419338943541548e-10,3.52645193122535e-10,2.7075577849034727e-10,1.8083381802592674e-10,1.2970039541693752e-10,9.28391265738746e-11,6.206921049206375e-11,4.150272374906806e-11,2.598829074959215e-11,1.50289146928532e-11
0.0,46,46.0,0.0,30.0,0.0,0.0,0.0,0.0,-13.0,0.0,2.0,0.0,0.0,0.0,6.832227422427369e-10,6.499011425523483e-10,5.790086609654352e-10,5.551071276654535e-10,4.83168944930677e-10,4.20788394343364e-10,3.837109385455393e-10,3.2464986265407657e-10,2.8147219982273286e-10,2.1843494460636185e-10,1.8138818704171438e-10,1.481733406034635e-10,1.1043965860074856e-10,8.622497686717104e-11,6.696296362482585e-11,4.5576112866337485e-11,2.939871289999873e-11,1.788097793322395e-11,1.134839590255321e-11,6.700612207188438e-12,3.65373017815815e-12,1.8786371770776113e-12,9.831611731361998e-13,5.162043774174468e-13,2.426792754954634e-13,1.183433362450719e-13,5.386280315672963e-09,4.2140191430956235e-09,3.3674682262798354e-09,2.488577547199668e-09,2.085977623800874e-09,1.6019038838799454e-09,1.2018085041155508e-09,9.445834533948707e-10,6.781376038753391e-10,4.95589914526601e-10,3.7276111908023207e-10,2.7240664604044343e-10,1.79139678194397e-10,1.3057873842103404e-10,8.787017095287457e-11,5.885498769991144e-11,3.9418989535540164e-11,2.445869662858276e-11,1.5459678066481028e-11
0.0,47,47.0,0.0,30.0,0.0,0.0,0.0,0.0,-13.0,0.0,2.0,0.0,0.0,0.0,6.830730658363606e-10,6.451872684385543e-10,5.8375915828128e-10,5.250962534394387e-10,5.040719640904322e-10,4.1104302535731363e-10,3.9938626627203743e-10,3.252936440316644e-10,2.820074348401962e-10,2.2635891358084472e-10,1.893857796780937e-10,1.5263830224461955e-10,1.1503646854346118e-10,9.179431759934302e-11,6.42141992914381e-11,4.562994100748778e-11,3.063177618074847e-11,1.9226567062333795e-11,1.0876661129186682e-11,6.37996686569789e-12,3.5031922311928607e-12,1.8543526354705527e-12,9.98586535571413e-13,4.70964255203303e-13,2.3993856601822297e-13,1.0830611478442906e-13,5.224843517167414e-09,4.004412318505284e-09,3.302248114700324e-09,2.4634038650384984e-09,2.0232292539185713e-09,1.5379522760183817e-09,1.1541684558990713e-09,9.09116234784559e-10,7.074930790252875e-10,5.107116821589449e-10,3.708238865026326e-10,2.6125410149623254e-10,1.8481802999568654e-10,1.2874816935055668e-10,9.361929882987754e-11,6.296396315050823e-11,3.9272010579601275e-11,2.6069757963008466e-11,1.479434623123073e-11
0.0,48,48.0,0.0,30.0,0.0,0.0,0.0,0.0,-13.0,0.0,2.0,0.0,0.0,0.0,6.69593448146195e-10,6.21758082962902e-10,5.760146012697362e-10,5.3127548375982e-10,4.569375640783971e-10,4.311788710944854e-10,3.769713455397161e-10,3.250620433017325e-10,2.873383322563982e-10,2.2829760769249826e-10,1.8116951452340913e-10,1.4509797452242e-10,1.207362557252914e-10,8.604930225090099e-11,6.3929284335752e-11,4.524103393448558e-11,2.6774960407292963e-11,1.8998578103725103e-11,1.0899425583703376e-11,6.25976374567257e-12,3.5176777306166992e-12,1.7500739487961282e-12,9.655736904821162e-13,4.535261984400846e-13,2.261020761511546e-13,1.1431414887099976e-13,5.4892066298888695e-09,4.126436309219781e-09,3.2077546174977932e-09,2.653113937878594e-09,1.980848642520334e-09,1.5900590514328932e-09,1.1650288243734488e-09,9.310692864568692e-10,7.14379117164878e-10,4.986244003236656e-10,3.743603545463693e-10,2.5450389722743685e-10,1.83722335250948e-10,1.3070809509229508e-10,9.674655798066651e-11,6.151972435263505e-11,4.0964617806600355e-11,2.5623021873256382e-11,1.5731193704349223e-11
0.0,49,49.0,0.0,30.0,0.0,0.0,0.0,0.0,-13.0,0.0,2.0,0.0,0.0,0.0,6.742452010458234e-10,6.574820402512698e-10,5.969190312720856e-10,5.044208878655227e-10,4.863782923460907e-10,4.2500495839971214e-10,3.959847204099134e-10,3.345704241707095e-10,2.767664758270979e-10,2.4082235306636947e-10,2.0001639879004033e-10,1.577649379380404e-10,1.2735019786681007e-10,9.416970650313108e-11,6.670522862436616e-11,4.783483416395137e-11,2.993228698554128e-11,1.8605401113831955e-11,1.1047189439011771e-11,6.638891360175272e-12,3.4357640792491014e-12,1.8797083266723012e-12,9.167807197661593e-13,4.974811239273548e-13,2.2475039371783856e-13,1.138753147951978e-13,5.635747858560569e-09,4.293421725354969e-09,3.2666914384195447e-09,2.6461498846853846e-09,1.979170264666724e-09,1.5684041967457207e-09,1.1866968734147783e-09,8.80976995767331e-10,6.817711610187625e-10,5.044632676108858e-10,3.539914709772933e-10,2.7063079432428107e-10,1.899796526841649e-10,1.3057390731882463e-10,9.31741790682973e-11,6.315930400957251e-11,4.16912956877557e-11,2.503632788082689e-11,1.4438616843816355e-11
0.0,50,50.0,0.0,30.0,0.0,0.0,0.0,0.0,-13.0,0.0,2.0,0.0,0.0,0.0,6.874088743773009e-10,5.895519757380214e-10,5.789052116833001e-10,5.156372466411583e-10,4.6080150368770116e-10,4.1714213637395487e-10,3.7549259595764043e-10,3.4783239990866904e-10,2.842657792838523e-10,2.344992109011725e-10,1.9521808339913686e-10,1.5208848012793903e-10,1.1668511999927408e-10,8.863558967600331e-11,6.091927190444765e-11,4.448099970174537e-11,2.8093929491391667e-11,1.8825801171041558e-11,1.0763839476048685e-11,6.278500726896473e-12,3.4312936501563918e-12,1.680162224915048e-12,9.52832044404928e-13,4.696935324321428e-13,2.211557930180162e-13,1.0071112186665323e-13,5.483495175592509e-09,4.195519913749607e-09,3.546480383175725e-09,2.538623600172044e-09,2.0028808766774953e-09,1.5718484024089547e-09,1.141421678854094e-09,9.221347463081337e-10,6.522155447221607e-10,5.035272679747062e-10,3.798879840479815e-10,2.6984705288384965e-10,1.8835884863579903e-10,1.3225141341223638e-10,9.218880212686615e-11,6.032105304733759e-11,4.223761722513792e-11,2.5825389069641816e-11,1.5274987869265322e-11
0.0,51,51.0,0.0,30.0,0.0,0.0,0.0,0.0,-13.0,0.0,2.0,0.0,0.0,0.0,6.667487248376416e-10,6.570905317338881e-10,5.768851962002141e-10,5.266344126396328e-10,4.933746444006151e-10,4.368300993041121e-10,3.7491482896120437e-10,3.307866981367452e-10,2.864816535330874e-10,2.3250372346935617e-10,1.9603961609066237e-10,1.471002455013648e-10,1.2557406262843353e-10,9.035228481395963e-11,6.222433450017162e-11,4.493869239277875e-11,2.9210840142813976e-11,1.8363878047445378e-11,1.0757273309498022e-11,6.202900244130683e-12,3.3064026152950316e-12,1.7187176143535296e-12,8.732691734669351e-13,4.70562046769267e-13,2.105479393362718e-13,1.0675416082709085e-13,5.661624560197847e-09,4.357831500775116e-09,3.226339075412171e-09,2.5330669252349884e-09,1.938031334926581e-09,1.54019313021839e-09,1.1203080061351192e-09,9.177753840048128e-10,7.098117641068497e-10,4.996170593856933e-10,3.5535670024739575e-10,2.656474139649154e-10,1.8595869208793503e-10,1.3967683995661586e-10,9.527335654055937e-11,6.193599708741671e-11,4.226225162932909e-11,2.5889394058954606e-11,1.5152908160183354e-11
0.0,52,52.0,0.0,30.0,0.0,0.0,0.0,0.0,-13.0,0.0,2.0,0.0,0.0,0.0,6.616832214849303e-10,6.235444243135326e-10,6.058456255379298e-10,5.507081762631526e-10,4.815359746787107e-10,4.255142879292153e-10,3.9432139274548124e-10,3.3298512225337547e-10,2.9253878235492763e-10,2.2853038555358093e-10,2.0767362482492416e-10,1.5586646650601372e-10,1.200619424073612e-10,8.918833810122901e-11,6.165976034974175e-11,4.4049356858628076e-11,2.7897269883216395e-11,1.838368202899504e-11,1.0307563428415218e-11,6.086176051401485e-12,3.3102355645865547e-12,1.735855194445637e-12,8.32348736557964e-13,4.25045510879919e-13,2.0779877121387085e-13,9.294578237738852e-14,5.214150244307455e-09,4.273482748271035e-09,3.2732204790258448e-09,2.5499114465837134e-09,1.9314520760723675e-09,1.4560900616982801e-09,1.1437801105068785e-09,8.976815528398781e-10,6.418935804068498e-10,5.096835997282391e-10,3.681190575597547e-10,2.594180788826719e-10,1.9680163803192833e-10,1.3701016879497536e-10,9.558988803370785e-11,6.265968694698313e-11,4.3474631592079065e-11,2.513118979636002e-11,1.5071615056969125e-11
0.0,53,53.0,0.0,30.0,0.0,0.0,0.0,0.0,-13.0,0.0,2.0,0.0,0.0,0.0,6.897239656336757e-10,6.276306567385489e-10,5.695706922175606e-10,5.468192384700083e-10,4.723639507766319e-10,4.2795329574451627e-10,3.735582535947989e-10,3.357531591542795e-10,2.844809456075298e-10,2.2856662188718608e-10,1.9650543690927312e-10,1.6264863704389163e-10,1.2187971702693523e-10,8.845084022993246e-11,6.318314511690639e-11,4.4442341845867176e-11,2.8532668543884326e-11,1.8507010579908677e-11,1.0739124243504078e-11,6.064444679363426e-12,3.1710881535074527e-12,1.6271436380039543e-12,8.391434342327182e-13,4.081756715636735e-13,1.9115509187937584e-13,9.499338658345036e-14,5.355221931796144e-09,4.367950995564672e-09,3.5304255019500597e-09,2.6010321168795604e-09,1.9481557089168075e-09,1.5232275542336816e-09,1.169683901671293e-09,9.211289033510831e-10,6.984899150950797e-10,5.311995566908482e-10,3.403045097991199e-10,2.7106375309142955e-10,1.9353167406154617e-10,1.3604064913323988e-10,9.369497961882709e-11,5.94675119372681e-11,4.09666029701209e-11,2.5533732951732364e-11,1.5125747242789547e-11
0.0,54,54.0,0.0,30.0,0.0,0.0,0.0,0.0,-13.0,0.0,2.0,0.0,0.0,0.0,6.675809769596674e-10,5.976441248052187e-10,6.113442312897422e-10,5.226550359587207e-10,4.888114865447694e-10,4.354255543259491e-10,3.9427305538223617e-10,3.5149486147700515e-10,2.891120003544203e-10,2.3686673090960574e-10,1.9243061727909453e-10,1.5129968843375473e-10,1.260949134312438e-10,8.88927799277064e-11,6.257744374191575e-11,4.327707061206971e-11,2.8240777106844946e-11,1.7859364215888435e-11,1.1219594737721416e-11,5.881551474375599e-12,3.199579163114766e-12,1.6409816274070738e-12,8.409020415854111e-13,4.2254979940729706e-13,1.944274736327455e-13,9.174877953746862e-14,5.283989043144989e-09,4.0856095080042824e-09,3.2158518903758892e-09,2.5026018707625822e-09,1.937182932029418e-09,1.5536260676975196e-09,1.2440802351732704e-09,9.102849539090031e-10,6.406268566565852e-10,4.808638292928706e-10,3.594492344673709e-10,2.521259657854215e-10,1.8361239238001247e-10,1.3841812367284487e-10,9.302551578898591e-11,6.591956394657468e-11,4.357114147126867e-11,2.572307362037052e-11,1.3594539337112095e-11
