Line_number,Fiducial,Easting,Northing,Height,Elevation,tx_pitch,tx_roll,tx_yaw,txrx_dx,txrx_dy,txrx_dz,rx_pitch,rx_roll,rx_yaw,S0Z_time_1.431e-04,S0Z_time_1.801e-04,S0Z_time_2.266e-04,S0Z_time_2.846e-04,S0Z_time_3.581e-04,S0Z_time_4.506e-04,S0Z_time_5.671e-04,S0Z_time_7.136e-04,S0Z_time_8.981e-04,S0Z_time_1.131e-03,S0Z_time_1.423e-03,S0Z_time_1.791e-03,S0Z_time_2.255e-03,S0Z_time_2.838e-03,S0Z_time_3.573e-03,S0Z_time_4.498e-03,S0Z_time_5.662e-03,S1Z_time_1.409e-05,S1Z_time_1.610e-05,S1Z_time_1.909e-05,S1Z_time_2.360e-05,S1Z_time_2.960e-05,S1Z_time_3.709e-05,S1Z_time_4.609e-05,S1Z_time_5.759e-05,S1Z_time_7.209e-05,S1Z_time_9.060e-05,S1Z_time_1.141e-04,S1Z_time_1.431e-04,S1Z_time_1.801e-04,S1Z_time_2.266e-04,S1Z_time_2.846e-04,S1Z_time_3.581e-04,S1Z_time_4.506e-04,S1Z_time_5.671e-04,S1Z_time_7.136e-04,S1Z_time_8.981e-04,S1Z_time_1.131e-03
0.0,0,0.0,0.0,30.0,0.0,0.0,0.0,0.0,-13.0,0.0,2.0,0.0,0.0,0.0,1.9897872988348903e-11,1.6253467105158147e-11,1.331006909670067e-11,1.0899973542457266e-11,8.873930785907263e-12,7.185660559129285e-12,5.777408178768733e-12,4.597073670843439e-12,3.613345893109855e-12,2.8012072191277596e-12,2.1405095931931848e-12,1.6067536876191797e-12,1.182646106076069e-12,8.522544258837241e-13,5.997070316979574e-13,4.114286264937632e-13,2.7466134532248057e-13,1.575440729449513e-10,1.1677404179692902e-10,8.657047639960146e-11,6.533677111576448e-11,5.2015378935045675e-11,4.24803139823111e-11,3.5440625986537424e-11,2.950164377673238e-11,2.456692007682664e-11,2.031576628942929e-11,1.6701390091190206e-11,1.3676354021196925e-11,1.1072736105448199e-11,8.865512666174806e-12,7.0240068110350505e-12,5.473644065455218e-12,4.194442480393699e-12,3.1539424318245874e-12,2.324761056375115e-12,1.678199516838455e-12,1.1850227178608466e-12
0.0,1,1.0,0.0,30.0,0.0,0.0,0.0,0.0,-13.0,0.0,2.0,0.0,0.0,0.0,1.7810841660326336e-11,1.4528533002997284e-11,1.1892288949794032e-11,9.741373433013996e-12,7.93751763927736e-12,6.435255309089101e-12,5.182394369880342e-12,4.13170303627781e-12,3.2548308612151355e-12,2.529716622671554e-12,1.938542639593851e-12,1.4596357624306544e-12,1.077904801394217e-12,7.79493788403848e-13,5.505067151979501e-13,3.791107258572574e-13,2.5407200954681037e-13,2.1608136175231934e-10,1.510776358547883e-10,1.0136301349455203e-10,6.790536918436638e-11,5.005350436808225e-11,3.944311084285859e-11,3.2379426413907556e-11,2.67146071051739e-11,2.211535111731697e-11,1.8207429350056728e-11,1.4931232563050092e-11,1.2200112158479814e-11,9.866361143703104e-12,7.893361923523466e-12,6.252191003261354e-12,4.872910686889935e-12,3.7358413925480906e-12,2.8115468777193925e-12,2.0749371605566922e-12,1.5002996137216969e-12,1.0616318412886385e-12
0.0,2,2.0,0.0,30.0,0.0,0.0,0.0,0.0,-13.0,0.0,2.0,0.0,0.0,0.0,1.6023711391442865e-11,1.3045124269531937e-11,1.0669108931048043e-11,8.738695199245309e-12,7.124934572983413e-12,5.782071480691313e-12,4.662860332509559e-12,3.723994418223013e-12,2.9395906916671194e-12,2.290072481399949e-12,1.7595268531272018e-12,1.3286682577730094e-12,9.842325886905276e-13,7.141133873231213e-13,5.060792103568797e-13,3.4978211015670866e-13,2.35292197446092e-13,2.913404837349157e-10,2.019367293249965e-10,1.2897291990827803e-10,7.774942968522948e-11,5.1373134892579624e-11,3.776954618613555e-11,3.004577732495134e-11,2.4439524506853516e-11,2.0060897087993703e-11,1.6425144405299242e-11,1.34247322275354e-11,1.0938735904809917e-11,8.833946556796221e-12,7.058803605445665e-12,5.588603513750058e-12,4.355205213566844e-12,3.339811009925598e-12,2.5151212661336714e-12,1.8581177519070585e-12,1.3454588145590867e-12,9.538468280757847e-13
0.0,3,3.0,0.0,30.0,0.0,0.0,0.0,0.0,-13.0,0.0,2.0,0.0,0.0,0.0,1.4488601524727217e-11,1.1764241710687265e-11,9.609383739766937e-12,7.867485391775867e-12,6.417111912150271e-12,5.211408901042968e-12,4.207675173345604e-12,3.36565031333189e-12,2.6615757693127686e-12,2.0779590014848207e-12,1.6004568632674597e-12,1.2118143095535836e-12,9.002893921758307e-13,6.552584500220922e-13,4.658975219940561e-13,3.231291311628648e-13,2.1814208593105392e-13,3.718355348606829e-10,2.621740603325296e-10,1.6674676929742924e-10,9.526970774599297e-11,5.696869816424402e-11,3.80154130088291e-11,2.8593105450682297e-11,2.2649955208288237e-11,1.8349659483679365e-11,1.491882899278399e-11,1.2138013067432905e-11,9.85693072122584e-12,7.946413849188536e-12,6.339199064932054e-12,5.015702674524901e-12,3.907152974391963e-12,2.9964639154349057e-12,2.2574998259120873e-12,1.6692701844956113e-12,1.2102289758464047e-12,8.592626717650453e-13
0.0,4,4.0,0.0,30.0,0.0,0.0,0.0,0.0,-13.0,0.0,2.0,0.0,0.0,0.0,1.3167505250362917e-11,1.0654502639753206e-11,8.687660322146187e-12,7.107692292780053e-12,5.798324806322105e-12,4.711095719270128e-12,3.807569913315781e-12,3.0497219415325107e-12,2.4156920441636634e-12,1.889718633602775e-12,1.4587695263988264e-12,1.1073249102819198e-12,8.249165285429819e-13,6.02184580199825e-13,4.2949933927057945e-13,2.988746167445347e-13,2.0246159648559823e-13,4.485874288588094e-10,3.244354017256735e-10,2.102494767786923e-10,1.19119739860798e-10,6.707141245581609e-11,4.067997129071916e-11,2.829142592088135e-11,2.140063175503903e-11,1.6956813808601058e-11,1.3649056571924074e-11,1.103697805628753e-11,8.926732110103383e-12,7.180151920047771e-12,5.716219412765676e-12,4.519152981681445e-12,3.5178376476197956e-12,2.6976859895835392e-12,2.032773661954902e-12,1.5042233105313995e-12,1.0917391344627486e-12,7.760289175395991e-13
0.0,5,5.0,0.0,30.0,0.0,0.0,0.0,0.0,-13.0,0.0,2.0,0.0,0.0,0.0,1.2030511650728847e-11,9.69050940814428e-12,7.883164418670548e-12,6.442766113546518e-12,5.25551553110341e-12,4.271011139017044e-12,3.454792858156946e-12,2.7703657740010813e-12,2.197633297264173e-12,1.7222410340623748e-12,1.3322722274156988e-12,1.013694085865599e-12,7.571097355218038e-13,5.542421501402229e-13,3.964783635008513e-13,2.7677324816669316e-13,1.8810803780804723e-13,5.16389342752389e-10,3.8328809494684017e-10,2.551590875948048e-10,1.4703840265130375e-10,8.111096469096093e-11,4.594883581492675e-11,2.939408874346665e-11,2.0808161169406275e-11,1.589522658386639e-11,1.2590440035237297e-11,1.0094981004161441e-11,8.125534989613865e-12,6.51617137428545e-12,5.174969491134744e-12,4.087128795530703e-12,3.17830141636051e-12,2.4367848078850604e-12,1.836051590088978e-12,1.3595020874746236e-12,9.8758935575537e-13,7.026188518821169e-13
0.0,6,6.0,0.0,30.0,0.0,0.0,0.0,0.0,-13.0,0.0,2.0,0.0,0.0,0.0,1.1055779883503261e-11,8.851519686513856e-12,7.178912830365169e-12,5.859002500958761e-12,4.777781104021351e-12,3.88269930691442e-12,3.1428331036965506e-12,2.522649546363503e-12,2.0037457449131395e-12,1.5728724143941698e-12,1.2190837839009245e-12,9.296216804855e-13,6.959965384678229e-13,5.108630551901901e-13,3.6647688948450175e-13,2.5660756824742377e-13,1.7495405521016442e-13,5.732161826053009e-10,4.355891570969921e-10,2.9819844389651497e-10,1.7667604059490883e-10,9.802265816069741e-11,5.364154504114114e-11,3.202573923650506e-11,2.099729353501452e-11,1.5209367127755465e-11,1.173577797700013e-11,9.29276073066298e-12,7.43477602054214e-12,5.93918851541632e-12,4.703311113591126e-12,3.709844986898566e-12,2.8811494090821917e-12,2.2082048200067042e-12,1.6632711342296668e-12,1.2321999777786632e-12,8.957586893000925e-13,6.37717596391094e-13
0.0,7,7.0,0.0,30.0,0.0,0.0,0.0,0.0,-13.0,0.0,2.0,0.0,0.0,0.0,1.0229985411938906e-11,8.120771112167963e-12,6.560910019950247e-12,5.345021029516599e-12,4.3559941048240085e-12,3.539060379631644e-12,2.86619590205877e-12,2.3023959529498852e-12,1.8309185830914222e-12,1.4393412922117261e-12,1.1175855142276418e-12,8.539823508865192e-13,6.408172303095352e-13,4.715494703748114e-13,3.3917944356387346e-13,2.381845275829898e-13,1.6288583879963703e-13,6.191761074646577e-10,4.800787201273224e-10,3.3732126956118694e-10,2.0607459031911446e-10,1.1659593748896832e-10,6.330647150169111e-11,3.6144471873258644e-11,2.204993931417974e-11,1.4955780699554712e-11,1.109510156808475e-11,8.61947276619935e-12,6.839663962900112e-12,5.4367820603646205e-12,4.291274968455957e-12,3.379219505368591e-12,2.6202479584872603e-12,2.007302707092158e-12,1.5110445703701251e-12,1.1198773591681522e-12,8.145342070697411e-13,5.802019259342507e-13
0.0,8,8.0,0.0,30.0,0.0,0.0,0.0,0.0,-13.0,0.0,2.0,0.0,0.0,0.0,9.547781555804608e-12,7.485344309099464e-12,6.017546939489217e-12,4.891320712973567e-12,3.982506029491037e-12,3.234107797619333e-12,2.6202218555455e-12,2.1060549918470982e-12,1.6764947452189405e-12,1.3196975693591827e-12,1.0263806505978845e-12,7.857996317287565e-13,5.909088374375988e-13,4.358642944167784e-13,3.1430731955831956e-13,2.213324907010833e-13,1.518015550596531e-13,6.555690842471354e-10,5.167909619899863e-10,3.715407882619718e-10,2.3383544744339223e-10,1.3571760423079718e-10,7.436006159532886e-11,4.1566410561067246e-11,2.397904453379359e-11,1.5181299905446348e-11,1.0689148111562544e-11,8.072756244222916e-12,6.329529242124589e-12,4.998876869140406e-12,3.930574610582117e-12,3.0885830361474538e-12,2.3904927926895917e-12,1.830177807718026e-12,1.3765333567783001e-12,1.0204777448254911e-12,7.424625671849041e-13,5.291272084936675e-13
0.0,9,9.0,0.0,30.0,0.0,0.0,0.0,0.0,-13.0,0.0,2.0,0.0,0.0,0.0,9.009858231336555e-12,6.9361325457651415e-12,5.539255220876962e-12,4.4899159068113206e-12,3.650895963794601e-12,2.9627768139207786e-12,2.400943718345792e-12,1.930599097889556e-12,1.5381973807357816e-12,1.2122623562226375e-12,9.44260640453027e-13,7.242241765935793e-13,5.456915541735931e-13,4.0342300914366164e-13,2.916138798231818e-13,2.0589863707046714e-13,1.416099727835999e-13,6.841955010654493e-10,5.465234411959979e-10,4.0065111562253066e-10,2.5910446549871247e-10,1.5449282134623198e-10,8.620508194223037e-11,4.801863363214187e-11,2.6728234961457503e-11,1.5908000860787616e-11,1.0540480357975458e-11,7.656976812101617e-12,5.898050603810793e-12,4.617565559500981e-12,3.6142746931147158e-12,2.8324125201259225e-12,2.1876217232419723e-12,1.6735451564834813e-12,1.2573477553784976e-12,9.322588091539759e-13,6.783163317440788e-13,4.836970544492889e-13
0.0,10,10.0,0.0,30.0,0.0,0.0,0.0,0.0,-13.0,0.0,2.0,0.0,0.0,0.0,8.620118220453563e-12,6.467555160203277e-12,5.11834615151646e-12,4.134069712066545e-12,3.3557523010274704e-12,2.7207693801989763e-12,2.2049733637609443e-12,1.7734371717542196e-12,1.4140689447035272e-12,1.1155863923261772e-12,8.701770943011328e-13,6.68515464786663e-13,5.046572336179395e-13,3.7388672504992943e-13,2.7088050765092533e-13,1.9174670228402665e-13,1.3222925815705254e-13,7.069093431817362e-10,5.704324368774792e-10,4.249563005333528e-10,2.8147768163529187e-10,1.722782510770665e-10,9.83065897686626e-11,5.519308863004301e-11,3.018756653096714e-11,1.7127684496736066e-11,1.0665703874246047e-11,7.38014473794438e-12,5.54289679663903e-12,4.287078375287017e-12,3.336618032572728e-12,2.606105367095036e-12,2.0080574737749903e-12,1.534635997250235e-12,1.1514678193274828e-12,8.537374385480888e-13,6.210653036384793e-13,4.4322633853359396e-13
0.0,11,11.0,0.0,30.0,0.0,0.0,0.0,0.0,-13.0,0.0,2.0,0.0,0.0,0.0,8.38279630745879e-12,6.076903812188568e-12,4.748908196785677e-12,3.818120801539761e-12,3.0924903661720014e-12,2.504425151202107e-12,2.029411049318503e-12,1.6323443496890281e-12,1.3024207699399686e-12,1.028415369845158e-12,8.032183252836324e-13,6.180263927042046e-13,4.673596052487935e-13,3.46956223983737e-13,2.5191311353325795e-13,1.7875501264841087e-13,1.235859170179402e-13,7.25368419927435e-10,5.897564406352843e-10,4.450477171373734e-10,3.008865284785167e-10,1.8866588604153726e-10,1.102291933838381e-10,6.278808775332932e-11,3.421492495015641e-11,1.880415243129256e-11,1.1070664963838434e-11,7.250553087897269e-12,5.264760952952814e-12,4.0036945499044446e-12,3.092958389226501e-12,2.4058125299904215e-12,1.8487775572606448e-12,1.411114477239151e-12,1.057180798723735e-12,7.836474322983827e-13,5.698473193042828e-13,4.071111647980242e-13
0.0,12,12.0,0.0,30.0,0.0,0.0,0.0,0.0,-13.0,0.0,2.0,0.0,0.0,0.0,8.300165099414739e-12,5.763423652978919e-12,4.426660644303458e-12,3.5373758851104385e-12,2.8572101358144973e-12,2.310613645676519e-12,1.871770466939564e-12,1.5054045775574135e-12,1.2017914734925424e-12,9.496608821194934e-13,7.425896226087791e-13,5.721902625925205e-13,4.334059481573173e-13,3.223668443524888e-13,2.345391128882221e-13,1.668147727403174e-13,1.1561386530825925e-13,7.409263632798132e-10,6.056482732636922e-10,4.616383612880795e-10,3.1748988728530033e-10,2.0344489593815854e-10,1.2164722915231534e-10,7.053447247391267e-11,3.865606308674975e-11,2.087993854155069e-11,1.1748872601360394e-11,7.274015631879892e-12,5.066049107668951e-12,3.7654871915912e-12,2.879724599549401e-12,2.2283304887243763e-12,1.7072124895065376e-12,1.3010052540761888e-12,9.730302338730417e-13,7.209071749447088e-13,5.239380636634424e-13,3.7481141360871344e-13
0.0,13,13.0,0.0,30.0,0.0,0.0,0.0,0.0,-13.0,0.0,2.0,0.0,0.0,0.0,8.37112153171016e-12,5.527320796038241e-12,4.148720133201329e-12,3.288031387228405e-12,2.6465922086469184e-12,2.136645704547546e-12,1.7299153093022618e-12,1.3909633151303966e-12,1.1109127280600215e-12,8.783760321873926e-13,6.875965893455244e-13,5.305097599853687e-13,4.0244999106160087e-13,2.9988408166813734e-13,2.1860480638202053e-13,1.5582857095390547e-13,1.0825361133401034e-13,7.546156431799512e-10,6.190901442603595e-10,4.754500305775307e-10,3.315836081096166e-10,2.1655725967546419e-10,1.3233899643965388e-10,7.820875479899004e-11,4.336004607203899e-11,2.3284471412570453e-11,1.2682417336710209e-11,7.452139644460032e-12,4.949549580716777e-12,3.571905224074143e-12,2.694357256177597e-12,2.07103562995994e-12,1.5811719183167984e-12,1.2026311393324304e-12,8.977733584571961e-13,6.645940485426797e-13,4.827223540824325e-13,3.4584425814896324e-13
0.0,14,14.0,0.0,30.0,0.0,0.0,0.0,0.0,-13.0,0.0,2.0,0.0,0.0,0.0,8.590646830001721e-12,5.3688725960031935e-12,3.913290310928327e-12,3.067094361911938e-12,2.4578239325066216e-12,1.980203008169958e-12,1.6020050998712088e-12,1.2875881571873339e-12,1.0286810309174352e-12,8.137349411306728e-13,6.376310300973448e-13,4.92547581715008e-13,3.741858442127852e-13,2.792997984011094e-13,2.0397310538693115e-13,1.4570907299066087e-13,1.014515356298561e-13,7.671808397335321e-10,6.308661449657114e-10,4.87144590712428e-10,3.43530275762366e-10,2.280551682651551e-10,1.4217305796974246e-10,8.563704518026086e-11,4.818947923306103e-11,2.5941679588880492e-11,1.384436303966315e-11,7.781663617644236e-12,4.917332561235158e-12,3.423263983127289e-12,2.5351909971688285e-12,1.9318384813968166e-12,1.4687943993536975e-12,1.1145615180156093e-12,8.303449995964579e-13,6.139228022285187e-13,4.456696245611724e-13,3.1978362756548254e-13
0.0,15,15.0,0.0,30.0,0.0,0.0,0.0,0.0,-13.0,0.0,2.0,0.0,0.0,0.0,8.94995743595062e-12,5.287751610906739e-12,3.719314438780981e-12,2.8722864189812113e-12,2.2885447219927285e-12,1.8392836256340928e-12,1.486449261238961e-12,1.1940357185652568e-12,9.541342482755644e-13,7.550155239394205e-13,5.921589861644938e-13,4.57918439313965e-13,3.4834279837853153e-13,2.604289535703613e-13,1.905215543058107e-13,1.3637787766059954e-13,9.515925604862656e-14,7.791331596705772e-10,6.415701257473579e-10,4.972890480740053e-10,3.5370843318242603e-10,2.3806380174492155e-10,1.510915712316611e-10,9.269325218186767e-11,5.302621761875383e-11,2.8776072829327512e-11,1.520170300142866e-11,8.254646927382749e-12,4.970004605653541e-12,3.3202333834447032e-12,2.4012848434914485e-12,1.8091387385510745e-12,1.368513731827036e-12,1.035571853481599e-12,7.698272611924173e-13,5.682261073428298e-13,4.1231513401542157e-13,2.9626062155137725e-13
0.0,16,16.0,0.0,30.0,0.0,0.0,0.0,0.0,-13.0,0.0,2.0,0.0,0.0,0.0,9.437105654461455e-12,5.282602244734497e-12,3.566136752695872e-12,2.7019279582816115e-12,2.1368003449539577e-12,1.7121605626215287e-12,1.3818688368886988e-12,1.1092236409686798e-12,8.864319192843584e-13,7.015849890244935e-13,5.507105904595053e-13,4.2628221585489365e-13,3.246808534201391e-13,2.431067758065946e-13,1.7814060877746027e-13,1.2776451321865176e-13,8.933306726960195e-14,7.908080518193121e-10,6.516319344454787e-10,5.063444239767239e-10,3.6247881500358094e-10,2.467508102993658e-10,1.5909345577511978e-10,9.929413666314896e-11,5.7773689487502715e-11,3.1717054305397254e-11,1.6718248028929325e-11,8.859212589809138e-12,5.1063331580589965e-12,3.263395900881398e-12,2.2922208741021142e-12,1.7017701150666911e-12,1.2790341658204304e-12,9.646133604768842e-13,7.154247288643649e-13,5.269365631675407e-13,3.822469303296188e-13,2.7496176584230246e-13
0.0,17,17.0,0.0,30.0,0.0,0.0,0.0,0.0,-13.0,0.0,2.0,0.0,0.0,0.0,1.0037805576129414e-11,5.35085446675226e-12,3.453209252839441e-12,2.554809225834995e-12,2.0009989093401356e-12,1.597349755372335e-12,1.287065221522739e-12,1.032206948451203e-12,8.248385359524683e-13,6.528875922345308e-13,5.128714639357042e-13,3.9733809683272454e-13,3.0298686317743847e-13,2.2718631485995662e-13,1.6673213463172347e-13,1.1980555572061903e-13,8.393344531317289e-14,8.024163114038102e-10,6.613502478768015e-10,5.146697549087374e-10,3.7016442117205923e-10,2.543026569971266e-10,1.6621887235603722e-10,1.0539292533927493e-10,6.235692758125639e-11,3.470162051464384e-11,1.8357093732344388e-11,9.580561719395389e-12,5.3231859559465406e-12,3.2529162824671946e-12,2.207897187501184e-12,1.608932289491148e-12,1.1993080913581638e-12,9.007908526288575e-13,6.664448969171099e-13,4.895701496282114e-13,3.550975376680568e-13,2.556241974273002e-13
0.0,18,18.0,0.0,30.0,0.0,0.0,0.0,0.0,-13.0,0.0,2.0,0.0,0.0,0.0,1.0736311799904448e-11,5.4887279438942e-12,3.3798654400159955e-12,2.4300587883081574e-12,1.879864829377456e-12,1.493584100322866e-12,1.2009950121417215e-12,9.621581910506542e-13,7.687092302260612e-13,6.08434248412933e-13,4.782754114496102e-13,3.7081952832240906e-13,2.8307120384312976e-13,2.125363162687653e-13,1.5620809732475743e-13,1.124438535844424e-13,7.892460889627364e-14,8.140848993667168e-10,6.709248090378199e-10,5.225343926453525e-10,3.7704110221445516e-10,2.6090734755112654e-10,1.725357260478495e-10,1.1097253048226834e-10,6.67211815120387e-11,3.767577006102311e-11,2.0082528714046298e-11,1.0402044248121274e-11,5.6156990645597636e-12,3.2883353396441626e-12,2.1483381156669444e-12,1.5301131342247479e-12,1.1285120899787755e-12,8.433462698737238e-13,6.222832566444503e-13,4.557114617069852e-13,3.305388928676778e-13,2.380284496458131e-13
0.0,19,19.0,0.0,30.0,0.0,0.0,0.0,0.0,-13.0,0.0,2.0,0.0,0.0,0.0,1.1516237642656543e-11,5.6913690897672206e-12,3.3451677306627604e-12,2.327020024345911e-12,1.7723900711948798e-12,1.3997907543950104e-12,1.1227498865711038e-12,8.983509074749135e-13,7.174774694976145e-13,5.677936740228751e-13,4.4659820578121e-13,3.4648988025441755e-13,2.647648895706883e-13,1.9903937241216666e-13,1.4648941575577085e-13,1.0562784476321202e-13,7.42741305684477e-14,8.258871712331492e-10,6.804843709764733e-10,5.301337146008318e-10,3.833355484972633e-10,2.6674272663337394e-10,1.7812846961111835e-10,1.1603898809695543e-10,7.08297394250025e-11,4.0594965312826165e-11,2.186138183901174e-11,1.1306146535689993e-11,5.977584514185032e-12,3.368478430625403e-12,2.1135374042930553e-12,1.4650073625673984e-12,1.0660195858930665e-12,7.916454828523544e-13,5.824122226977893e-13,4.250010791942538e-13,3.082791182129525e-13,2.2199020339880182e-13
0.0,20,20.0,0.0,30.0,0.0,0.0,0.0,0.0,-13.0,0.0,2.0,0.0,0.0,0.0,1.2361250886811758e-11,5.9530662659751724e-12,3.3478240845934886e-12,2.2451438156399405e-12,1.67778397396273e-12,1.315069819563155e-12,1.0515403476685708e-12,8.401459601879753e-13,6.706444785123554e-13,5.305847995703504e-13,4.175522777802978e-13,3.2413871146702745e-13,2.47917072037156e-13,1.8659031052645747e-13,1.3750495802007882e-13,9.931095477445161e-14,6.995259153369247e-14,8.378639277560666e-10,6.901090040203271e-10,5.37605082225527e-10,3.8922803040934053e-10,2.71969355381848e-10,1.8308922507725251e-10,1.2061545790493352e-10,7.466138250951111e-11,4.3423946437108105e-11,2.3663878183564375e-11,1.2275322233672976e-11,6.401501779506265e-12,3.4914568371737527e-12,2.103341999792102e-12,1.4134381942757095e-12,1.0113702120772312e-12,7.451664653478162e-13,5.463729317337134e-13,3.9712525909525153e-13,2.8806005735829113e-13,2.0735234829756863e-13
0.0,21,21.0,0.0,30.0,0.0,0.0,0.0,0.0,-13.0,0.0,2.0,0.0,0.0,0.0,1.3255623164443061e-11,6.2674982212335e-12,3.386162605960687e-12,2.1839022876215363e-12,1.595423884233318e-12,1.2386733959680676e-12,9.866822480499909e-13,7.869802955839574e-13,6.277701750183896e-13,4.964702465931121e-13,3.9088215908406374e-13,3.0357854815811286e-13,2.3239287070821537e-13,1.7509478452381153e-13,1.2919065986910365e-13,9.345106537234377e-14,6.593327489017765e-14,8.500372920329682e-10,6.998468230950464e-10,5.4504225520589e-10,3.948577967528357e-10,2.767269507446539e-10,1.8751108153781164e-10,1.2473696427256762e-10,7.820774652834861e-11,4.6136131646119266e-11,2.546409993236012e-11,1.3292640757941239e-11,6.87943687274376e-12,3.654735756984986e-12,2.1173772332779716e-12,1.3752875108876546e-12,9.64237187812377e-13,7.034875887308572e-13,5.137689548647063e-13,3.7180791250490913e-13,2.6965491668192243e-13,1.9397828181331216e-13
0.0,22,22.0,0.0,30.0,0.0,0.0,0.0,0.0,-13.0,0.0,2.0,0.0,0.0,0.0,1.4184633790390699e-11,6.627983029376072e-12,3.458150004148948e-12,2.142725233108842e-12,1.5248089534583776e-12,1.1699846967646023e-12,9.27585190970317e-13,7.383576878059767e-13,5.884654415817157e-13,4.651507087187137e-13,3.6636055081631395e-13,2.8464209986198336e-13,2.1807148835357764e-13,1.6446804268366053e-13,1.21488749461486e-13,8.801004497044261e-14,6.219189272199757e-14,8.624193846522442e-10,7.097258910878291e-10,5.525074508347137e-10,4.0032960346620216e-10,2.8113342809041935e-10,1.9148332882691364e-10,1.2844595409583002e-10,8.147076303098869e-11,4.871277444813546e-11,2.724014892574757e-11,1.4342258107849234e-11,7.403052392649198e-12,3.855243585220934e-12,2.1550094000536837e-12,1.3504381145811811e-12,9.243945161202285e-13,6.662754367185213e-13,4.842610945739669e-13,3.4880462928792444e-13,2.5286571708422603e-13,1.8174685992119148e-13
0.0,23,23.0,0.0,30.0,0.0,0.0,0.0,0.0,-13.0,0.0,2.0,0.0,0.0,0.0,1.513484271670174e-11,7.027706350250451e-12,3.561439758233097e-12,2.120958303444408e-12,1.4655190360297002e-12,1.1084974015360074e-12,8.737421330196892e-13,6.938410502542946e-13,5.523855707682046e-13,4.3636010967752746e-13,3.4378491598649826e-13,2.67179847953173e-13,2.0484457259493514e-13,1.5463384760149923e-13,1.1434706441820209e-13,8.295333306791802e-14,5.870634306774898e-14,8.750174519390835e-10,7.197622977152211e-10,5.600408731895866e-10,4.057203474245308e-10,2.852857105155949e-10,1.9508833328215724e-10,1.3178867956465102e-10,8.446028608102686e-11,5.114199752834103e-11,2.897409530871929e-11,1.5409731032491288e-11,7.963988294825088e-12,4.08950113724875e-12,2.2153390362272687e-12,1.338729759072915e-12,8.91685808507409e-13,6.332720528390176e-13,4.575626363310021e-13,3.278983847311624e-13,2.3752051525813916e-13,1.7054898448762065e-13
0.0,24,24.0,0.0,30.0,0.0,0.0,0.0,0.0,-13.0,0.0,2.0,0.0,0.0,0.0,1.6094253405977814e-11,7.45991735090486e-12,3.693437503964028e-12,2.117840352237893e-12,1.4171799660488312e-12,1.0537956867212886e-12,8.247197454615099e-13,6.530459448023082e-13,5.19224726870701e-13,4.0986143469697263e-13,3.2297451407503824e-13,2.5105795133970717e-13,1.926147894442274e-13,1.4552352831086223e-13,1.0771844926265668e-13,7.824957193767374e-14,5.545649328994891e-14,8.878367076102031e-10,7.299653961897189e-10,5.676679002758955e-10,4.1108518701105363e-10,2.8926162094355347e-10,1.9839974329583646e-10,1.3481236716893432e-10,8.719196616069107e-11,5.341778497678988e-11,3.065178033028149e-11,1.648220196471526e-11,8.554105349568736e-12,4.3537546101956715e-12,2.2972172157128525e-12,1.3399289678679728e-12,8.659962222549616e-13,6.042818745619425e-13,4.3343464425000953e-13,3.088965105298796e-13,2.2347049433695945e-13,1.6028554494867702e-13
0.0,25,25.0,0.0,30.0,0.0,0.0,0.0,0.0,-13.0,0.0,2.0,0.0,0.0,0.0,1.705238763358348e-11,7.918087664775859e-12,3.851373643131861e-12,2.1324964181431816e-12,1.3794357918042675e-12,1.0055354521836203e-12,7.801492908634518e-13,6.156349792401972e-13,4.887112722137483e-13,3.8544314769261504e-13,3.037678131420096e-13,2.36156422602531e-13,1.812945792522267e-13,1.3707514738326824e-13,1.0156022306454749e-13,7.387027971901237e-14,5.2423986794129733e-14,9.008817807252399e-10,7.403410383268002e-10,5.75404288451741e-10,4.1646283470973704e-10,2.9312233168732293e-10,2.0148172075904778e-10,1.3756310288598745e-10,8.968540282386792e-11,5.553898788563081e-11,3.226252539921614e-11,1.7548482524251985e-11,9.16567138229049e-12,4.6441011800538e-12,2.3992774185407473e-12,1.3537114574181128e-12,8.472285238866576e-13,5.791587834199359e-13,4.1168109063365813e-13,2.916285255594767e-13,2.1058707431097028e-13,1.5086632175623712e-13
0.0,26,26.0,0.0,30.0,0.0,0.0,0.0,0.0,-13.0,0.0,2.0,0.0,0.0,0.0,1.800029269889377e-11,8.396033490471733e-12,4.0323758205285866e-12,2.163942573634931e-12,1.3519279349427932e-12,9.634272178695901e-13,7.397179239832783e-13,5.813128501915811e-13,4.606038138443948e-13,3.629161175177846e-13,2.860202278394033e-13,2.2236753538680106e-13,1.7080506944022877e-13,1.2923276819282434e-13,9.583370855458726e-14,6.978955983324257e-14,4.9592070411562725e-14,9.141573652605283e-10,7.50893467339023e-10,5.832598013081005e-10,4.218799158310375e-10,2.9691499330842974e-10,2.0438892177517992e-10,1.4008434407910315e-10,9.196258633383795e-11,5.750837990975175e-11,3.379878601595727e-11,1.8599060597527683e-11,9.791495172147029e-12,4.9566005232158575e-12,2.519976467398087e-12,1.3796552567606714e-12,8.352837989815145e-13,5.577937423962876e-13,3.9214376896769874e-13,2.7594447872468337e-13,1.9875918402627866e-13,1.4220946541854256e-13
0.0,27,27.0,0.0,30.0,0.0,0.0,0.0,0.0,-13.0,0.0,2.0,0.0,0.0,0.0,1.8930498742807036e-11,8.888003761630373e-12,4.233536335645303e-12,2.2110990529111794e-12,1.3342807773854678e-12,9.272210467234859e-13,7.031604274487526e-13,5.498218539557e-13,4.3468783835527456e-13,3.4211098431182075e-13,2.6960214141015864e-13,2.0959443035736034e-13,1.6107512193571214e-13,1.2194580951875475e-13,9.050381517879796e-14,6.598384231815402e-14,4.694544007707783e-14,9.27668446278457e-10,7.616263528066844e-10,5.912406476777423e-10,4.2735441853638153e-10,3.0067529031985957e-10,2.071669886304483e-10,1.4241595922047316e-10,9.404662299126298e-11,5.93317865634603e-11,3.525577864756913e-11,1.962605194483343e-11,1.042501519981157e-11,5.2873689757379454e-12,2.6576393044831497e-12,1.4172422948723622e-12,8.300468929922787e-13,5.401034422011476e-13,3.746970508625027e-13,2.6171353521733075e-13,1.8789079768519736e-13,1.3424123776539368e-13
0.0,28,28.0,0.0,30.0,0.0,0.0,0.0,0.0,-13.0,0.0,2.0,0.0,0.0,0.0,1.983694075177358e-11,9.388738745278818e-12,4.451971563960174e-12,2.2728085248460958e-12,1.3260928767415414e-12,8.966937028999761e-13,6.70251448840454e-13,5.209377457272695e-13,4.107728181794971e-13,3.2287590324597637e-13,2.543971767585353e-13,1.9774989251000055e-13,1.5204049641623966e-13,1.1516847634255817e-13,8.553866956081686e-14,6.243165326514238e-14,4.44701027129006e-14,9.41420325276184e-10,7.725433051175025e-10,5.993510573505128e-10,4.32898332695227e-10,3.0442977152896324e-10,2.0985335846810295e-10,1.4459369527656482e-10,9.596072760813167e-11,6.101730283502564e-11,3.6631100720365154e-11,2.0623113096433497e-11,1.10603511039116e-11,5.632655490788637e-12,2.8105037124508606e-12,1.4658662122925654e-12,8.31376329710521e-13,5.260202765652454e-13,3.592426115877859e-13,2.488226211374345e-13,1.7789879094476527e-13,1.268957991415225e-13
0.0,29,29.0,0.0,30.0,0.0,0.0,0.0,0.0,-13.0,0.0,2.0,0.0,0.0,0.0,2.07148568788876e-11,9.893503898430807e-12,4.684872000515903e-12,2.3478569532250943e-12,1.3269328552608397e-12,8.716381085434971e-13,6.407983258479708e-13,4.944658751190608e-13,3.886896905503319e-13,3.05074608699838e-13,2.403006866638164e-13,1.8675527714828443e-13,1.4364311329833808e-13,1.0885925714315688e-13,8.090928767686234e-14,5.911340904863955e-14,4.2153252475795343e-14,9.554185679862412e-10,7.836480928130249e-10,6.075942565892969e-10,4.385196065518131e-10,3.0819787782713094e-10,2.1247823741412524e-10,1.466489775329751e-10,9.772745881356377e-11,6.257460685096545e-11,3.792435812551031e-11,2.158532854987091e-11,1.1692325386257165e-11,5.988900149522474e-12,2.976762304207425e-12,1.5248443416300103e-12,8.390982237180743e-13,5.154838453876683e-13,3.4570427408427746e-13,2.371750176221946e-13,1.6871112818577113e-13,1.2011491827262865e-13
0.0,30,30.0,0.0,30.0,0.0,0.0,0.0,0.0,-13.0,0.0,2.0,0.0,0.0,0.0,2.1560672154912884e-11,1.0398103695674981e-11,4.929542632262622e-12,2.4349950842281865e-12,1.3363389691546385e-12,8.51855036660656e-13,6.146345809124825e-13,4.702375617296842e-13,3.6828862884552127e-13,2.8858474763221805e-13,2.272184368018151e-13,1.7653956548800414e-13,1.358304028907011e-13,1.0298047925210628e-13,7.658928375597456e-14,5.6011232471267605e-14,3.9983159743948577e-14,9.696689368147935e-10,7.949447036518269e-10,6.159730417828683e-10,4.442235553619921e-10,3.1199364280162714e-10,2.1506562863685162e-10,1.4860895585791693e-10,9.936816807558595e-11,6.401437205374474e-11,3.913681040288228e-11,2.2509082184757312e-11,1.2316462077510711e-11,6.352776901401828e-12,3.1546001316198986e-12,1.5934321032946576e-12,8.530035725195169e-13,5.084340660891384e-13,3.3402311784691613e-13,2.266888576834583e-13,1.6026535973309313e-13,1.1384755578207623e-13
0.0,31,31.0,0.0,30.0,0.0,0.0,0.0,0.0,-13.0,0.0,2.0,0.0,0.0,0.0,2.2371874555859396e-11,1.0898879703107411e-11,5.183434062323874e-12,2.532959155480488e-12,1.3538214114812273e-12,8.371468809740577e-13,5.916141460904414e-13,4.481066990994399e-13,3.4943704380366307e-13,2.7329643680414715e-13,2.1506545794587484e-13,1.6703853376557082e-13,1.2855472927283487e-13,9.749791493380001e-14,7.255461152424819e-14,5.310878831813217e-14,3.794907141403631e-14,9.841773348259953e-10,8.064373333650243e-10,6.244900947993966e-10,4.500138461841511e-10,3.158270756694172e-10,2.1763433703427637e-10,1.504967231298741e-10,1.0090263104600835e-10,6.534777626045428e-11,4.0271040619563875e-11,2.339192037830026e-11,1.292896805553775e-11,6.721222639307392e-12,3.342227065367879e-12,1.6708384094991667e-12,8.728482654556913e-13,5.048058715768943e-13,3.241529770341284e-13,2.1729552449064618e-13,1.5250738737100502e-13,1.0804932312824351e-13
0.0,32,32.0,0.0,30.0,0.0,0.0,0.0,0.0,-13.0,0.0,2.0,0.0,0.0,0.0,2.314688871117317e-11,1.1392696599097457e-11,5.44416523012264e-12,2.640489896989434e-12,1.3788665019459595e-12,8.273132781946417e-13,5.716063508745515e-13,4.279465902586239e-13,3.3201776807273195e-13,2.5911100452262294e-13,2.0376504591750635e-13,1.5819402203207668e-13,1.2177287927457263e-13,9.238043182517819e-14,6.878333393794068e-14,5.039113612946076e-14,3.6041121251306046e-14,9.989497693463666e-10,8.181303488891927e-10,6.331481398295392e-10,4.558931656613402e-10,3.197052559632926e-10,2.2019890113949564e-10,1.5233164428753408e-10,1.0234882962826911e-10,6.658610283476758e-11,4.133065454998848e-11,2.4232412446410435e-11,1.352670168954015e-11,7.091454813138599e-12,3.5379046857062794e-12,1.7562410135515638e-12,8.983551591737865e-13,5.045253944212766e-13,3.160564203212277e-13,2.0893797940095582e-13,1.4539044723347963e-13,1.026818477287613e-13
0.0,33,33.0,0.0,30.0,0.0,0.0,0.0,0.0,-13.0,0.0,2.0,0.0,0.0,0.0,2.3884951213143907e-11,1.1876919244192984e-11,5.709538775196748e-12,2.756349278549269e-12,1.410942045366122e-12,8.221483215856094e-13,5.544916763685366e-13,4.0964702514804395e-13,3.159273910929788e-13,2.45939883534464e-13,1.9324788980044629e-13,1.499532906432768e-13,1.1544560844620185e-13,8.759968222161225e-14,6.525541801153138e-14,4.784459826935151e-14,3.4250249186633053e-14,1.0139923343046876e-09,8.300282497398598e-10,6.419500083748536e-10,4.618636579762851e-10,3.236331790599808e-10,2.2277042446074907e-10,1.5412974704848463e-10,1.037228545580176e-10,6.774042691175727e-11,4.232001186824556e-11,2.5030012631040502e-11,1.4107132564357921e-11,7.460979681107146e-12,3.739967824748764e-12,1.8488010531835077e-12,9.29217623261327e-13,5.07507482596973e-13,3.0970127013401393e-13,2.0156906390253118e-13,1.3887425850321661e-13,9.771208688933471e-14
0.0,34,34.0,0.0,30.0,0.0,0.0,0.0,0.0,-13.0,0.0,2.0,0.0,0.0,0.0,2.4585990451357633e-11,1.2349383344666091e-11,5.9775501480224755e-12,2.879334751543512e-12,1.4495032778274803e-12,8.214390923040969e-13,5.401582524790179e-13,3.9311161154238955e-13,3.0107472217420315e-13,2.337036274088618e-13,1.8345131076914804e-13,1.4226845392249816e-13,1.0953723715439558e-13,8.312982644116804e-14,6.195255175509975e-14,4.5456641599582707e-14,3.256812858867872e-14,1.0293112070083035e-09,8.421356376269489e-10,6.508986550693758e-10,4.679272011985875e-10,3.276143943347799e-10,2.2535729439868703e-10,1.559041369905033e-10,1.0503890080839767e-10,6.882137807743983e-11,4.3243990540674685e-11,2.5784926787938893e-11,1.4668295260987065e-11,7.827593085044326e-12,3.946841150805909e-12,1.947676300909566e-12,9.65104037440423e-13,5.136543606135601e-13,3.0505768566723266e-13,1.951498248376354e-13,1.3292429150350265e-13,9.311163325528098e-14
0.0,35,35.0,0.0,30.0,0.0,0.0,0.0,0.0,-13.0,0.0,2.0,0.0,0.0,0.0,2.525051308033935e-11,1.280836176618453e-11,6.246391532946139e-12,3.008290944622971e-12,1.4939989523088294e-12,8.249652412074164e-13,5.284990529100698e-13,3.782553686386642e-13,2.873793678455749e-13,2.2233102803003065e-13,1.7431859568541513e-13,1.35095981673355e-13,1.0401529095238693e-13,7.894728614845412e-14,5.885798059750974e-14,4.321577126489212e-14,3.0987100655270315e-14,1.0449126544865957e-09,8.544571970340146e-10,6.599971503813917e-10,4.74085573526943e-10,3.3165147605756726e-10,2.2796578795702418e-10,1.5766540991700952e-10,1.063093313602773e-10,6.983897003448795e-11,4.410778437888214e-11,2.6497986103879406e-11,1.5208739535425093e-11,8.189375379589898e-12,4.157051320643653e-12,2.052032846180678e-12,1.0056628098965047e-12,5.228552374031779e-13,3.020958053719075e-13,1.896479099219149e-13,1.2751111712801306e-13,8.88560477365452e-14
0.0,36,36.0,0.0,30.0,0.0,0.0,0.0,0.0,-13.0,0.0,2.0,0.0,0.0,0.0,2.587949858094178e-11,1.3252528143869015e-11,6.514451557299388e-12,3.142118915579996e-12,1.543877235438809e-12,8.324993730430021e-13,5.194097266591993e-13,3.6500258779468717e-13,2.7477041537206765e-13,2.1175831653521362e-13,1.6579841140278258e-13,1.2839626023122127e-13,9.885018019229101e-14,7.503052408038256e-14,5.595636099484671e-14,4.111143526841519e-14,2.950011517045797e-14,1.0608030452241148e-09,8.669976858988738e-10,6.692486651443496e-10,4.803405470638079e-10,3.3574636303617287e-10,2.306005706224139e-10,1.5942204301602143e-10,1.0754478844749129e-10,7.080248748468376e-11,4.4916732735148244e-11,2.7170529516879215e-11,1.5727478733567944e-11,8.544681885957423e-12,4.369235278938574e-12,2.1610550950544544e-12,1.0505275750821116e-12,5.349866646266166e-13,3.007839217840591e-13,1.8503607347815367e-13,1.2260980909703082e-13,8.492424601825259e-14
0.0,37,37.0,0.0,30.0,0.0,0.0,0.0,0.0,-13.0,0.0,2.0,0.0,0.0,0.0,2.6474302856680263e-11,1.3680919098427558e-11,6.78031164559753e-12,3.2797831500226047e-12,1.5985911897468377e-12,8.438080122950365e-13,5.127869944472563e-13,3.5328495927853483e-13,2.63185218106088e-13,2.019284341001082e-13,1.5784428747221795e-13,1.221332056211724e-13,9.40149145092587e-14,7.135984709848981e-14,5.323362921013506e-14,3.9133938664946165e-14,2.810067696178036e-14,1.0769888631955256e-09,8.79761934140685e-10,6.786564547738955e-10,4.86693935778915e-10,3.3990059780910065e-10,2.33265098943983e-10,1.6118075324192789e-10,1.0875433500833052e-10,7.17204206209118e-11,4.567618056695739e-11,2.780429597771321e-11,1.622393788262108e-11,8.892130002156246e-12,4.582145282886785e-12,2.2739540888152466e-12,1.0993223121827184e-12,5.499134618211167e-13,3.0108714502119106e-13,1.8129082275742675e-13,1.1819937982298916e-13,8.12979544859403e-14
0.0,38,38.0,0.0,30.0,0.0,0.0,0.0,0.0,-13.0,0.0,2.0,0.0,0.0,0.0,2.7036571386693268e-11,1.4092896095420295e-11,7.042739757186377e-12,3.420316544577635e-12,1.657603699835475e-12,8.586529613913847e-13,5.08527533508965e-13,3.430399582296354e-13,2.525682804807304e-13,1.9279036236506908e-13,1.504141566361785e-13,1.1627392217538136e-13,8.94848483428782e-14,6.791722990356277e-14,5.0676883504718853e-14,3.727436633146243e-14,2.6782797469528974e-14,1.0934767221787852e-09,8.927548475530502e-10,6.882238467155165e-10,4.93147615947094e-10,3.4411549076937027e-10,2.3596193930079383e-10,1.6294681670366317e-10,1.0994561253324372e-10,7.2600438137717e-11,4.639136654480213e-11,2.8401327244871667e-11,1.669790258606495e-11,9.230583893764612e-12,4.7946511950696e-12,2.3899742207983613e-12,1.1516661985544903e-12,5.674900442158212e-13,3.029665006077504e-13,1.7839122493218413e-13,1.1426223881177667e-13,7.796124224376658e-14
0.0,39,39.0,0.0,30.0,0.0,0.0,0.0,0.0,-13.0,0.0,2.0,0.0,0.0,0.0,2.7568162117623125e-11,1.4488107764437754e-11,7.300682131000126e-12,3.5628236300192484e-12,1.7203917668614876e-12,8.767928944028639e-13,5.06527273572183e-13,3.3420947794525916e-13,2.428702413522301e-13,1.8429850602346576e-13,1.4346994409643104e-13,1.1078840068117187e-13,8.523745410141144e-14,6.468615709819302e-14,4.8274278205849503e-14,3.552451338971931e-14,2.5540950906140496e-14,1.1102733791881072e-09,9.059814149012656e-10,6.97954232206752e-10,4.997035311767233e-10,3.4839222949357044e-10,2.3869301578209e-10,1.6472434681035014e-10,1.1112500465178058e-10,7.344939043509394e-11,4.706733650800753e-11,2.8963881529576374e-11,1.7149469599032054e-11,9.559137515291823e-12,5.005740534913428e-12,2.5083984783995185e-12,1.2071780741083114e-12,5.875620119465691e-13,3.0637840175819283e-13,1.7631788503077585e-13,1.1078366907878753e-13,7.490012867363543e-14
0.0,40,40.0,0.0,30.0,0.0,0.0,0.0,0.0,-13.0,0.0,2.0,0.0,0.0,0.0,2.8071078003948503e-11,1.4866453316165834e-11,7.553253558088187e-12,3.70648228753275e-12,1.7864501452666233e-12,8.979850605870836e-13,5.066810296742415e-13,3.2673869444195873e-13,2.340469544340062e-13,1.7641212221061732e-13,1.3697719801507424e-13,1.0564925079550631e-13,8.125211993997164e-14,6.165148157817163e-14,4.6014928311952155e-14,3.387682245907761e-14,2.437003454217374e-14,1.1273857464952195e-09,9.194467165706209e-10,7.078510621602811e-10,5.063636897413628e-10,3.527319490339158e-10,2.414597995567867e-10,1.6651653172126456e-10,1.1229779856664149e-10,7.427333561089892e-11,4.770887936568162e-11,2.949435799221938e-11,1.7578999757455762e-11,9.877096569912826e-12,5.214516719261513e-12,2.628552362204389e-12,1.2654804425156816e-12,6.099678833787295e-13,3.1127443487512805e-13,1.7505209646023867e-13,1.0775132187856397e-13,7.210226088729778e-14
0.0,41,41.0,0.0,30.0,0.0,0.0,0.0,0.0,-13.0,0.0,2.0,0.0,0.0,0.0,2.8547408890602632e-11,1.5228047548615423e-11,7.799726613473021e-12,3.850544196778586e-12,1.855294331162885e-12,9.219870007119938e-13,5.088824027401016e-13,3.2057514315325624e-13,2.2605866404209916e-13,1.6909479290537676e-13,1.3090475503518212e-13,1.0083146308116997e-13,7.75099694360448e-14,5.879929748435804e-14,4.38888234686913e-14,3.232432700846748e-14,2.3265332705483267e-14,1.1448209021185781e-09,9.331559336263157e-10,7.179178464148551e-10,5.131301588823436e-10,3.571357751169155e-10,2.4426345098169687e-10,1.6832583349270824e-10,1.1346833878477722e-10,7.5077581832828e-11,4.832048247056105e-11,2.999523183103989e-11,1.7987073765284385e-11,1.0183959900627186e-11,5.420195862716924e-12,2.749806642769793e-12,1.3262029739311934e-12,6.345408785464388e-13,3.1760139881459957e-13,1.7457515871930728e-13,1.051547332227682e-13,6.955665233481407e-14
0.0,42,42.0,0.0,30.0,0.0,0.0,0.0,0.0,-13.0,0.0,2.0,0.0,0.0,0.0,2.8999282265852206e-11,1.5573187811850547e-11,8.039520203682333e-12,3.994334233067787e-12,1.926462935665563e-12,9.485582042375184e-13,5.1302388571431e-13,3.156679866315377e-13,2.1886927354633127e-13,1.6231393766810103e-13,1.25224435774004e-13,9.631219659602881e-14,7.399370071586388e-14,5.6116826157268366e-14,4.188675029809728e-14,3.0860600158779405e-14,2.2222484124762602e-14,1.1625860989011921e-09,9.471143565810316e-10,7.281581554506846e-10,5.200050587156212e-10,3.616048490852201e-10,2.471049242863336e-10,1.7015415241919944e-10,1.1464016951610247e-10,7.586674068688447e-11,4.890630353764532e-11,3.046899949437318e-11,1.837445120084806e-11,1.0479400713684304e-11,5.622102452667459e-12,2.8715791131121428e-12,1.3889855028701654e-12,6.611106802017455e-13,3.2530154252151064e-13,1.748678515656223e-13,1.0298486740269067e-13,6.72534724252706e-14
0.0,43,43.0,0.0,30.0,0.0,0.0,0.0,0.0,-13.0,0.0,2.0,0.0,0.0,0.0,2.942882229045127e-11,1.5902323197918973e-11,8.272187723723802e-12,4.137249006734376e-12,1.9995194912086627e-12,9.77461656778811e-13,5.189971207497298e-13,3.119674511397728e-13,2.1244570298559188e-13,1.5604036477429939e-13,1.1991076624425337e-13,9.207058850073845e-14,7.068744282688205e-14,5.3592313716685505e-14,4.0000222191610304e-14,2.947970835913659e-14,2.1237452286933612e-14,1.1806887724172063e-09,9.613273934982028e-10,7.385756237270733e-10,5.269905570690128e-10,3.6614034096362654e-10,2.4998504317772084e-10,1.7200296061589558e-10,1.1581616363536603e-10,7.66447870671378e-11,4.947015631223667e-11,3.091813338641387e-11,1.874203298054712e-11,1.0763247960540289e-11,5.819664164332991e-12,2.9933354855652686e-12,1.4534805354365676e-12,6.895051189469482e-13,3.3431295110861403e-13,1.7591005118529626e-13,1.0123369330490992e-13,6.51838769006182e-14
0.0,44,44.0,0.0,30.0,0.0,0.0,0.0,0.0,-13.0,0.0,2.0,0.0,0.0,0.0,2.9838116425623214e-11,1.6216026135455175e-11,8.497405065484045e-12,4.278754713283538e-12,2.0740537466974206e-12,1.0084652448491085e-12,5.266932609384514e-13,3.094244099136346e-13,2.0675733139346761e-13,1.502478592409597e-13,1.1494072199907528e-13,8.808758263951761e-14,6.757662736951611e-14,5.121493904136983e-14,3.8221415788624504e-14,2.8176169425864327e-14,2.0306498512298752e-14,1.1991365479864416e-09,9.758005772907258e-10,7.491739539523811e-10,5.34088865775866e-10,3.7074345514083865e-10,2.529045542616873e-10,1.7387340904025923e-10,1.169986372728735e-10,7.7415122067473e-11,5.001550738957056e-11,3.1345045319757454e-11,1.9090827411963767e-11,1.1035468143441779e-11,6.012406038444924e-12,3.1145895684679515e-12,1.5193552938054841e-12,7.195517451182322e-13,3.445700367105049e-13,1.7768047167830214e-13,9.9893799008014e-14,6.333986946910789e-14
0.0,45,45.0,0.0,30.0,0.0,0.0,0.0,0.0,-13.0,0.0,2.0,0.0,0.0,0.0,3.022918893238469e-11,1.651496649397806e-11,8.714958676626216e-12,4.4183844397142665e-12,2.149682510129718e-12,1.0413429988833732e-12,5.360033978711652e-13,3.079900914859199e-13,2.017755185870937e-13,1.4491280645989727e-13,1.1029349248570686e-13,8.434577449317931e-14,6.464787360163268e-14,4.897473105533381e-14,3.654311345672933e-14,2.6944914490740236e-14,1.9426157481515632e-14,1.2179372470677278e-09,9.905395722233373e-10,7.5995692177162e-10,5.413022384932271e-10,3.7541543174061067e-10,2.5586416385423804e-10,1.7576641203125474e-10,1.1818944996356583e-10,7.818063613888183e-11,5.0545481829094694e-11,3.175205789200418e-11,1.9421919877243695e-11,1.1296147758568161e-11,6.199944208110936e-12,3.2349028433621073e-12,1.5862933341827317e-12,7.510792634473086e-13,3.5600409693826376e-13,1.801565141609936e-13,9.895804923066171e-14,6.171418651789341e-14
0.0,46,46.0,0.0,30.0,0.0,0.0,0.0,0.0,-13.0,0.0,2.0,0.0,0.0,0.0,3.060398049308657e-11,1.679988823944186e-11,8.924733833212422e-12,4.55573505141082e-12,2.2260500966280635e-12,1.0758761663625611e-12,5.468190236313026e-13,3.076158926241948e-13,1.9747320054706584e-13,1.400138502114621e-13,1.0595026364257146e-13,8.082927030131977e-14,6.188888541474884e-14,4.686249434157391e-14,3.49586511711603e-14,2.5781253456637632e-14,1.859321497540133e-14,1.2370988932682973e-09,1.005550179711559e-09,7.709283805194333e-10,5.486329698769674e-10,3.8015754571749505e-10,2.5886456259621597e-10,1.7768271315342115e-10,1.1939009089176494e-10,7.894377047492152e-11,5.1062875471874636e-11,3.214138292379072e-11,1.9736446109998033e-11,1.1545476546944742e-11,6.381979331330253e-12,3.3538835485017415e-12,1.6539957787053774e-12,7.839188172109134e-13,3.685439101360121e-13,1.8331420577556583e-13,9.84192889192223e-14,6.030019827373116e-14
0.0,47,47.0,0.0,30.0,0.0,0.0,0.0,0.0,-13.0,0.0,2.0,0.0,0.0,0.0,3.0964333208006374e-11,1.7071588628963333e-11,9.126703258978732e-12,4.690463765525774e-12,2.302828436885553e-12,1.1118541149055819e-12,5.590325024648258e-13,3.0825327698111084e-13,1.938245520821377e-13,1.3553158378619703e-13,1.0189401720309657e-13,7.752355850376174e-14,5.928835875346726e-14,4.4869742203910596e-14,3.346187125999327e-14,2.4680843604247046e-14,1.7804687612489273e-14,1.2566297181636469e-09,1.0208383435501546e-09,7.820922658207731e-10,5.560833958485918e-10,3.849711049704407e-10,2.6190644129880166e-10,1.796229357463879e-10,1.206017521695738e-10,7.970657518077337e-11,5.1570172144012886e-11,3.2515106086592194e-11,2.0035568964244815e-11,1.1783731685239675e-11,6.55828986063787e-12,3.471185360430419e-12,1.7221822030214338e-12,8.179051168365568e-13,3.821163426113945e-13,1.8712821162231826e-13,9.827009480022612e-14,5.909182136725537e-14
0.0,48,48.0,0.0,30.0,0.0,0.0,0.0,0.0,-13.0,0.0,2.0,0.0,0.0,0.0,3.131198024072268e-11,1.7330899887946178e-11,9.320916198183468e-12,4.822284500837329e-12,2.379716896790774e-12,1.149075070935103e-12,5.725375332143526e-13,3.098537423541539e-13,1.9080471023531347e-13,1.3144827283734946e-13,9.810934549221146e-14,7.441539195817866e-14,5.683589820931092e-14,4.2988636385989175e-14,3.2047079541070685e-14,2.363966103412685e-14,1.705780439101342e-14,1.2765381670785132e-09,1.0364101547143583e-09,7.934525999242606e-10,5.6365589467138e-10,3.898574482516109e-10,2.649905006322545e-10,1.8158762115217986e-10,1.2182539032483956e-10,8.047076327122234e-11,5.206956420005862e-11,3.287517686516336e-11,2.0320458521427785e-11,1.2011263014890923e-11,6.728725260541317e-12,3.5865057526748398e-12,1.7905912205144845e-12,8.528774140852762e-13,3.966469484206481e-13,1.9157190388364473e-13,9.850257524173741e-14,5.808343922592116e-14
0.0,49,49.0,0.0,30.0,0.0,0.0,0.0,0.0,-13.0,0.0,2.0,0.0,0.0,0.0,3.1648539421528434e-11,1.7578673276423112e-11,9.507488026349105e-12,4.950964080489312e-12,2.4564418541332574e-12,1.1873467033762939e-12,5.872295886233331e-13,3.1236884137397276e-13,1.8838955182880885e-13,1.2774760845389558e-13,9.458228073771064e-14,7.149267965638237e-14,5.4521941668928446e-14,4.1211932735885053e-14,3.070900642738964e-14,2.2653974663671602e-14,1.6349989861098258e-14,1.2968329049405098e-09,1.0522718558700373e-09,8.050134957264376e-10,5.713528885792206e-10,3.94817943299742e-10,2.681174566114541e-10,1.8357725716082277e-10,1.2306177728890774e-10,8.12377599371984e-11,5.2562975118854534e-11,3.3223403036240944e-11,2.0592275340649328e-11,1.2228479377998264e-11,6.893199265898859e-12,3.699584099442658e-12,1.8589808020448756e-12,8.886803273169172e-13,4.120605470496566e-13,1.9661747399978686e-13,9.910821738129059e-14,5.726982797906135e-14
0.0,50,50.0,0.0,30.0,0.0,0.0,0.0,0.0,-13.0,0.0,2.0,0.0,0.0,0.0,3.197551016432971e-11,1.7815765422684838e-11,9.686590463317246e-12,5.076318352510528e-12,2.532756073288547e-12,1.2264865642237602e-12,6.030063218223298e-13,3.157502423945685e-13,1.8655551864864092e-13,1.244144888093593e-13,9.130013808316427e-14,6.874438688584452e-14,5.23376920324199e-14,3.9532932175564414e-14,2.944277162165912e-14,2.172032253043561e-14,1.5678848770738733e-14,1.3175228222854998e-09,1.0684298457124478e-09,8.167791604932983e-10,5.791768457460328e-10,3.9985398540109475e-10,2.7128804331033737e-10,1.8559229880387963e-10,1.2431154219818992e-10,8.200874682918513e-11,5.3052083103677035e-11,3.356144889701648e-11,2.0852156627114873e-11,1.2435836101663489e-11,7.051683259470432e-12,3.8101995826071994e-12,1.927128367209985e-12,9.251645262805952e-13,4.2828176840440105e-13,2.0223607552006016e-13,1.0007777925680499e-13,5.664608657345617e-14
0.0,51,51.0,0.0,30.0,0.0,0.0,0.0,0.0,-13.0,0.0,2.0,0.0,0.0,0.0,3.229427310586465e-11,1.8043026780575078e-11,9.858442435410624e-12,5.198208283255335e-12,2.6084379139396034e-12,1.2663223990484983e-12,6.197679337476961e-13,3.199498192651719e-13,1.852794840021565e-13,1.214348276196539e-13,8.825137159837338e-14,6.616044297194539e-14,5.0275055142861595e-14,3.794543639923316e-14,2.8243852058375157e-14,2.0835490180110378e-14,1.50421520442908e-14,1.3386170414680056e-09,1.0848906832330277e-09,8.287538993146187e-10,5.871302824331487e-10,4.049669964408871e-10,2.7450301383251477e-10,1.8763318325032976e-10,1.2557520528404629e-10,8.278470133976593e-11,5.353834485475303e-11,3.3890836539321814e-11,2.1101205073515936e-11,1.2633823648713325e-11,7.204199833916103e-12,3.918168952101754e-12,1.994830679896846e-12,9.621872866700157e-13,4.452355579292655e-13,2.0839798707072169e-13,1.0140122367667398e-13,5.6207570556775354e-14
0.0,52,52.0,0.0,30.0,0.0,0.0,0.0,0.0,-13.0,0.0,2.0,0.0,0.0,0.0,3.2606091933617176e-11,1.826129205153465e-11,1.0023301617819657e-11,5.3165360705854304e-12,2.683290405407748e-12,1.306692340922578e-12,6.374174979869322e-13,3.249197604692502e-13,1.8453865472164631e-13,1.1879538754945312e-13,8.542544264998661e-14,6.373165589039891e-14,4.832658318091757e-14,3.6443707783721346e-14,2.7108052785479252e-14,1.9996490942339598e-14,1.4437823967157237e-14,1.3601249231111614e-09,1.1016610919934215e-09,8.40942118341389e-10,5.952157651982294e-10,4.1015842442710523e-10,2.7776314025709715e-10,1.897003402270031e-10,1.2685320504424394e-10,8.356643103817779e-11,5.402301887318341e-11,3.4212949534353364e-11,2.1340480117592403e-11,1.2822957431926854e-11,7.3508165921215e-12,4.023344182962405e-12,2.061903577582966e-12,9.996129256050977e-13,4.628476374481131e-13,2.1507278665986541e-13,1.0306768979823318e-13,5.5949829511314196e-14
0.0,53,53.0,0.0,30.0,0.0,0.0,0.0,0.0,-13.0,0.0,2.0,0.0,0.0,0.0,3.291211692800859e-11,1.847137240291286e-11,1.0181456674437917e-11,5.431241316448992e-12,2.7571402141219055e-12,1.3474450010517981e-12,6.558612416779636e-13,3.3061268978281596e-13,1.8431050309978802e-13,1.164836366406715e-13,8.281270003096545e-14,6.144963316573878e-14,4.648542288016375e-14,3.5022433047416627e-14,2.603148050619902e-14,1.920054791795945e-14,1.3863930462367251e-14,1.3820560728169989e-09,1.118747964467285e-09,8.533483278618063e-10,6.034359130888444e-10,4.1542974342695676e-10,2.8106921304843806e-10,1.9179419909907167e-10,1.281459197832812e-10,8.43546035278897e-11,5.4507187820393743e-11,3.4529038464620115e-11,2.1570991355267998e-11,1.3003768770912221e-11,7.491640229523795e-12,4.1256100664448e-12,2.128181560635441e-12,1.037313129473265e-12,4.810449195275682e-13,2.2222953021057464e-13,1.0506549785853071e-13,5.5868548442973004e-14
0.0,54,54.0,0.0,30.0,0.0,0.0,0.0,0.0,-13.0,0.0,2.0,0.0,0.0,0.0,3.321338980328546e-11,1.8674049309506208e-11,1.0333220200129278e-11,5.5422972922750176e-12,2.829836528190385e-12,1.388439468821141e-12,6.750087826917921e-13,3.3698179210852e-13,1.8457272370873145e-13,1.1448762580686545e-13,8.040427126281574e-14,5.930670857177655e-14,4.474526800929779e-14,3.367669024379294e-14,2.501051952805656e-14,1.8445077520356593e-14,1.3318668356788426e-14,1.4044203481490594e-09,1.1361583664947445e-09,8.65977145270166e-10,6.117933997752868e-10,4.2078245383969974e-10,2.844220402498619e-10,1.939151935037203e-10,1.2945368449056369e-10,8.514977207396289e-11,5.4991779597077476e-11,3.4840227811843974e-11,2.179369385139231e-11,1.3176796955612909e-11,7.62681093289636e-12,4.224881767702631e-12,2.193517264867263e-12,1.0751671853812669e-12,4.997558748696458e-13,2.298369287345707e-13,1.0738218220049625e-13,5.5959493586862675e-14
0.0,55,55.0,0.0,30.0,0.0,0.0,0.0,0.0,-13.0,0.0,2.0,0.0,0.0,0.0,3.351084948837856e-11,1.8870069845006623e-11,1.0478922359743818e-11,5.649707325086646e-12,2.9012498799344336e-12,1.4295452331354883e-12,6.94773324494379e-13,3.4398093947378093e-13,1.8530321054627448e-13,1.1279588543843222e-13,7.819196448566625e-14,5.729587422869414e-14,4.310031564756327e-14,3.240191872066533e-14,2.4041809888742412e-14,1.772767442914581e-14,1.280035554472333e-14,1.427227865893688e-09,1.153899541881429e-09,8.788332979780826e-10,6.202909556008394e-10,4.262180829282529e-10,2.8782244666071193e-10,1.9606376422910064e-10,1.3077680390411317e-10,8.595239738934827e-11,5.547758692167463e-11,3.5147523779507985e-11,2.200948509802748e-11,1.3342582367973074e-11,7.75649712167953e-12,4.321102378276171e-12,2.2577808378960715e-12,1.1130621269756572e-12,5.189108535148051e-13,2.3786351990657977e-13,1.1000454764010738e-13,5.621846312977036e-14
0.0,56,56.0,0.0,30.0,0.0,0.0,0.0,0.0,-13.0,0.0,2.0,0.0,0.0,0.0,3.3805338542762354e-11,1.9060143253359507e-11,1.0618905209063099e-11,5.7535013273152975e-12,2.9712709245603227e-12,1.4706420359804981e-12,7.150718108838605e-13,3.5156481333880165e-13,1.8648005045502086e-13,1.1139733919553945e-13,7.616818034571691e-14,5.541071775151359e-14,4.154522584898988e-14,3.119389171732585e-14,2.312222744997639e-14,1.7046097829403023e-14,1.2307421966446644e-14,1.4504890096033691e-09,1.1719789171642558e-09,8.919216263110277e-10,6.289313695445875e-10,4.317381855389657e-10,2.9127127311161455e-10,1.982403608666342e-10,1.3211556248942758e-10,8.676286598612515e-11,5.5965285282685634e-11,3.5451822694986923e-11,2.221920338229588e-11,1.3501660603460307e-11,7.880890550329591e-12,4.414240487943562e-12,2.320859237435352e-12,1.1508928047102527e-12,5.384423615546662e-13,2.4627783095959013e-13,1.1291874429855977e-13,5.6641243298748317e-14
0.0,57,57.0,0.0,30.0,0.0,0.0,0.0,0.0,-13.0,0.0,2.0,0.0,0.0,0.0,3.409760995214155e-11,1.924493863620869e-11,1.0753517675169284e-11,5.853732488855702e-12,3.0398091908397083e-12,1.5116196681294623e-12,7.358250433136401e-13,3.5968902034918685e-13,1.8808152925447872e-13,1.1028123312331249e-13,7.432583328136583e-14,5.364536415112091e-14,4.00750843522072e-14,3.0048691309209346e-14,2.2248865768705445e-14,1.6398258821159344e-14,1.1838401326908904e-14,1.4742144374243537e-09,1.1904041065587294e-09,9.052470864258239e-10,6.377174911028715e-10,4.373443449499472e-10,2.9476937589582033e-10,2.0044544263305413e-10,1.334702319524115e-10,8.758150549562781e-11,5.645544921393286e-11,3.575391969756447e-11,2.2423627340972885e-11,1.3654557526747893e-11,8.000201783251575e-12,4.504287797203958e-12,2.3826554675209953e-12,1.188561889860109e-12,5.582852956765872e-13,2.5504853080026953e-13,1.161103562433037e-13,5.72235701620105e-14
0.0,58,58.0,0.0,30.0,0.0,0.0,0.0,0.0,-13.0,0.0,2.0,0.0,0.0,0.0,3.438833409413584e-11,1.942508360104868e-11,1.088311116745496e-11,5.950474145861566e-12,3.1067918176731098e-12,1.552377715935078e-12,7.569577637981316e-13,3.6831019949526835e-13,1.900861475023446e-13,1.0943707830504555e-13,7.265828160165909e-14,5.199442222171072e-14,3.8685368043639373e-14,2.8962685443847836e-14,2.141901957291284e-14,1.5782208895584783e-14,1.1391923487987826e-14,1.49841509021071e-09,1.2091829170974356e-09,9.188147532780085e-10,6.466522321023449e-10,4.4303817380042375e-10,2.9831762637713183e-10,2.0267947865437127e-10,1.3484107680446835e-10,8.840859734591772e-11,5.6948566899622913e-11,3.605451747437192e-11,2.262347649633164e-11,1.380178519075225e-11,8.114656047677966e-12,4.5912567887100006e-12,2.44308776681867e-12,1.2259798207703506e-12,5.783771382531637e-13,2.6414457004692104e-13,1.1956449961520718e-13,5.796109735867613e-14
0.0,59,59.0,0.0,30.0,0.0,0.0,0.0,0.0,-13.0,0.0,2.0,0.0,0.0,0.0,3.467810570479514e-11,1.9601163724781822e-11,1.1008035785529465e-11,6.043816837110396e-12,3.172162288681043e-12,1.5928252672030235e-12,7.783987065168751e-13,3.773861193277133e-13,1.9247264325030445e-13,1.0885460536560856e-13,7.115926574596901e-14,5.045293517334306e-14,3.73719129264388e-14,2.7932506842641063e-14,2.0630169684827072e-14,1.5196129383534432e-14,1.0966707473966327e-14,1.5231021999277728e-09,1.2283233539659557e-09,9.32629823661585e-10,6.557385684609164e-10,4.488213150652496e-10,3.0191691077199574e-10,2.049429479227769e-10,1.3622835840804191e-10,8.924438716058559e-11,5.7445053159224035e-11,3.635423485602857e-11,2.2819412586380215e-11,1.394383854513831e-11,8.224489464322688e-12,4.675178473257759e-12,2.5020887615386465e-12,1.2630646990256458e-12,5.986581158970525e-13,2.7353530833217827e-13,1.23265926330483e-13,5.884936983347215e-14
0.0,60,60.0,0.0,30.0,0.0,0.0,0.0,0.0,-13.0,0.0,2.0,0.0,0.0,0.0,3.4967450712652466e-11,1.977372269857873e-11,1.112863708654988e-11,6.133865555414281e-12,3.2358791754492403e-12,1.632880583277561e-12,8.000806212225313e-13,3.868757644290245e-13,1.952200195731758e-13,1.0852372924817547e-13,6.982285411383536e-14,4.9016335285126825e-14,3.6130884383921694e-14,2.695503357026612e-14,1.987996924890614e-14,1.4638321790942117e-14,1.0561555036111091e-14,1.548287298349157e-09,1.2478336260404823e-09,9.466976193385415e-10,6.649795419140691e-10,4.5469544304898205e-10,3.055681300902816e-10,2.072363390752096e-10,1.3763233785241613e-10,9.008909321286951e-11,5.7945260893042453e-11,3.6653615127417464e-11,2.3012041521862916e-11,1.4081192859148975e-11,8.329945650795991e-12,4.756100223441092e-12,2.559604594068091e-12,1.2997421424658394e-12,6.19071324472459e-13,2.8319062871068753e-13,1.2719912990987533e-13,5.988380352031928e-14
0.0,61,61.0,0.0,30.0,0.0,0.0,0.0,0.0,-13.0,0.0,2.0,0.0,0.0,0.0,3.525683283827714e-11,1.994326303181444e-11,1.124525337190807e-11,6.220737198514645e-12,3.297914898706311e-12,1.6724707436835653e-12,8.219402714644486e-13,3.967394107810692e-13,1.9830757502865214e-13,1.0843452280686229e-13,6.864339585863686e-14,4.768040236597079e-14,3.495874955742633e-14,2.6027371098955486e-14,1.9166231135559283e-14,1.410719894292235e-14,1.0175344727399373e-14,1.5739822260526176e-09,1.2677221516301105e-09,9.61023590270946e-10,6.74378261723616e-10,4.6066226438257424e-10,3.0927220021296606e-10,2.095601500952372e-10,1.390532779421403e-10,9.094291323629296e-11,5.84494910901481e-11,3.69531339467203e-11,2.3201915821631425e-11,1.4214301783914205e-11,8.431272688587452e-12,4.834083705746856e-12,2.6155940371867886e-12,1.3359451012719873e-12,6.395628235267307e-13,2.930810393842456e-13,1.313484504801791e-13,6.105967080051876e-14
0.0,62,62.0,0.0,30.0,0.0,0.0,0.0,0.0,-13.0,0.0,2.0,0.0,0.0,0.0,3.554665988407809e-11,2.011024720497604e-11,1.135821345163213e-11,6.3045582211700986e-12,3.3582545154994445e-12,1.7115312689617556e-12,8.439184104849457e-13,4.0693869000928044e-13,2.017149355423009e-13,1.0857719788079526e-13,6.761548004899238e-14,4.644122581790314e-14,3.3852251683278715e-14,2.5146835716092242e-14,1.8486916403877654e-14,1.3601276865736566e-14,9.80702644348315e-15,1.600199141721791e-09,1.2879975644267997e-09,9.75613317965264e-10,6.839379063845992e-10,4.667235190124744e-10,3.1303005208298447e-10,2.1191488800501075e-10,1.4049144452332425e-10,9.18060298594083e-11,5.895800151286748e-11,3.725320679785081e-11,2.3389537396760845e-11,1.434359598100511e-11,8.528720440901398e-12,4.909202919689306e-12,2.670027602626237e-12,1.3716136427089879e-12,6.600817030075907e-13,3.031777632204762e-13,1.356981764869348e-13,6.237209145677374e-14
0.0,63,63.0,0.0,30.0,0.0,0.0,0.0,0.0,-13.0,0.0,2.0,0.0,0.0,0.0,3.5837289661786064e-11,2.0275099173528658e-11,1.1467834844186764e-11,6.385462487700746e-12,3.41689453933081e-12,1.750005726715105e-12,8.659597374583456e-13,4.1743664273858603e-13,2.054220865110788e-13,1.089420926411953e-13,6.673390061707688e-14,4.529517010215166e-14,3.280838625469578e-14,2.4310939143729262e-14,1.7840123717899875e-14,1.3119167341305087e-14,9.455616389805025e-15,1.6269505317618065e-09,1.3086687196657713e-09,9.904725189356744e-10,6.936617253441934e-10,4.728809811772872e-10,3.168426319863629e-10,2.1430106858863503e-10,1.4194710732529695e-10,9.267861489926472e-11,5.947101417819309e-11,3.7554195928175004e-11,2.357536057171379e-11,1.4469482246681328e-11,8.622538205740089e-12,4.981542350553943e-12,2.7228866517442864e-12,1.4066947095435834e-12,6.80580124987833e-13,3.1345281572025265e-13,1.4023264114475792e-13,6.381602876835466e-14
