Line_number,Fiducial,Easting,Northing,Height,Elevation,tx_pitch,tx_roll,tx_yaw,txrx_dx,txrx_dy,txrx_dz,rx_pitch,rx_roll,rx_yaw,S0Z_time_3.834e-04,S0Z_time_3.924e-04,S0Z_time_4.039e-04,S0Z_time_4.184e-04,S0Z_time_4.364e-04,S0Z_time_4.589e-04,S0Z_time_4.869e-04,S0Z_time_5.224e-04,S0Z_time_5.679e-04,S0Z_time_6.249e-04,S0Z_time_6.969e-04,S0Z_time_7.879e-04,S0Z_time_9.019e-04,S0Z_time_1.046e-03,S0Z_time_1.227e-03,S0Z_time_1.456e-03,S0Z_time_1.744e-03,S0Z_time_2.109e-03,S0Z_time_2.567e-03,S0Z_time_3.145e-03,S0Z_time_3.864e-03,S0Z_time_4.745e-03,S0Z_time_5.821e-03,S0Z_time_7.140e-03,S0Z_time_8.754e-03,S0Z_time_1.073e-02,S1Z_time_2.057e-05,S1Z_time_2.607e-05,S1Z_time_3.307e-05,S1Z_time_4.206e-05,S1Z_time_5.356e-05,S1Z_time_6.807e-05,S1Z_time_8.607e-05,S1Z_time_1.086e-04,S1Z_time_1.366e-04,S1Z_time_1.721e-04,S1Z_time_2.176e-04,S1Z_time_2.746e-04,S1Z_time_3.466e-04,S1Z_time_4.376e-04,S1Z_time_5.516e-04,S1Z_time_6.956e-04,S1Z_time_8.771e-04,S1Z_time_1.106e-03,S1Z_time_1.394e-03
0.0,0,0.0,0.0,30.0,0.0,0.0,0.0,0.0,-13.0,0.0,2.0,0.0,0.0,0.0,5.897904721254119e-11,4.9250560765109094e-11,4.01598805726255e-11,3.2053122375653316e-11,2.4983799992403745e-11,1.9173703982971976e-11,1.4476380603165169e-11,1.0686574594553945e-11,7.699519855553783e-12,5.44354561082755e-12,3.7788877960043055e-12,2.5683256743909085e-12,1.7164159067371655e-12,1.1251729954695155e-12,7.205377979475699e-13,4.534894780604054e-13,2.793561406145511e-13,1.6944170425014704e-13,9.96456664185616e-14,5.783917433858548e-14,3.274037205717919e-14,1.8773764518513757e-14,1.039016593497566e-14,5.83448474692232e-15,3.1410274278868134e-15,1.8824090799543253e-15,6.008084891523916e-09,3.445580898127813e-09,2.0535612122448e-09,1.2225632473957374e-09,7.118929312561683e-10,4.0707712175781706e-10,2.314115096882157e-10,1.305907446555984e-10,7.349710723471774e-11,4.114804450798208e-11,2.2768274706887053e-11,1.2636769958939943e-11,7.0013989621713115e-12,3.8365833115810166e-12,2.0975914751124475e-12,1.12666429350285e-12,5.965289359206152e-13,3.154197400164183e-13,1.597729542888123e-13
0.0,1,1.0,0.0,30.0,0.0,0.0,0.0,0.0,-13.0,0.0,2.0,0.0,0.0,0.0,5.8170249777945827e-11,4.843852774102427e-11,3.937031245360875e-11,3.1313681763070314e-11,2.4319362341176075e-11,1.8600670916399093e-11,1.4001924442978937e-11,1.0312138485774858e-11,7.418163915076238e-12,5.240350368208901e-12,3.637935142819681e-12,2.4742837471130217e-12,1.6555644667371459e-12,1.0870202313349497e-12,6.973090942220985e-13,4.3979935096172967e-13,2.7143246139101757e-13,1.6501488556152297e-13,9.720102581423914e-14,5.6544074741123413e-14,3.205563241401849e-14,1.8425290921056883e-14,1.0204096821785717e-14,5.742691006893778e-15,3.0893029645667566e-15,1.8625542295963678e-15,6.015620312061559e-09,3.4560577410960073e-09,2.0638155247997613e-09,1.2299528814407324e-09,7.156957444727505e-10,4.081013343618843e-10,2.3088050594685344e-10,1.294540105587548e-10,7.232154934512675e-11,4.019225865753887e-11,2.2092546917039247e-11,1.22015632495457e-11,6.740069394024346e-12,3.68775782986308e-12,2.0165011230269557e-12,1.0838279964837827e-12,5.747786113947715e-13,3.047714855403765e-13,1.5445224104600436e-13
0.0,2,2.0,0.0,30.0,0.0,0.0,0.0,0.0,-13.0,0.0,2.0,0.0,0.0,0.0,5.743260343119316e-11,4.7696222775567784e-11,3.8646286309401537e-11,3.063297334821186e-11,2.37049533964501e-11,1.8068281651173288e-11,1.3559040015887856e-11,9.96100356014663e-12,7.153164154995566e-12,5.048225498151246e-12,3.5042036500799175e-12,2.3847753557430496e-12,1.5974762400656932e-12,1.050495646057489e-12,6.750106754678632e-13,4.266190819664102e-13,2.637847392508773e-13,1.6072964281478195e-13,9.482939150203828e-14,5.528397662970927e-14,3.1388021807032356e-14,1.8084572709386527e-14,1.0022134354702599e-14,5.6525414376844005e-15,3.0386260266639997e-15,1.8426411329749993e-15,6.022875391987583e-09,3.465795721015976e-09,2.073122566606306e-09,1.2365925046256384e-09,7.191336495486938e-10,4.090718030372974e-10,2.3044967396895875e-10,1.2845550222710093e-10,7.126510346724712e-11,3.9319979610324805e-11,2.1468476021294628e-11,1.1795865350288694e-11,6.494708322394767e-12,3.5472981930253365e-12,1.939618178221653e-12,1.043074081113562e-12,5.540163544920504e-13,2.9456601168218777e-13,1.493511582099429e-13
0.0,3,3.0,0.0,30.0,0.0,0.0,0.0,0.0,-13.0,0.0,2.0,0.0,0.0,0.0,5.675517544372619e-11,4.7013879971554084e-11,3.797947424137607e-11,3.000426491819339e-11,2.313541633819961e-11,1.757276156503866e-11,1.3145065504776342e-11,9.631371450461339e-12,6.903348869636511e-12,4.866424669973548e-12,3.3772296075354416e-12,2.299524308750921e-12,1.5419908933950463e-12,1.0155100766594425e-12,6.535947140563598e-13,4.139241745426942e-13,2.564006776220332e-13,1.5658012579734223e-13,9.252799112077936e-14,5.405766851909887e-14,3.073701564573345e-14,1.7751390130515335e-14,9.84415529775446e-15,5.564007255594914e-15,2.9889753691139695e-15,1.8226984421042542e-15,6.029978979650528e-09,3.474970194779241e-09,2.081634096238419e-09,1.2425586958137958e-09,7.222117169261614e-10,4.099577703891717e-10,2.30082998716552e-10,1.275675047688095e-10,7.031034481887186e-11,3.852162452397939e-11,2.0891205191318203e-11,1.1417276480175415e-11,6.264152105443334e-12,3.4146304505676553e-12,1.866671090568021e-12,1.0042765545622285e-12,5.341847913334457e-13,2.847799336945543e-13,1.4445859378516905e-13
0.0,4,4.0,0.0,30.0,0.0,0.0,0.0,0.0,-13.0,0.0,2.0,0.0,0.0,0.0,5.61285777498479e-11,4.638299670263904e-11,3.736252433626346e-11,2.9421532909484824e-11,2.2606082517482236e-11,1.7110662297140314e-11,1.2757556253460655e-11,9.321587070026185e-12,6.667640596873197e-12,4.694262336712821e-12,3.2565873029613357e-12,2.2182764397653117e-12,1.488960514067975e-12,9.819809311665252e-13,6.330166756895566e-13,4.016917481767442e-13,2.49268701969172e-13,1.5256082229631903e-13,9.029418862419118e-14,5.2863998013873635e-14,3.010210826316021e-14,1.7425532639511078e-14,9.670041578742231e-15,5.4770599411811795e-15,2.940329763781579e-15,1.8027575415294027e-15,6.037030321209771e-09,3.483718805630975e-09,2.089475419313983e-09,1.247921286092844e-09,7.24941482196325e-10,4.107380735882417e-10,2.2975179973509816e-10,1.267665121130851e-10,6.944188637144509e-11,3.778849903640927e-11,2.0356264811350356e-11,1.1063586011859394e-11,6.047330771316606e-12,3.289228809980352e-12,1.7974112064535282e-12,9.673192331825614e-13,5.152310214815653e-13,2.7539161946620293e-13,1.3976401726222338e-13
0.0,5,5.0,0.0,30.0,0.0,0.0,0.0,0.0,-13.0,0.0,2.0,0.0,0.0,0.0,5.554476091780399e-11,4.5796186221339226e-11,3.6788963072342165e-11,2.8879402137632238e-11,2.2112734589771065e-11,1.6678837454278366e-11,1.2394266553879908e-11,9.030124506541353e-12,6.445045514690629e-12,4.5311065765964215e-12,3.141884596243855e-12,2.1407971725632102e-12,1.4382482988876504e-12,9.498315296550719e-13,6.132350182010244e-13,3.899003921273423e-13,2.423779058642267e-13,1.486665306234372e-13,8.812547589691883e-14,5.170186772440006e-14,2.9482812333765745e-14,1.7106798281357375e-14,9.499680012242045e-15,5.3916712574565405e-15,2.8926680258337894e-15,1.782850930624288e-15,6.044107092668342e-09,3.49215004450311e-09,2.096749557446288e-09,1.2527425513304525e-09,7.273380913746814e-10,4.1139874033565973e-10,2.294334344494347e-10,1.260327187307583e-10,6.864622206769069e-11,3.711275001549675e-11,1.9859548329669832e-11,1.0732753577201529e-11,5.843256776645243e-12,3.1706098619114326e-12,1.7316100044834531e-12,9.320947308254793e-13,4.971061568643916e-13,2.6638100284106217e-13,1.352574490408919e-13
0.0,6,6.0,0.0,30.0,0.0,0.0,0.0,0.0,-13.0,0.0,2.0,0.0,0.0,0.0,5.499682867978141e-11,4.5247040504508696e-11,3.6253101511945995e-11,2.8373086552415288e-11,2.1651570610604232e-11,1.627442015581587e-11,1.2053133993976808e-11,8.75557541267749e-12,6.234644781198488e-12,4.376373153202633e-12,3.032759167821347e-12,2.066869429128664e-12,1.3897274155163839e-12,9.189905290562873e-13,5.942109243532042e-13,3.7853003546163585e-13,2.357180020731026e-13,1.4489233494828694e-13,8.601946506453426e-14,5.0570231503536166e-14,2.887865827893753e-14,1.6794993129154842e-14,9.33296204369458e-15,5.3078132640460636e-15,2.8459690398706613e-15,1.7630108815670849e-15,6.051271027451373e-09,3.500349733356942e-09,2.1035409609437445e-09,1.2570771988822704e-09,7.294183840577418e-10,4.1193111423950074e-10,2.2911017529531307e-10,1.2534952911574027e-10,6.791155817909264e-11,3.6487314182448e-11,1.9397290748554166e-11,1.0422894088799428e-11,5.651016017091007e-12,3.0583277123235062e-12,1.66905675584013e-12,8.985035797244984e-13,4.797649158620376e-13,2.5772941949565594e-13,1.3092943825003898e-13
0.0,7,7.0,0.0,30.0,0.0,0.0,0.0,0.0,-13.0,0.0,2.0,0.0,0.0,0.0,5.44788741488584e-11,4.473000550659515e-11,3.574994733368481e-11,2.7898332206056945e-11,2.1219169239347758e-11,1.5894801869134123e-11,1.173226556777552e-11,8.496639214180837e-12,6.035587374905077e-12,4.229520560310601e-12,2.9288753309032056e-12,1.9962918251164826e-12,1.3432800105102224e-12,8.893914193152503e-13,5.75908064217665e-13,3.6756183143848515e-13,2.292792779575171e-13,1.412335831338071e-13,8.397388140235363e-14,4.946809099092034e-14,2.828919366223033e-14,1.6489930772840347e-14,9.169783511493366e-15,5.225458328568812e-15,2.8002117878126617e-15,1.7432683761244253e-15,6.058571913132171e-09,3.5083859367515685e-09,2.109918682449852e-09,1.2609727744972916e-09,7.311996372499047e-10,4.123304157220636e-10,2.2876826143192608e-10,1.2470310335188517e-10,6.722764183897641e-11,3.590586339219383e-11,1.8966048327429826e-11,1.0132265511814749e-11,5.469760571049557e-12,2.951969879473716e-12,1.6095565386089918e-12,8.664534611713015e-13,4.631652661603961e-13,2.494194631828134e-13,1.2677104462437645e-13
0.0,8,8.0,0.0,30.0,0.0,0.0,0.0,0.0,-13.0,0.0,2.0,0.0,0.0,0.0,5.398583710396067e-11,4.424026955464124e-11,3.527512388274798e-11,2.745136334384393e-11,2.0812456344158187e-11,1.553761230133735e-11,1.1429925044169895e-11,8.25211464656218e-12,5.847084088082939e-12,4.090045859912735e-12,2.8299213148875087e-12,1.9288771077585734e-12,1.2987963423353757e-12,8.609720804355635e-13,5.582923833848829e-13,3.569780545309732e-13,2.230525546623888e-13,1.3768586678978032e-13,8.198655676585951e-14,4.839449244764191e-14,2.771398257857675e-14,1.6191431852803843e-14,9.010044424331103e-15,5.144579136014537e-15,2.755375379472243e-15,1.7236523096168523e-15,6.06605046573423e-09,3.516312694171451e-09,2.115939029468192e-09,1.2644702673962582e-09,7.326987670431303e-10,4.1259464992932755e-10,2.2839711177549054e-10,1.2408194795777836e-10,6.658559361117634e-11,3.536274800728736e-11,1.8562678777191684e-11,9.859258530239113e-12,5.2987027638309554e-12,2.8511538323501975e-12,1.5529285477247714e-12,8.358585287443227e-13,4.472681103995513e-13,2.414348601811215e-13,1.2277382172368383e-13
0.0,9,9.0,0.0,30.0,0.0,0.0,0.0,0.0,-13.0,0.0,2.0,0.0,0.0,0.0,5.3513380778762155e-11,4.377366468872112e-11,3.482479674166426e-11,2.702883221210305e-11,2.042867330290785e-11,1.520070028034009e-11,1.1144521288892556e-11,8.020892275565033e-12,5.668402405494831e-12,3.9574811573917595e-12,2.735606942096137e-12,1.8644507993641613e-12,1.256174021310767e-12,8.336743916207242e-13,5.413319137698463e-13,3.467620085714412e-13,2.1702914967972197e-13,1.342450032890966e-13,8.005542347959741e-14,4.734852386073901e-14,2.7152605042253537e-14,1.5899323633492304e-14,8.8536487518684e-15,5.065148696632395e-15,2.7114390856659247e-15,1.7041889385735243e-15,6.073740420058005e-09,3.524172868946588e-09,2.1216477536462e-09,1.2676047852819602e-09,7.339318433851475e-10,4.1272378544268153e-10,2.279886799938812e-10,1.2347655498646335e-10,6.597774880089128e-11,3.485293991137765e-11,1.8184321668652335e-11,9.602387504060332e-12,5.137110229001512e-12,2.7555240631310143e-12,1.499004652252617e-12,8.066388107292253e-13,4.3203700919048146e-13,2.33760359830491e-13,1.1892979994296052e-13
0.0,10,10.0,0.0,30.0,0.0,0.0,0.0,0.0,-13.0,0.0,2.0,0.0,0.0,0.0,5.3057786164067924e-11,4.3326580200688587e-11,3.43956078462228e-11,2.662777289791722e-11,2.0065347231055876e-11,1.48821156356961e-11,1.0874597361504862e-11,7.801947762790711e-12,5.498862064988278e-12,3.831390587724904e-12,2.64566163225693e-12,1.8028500157928345e-12,1.2153173413749912e-12,8.074438851581167e-13,5.249966042149012e-13,3.368979446737101e-13,2.1120084246193454e-13,1.3090701952142778e-13,7.817850863356595e-14,4.6329312295571377e-14,2.6604656378452343e-14,1.5613439612882857e-14,8.700504227301294e-15,4.987140352863709e-15,2.668382373075212e-15,1.6849015407647572e-15,6.0816700645064006e-09,3.532000333986201e-09,2.1270818454819174e-09,1.2704062279438709e-09,7.349138162137617e-10,4.1271914141646836e-10,2.2753693059939805e-10,1.22879088451136e-10,6.539751038667876e-11,3.43719765374537e-11,1.7828379036427256e-11,9.360282308807122e-12,4.984301717897066e-12,2.6647496007713614e-12,1.4476281598222947e-12,7.787196810784576e-13,4.1743793667536127e-13,2.2638163912798636e-13,1.1523146855600544e-13
0.0,11,11.0,0.0,30.0,0.0,0.0,0.0,0.0,-13.0,0.0,2.0,0.0,0.0,0.0,5.261586172212141e-11,4.289588733699271e-11,3.3984616859144394e-11,2.624555929277449e-11,1.9720263283381535e-11,1.4580092114754893e-11,1.0618820287506302e-11,7.594335714017908e-12,5.337831147271831e-12,3.711367711561129e-12,2.559832679654817e-12,1.7439224341705456e-12,1.1761366909839686e-12,7.822294388967091e-13,5.092581684647065e-13,3.273709877409e-13,2.0555984281186088e-13,1.2766813718779847e-13,7.635392874706699e-14,4.5336021474637313e-14,2.6069746622730646e-14,1.5333619164109673e-14,8.550522160633998e-15,4.91052778545272e-15,2.6261849397423654e-15,1.6658102529049916e-15,6.0898633768411445e-09,3.5398216576067277e-09,2.1322710008028586e-09,1.272899922127898e-09,7.356583822364591e-10,4.125829336054986e-10,2.2703741621994534e-10,1.2228311491022731e-10,6.483921503742295e-11,3.391590699980907e-11,1.749249629122236e-11,9.13168079291574e-12,4.839643469018098e-12,2.578521886401137e-12,1.3986527545995867e-12,7.520313901623188e-13,4.0343906440709354e-13,2.1928521950045684e-13,1.1167175655349395e-13
0.0,12,12.0,0.0,30.0,0.0,0.0,0.0,0.0,-13.0,0.0,2.0,0.0,0.0,0.0,5.218486647928762e-11,4.247887401718143e-11,3.35892493279143e-11,2.5879867110446312e-11,1.9391439095200524e-11,1.4293031367491398e-11,1.0375971451104208e-11,7.397184001029155e-12,5.184722581570288e-12,3.5970332407305126e-12,2.4778837568810567e-12,1.6875253880517587e-12,1.1385480323981987e-12,7.579830021645802e-13,4.940899484141361e-13,3.1816707050827177e-13,2.0009876181255926e-13,1.2452475946344015e-13,7.45798847671127e-14,4.4367849561499297e-14,2.55474999319905e-14,1.5059707206386905e-14,8.40361726198737e-15,4.835285019008722e-15,2.584826750084579e-15,1.6469320501869898e-15,6.098340869458492e-09,3.547657410589261e-09,2.137238817877245e-09,1.2751072003233967e-09,7.361779435821733e-10,4.1231794069536385e-10,2.2648693820882385e-10,1.216833739372522e-10,6.42980126549902e-11,3.348124111169002e-11,1.717454360449858e-11,8.91542169023437e-12,4.702545997534874e-12,2.496552943779922e-12,1.3519415805800256e-12,7.26508647929347e-13,3.90010569880006e-13,2.124583940496542e-13,1.0824401235567644e-13
0.0,13,13.0,0.0,30.0,0.0,0.0,0.0,0.0,-13.0,0.0,2.0,0.0,0.0,0.0,5.176244462382231e-11,4.207318841293921e-11,3.320725105701853e-11,2.5528639780026627e-11,1.9077101360243642e-11,1.401948801860874e-11,1.0144937578542058e-11,7.209688484087316e-12,5.038990983809448e-12,3.4880330297041097e-12,2.399593606844787e-12,1.6335250714798622e-12,1.1024724402160405e-12,7.346593507870884e-13,4.794667908123469e-13,3.0927287419995413e-13,1.948105850856803e-13,1.2147345887898594e-13,7.285465737541773e-14,4.3424027130062666e-14,2.5037554009841095e-14,1.4791553902503747e-14,8.25970747423394e-15,4.761386427094878e-15,2.5442880683008837e-15,1.628280834064249e-15,6.107120220554281e-09,3.555523184619858e-09,2.142003775144839e-09,1.2770459175894593e-09,7.364836249249186e-10,4.119272612540423e-10,2.2588327521924844e-10,1.2107558381636293e-10,6.376975918846805e-11,3.3064901790852984e-11,1.6872597932809643e-11,8.710437894057554e-12,4.5724612030487155e-12,2.4185737894616564e-12,1.307366446490743e-12,7.020902531156802e-13,3.771244665424061e-13,2.0588916376082706e-13,1.0494198265538491e-13
0.0,14,14.0,0.0,30.0,0.0,0.0,0.0,0.0,-13.0,0.0,2.0,0.0,0.0,0.0,5.134656993494238e-11,4.167679028810304e-11,3.283664808982696e-11,2.51900579675294e-11,1.8775664489737358e-11,1.3758155826844812e-11,9.924702293280091e-12,7.03110808635075e-12,4.9001297663945165e-12,3.3840362832463385e-12,2.324754891324137e-12,1.5817958361303489e-12,1.0678356913259664e-12,7.12215867533783e-13,4.653649358529613e-13,3.0067577499481606e-13,1.8968864818479256e-13,1.1851096628738476e-13,7.117660258230447e-14,4.2503815300996306e-14,2.4539559548397752e-14,1.4529014380430664e-14,8.118713814593929e-15,4.688806736893661e-15,2.504549489223509e-15,1.6098675980536933e-15,6.116216745555966e-09,3.5634303895191676e-09,2.1465800309981173e-09,1.2787309068928792e-09,7.365853263735418e-10,4.114141386649112e-10,2.2522496681898057e-10,1.2045627785675644e-10,6.325092202611987e-11,3.2664181122758136e-11,1.6584925827040214e-11,8.515750043794043e-12,4.448879722759861e-12,2.3443330374068886e-12,1.2648071323860127e-12,6.787187629388183e-13,3.6475445255491027e-13,1.9956618136187663e-13,1.0175979072371157e-13
0.0,15,15.0,0.0,30.0,0.0,0.0,0.0,0.0,-13.0,0.0,2.0,0.0,0.0,0.0,5.09354985772201e-11,4.128790908840417e-11,3.247571169989775e-11,2.4862512443269157e-11,1.848571125976503e-11,1.3507854913389566e-11,9.714338228171395e-12,6.860760187099063e-12,4.767668475144935e-12,3.2847339414634066e-12,2.2531731699469495e-12,1.532219568054103e-12,1.0345678995478003e-12,6.906123448615963e-13,4.5176191628800503e-13,2.9236379560158034e-13,1.8472661394599504e-13,1.156341608007234e-13,6.95441475892381e-14,4.1606504028663227e-14,2.4053179688232616e-14,1.427194847708777e-14,7.980560224603388e-15,4.6175210333619634e-15,2.465591966096582e-15,1.5917006457078586e-15,6.125643747993358e-09,3.5713868799336897e-09,2.1509780794733065e-09,1.2801743767335907e-09,7.364917968266727e-10,4.107818368698455e-10,2.245111414586985e-10,1.198226670151184e-10,6.273849701931937e-11,3.2276700169990235e-11,1.6309967138632976e-11,8.330460402645246e-12,4.331328478880253e-12,2.273595661497839e-12,1.224150781265021e-12,6.563401983675101e-13,3.5287577593241157e-13,1.9347870170616786e-13,9.869191452850292e-14
0.0,16,16.0,0.0,30.0,0.0,0.0,0.0,0.0,-13.0,0.0,2.0,0.0,0.0,0.0,5.05277289934771e-11,4.090500787186116e-11,3.2122927820044484e-11,2.454457999849557e-11,1.8205975329563423e-11,1.3267520026079322e-11,9.51299967958683e-12,6.698016310375996e-12,4.641170320931185e-12,3.189837212116046e-12,2.184665988212011e-12,1.4846851325394308e-12,1.002603189158287e-12,6.698108072695341e-13,4.3863646588578653e-13,2.8432556133656166e-13,1.7991845163023414e-13,1.1284006059385197e-13,6.795578690380542e-14,4.0731410523424835e-14,2.3578089497204797e-14,1.4020220502116163e-14,7.845173428240688e-15,4.547504762983112e-15,2.4273968346321405e-15,1.573785839343437e-15,6.1354127783375866e-09,3.579397449803189e-09,2.155205289300691e-09,1.2813862563498827e-09,7.362107176004731e-10,4.100335539488639e-10,2.2374138005835714e-10,1.1917252493023757e-10,6.222993607333499e-11,3.1900372482928006e-11,1.6046319699234962e-11,8.153747019978839e-12,4.219368385013487e-12,2.2061418867773576e-12,1.1852913617882774e-12,6.34903780620254e-13,3.414651140238545e-13,1.8761653772262943e-13,9.573316499006971e-14
0.0,17,17.0,0.0,30.0,0.0,0.0,0.0,0.0,-13.0,0.0,2.0,0.0,0.0,0.0,5.01219678114521e-11,4.0526752275340735e-11,3.177697037941066e-11,2.4235002116295437e-11,1.7935325499408993e-11,1.3036189794291546e-11,9.31991578636914e-12,6.54229809147752e-12,4.520229882127295e-12,3.0990762268348377e-12,2.1190620571023077e-12,1.439087877340588e-12,9.718794022861062e-13,6.497753509461087e-13,4.2596843620436956e-13,2.7655026017869166e-13,1.7525841770477914e-13,1.1012581448402116e-13,6.641007869269608e-14,3.987787779609258e-14,2.311397546907823e-14,1.3773699020012425e-14,7.712482797826226e-15,4.478733737042682e-15,2.389945833358935e-15,1.556126862861479e-15,6.145533821806744e-09,3.587464223749236e-09,2.159266348468541e-09,1.2823744942869807e-09,7.35748789649004e-10,4.09172363760971e-10,2.2291560812664266e-10,1.185040919305339e-10,6.172308420977288e-11,3.153337117348974e-11,1.5792725016829585e-11,7.98485817948862e-12,4.112592187577763e-12,2.1417661863430214e-12,1.1481291905297548e-12,6.143616950452259e-13,3.305004655580725e-13,1.8197002112397425e-13,9.287866465703753e-14
0.0,18,18.0,0.0,30.0,0.0,0.0,0.0,0.0,-13.0,0.0,2.0,0.0,0.0,0.0,4.971710084122226e-11,4.015198381317358e-11,3.1436678066870695e-11,2.393266611322997e-11,1.7672751570699696e-11,1.2812996921215895e-11,9.13438421384598e-12,6.393073507015593e-12,4.404470960047531e-12,3.0121988031203673e-12,2.0562005100993457e-12,1.3953291860073282e-12,9.423378358392786e-13,6.304719986978582e-13,4.1373872078265886e-13,2.690276063471045e-13,1.7074103812239344e-13,1.0748869420608494e-13,6.490564135904121e-14,3.9045273312250565e-14,2.2660535041854252e-14,1.3532256648816665e-14,7.582420227277594e-15,4.4111841343655745e-15,2.353221120008197e-15,1.5387254856721778e-15,6.1560154307507145e-09,3.5955869676896766e-09,2.1631636321437585e-09,1.2831453160371368e-09,7.351118201025653e-10,4.0820117829533795e-10,2.2203401069859346e-10,1.1781599502768802e-10,6.12161250330523e-11,3.11740993530944e-11,1.5548055002633933e-11,7.823107136664004e-12,4.01062242628599e-12,2.080276365801329e-12,1.1125705041895735e-12,5.946688789768241e-13,3.1996105371214847e-13,1.7652996719582586e-13,9.012382703223044e-14
0.0,19,19.0,0.0,30.0,0.0,0.0,0.0,0.0,-13.0,0.0,2.0,0.0,0.0,0.0,4.931216838125407e-11,3.977969689639942e-11,3.110103408873143e-11,2.3636588485602324e-11,1.7417351670563766e-11,1.2597159255014689e-11,8.95576532059978e-12,6.249853356015159e-12,4.29354457375356e-12,2.928969298035904e-12,1.9959302260793294e-12,1.3533160743257695e-12,9.139230042129695e-13,6.118685684061391e-13,4.019291859629857e-13,2.617478070080256e-13,1.6636109196784683e-13,1.0492608731142591e-13,6.344115033127615e-14,3.8232987745953136e-14,2.2217476136084138e-14,1.3295769873936634e-14,7.45492001245485e-15,4.344832503553749e-15,2.3172052841838947e-15,1.5215818184593567e-15,6.16686481333858e-09,3.6037633358533564e-09,2.1668975083114753e-09,1.2837034460901241e-09,7.343048054885608e-10,4.0712272521443905e-10,2.2109696549889162e-10,1.1710718133303162e-10,6.07075335953891e-11,3.082116370022386e-11,1.5311299719648077e-11,7.667867148603365e-12,3.913109503064573e-12,2.0214927211775278e-12,1.0785270738797785e-12,5.757828305749112e-13,3.0982723886252396e-13,1.712876430949784e-13,8.746433672548832e-14
0.0,20,20.0,0.0,30.0,0.0,0.0,0.0,0.0,-13.0,0.0,2.0,0.0,0.0,0.0,4.890634417212679e-11,3.9409019044650116e-11,3.076914853707264e-11,2.334590021485463e-11,1.716832090708128e-11,1.238797167779953e-11,8.783476783643322e-12,6.112187980295175e-12,4.187127083516861e-12,2.849167542564858e-12,1.9381092087506496e-12,1.3129608239751506e-12,8.865824245346306e-13,5.939345534796273e-13,3.9052260765328705e-13,2.5470153176968116e-13,1.6211359635254662e-13,1.0243549062764951e-13,6.201533505148413e-14,3.7440433823187424e-14,2.1784516712744402e-14,1.3064118875503829e-14,7.329918738117067e-15,4.2796557645884195e-15,2.2818813563634578e-15,1.5046945545355157e-15,6.1780878874393284e-09,3.611989067499881e-09,2.1704665926972633e-09,1.2840522992299232e-09,7.333320101091888e-10,4.0593953645325903e-10,2.2010499064929048e-10,1.1637686271554527e-10,6.019603573564489e-11,3.047335090580384e-11,1.5081556125685707e-11,7.518566797175495e-12,3.819729852331778e-12,1.9652472593360256e-12,1.0459158550018423e-12,5.576634360190557e-13,3.0008043984798566e-13,1.6623473918222457e-13,8.489613056023349e-14
0.0,21,21.0,0.0,30.0,0.0,0.0,0.0,0.0,-13.0,0.0,2.0,0.0,0.0,0.0,4.849891744027626e-11,3.9039193836534185e-11,3.04402430305192e-11,2.3059833808463628e-11,1.69249412276008e-11,1.218479875078319e-11,8.61698865621451e-12,5.979664212673524e-12,4.0849184341956144e-12,2.7725878479256814e-12,1.8826040150536596e-12,1.2741806484350085e-12,8.602664216442171e-13,5.76641013958582e-13,3.795026134179919e-13,2.4787988466867515e-13,1.5799379244788098e-13,1.0001450422241849e-13,6.062697615097456e-14,3.6667045246577123e-14,2.13613843505102e-14,1.2837187368236436e-14,7.207355171358319e-15,4.215631210010977e-15,2.2472328136873397e-15,1.4880611924881451e-15,6.1896893065044815e-09,3.6202581437143636e-09,2.1738679622922474e-09,1.2841941453692828e-09,7.321970387938704e-10,4.04653944780467e-10,2.1905870397361913e-10,1.1562446985731982e-10,5.968057305629389e-11,3.0129606740781387e-11,1.4858017770501667e-11,7.374685603841877e-12,3.7301842077561965e-12,1.9113829724288532e-12,1.0146586674184247e-12,5.402728127607539e-13,2.907030627235698e-13,1.613633429864383e-13,8.241537971724205e-14
0.0,22,22.0,0.0,30.0,0.0,0.0,0.0,0.0,-13.0,0.0,2.0,0.0,0.0,0.0,4.8089277561638176e-11,3.866956620896425e-11,3.0113637330923975e-11,2.2777711874567064e-11,1.6686572360645766e-11,1.1987068054929873e-11,8.455818831590941e-12,5.851902541580714e-12,3.986640511110958e-12,2.699038076879958e-12,1.8292892263598515e-12,1.2368973869631824e-12,8.349279503893533e-13,5.599604770917524e-13,3.688536293584551e-13,2.4127437838970875e-13,1.5399713255758167e-13,9.766082582177609e-14,5.927490280212822e-14,3.591227569385822e-14,2.0947815841769065e-14,1.2614862452317304e-14,7.087170160943478e-15,4.152736505409467e-15,2.213243582645256e-15,1.4716782381627798e-15,6.201672462721173e-09,3.6285629124095098e-09,2.1770973350026557e-09,1.2841302516786802e-09,7.309029037359143e-10,4.0326808601247847e-10,2.1795879154424172e-10,1.148496141544868e-10,5.916027279264128e-11,2.978901749554106e-11,1.4639965397546346e-11,7.235749931676112e-12,3.644195961919125e-12,1.8597531597955857e-12,9.846819015835128e-13,5.235751668395051e-13,2.8167843611581485e-13,1.5666591546418074e-13,8.001847296095025e-14
0.0,23,23.0,0.0,30.0,0.0,0.0,0.0,0.0,-13.0,0.0,2.0,0.0,0.0,0.0,4.767690094893634e-11,3.829956977185966e-11,2.9788737677028897e-11,2.249893704959573e-11,1.6452643730756368e-11,1.1794264168487338e-11,8.299528886081916e-12,5.728554480638384e-12,3.892035601897008e-12,2.628338774375561e-12,1.7780469574445893e-12,1.2010372231322463e-12,8.105224331482582e-13,5.438668463482753e-13,3.585608313030271e-13,2.3487691049272693e-13,1.5011926813861445e-13,9.537224563857101e-14,5.795799023514333e-14,3.5175597883316875e-14,2.0543556806991905e-14,1.2397034474432209e-14,6.969306542357489e-15,4.0909496894559826e-15,2.1798980391047448e-15,1.4555413849788466e-15,6.214039471554919e-09,3.6368941879514393e-09,2.180149221504012e-09,1.2838610052675265e-09,7.294520854409901e-10,4.0178390516232195e-10,2.168059835866995e-10,1.1405205616193148e-10,5.863442191511646e-11,2.945079355219245e-11,1.4426758395189696e-11,7.101329167541463e-12,3.5615096159852706e-12,1.8102207921884579e-12,9.55916247106065e-13,5.075366625311092e-13,2.7299075240086533e-13,1.5213526927008601e-13,7.770200096310739e-14
0.0,24,24.0,0.0,30.0,0.0,0.0,0.0,0.0,-13.0,0.0,2.0,0.0,0.0,0.0,4.7261339828535306e-11,3.792871585291084e-11,2.946502660966171e-11,2.22229831179396e-11,1.6222647244768478e-11,1.1605923225594415e-11,8.147720274589889e-12,5.609300131746289e-12,3.800864958396003e-12,2.5603223528407397e-12,1.728766399110621e-12,1.166530424968253e-12,7.870076107812144e-13,5.283353179531739e-13,3.486100998815395e-13,2.2867974144937287e-13,1.4635603868794728e-13,9.314664157176119e-14,5.6675157409464594e-14,3.4456502700324e-14,2.0148361326790704e-14,1.2183596897906473e-14,6.85370904813837e-15,4.0302491733070545e-15,2.147181006027332e-15,1.4396456728786038e-15,6.226791140939868e-09,3.645241330502989e-09,2.1830170542233043e-09,1.2833860192243863e-09,7.278465880141562e-10,4.0020316525056346e-10,2.1560103623752754e-10,1.1323167949271243e-10,5.810244488626804e-11,2.911425486571573e-11,1.4217827039292019e-11,6.971032175209875e-12,3.4818893167776646e-12,1.7626579142947863e-12,9.282964408616781e-13,4.921253028339903e-13,2.646250140272856e-13,1.4776454879704172e-13,7.546274171571557e-14
0.0,25,25.0,0.0,30.0,0.0,0.0,0.0,0.0,-13.0,0.0,2.0,0.0,0.0,0.0,4.684221262501952e-11,3.7556584028489525e-11,2.914205409258975e-11,2.194938718088053e-11,1.599613085711188e-11,1.1421628003443713e-11,8.000030852759379e-12,5.49384593027802e-12,3.712907453078917e-12,2.494832328170593e-12,1.6813433910586913e-12,1.1333111042019224e-12,7.643434054579504e-13,5.133423041426223e-13,3.389879791045963e-13,2.2267547431459504e-13,1.4270346142091893e-13,9.098197474183424e-14,5.5425364829561406e-14,3.375449837943709e-14,1.9761991590993017e-14,1.1974446181048162e-14,6.740324223306192e-15,3.970613739606942e-15,2.115077749069873e-15,1.4239856267557311e-15,6.2399269277234014e-09,3.653592309152328e-09,2.1856932974429154e-09,1.2827042244236994e-09,7.260879891304773e-10,3.9852745784073825e-10,2.1434471795233292e-10,1.1238846926254056e-10,5.756388456795266e-11,2.8778818146968936e-11,1.4012665468080117e-11,6.844504008462099e-12,3.4051174786941713e-12,1.7169450823486918e-12,9.017610323100188e-13,4.77310819506573e-13,2.5656698439149066e-13,1.4354721178077296e-13,7.329764700485656e-14
0.0,26,26.0,0.0,30.0,0.0,0.0,0.0,0.0,-13.0,0.0,2.0,0.0,0.0,0.0,4.641919571552994e-11,3.718281393220643e-11,2.8819429759085282e-11,2.1677742748582025e-11,1.5772692830461073e-11,1.1241003489015877e-11,7.856131700644444e-12,5.381922561124698e-12,3.6279583247646163e-12,2.4317226029915544e-12,1.6356800221731738e-12,1.101316992532478e-12,7.424917940246908e-13,4.988653624329933e-13,3.296816381097544e-13,2.1685703587906432e-13,1.3915772167299782e-13,8.887628533114861e-14,5.420761249557308e-14,3.3069109737444776e-14,1.9384217564176706e-14,1.1769481663020894e-14,6.629100345422415e-15,3.9120225408852885e-15,2.083573970576403e-15,1.4085553755848193e-15,6.253444883479503e-09,3.661933752095144e-09,2.1881695417719267e-09,1.2818139491577682e-09,7.241774850978466e-10,3.9675821461408307e-10,2.1303779960251784e-10,1.1152249432037102e-10,5.701838584051087e-11,2.8443985558279854e-11,1.3810825330948292e-11,6.72142287192349e-12,3.330993487820315e-12,1.6729708342326111e-12,8.762521640910406e-13,4.630645715467325e-13,2.488031427497039e-13,1.3947701229540653e-13,7.120382990535937e-14
0.0,27,27.0,0.0,30.0,0.0,0.0,0.0,0.0,-13.0,0.0,2.0,0.0,0.0,0.0,4.5992016352715127e-11,3.680709816285151e-11,2.8496816136890697e-11,2.1407693643840398e-11,1.555197661634398e-11,1.1063712880042695e-11,7.715724223958185e-12,5.2732830345571326e-12,3.5458280086318237e-12,2.3708567941932325e-12,1.591684255839262e-12,1.0704892331265586e-12,7.214166907574815e-13,4.848831302811053e-13,3.206788357727163e-13,2.1121765916636744e-13,1.3571516396423606e-13,8.682768870222606e-14,5.3020937979885693e-14,3.239987745304998e-14,1.9014816666864434e-14,1.1568605456417062e-14,6.519987349130234e-15,3.8544550975955614e-15,2.052655802020228e-15,1.3933487541428808e-15,6.267341591429211e-09,3.670250986510423e-09,2.1904365856270427e-09,1.2807129883515609e-09,7.221159314476519e-10,3.9489671948806197e-10,2.1168104749182583e-10,1.1063389263238027e-10,5.646568155462065e-11,2.8109334750016818e-11,1.3611910054571053e-11,6.601497316510923e-12,3.259332485434582e-12,1.6306311899147282e-12,8.517153663237315e-13,4.493594511639374e-13,2.413206427165769e-13,1.3554798498791181e-13,6.917855324593056e-14
0.0,28,28.0,0.0,30.0,0.0,0.0,0.0,0.0,-13.0,0.0,2.0,0.0,0.0,0.0,4.556044658607125e-11,3.642917613922361e-11,2.8173922723951422e-11,2.1138928619630327e-11,1.533366628801393e-11,1.0889453978475095e-11,7.578537510237732e-12,5.167700911185298e-12,3.466341045705589e-12,2.3121076020289668e-12,1.5492695782684433e-12,1.0407721858423628e-12,7.010838385061323e-13,4.713752645875509e-13,3.1196788791383257e-13,2.0575086715331438e-13,1.3237228367024606e-13,8.483437176885711e-14,5.186441462065395e-14,3.1746357389203634e-14,1.8653573471821013e-14,1.1371722346040949e-14,6.412936754794856e-15,3.79789129563168e-15,2.0223097953566586e-15,1.3783593886274381e-15,6.281612095919864e-09,3.678528070273815e-09,2.1924845058778987e-09,1.2793986638593114e-09,7.199038794922989e-10,3.929441209257063e-10,2.1027521867781505e-10,1.0972285929191659e-10,5.5905580488341376e-11,2.7774510083599523e-11,1.3415569672254476e-11,6.484463655863725e-12,3.1899642279373744e-12,1.589829180393979e-12,8.280993633053425e-13,4.3616979642656373e-13,2.341072739570663e-13,1.3175443042396307e-13,6.721921898904321e-14
0.0,29,29.0,0.0,30.0,0.0,0.0,0.0,0.0,-13.0,0.0,2.0,0.0,0.0,0.0,4.512429803743314e-11,3.604882877132629e-11,2.7850500804362503e-11,2.0871176604327607e-11,1.5117482464976688e-11,1.0717955938249108e-11,7.444325918615524e-12,5.0649686656743355e-12,3.3893350671671644e-12,2.2553562183208946e-12,1.508354668089113e-12,1.0121132448914681e-12,6.814607073696643e-13,4.583223855605668e-13,3.035376368587525e-13,2.004504576051559e-13,1.2912571924972009e-13,8.289458959883791e-14,5.073714982481813e-14,3.110811995494951e-14,1.8300279414692618e-14,1.1178739693224304e-14,6.307901601101148e-15,3.74231138352179e-15,1.9925229133651364e-15,1.363580768362985e-15,6.296249825695384e-09,3.6867478172574998e-09,2.1943027194167114e-09,1.2778678771216728e-09,7.175416092765551e-10,3.909014441893831e-10,2.0882105810661532e-10,1.0878963671591222e-10,5.533795702713071e-11,2.7439214902497436e-11,1.322149616548714e-11,6.370083589928691e-12,3.1227320200772336e-12,1.5504744035584279e-12,8.053558915237839e-13,4.2347130988469857e-13,2.271514267310102e-13,1.280909014328844e-13,6.532335846704853e-14
0.0,30,30.0,0.0,30.0,0.0,0.0,0.0,0.0,-13.0,0.0,2.0,0.0,0.0,0.0,4.468341740821408e-11,3.566587383610199e-11,2.7526338908745778e-11,2.060420249897009e-11,1.4903178675031315e-11,1.0548976332503906e-11,7.312866883280086e-12,4.964896179304392e-12,3.314659848998193e-12,2.2004917714933106e-12,1.4688630856867016e-12,9.844626678341167e-13,6.625164001588205e-13,4.457060245150766e-13,2.9537742313784143e-13,1.9531048892933193e-13,1.2597224498281764e-13,8.100666222848887e-14,4.9638283472502934e-14,3.0484749503415496e-14,1.7954732518438234e-14,1.0989567345365311e-14,6.204836381234501e-15,3.687695969206328e-15,1.9632825193221383e-15,1.349006304996917e-15,6.311246512020937e-09,3.6948918176483128e-09,2.195880037092193e-09,1.2761171552751726e-09,7.150291593286516e-10,3.8876960337221577e-10,2.0731929716779955e-10,1.0783450666138865e-10,5.47627423239915e-11,2.7103204727709343e-11,1.302941926997275e-11,6.258142021933885e-12,3.057491718220684e-12,1.5124826055387738e-12,7.83439528073578e-13,4.112409825654143e-13,2.2044205899088128e-13,1.245521903548491e-13,6.348862341432001e-14
0.0,31,31.0,0.0,30.0,0.0,0.0,0.0,0.0,-13.0,0.0,2.0,0.0,0.0,0.0,4.4237682614387e-11,3.528016196182005e-11,2.7201258836059957e-11,2.033780346016465e-11,1.469053810554391e-11,1.0382298508574638e-11,7.183958912107834e-12,4.867309351935239e-12,3.2421764326361592e-12,2.1474108063091772e-12,1.430722980955568e-12,9.57773414954428e-13,6.442215639997309e-13,4.3350857523104413e-13,2.8747705913052413e-13,1.9032526696056714e-13,1.2290876417901516e-13,7.916897167179561e-14,4.85669864160579e-14,2.987584376326184e-14,1.761673713072652e-14,1.0804117550053436e-14,6.103696982522641e-15,3.634026016500217e-15,1.934576366024291e-15,1.3346293809120672e-15,6.326592102596067e-09,3.7029404544590165e-09,2.19720471118753e-09,1.27414269164792e-09,7.123663535908053e-10,3.8654941309942873e-10,2.057706533551869e-10,1.0685778375658549e-10,5.4179916730950896e-11,2.6766281267935213e-11,1.2839102701877773e-11,6.148445055233161e-12,2.9941108003216914e-12,1.4757752862522232e-12,7.623075287024886e-13,3.994570228221338e-13,2.1396866577351043e-13,1.2113331710513818e-13,6.171277773678196e-14
0.0,32,32.0,0.0,30.0,0.0,0.0,0.0,0.0,-13.0,0.0,2.0,0.0,0.0,0.0,4.378699946069327e-11,3.4891573138811775e-11,2.68751121648837e-11,2.007180561037722e-11,1.4479370700955898e-11,1.0217729202040398e-11,7.0574197633184644e-12,4.772048824432125e-12,3.1717563074860824e-12,2.0960167963097986e-12,1.3938668182700272e-12,9.320009981883067e-13,6.265483075180327e-13,4.217132485409342e-13,2.7982680448250956e-13,1.8548933259978303e-13,1.1993230281660695e-13,7.737995910839972e-14,4.7522459067187796e-14,2.928101330120898e-14,1.7286103673906494e-14,1.0622304873560471e-14,6.0044406292658364e-15,3.5812828412256216e-15,1.906392584495647e-15,1.3204433883933254e-15,6.342274672090099e-09,3.7108729171975065e-09,2.1982644774106024e-09,1.2719403814425357e-09,7.095528258802124e-10,3.8424159983533295e-10,2.0417583078266754e-10,1.0585981029194685e-10,5.358950332249002e-11,2.6428287147077856e-11,1.2650340763480891e-11,6.040818156920051e-12,2.932467499195958e-12,1.440279327933796e-12,7.419196748237525e-13,3.8809878959230417e-13,2.0772125065756574e-13,1.1782951798306868e-13,5.999368996269966e-14
0.0,33,33.0,0.0,30.0,0.0,0.0,0.0,0.0,-13.0,0.0,2.0,0.0,0.0,0.0,4.3331298778634623e-11,3.450001368581959e-11,2.654777719174042e-11,1.9806061124475827e-11,1.4269510568267576e-11,1.0055096383844756e-11,6.933084784333688e-12,4.678968803118494e-12,3.103280651306484e-12,2.046219687065688e-12,1.3582311175987031e-12,9.07103338880825e-13,6.094701231139382e-13,4.1030402985305914e-13,2.724173431400532e-13,1.807974502363808e-13,1.1704000358013806e-13,7.563812223659667e-14,4.650393006591173e-14,2.8699881013171544e-14,1.6962648406715618e-14,1.0444046123289748e-14,5.907025828637991e-15,3.5294481071401226e-15,1.8787196723542595e-15,1.3064417608130467e-15,6.3582803300561615e-09,3.7186672134847603e-09,2.199046592192624e-09,1.269505853296128e-09,7.065880422023388e-10,3.8184681276330275e-10,2.025355213548971e-10,1.0484095205836733e-10,5.2991562356810244e-11,2.6089101262947946e-11,1.2462955290796758e-11,5.9351044756338625e-12,2.872449995689226e-12,1.4059266455104253e-12,7.22238128916556e-13,3.771467296744213e-13,2.01690299090188e-13,1.1463623515861777e-13,5.832932631952273e-14
0.0,34,34.0,0.0,30.0,0.0,0.0,0.0,0.0,-13.0,0.0,2.0,0.0,0.0,0.0,4.287053396385621e-11,3.410541361111793e-11,2.6219156242273897e-11,1.9540445647659423e-11,1.4060813656481925e-11,9.894247317025238e-12,6.8108053982886335e-12,4.587935978337331e-12,3.036639624668524e-12,1.9979354684440545e-12,1.3237562107815463e-12,8.830406337338824e-13,5.929618138986978e-13,3.9926563935188627e-13,2.6523976186269117e-13,1.7624459689118212e-13,1.1422912026451326e-13,7.394201277866417e-14,4.551065502572987e-14,2.813208164206581e-14,1.6646193197305315e-14,1.0269260273932e-14,5.8114123193409855e-15,3.478503821525656e-15,1.8515464821105983e-15,1.2926179971675074e-15,6.374593126919402e-09,3.726300179267313e-09,2.199537865951179e-09,1.2668344973137887e-09,7.034713212096868e-10,3.793656342288549e-10,2.0085040643348718e-10,1.038015950552129e-10,5.238618654257756e-11,2.574863470108554e-11,1.2276792909001454e-11,5.831163301577787e-12,2.8139556683514593e-12,1.372653857731862e-12,7.032272978058843e-13,3.6658231869051263e-13,1.9586675340638443e-13,1.1154910678139151e-13,5.671774438786042e-14
0.0,35,35.0,0.0,30.0,0.0,0.0,0.0,0.0,-13.0,0.0,2.0,0.0,0.0,0.0,4.240467885786679e-11,3.370772431599413e-11,2.5889173308183616e-11,1.927485600537531e-11,1.3853155679770924e-11,9.735046801888963e-12,6.6904477248463035e-12,4.49882852971266e-12,2.971731715868868e-12,1.951085774186043e-12,1.290386012069877e-12,8.597752283801188e-13,5.769994249177049e-13,3.8858349464672123e-13,2.582855300896192e-13,1.718259520222245e-13,1.1149701251744618e-13,7.22902341271555e-14,4.454191534982631e-14,2.7577261320449747e-14,1.6336565306900497e-14,1.0097868396939775e-14,5.717561022944074e-15,3.428432330608391e-15,1.8248622092957644e-15,1.2789656809576343e-15,6.391194958686142e-09,3.733747488146556e-09,2.1997246928601043e-09,1.2639214900950618e-09,7.002018530718649e-10,3.767985897518246e-10,1.991211588720673e-10,1.0274214291990947e-10,5.1773496997403256e-11,2.5406827136569432e-11,1.2091722564563206e-11,5.728868657422864e-12,2.7568903962826703e-12,1.3404019780110466e-12,6.848537033661042e-13,3.563880054392116e-13,1.9024198939184018e-13,1.0856395765991866e-13,5.5157087284666436e-14
0.0,36,36.0,0.0,30.0,0.0,0.0,0.0,0.0,-13.0,0.0,2.0,0.0,0.0,0.0,4.193372592695735e-11,3.330691659539362e-11,2.5557771968971357e-11,1.9009208170627045e-11,1.3646430257499551e-11,9.577375590572842e-12,6.571891323095462e-12,4.411535211202148e-12,2.908463132861193e-12,1.9055975071691942e-12,1.2580678020950226e-12,8.37271498075413e-13,5.615601783263287e-13,3.7824367566394306e-13,2.5154648104720773e-13,1.6753688794227158e-13,1.0884114089486796e-13,7.068143912192355e-14,4.35970171133589e-14,2.7035077136238623e-14,1.6033597183616736e-14,9.929793593273398e-15,5.625433997774815e-15,3.379216314815953e-15,1.7986563807248778e-15,1.2654784944271798e-15,6.408065470980501e-09,3.740983660242093e-09,2.19959307757682e-09,1.260761817208476e-09,6.967787169970724e-10,3.741461576244978e-10,1.9734844531988682e-10,1.0166301495523313e-10,5.115363980030312e-11,2.506364366465074e-11,1.1907633305880588e-11,5.628108009456808e-12,2.7011679118867368e-12,1.3091161239665168e-12,6.670858602374999e-13,3.465471593831148e-13,1.8480779425285146e-13,1.0567679046723251e-13,5.3645578333681913e-14
0.0,37,37.0,0.0,30.0,0.0,0.0,0.0,0.0,-13.0,0.0,2.0,0.0,0.0,0.0,4.1457684697896676e-11,3.2902978896709445e-11,2.5224913562856935e-11,1.874343545826485e-11,1.3440547247230334e-11,9.421128953827444e-12,6.4550280453650335e-12,4.325954509516588e-12,2.846747238955935e-12,1.861402488808589e-12,1.2267520244893173e-12,8.154957350554078e-13,5.466224122260963e-13,3.682328916032786e-13,2.450147939974599e-13,1.633729608008777e-13,1.0625906220539949e-13,6.911432794843315e-14,4.267529000729627e-14,2.6505196719978425e-14,1.573712626583919e-14,9.76496092899922e-15,5.534994395078411e-15,3.3308387838048356e-15,1.772918842747639e-15,1.2521502289276882e-15,6.425181962980463e-09,3.747982070914802e-09,2.1991286593040084e-09,1.2573502935164743e-09,6.932008976212831e-10,3.714087781195564e-10,1.955329287147895e-10,1.0056464465079204e-10,5.0526783054050194e-11,2.4719072008085116e-11,1.1724432286909693e-11,5.528781089015515e-12,2.64670920037414e-12,1.278745244689598e-12,6.49894160181029e-13,3.370440210437893e-13,1.795563458774745e-13,1.0288377743218166e-13,5.2181516183398394e-14
0.0,38,38.0,0.0,30.0,0.0,0.0,0.0,0.0,-13.0,0.0,2.0,0.0,0.0,0.0,4.0976580415676346e-11,3.24959158029768e-11,2.4890575575803045e-11,1.8477486919518797e-11,1.3235431249491989e-11,9.266215384591047e-12,6.339760991768732e-12,4.241993869947143e-12,2.786504029221814e-12,1.818437131127256e-12,1.1963920944335043e-12,7.944160421422758e-13,5.321655228978603e-13,3.585384497952694e-13,2.3868297753617696e-13,1.5932990208878572e-13,1.0374842512312872e-13,6.758764614914301e-14,4.177608633967878e-14,2.598729785231666e-14,1.544699479482904e-14,9.603297373792688e-15,5.4462064174402525e-15,3.283283071390336e-15,1.7476397497720825e-15,1.238974792243808e-15,6.442519291793246e-09,3.754714959595513e-09,2.19831673350424e-09,1.2536815817094864e-09,6.894673004594239e-10,3.6858686233589574e-10,1.9367527090339085e-10,9.944747861212264e-11,4.989311438504796e-11,2.4373120055263058e-11,1.1542042970747463e-11,5.430798814929089e-12,2.5934419429630645e-12,1.2492418647941754e-12,6.332507627201237e-13,3.2786365510348023e-13,1.744801932822188e-13,1.0018125248099533e-13,5.0763270337865163e-14
0.0,39,39.0,0.0,30.0,0.0,0.0,0.0,0.0,-13.0,0.0,2.0,0.0,0.0,0.0,4.049045289343595e-11,3.208574671127344e-11,2.45547502215595e-11,1.8211325913240047e-11,1.303102026544695e-11,9.112555424473901e-12,6.226003556197336e-12,4.159568984085113e-12,2.7276596447024578e-12,1.7766421300976055e-12,1.166944218447543e-12,7.74002232225187e-13,5.181699101986401e-13,3.4914822631657913e-13,2.325438538590392e-13,1.5540361062554498e-13,1.0130696604847312e-13,6.610018274000007e-14,4.08987800904765e-14,2.5481068090323317e-14,1.516304963582657e-14,9.444731741867993e-15,5.359035279234193e-15,3.236532830314783e-15,1.722809552843789e-15,1.2259462132918016e-15,6.460049777778728e-09,3.7611534388944764e-09,2.19714227154083e-09,1.2497502093726102e-09,6.855767665928044e-10,3.656808007123744e-10,1.9177613533991693e-10,9.831197582498013e-11,4.925283881833923e-11,2.4025813688721328e-11,1.1360403512416736e-11,5.33408230837915e-12,2.5413000008542692e-12,1.2205618443327926e-12,6.171294917529418e-13,3.1899190603534933e-13,1.6957223815402646e-13,9.756570379697571e-14,4.9389277067088274e-14
0.0,40,40.0,0.0,30.0,0.0,0.0,0.0,0.0,-13.0,0.0,2.0,0.0,0.0,0.0,3.9999355528815506e-11,3.1672504681008735e-11,2.421744318906615e-11,1.7944928833121323e-11,1.2827264490683643e-11,8.960080600678164e-12,6.113678555310304e-12,4.078603134338495e-12,2.6701459217372777e-12,1.7359621789275473e-12,1.138367224781999e-12,7.542257332679591e-13,5.046169259115397e-13,3.4005063823407565e-13,2.2659054392250238e-13,1.515901449959157e-13,9.893250519975812e-14,6.465076842499697e-14,4.004276601634262e-14,2.498620441150267e-14,1.4885142107398355e-14,9.289194635475356e-15,5.273447169139719e-15,3.1905720269806113e-15,1.6984189885479606e-15,1.2130586449055734e-15,6.477743111297353e-09,3.767267504104572e-09,2.1955899384841568e-09,1.2455505848792061e-09,6.815280867486442e-10,3.626909712401518e-10,1.8983618982610888e-10,9.715860719421403e-11,4.8606176973993265e-11,2.367719486845246e-11,1.1179465302165312e-11,5.238561992208339e-12,2.4902229371972745e-12,1.1926641537013488e-12,6.015057378247821e-13,3.1041535609882184e-13,1.648257174035211e-13,9.503376676911198e-14,4.8058035668586993e-14
0.0,41,41.0,0.0,30.0,0.0,0.0,0.0,0.0,-13.0,0.0,2.0,0.0,0.0,0.0,3.9503354464510204e-11,3.125623543013034e-11,2.3878672536526598e-11,1.7678283972618737e-11,1.262412523020572e-11,8.808732462140662e-12,6.002717432843143e-12,3.999026590545588e-12,2.6138999738463686e-12,1.6963457000336778e-12,1.1106224038032906e-12,7.350594985253738e-13,4.914888248586018e-13,3.312346173607944e-13,2.2081645343173059e-13,1.4788571640240363e-13,9.662294291918051e-14,6.3238273902774e-14,3.920745880210784e-14,2.4502412874426342e-14,1.4613127818528032e-14,9.13661839063796e-15,5.1894092143349265e-15,3.1453849359956412e-15,1.674459068123712e-15,1.2003063650801765e-15,6.495566261323732e-09,3.773026043155526e-09,2.193644109298372e-09,1.2410770123825e-09,6.773200149108009e-10,3.5961774740368484e-10,1.8785610926337062e-10,9.59878553064543e-11,4.795336353838122e-11,2.3327319938671966e-11,1.0999191652503676e-11,5.144176767347403e-12,2.4401555743894432e-12,1.165510662679769e-12,5.863563657796779e-13,3.021212855601843e-13,1.602341866587455e-13,9.258221730464093e-14,4.6768105053373136e-14
0.0,42,42.0,0.0,30.0,0.0,0.0,0.0,0.0,-13.0,0.0,2.0,0.0,0.0,0.0,3.9002527873797545e-11,3.08369964601464e-11,2.3538467714040303e-11,1.7411390511445788e-11,1.2421573921330367e-11,8.658461704822455e-12,5.893059532248903e-12,3.920776054357882e-12,2.558863803804988e-12,1.6577445945120339e-12,1.0836733577996289e-12,7.164779216723676e-13,4.787687186047945e-13,3.2268958542011223e-13,2.152152595959549e-13,1.4428668190511277e-13,9.437625617795758e-14,6.186160825881589e-14,3.839229225587151e-14,2.4029408294986882e-14,1.434686651304541e-14,8.986937025092596e-15,5.1068894465888705e-15,3.100956134755609e-15,1.6509210668926527e-15,1.1876837769748576e-15,6.513483386327977e-09,3.778396847027612e-09,2.1912888836077397e-09,1.2363237061571769e-09,6.729512815855197e-10,3.5646150587919524e-10,1.85836578395339e-10,9.480021437407058e-11,4.729464597017243e-11,2.297625813044075e-11,1.0819556613908298e-11,5.050873259602681e-12,2.3910475842063064e-12,1.139065942791318e-12,5.716596275185782e-13,2.940976350011891e-13,1.5579150463213857e-13,9.020796548027991e-14,4.551810063088548e-14
0.0,43,43.0,0.0,30.0,0.0,0.0,0.0,0.0,-13.0,0.0,2.0,0.0,0.0,0.0,3.849696535437411e-11,3.0414856293332017e-11,2.3196868698909563e-11,1.7144257609387757e-11,1.2219591252657139e-11,8.509227377089061e-12,5.784651431332415e-12,3.843794147411058e-12,2.5049839436893866e-12,1.620114007980524e-12,1.057485859663939e-12,6.984567565702787e-13,4.664405315955587e-13,3.144054305232985e-13,2.0978089859640282e-13,1.4078953802205028e-13,9.219049526712293e-14,6.051971743821146e-14,3.759671854489281e-14,2.3566913937336412e-14,1.4086221920949293e-14,8.840086188222031e-15,5.0258567698784095e-15,3.057270497885171e-15,1.627796513921469e-15,1.1751854080944234e-15,6.531455747782272e-09,3.783346620590622e-09,2.188508099234004e-09,1.2312848045277766e-09,6.684206068319962e-10,3.53222634017594e-10,1.837782945246127e-10,9.359619032470664e-11,4.6630283406236296e-11,2.2624090235808436e-11,1.064054390567074e-11,4.9586051306064e-12,2.342853108398204e-12,1.113297082197908e-12,5.57395079604884e-13,2.8633296959936126e-13,1.5149181830306302e-13,8.790804951251088e-14,4.4306691470968456e-14
0.0,44,44.0,0.0,30.0,0.0,0.0,0.0,0.0,-13.0,0.0,2.0,0.0,0.0,0.0,3.7986767416026176e-11,2.998989380761105e-11,2.2853925229670763e-11,1.6876903594828612e-11,1.2018166368553379e-11,8.360996157041586e-12,5.6774463331195735e-12,3.768028939624524e-12,2.4522111208262606e-12,1.5834121117309729e-12,1.0320277199409673e-12,6.809730414141345e-13,4.544889595848471e-13,3.0637248487484126e-13,2.0450755371696345e-13,1.373909146657008e-13,9.006378066146291e-14,5.921158279389196e-14,3.682020746961301e-14,2.3114661218641618e-14,1.383106161636856e-14,8.696003113041739e-15,4.946280929640418e-15,3.014313191733525e-15,1.6050771820694945e-15,1.1628059088072938e-15,6.549441626599219e-09,3.787840993797362e-09,2.1852853446948827e-09,1.225954383608002e-09,6.637267131547613e-10,3.4990153713687684e-10,1.816819701918027e-10,9.237630100635942e-11,4.596054573723456e-11,2.2270907432048032e-11,1.0462145949783228e-11,4.8673324472385995e-12,2.295530407524899e-12,1.0881735123779464e-12,5.435435054765207e-13,2.7881644526893164e-13,1.473295488626583e-13,8.567963002638717e-14,4.3132597721070794e-14
0.0,45,45.0,0.0,30.0,0.0,0.0,0.0,0.0,-13.0,0.0,2.0,0.0,0.0,0.0,3.747204504990023e-11,2.956219765685979e-11,2.2509696126750747e-11,1.6609355236745402e-11,1.1817296149630976e-11,8.213741694448712e-12,5.571403507762127e-12,3.693433514295539e-12,2.400499947718818e-12,1.5475998981835832e-12,1.0072686617519909e-12,6.640050270223592e-13,4.4289943022193005e-13,2.9858150362707544e-13,1.993896440919331e-13,1.3408756939344276e-13,8.79943000451179e-14,5.793621970578789e-14,3.6062245773469995e-14,2.2672389426916804e-14,1.3581256881699902e-14,8.55462656993076e-15,4.868132483358348e-15,2.9720696686984488e-15,1.5827550782896557e-15,1.150540050500606e-15,6.567396242751165e-09,3.791844533131279e-09,2.1816039708592203e-09,1.2203264710650567e-09,6.58868338343054e-10,3.464986456466403e-10,1.7954833580850312e-10,9.114107648274007e-11,4.52857128266392e-11,2.191681023706215e-11,1.0284362997006741e-11,4.777021104319059e-12,2.2490415359451456e-12,1.0636668458715366e-12,5.300868420257143e-13,2.715377765596262e-13,1.4329937837301138e-13,8.351998460480483e-14,4.1994588257515596e-14
0.0,46,46.0,0.0,30.0,0.0,0.0,0.0,0.0,-13.0,0.0,2.0,0.0,0.0,0.0,3.69529193713704e-11,2.9131865768776e-11,2.216424869013238e-11,1.6341647089568906e-11,1.1616984559945427e-11,8.067444010472705e-12,5.4664877809335895e-12,3.6199655670767982e-12,2.3498086341174506e-12,1.5126409896445062e-12,9.831802031388612e-13,6.475321090639799e-13,4.316580656810722e-13,2.9102364480822274e-13,1.9442181402708833e-13,1.3087638195188953e-13,8.598030548890612e-14,5.66926762666403e-14,3.5322336485977127e-14,2.2239845451178577e-14,1.3336682577698663e-14,8.415896822203e-15,4.7913827726929925e-15,2.9305256617378352e-15,1.5608224342667772e-15,1.1383827236030775e-15,6.585271678254512e-09,3.795320753184872e-09,2.1774471019647997e-09,1.214395060114141e-09,6.538442483315019e-10,3.430144220252798e-10,1.7737814223849298e-10,8.989105939751485e-11,4.4606073850274684e-11,2.1561907579286393e-11,1.0107202335404456e-11,4.687642295806821e-12,2.20335204100944e-12,1.0397507244078515e-12,5.170081103263493e-13,2.64487206219953e-13,1.3939623709637707e-13,8.142650260311727e-14,4.089147855133771e-14
0.0,47,47.0,0.0,30.0,0.0,0.0,0.0,0.0,-13.0,0.0,2.0,0.0,0.0,0.0,3.6429521306756756e-11,2.8699004888009942e-11,2.1817658155668396e-11,1.607382090670123e-11,1.1417242059366292e-11,7.922088950970054e-12,5.362669063091591e-12,3.547587034806256e-12,2.3000987198441476e-12,1.4785014598729233e-12,9.597355463891415e-13,6.315347638712677e-13,4.2075164717979075e-13,2.8369045029302134e-13,1.8959892287606434e-13,1.277543490929148e-13,8.402011076427538e-14,5.54800320306342e-14,3.459999829836108e-14,2.1816783523186847e-14,1.309721701889668e-14,8.279755583294907e-15,4.716003896793346e-15,2.8896671786948505e-15,1.5392716974337167e-15,1.1263289348154924e-15,6.603016803630291e-09,3.798232128230485e-09,2.1727976462209123e-09,1.2081541239408621e-09,6.486532501464165e-10,3.394493676681383e-10,1.7517216332348543e-10,8.86268053892651e-11,4.3921926736395933e-11,2.1206315967367624e-11,9.930677572646317e-12,4.599172030155339e-12,2.158430684631195e-12,1.0164006767671934e-12,5.042913502950932e-13,2.5765547633733284e-13,1.3561529145571076e-13,7.939668021290274e-14,3.982212872888713e-14
0.0,48,48.0,0.0,30.0,0.0,0.0,0.0,0.0,-13.0,0.0,2.0,0.0,0.0,0.0,3.59019913585579e-11,2.8263730205205738e-11,2.147000722128065e-11,1.5805925105141378e-11,1.1218085061419383e-11,7.777667684215548e-12,5.259921918552301e-12,3.4762637542537417e-12,2.2513348262637092e-12,1.4451496667700202e-12,9.369094739274915e-13,6.159944879409684e-13,4.101675813740109e-13,2.7657382768277017e-13,1.8491603539393858e-13,1.2471857965153598e-13,8.211208879707891e-14,5.429739682132581e-14,3.3894764966984664e-14,2.1402964970301055e-14,1.2862741854720358e-14,8.14614597561745e-15,4.641968686830717e-15,2.8494804966868803e-15,1.5180955222427248e-15,1.1143738054713045e-15,6.620577207872934e-09,3.800540103638482e-09,2.1676383062378675e-09,1.2015976307422822e-09,6.432942049926862e-10,3.358040296227641e-10,1.7293119835126413e-10,8.734888354162434e-11,4.323357768879052e-11,2.08501587466268e-11,9.75480798430454e-12,4.5115906858545925e-12,2.114249185541084e-12,9.935939857596008e-13,4.919215590798539e-13,2.510338009728673e-13,1.3195193258835817e-13,7.742811576207594e-14,3.8785441806593373e-14
0.0,49,49.0,0.0,30.0,0.0,0.0,0.0,0.0,-13.0,0.0,2.0,0.0,0.0,0.0,3.5370479397564375e-11,2.7826165013173244e-11,2.112138561462087e-11,1.553801428412435e-11,1.1019535444068984e-11,7.634176242357623e-12,5.158225167918357e-12,3.405965145638953e-12,2.2034844255433974e-12,1.4125560963015638e-12,9.146782503957267e-13,6.008937406214903e-13,3.998938684328255e-13,2.6966603311579193e-13,1.8036841258258602e-13,1.21766289862417e-13,8.025466924006033e-14,5.314390959527647e-14,3.3206184745565894e-14,2.0998157978539493e-14,1.2633141955235998e-14,8.01501249089592e-15,4.569250681786388e-15,2.809952156569211e-15,1.4972867617622341e-15,1.1025125691694269e-15,6.637895131871848e-09,3.802205107000438e-09,2.161951589550037e-09,1.19471955957057e-09,6.377660415277346e-10,3.320790072255106e-10,1.7065607446507442e-10,8.605787685519456e-11,4.254134077754938e-11,2.049356543083844e-11,9.579617921175712e-12,4.424882603533112e-12,2.0707819806443926e-12,9.713095637402719e-13,4.798846329858012e-13,2.4461384021324283e-13,1.2840176546022298e-13,7.551850523759432e-14,3.778036208124103e-14
0.0,50,50.0,0.0,30.0,0.0,0.0,0.0,0.0,-13.0,0.0,2.0,0.0,0.0,0.0,3.48351444974689e-11,2.7386440409596396e-11,2.077188970636372e-11,1.5270148786627635e-11,1.0821620101186847e-11,7.491615100158654e-12,5.057561522125583e-12,3.3366639201743893e-12,2.1565176260971505e-12,1.3806932164692053e-12,8.93019530545362e-13,5.862158899681662e-13,3.8991907175362204e-13,2.629596549193901e-13,1.7595150297483027e-13,1.1889479890370145e-13,7.844633616294354e-14,5.201873735853035e-14,3.2533819843343024e-14,2.0602137365688737e-14,1.2408305301812574e-14,7.886300951985662e-15,4.497824105249254e-15,2.7710689573099994e-15,1.47683845963903e-15,1.090740569830969e-15,6.6549094051382565e-09,3.803186558828361e-09,2.1557198195265252e-09,1.1875139171564914e-09,6.32067769361132e-10,3.2827495865182274e-10,1.6834764901377408e-10,8.475438272955231e-11,4.1845537583986545e-11,2.013667109920319e-11,9.405136269410838e-12,4.339035711316491e-12,2.0280060040145754e-12,9.495278361076859e-13,4.681673127474733e-13,2.3838767556916693e-13,1.24960598508623e-13,7.366563802042828e-14,3.680587365411057e-14
0.0,51,51.0,0.0,30.0,0.0,0.0,0.0,0.0,-13.0,0.0,2.0,0.0,0.0,0.0,3.429615480163731e-11,2.694469503499502e-11,2.0421622160911646e-11,1.5002394299163287e-11,1.0624370531271016e-11,7.349988787587474e-12,4.957917244901446e-12,3.2683358093547323e-12,2.1104069730445163e-12,1.3495353407383494e-12,8.719122725978744e-13,5.719451615657441e-13,3.8023228922097915e-13,2.564475980643526e-13,1.716609343359408e-13,1.1610152465425032e-13,7.668562585177303e-14,5.092107413297295e-14,3.1877245907708666e-14,2.021468436366207e-14,1.2188122882180636e-14,7.759958476106269e-15,4.4276638433053484e-15,2.7328179504755333e-15,1.456743842373486e-15,1.079053259911114e-15,6.671555385592401e-09,3.80344288272528e-09,2.148925146993828e-09,1.1799747558827512e-09,6.26198492811214e-10,3.2439260739089497e-10,1.6600681184259676e-10,8.343901344502565e-11,4.114649688779022e-11,1.977961584958484e-11,9.231395957881348e-12,4.25404118042299e-12,1.985900482163815e-12,9.282306322692716e-13,4.567571319734731e-13,2.323477866500804e-13,1.2162443378500899e-13,7.186739282074574e-14,3.586099906913041e-14
0.0,52,52.0,0.0,30.0,0.0,0.0,0.0,0.0,-13.0,0.0,2.0,0.0,0.0,0.0,3.37536874167515e-11,2.6501074840570733e-11,2.0070691619144562e-11,1.473482148488163e-11,1.0427822459089797e-11,7.209305532779409e-12,4.859281840997322e-12,3.200959314175411e-12,2.065127262554166e-12,1.319058500286012e-12,8.51336656746806e-13,5.580665901594964e-13,3.7082312592918087e-13,2.5012306937868953e-13,1.6749250575782441e-13,1.133839796517729e-13,7.497112471102031e-14,4.985013996993058e-14,3.1236051529989225e-14,1.983558640974163e-14,1.197248858977695e-14,7.635933439402527e-15,4.3587454233999385e-15,2.695186434698279e-15,1.436996311884005e-15,1.0674461988867018e-15,6.687764902066654e-09,3.802931514959707e-09,2.1415495629270857e-09,1.1720961930694322e-09,6.201574249434908e-10,3.2043274865376107e-10,1.6363448752432463e-10,8.211239663503284e-11,4.0444554385886945e-11,1.942254430012161e-11,9.058433507794138e-12,4.169893108246669e-12,1.944446744334677e-12,9.074010835857698e-13,4.456423685929317e-13,2.2648702905278143e-13,1.1838945757047437e-13,7.012173380409282e-14,3.4944798043568606e-14
0.0,53,53.0,0.0,30.0,0.0,0.0,0.0,0.0,-13.0,0.0,2.0,0.0,0.0,0.0,3.320792832854112e-11,2.6055732881096093e-11,1.971921240838121e-11,1.4467505645525417e-11,1.0232015486370104e-11,7.069576932226928e-12,4.7616477677987234e-12,3.1345154726146576e-12,2.020655369024857e-12,1.2892403244718297e-12,8.312740084933613e-13,5.445659739441726e-13,3.616816682919229e-13,2.4397956347996617e-13,1.634421801231919e-13,1.1073976724019436e-13,7.330146726233453e-14,4.880518000844118e-14,3.060983777297768e-14,1.9464636946154855e-14,1.1761299127049202e-14,7.514175442796077e-15,4.291044994113532e-15,2.6581619501761907e-15,1.4175894383945674e-15,1.0559150519647682e-15,6.703466199079953e-09,3.801608913426931e-09,2.133574912600009e-09,1.1638724317252137e-09,6.139439019098725e-10,3.1639625572252477e-10,1.6123163753039638e-10,8.077517574050708e-11,3.974005243369028e-11,1.9065605132277177e-11,8.886288620110967e-12,4.086588226421796e-12,1.9036280466468676e-12,8.870235278366259e-13,4.3481199914207616e-13,2.2079861340189898e-13,1.1525203143831061e-13,6.842670689879769e-14,3.405636627048722e-14
0.0,54,54.0,0.0,30.0,0.0,0.0,0.0,0.0,-13.0,0.0,2.0,0.0,0.0,0.0,3.2659072335247017e-11,2.5608829128456298e-11,1.9367304275183694e-11,1.4200526408228538e-11,1.003699276804754e-11,6.9308176453786825e-12,4.665010168141554e-12,3.0689876438556944e-12,1.9769700841376355e-12,1.2600599289768616e-12,8.117067265255796e-13,5.314298313685851e-13,3.5279845946829146e-13,2.380108493891647e-13,1.5950607691913942e-13,1.0816657789589311e-13,7.167533423442143e-14,4.778546357604989e-14,2.999821771910877e-14,1.9101635227727853e-14,1.1554453912628155e-14,7.394635279087356e-15,4.224539305860156e-15,2.6217322732497682e-15,1.398516953625202e-15,1.0444555891814259e-15,6.718583883342615e-09,3.799430566045051e-09,2.1249829116173877e-09,1.155297782908746e-09,6.075573976023353e-10,3.122840862468384e-10,1.5879926234095254e-10,7.942801043868444e-11,3.903333980049918e-11,1.8708950669195398e-11,8.715003796767782e-12,4.004125631575138e-12,1.8634294090283346e-12,8.670834197776393e-13,4.2425565573713375e-13,2.1527608548500775e-13,1.1220868374125547e-13,6.678043627656854e-14,3.319483427052013e-14
