Line_number,Fiducial,Easting,Northing,Height,Elevation,tx_pitch,tx_roll,tx_yaw,txrx_dx,txrx_dy,txrx_dz,rx_pitch,rx_roll,rx_yaw,S0Z_time_1.431e-04,S0Z_time_1.801e-04,S0Z_time_2.266e-04,S0Z_time_2.846e-04,S0Z_time_3.581e-04,S0Z_time_4.506e-04,S0Z_time_5.671e-04,S0Z_time_7.136e-04,S0Z_time_8.981e-04,S0Z_time_1.131e-03,S0Z_time_1.423e-03,S0Z_time_1.791e-03,S0Z_time_2.255e-03,S0Z_time_2.838e-03,S0Z_time_3.573e-03,S0Z_time_4.498e-03,S0Z_time_5.662e-03,S1Z_time_1.409e-05,S1Z_time_1.610e-05,S1Z_time_1.909e-05,S1Z_time_2.360e-05,S1Z_time_2.960e-05,S1Z_time_3.709e-05,S1Z_time_4.609e-05,S1Z_time_5.759e-05,S1Z_time_7.209e-05,S1Z_time_9.060e-05,S1Z_time_1.141e-04,S1Z_time_1.431e-04,S1Z_time_1.801e-04,S1Z_time_2.266e-04,S1Z_time_2.846e-04,S1Z_time_3.581e-04,S1Z_time_4.506e-04,S1Z_time_5.671e-04,S1Z_time_7.136e-04,S1Z_time_8.981e-04,S1Z_time_1.131e-03
0.0,0,0.0,0.0,30.0,0.0,0.0,0.0,0.0,-13.0,0.0,2.0,0.0,0.0,0.0,1.0571826051446559e-09,7.986849800405974e-10,6.089558851299264e-10,4.2359713986410854e-10,3.2409407101795545e-10,2.3812567511844756e-10,1.5652900938375746e-10,1.2262630557732849e-10,7.552036847717302e-11,5.5373733975844984e-11,4.030386485986275e-11,2.5803551371109944e-11,1.5703567764616334e-11,1.0095664650695377e-11,6.097998116249906e-12,3.465159494679545e-12,1.833398398623325e-12,6.886712778263864e-09,6.191454512830673e-09,5.447203942383147e-09,4.6003740269620546e-09,3.654110448093455e-09,3.2106677876881207e-09,2.6266104995328907e-09,1.9965188660675215e-09,1.636929599527708e-09,1.3183477298979924e-09,1.0510223280923035e-09,7.954007977122977e-10,6.107441623384786e-10,4.5143707857278197e-10,3.2627196586573185e-10,2.4475348984836233e-10,1.6374435653452566e-10,1.0977030522697734e-10,7.06693676952703e-11,4.7894165800332116e-11,3.0185519201593796e-11
0.0,1,1.0,0.0,30.0,0.0,0.0,0.0,0.0,-13.0,0.0,2.0,0.0,0.0,0.0,1.0487620365859466e-09,7.743414455070523e-10,5.836775250396733e-10,4.5162620751754614e-10,3.09562174109302e-10,2.2874085326727782e-10,1.6521993466266804e-10,1.1212015409845325e-10,8.48079131319622e-11,5.311695015120864e-11,3.80357936278503e-11,2.508977768962338e-11,1.655138715416047e-11,9.639279470264196e-12,6.0885959921007465e-12,3.309687446485679e-12,1.869577101932e-12,6.823391006079453e-09,6.163558385515093e-09,5.1082722883958505e-09,4.450807077655273e-09,3.703848152924697e-09,3.00408100771221e-09,2.6831637647206303e-09,1.9462941720249093e-09,1.6478137039994409e-09,1.301936133273185e-09,9.775425147491087e-10,8.001032925011355e-10,6.105148111169368e-10,4.651777222494666e-10,3.3608458961650714e-10,2.3828052911694826e-10,1.6676541120992154e-10,1.080906321393517e-10,7.210390909620279e-11,4.845085884592525e-11,2.998387022526206e-11
0.0,2,2.0,0.0,30.0,0.0,0.0,0.0,0.0,-13.0,0.0,2.0,0.0,0.0,0.0,1.1062396322351499e-09,7.830364424012283e-10,5.82932448789033e-10,4.3785355558499413e-10,3.2512332286362004e-10,2.255052966566884e-10,1.6344359748068438e-10,1.1701204933841293e-10,8.170582838672816e-11,5.927498529355147e-11,3.881391156485819e-11,2.505117604014267e-11,1.61097729838983e-11,1.0256562716629225e-11,5.901122621549344e-12,3.3774298187696546e-12,1.880676635606356e-12,6.726200123105857e-09,6.020917833460461e-09,5.247584374628781e-09,4.380007848197197e-09,3.761730966470654e-09,3.106625017272804e-09,2.6400844980728297e-09,2.0935659655368414e-09,1.7748436259332845e-09,1.3088709016237296e-09,1.1106092879789867e-09,8.244655882376007e-10,6.170030140481088e-10,4.550933086200051e-10,3.230543026836058e-10,2.2973128579890482e-10,1.5506329620496891e-10,1.0692695633296597e-10,7.198796751359775e-11,4.708937354755936e-11,3.1177747747806934e-11
0.0,3,3.0,0.0,30.0,0.0,0.0,0.0,0.0,-13.0,0.0,2.0,0.0,0.0,0.0,1.1021698722595394e-09,8.359711307669365e-10,5.92559788805555e-10,4.4133848932342534e-10,3.2159529778172344e-10,2.1491957164414913e-10,1.6305089046751538e-10,1.1471648831979973e-10,8.467200546095295e-11,5.6697456873445736e-11,3.724718995337944e-11,2.55445588935569e-11,1.6783118481342204e-11,9.92849060614751e-12,6.082605502024576e-12,3.265572450199657e-12,1.8231000305558747e-12,6.354725578997467e-09,6.296277302301953e-09,5.244379330883015e-09,4.513089407782605e-09,3.635709783594583e-09,3.016450585493355e-09,2.391170090228126e-09,2.0652572416326503e-09,1.6481398582350276e-09,1.3860827197554597e-09,1.0695282414079137e-09,7.825202567104368e-10,5.996744396144724e-10,4.3773484700471075e-10,3.4047488668596894e-10,2.249590894125822e-10,1.6399627950538815e-10,1.1208978653949662e-10,7.178050394163861e-11,4.5248363333444167e-11,3.1356021976478143e-11
0.0,4,4.0,0.0,30.0,0.0,0.0,0.0,0.0,-13.0,0.0,2.0,0.0,0.0,0.0,1.1372409730130038e-09,8.058050939178974e-10,6.061275024489149e-10,4.2500764037978596e-10,3.1967010636823195e-10,2.3841489970683263e-10,1.5189054594254737e-10,1.1514342952761987e-10,7.950036490726094e-11,5.863325270912789e-11,3.80267987751109e-11,2.5659083672021507e-11,1.7032500455271527e-11,1.0034715841458323e-11,6.168739721395723e-12,3.3546976300765747e-12,1.8502874869104633e-12,6.9950697118373274e-09,6.005821315655646e-09,5.228053853742137e-09,4.62361799540544e-09,3.580402758365101e-09,2.9187474080695936e-09,2.5502159589346163e-09,2.1727327625135923e-09,1.7409062584423277e-09,1.3382409835875156e-09,1.06101708190664e-09,7.671319603819433e-10,5.713099798574729e-10,4.408464468925634e-10,3.4091663278641867e-10,2.2806487554161115e-10,1.5068525345096327e-10,1.0900909535005559e-10,7.415072092108585e-11,4.942593574836449e-11,3.2664000529682975e-11
0.0,5,5.0,0.0,30.0,0.0,0.0,0.0,0.0,-13.0,0.0,2.0,0.0,0.0,0.0,1.048621231923879e-09,8.005577650600953e-10,6.196500916450835e-10,4.367936905943119e-10,3.036535391905903e-10,2.23445532432238e-10,1.5869990402958864e-10,1.1667007765835787e-10,8.232515542452945e-11,5.569873479514203e-11,3.957111795028937e-11,2.5635242756142207e-11,1.6084506984598745e-11,1.0054026163019997e-11,5.693787981914231e-12,3.2345611263357215e-12,1.7183608452476465e-12,6.8421715232850526e-09,5.8132274545467804e-09,5.305683021513808e-09,4.5017862733602415e-09,3.7007855817434905e-09,2.990994170796165e-09,2.5035517301130865e-09,2.0780828324366176e-09,1.6400600260530735e-09,1.30912841794989e-09,1.0390249446735097e-09,7.888801088607788e-10,5.977677603853177e-10,4.657474507340787e-10,3.5063818088589244e-10,2.457191352772142e-10,1.6183232047285867e-10,1.1117994609017078e-10,7.421833661813533e-11,4.9521907142019715e-11,3.000982698395984e-11
0.0,6,6.0,0.0,30.0,0.0,0.0,0.0,0.0,-13.0,0.0,2.0,0.0,0.0,0.0,1.0383180016924504e-09,7.902354043915487e-10,6.142322331178508e-10,4.40950432454758e-10,3.2082152459050264e-10,2.157235776851086e-10,1.6094391328244252e-10,1.1656089760568023e-10,8.179406961322374e-11,5.632788131932592e-11,3.8389203122047606e-11,2.5106442112955725e-11,1.578161938961484e-11,1.0153910673691205e-11,6.1258805043925456e-12,3.4099931700119425e-12,1.79514818274745e-12,6.608768833706452e-09,5.720416587762441e-09,5.304770565517531e-09,4.316508194564809e-09,3.5162489505556017e-09,3.1902184400828672e-09,2.5351558473566803e-09,2.0900465893180046e-09,1.6588617914650855e-09,1.3108356493211563e-09,1.0268005914350136e-09,7.851006131835059e-10,6.305498198980519e-10,4.4185929869742e-10,3.1675226462856476e-10,2.378237753015405e-10,1.5972629156480584e-10,1.0456849837560712e-10,7.452131293804395e-11,4.640753632629775e-11,3.1934922775579914e-11
0.0,7,7.0,0.0,30.0,0.0,0.0,0.0,0.0,-13.0,0.0,2.0,0.0,0.0,0.0,1.0823765106351973e-09,7.942859257558004e-10,5.864269559306788e-10,4.557875483736025e-10,3.230462117492589e-10,2.3285815039956297e-10,1.6441390779410051e-10,1.19494446711467e-10,7.772173555042964e-11,5.822393851351292e-11,3.842309510603019e-11,2.563129846802237e-11,1.6230867362751306e-11,9.607468594148803e-12,5.895790105138901e-12,3.390440866429283e-12,1.8176933839776487e-12,6.937964960283478e-09,6.204889159308285e-09,5.3232616476382205e-09,4.302789318282508e-09,3.779726820574843e-09,3.1355868774365235e-09,2.4472976684240367e-09,2.059616643827865e-09,1.6806224366087248e-09,1.3251474198230865e-09,1.0878163915730255e-09,7.882777707064834e-10,6.201488780622905e-10,4.5617521677426747e-10,3.3925898299528865e-10,2.4381155776632715e-10,1.5758411415716496e-10,1.0640390540440953e-10,7.475310589327788e-11,4.819505862004047e-11,3.1632711713713934e-11
0.0,8,8.0,0.0,30.0,0.0,0.0,0.0,0.0,-13.0,0.0,2.0,0.0,0.0,0.0,1.0178983090619934e-09,7.886089392919477e-10,6.057038383865309e-10,4.5163386142241565e-10,3.194676049307101e-10,2.3043752107501416e-10,1.6768712850974177e-10,1.1714069535629235e-10,7.785058655979732e-11,5.742009869022061e-11,3.785667975497866e-11,2.4593586630142802e-11,1.656296200369098e-11,1.0179440214045077e-11,5.99296486946975e-12,3.4535434006989355e-12,1.7859102261763962e-12,6.857624735740638e-09,6.048956440102969e-09,5.3022396262989994e-09,4.442404171038562e-09,3.600044169993139e-09,3.190885733309244e-09,2.5745168350147515e-09,2.0744670605310077e-09,1.7314224869664904e-09,1.301986717668561e-09,1.0579166479002574e-09,7.963904449019463e-10,5.949564046130969e-10,4.2510688595889436e-10,3.295144102238844e-10,2.3087321077840196e-10,1.6032887581363779e-10,1.0919216284259103e-10,7.296927543899992e-11,5.177199966227931e-11,3.126001991265491e-11
0.0,9,9.0,0.0,30.0,0.0,0.0,0.0,0.0,-13.0,0.0,2.0,0.0,0.0,0.0,1.0724886829624808e-09,8.07571622311426e-10,5.944375780327045e-10,4.4374733681234317e-10,3.1631448988387693e-10,2.2207028162381908e-10,1.723365139147517e-10,1.1847829448964804e-10,8.146412495726978e-11,5.6746828674279775e-11,3.995384334237624e-11,2.5126157626274403e-11,1.579176294054339e-11,9.801452682552117e-12,5.810104886226286e-12,3.3494240954758104e-12,1.8012442471359121e-12,6.67772532445107e-09,6.0552480518437235e-09,5.516598907997353e-09,4.254195774887971e-09,3.7958851741912654e-09,2.9903973130776873e-09,2.483238214192592e-09,2.12212204445002e-09,1.671397258798899e-09,1.3566599226141327e-09,1.0596137365575834e-09,7.799763671826299e-10,6.187131998257577e-10,4.5073726281752635e-10,3.320457820755281e-10,2.3901728659563504e-10,1.660740326200578e-10,1.1017168598000647e-10,7.366952080580047e-11,4.951390207365016e-11,3.025703190757151e-11
0.0,10,10.0,0.0,30.0,0.0,0.0,0.0,0.0,-13.0,0.0,2.0,0.0,0.0,0.0,1.0865426383460782e-09,7.724463947937874e-10,5.823816805893468e-10,4.497070966448698e-10,3.4459431175716164e-10,2.2678322905140218e-10,1.6164986434049065e-10,1.1774750499717033e-10,8.187632521703154e-11,5.685431933692344e-11,4.019719907654187e-11,2.609481094736136e-11,1.6889022336142245e-11,1.0025250642037341e-11,6.055061041732885e-12,3.0910748480906107e-12,1.7095103668390087e-12,6.693219598245209e-09,6.127706761296223e-09,5.286879905967995e-09,4.265408050780694e-09,4.044448389955578e-09,3.2406830788914697e-09,2.493268175692482e-09,2.1161926938414347e-09,1.6611627575186854e-09,1.307603431922609e-09,1.0069688399048956e-09,7.950331766940737e-10,6.125372282733523e-10,4.796902160928212e-10,3.394499834837796e-10,2.2724507851599752e-10,1.6274879882216717e-10,1.052529429194405e-10,7.413824874902384e-11,4.773659339493395e-11,3.194237432766481e-11
0.0,11,11.0,0.0,30.0,0.0,0.0,0.0,0.0,-13.0,0.0,2.0,0.0,0.0,0.0,1.1218280819576557e-09,7.759939455390665e-10,5.906189030377425e-10,4.404695426218692e-10,3.069103224238292e-10,2.3275871738121664e-10,1.6361447051444407e-10,1.1273404573748538e-10,8.145632234360467e-11,5.6603931829602415e-11,3.800379135763742e-11,2.550901369371999e-11,1.6031839471556865e-11,9.648967130745953e-12,5.386130452804674e-12,3.2084567011163977e-12,1.6716888182904976e-12,6.762878249235789e-09,6.030261271679298e-09,5.2148582134956e-09,4.4329138515478135e-09,3.533697026994929e-09,3.1313391112711032e-09,2.506574973502597e-09,2.0372628485640845e-09,1.6449381558313693e-09,1.3363039052074486e-09,1.012594225106766e-09,7.817966557133024e-10,5.779460343735436e-10,4.701297491636032e-10,3.426896568805884e-10,2.326521596805359e-10,1.6520147758714128e-10,1.0476766347661588e-10,7.575519111882925e-11,4.785315617288539e-11,3.24675690891605e-11
0.0,12,12.0,0.0,30.0,0.0,0.0,0.0,0.0,-13.0,0.0,2.0,0.0,0.0,0.0,1.0497053583511984e-09,8.311852495883344e-10,5.765584509693127e-10,4.4395564211866654e-10,3.058000758429449e-10,2.2655017670599308e-10,1.5430950029836506e-10,1.0798981228242366e-10,8.461948124523467e-11,5.7820425449748814e-11,4.008305584230023e-11,2.4891249723868036e-11,1.5411048289972444e-11,9.937303069237192e-12,5.524496645759071e-12,3.2823647206551563e-12,1.7008840341802738e-12,6.89368011386745e-09,5.906958918247073e-09,5.25040091542538e-09,4.430445753195944e-09,3.6902302318882577e-09,2.9719402991686716e-09,2.499501755097824e-09,2.0797573160775446e-09,1.6811542315026755e-09,1.3486774801531048e-09,1.024080862059541e-09,8.151433978719793e-10,6.142275220508324e-10,4.477401332748375e-10,3.27598398331454e-10,2.3101175444457246e-10,1.560657428790019e-10,1.089749441162685e-10,7.287115009880469e-11,4.7529334546718886e-11,3.18728203582021e-11
0.0,13,13.0,0.0,30.0,0.0,0.0,0.0,0.0,-13.0,0.0,2.0,0.0,0.0,0.0,1.1145116702557989e-09,8.250774045336574e-10,5.837449440653516e-10,4.291913938841468e-10,3.186241310668307e-10,2.2756294085605325e-10,1.6931592329869698e-10,1.1813557194230764e-10,8.722888879899836e-11,5.5112290701317555e-11,3.954673405010368e-11,2.5983404671406775e-11,1.558666004106934e-11,9.553828491198912e-12,5.82532664470761e-12,3.2115693564834415e-12,1.6518354904506871e-12,6.8480012000106705e-09,6.176248942623816e-09,5.4331848184571795e-09,4.323625684640332e-09,3.79337216596347e-09,3.0354345778572352e-09,2.5679899616480744e-09,2.0023037569729294e-09,1.5843451437172737e-09,1.4179745423175797e-09,1.043447461745428e-09,7.911819945246502e-10,5.766713071927745e-10,4.5038814252237764e-10,3.191575634189257e-10,2.397484182170796e-10,1.5711835447010397e-10,1.1281114898091577e-10,6.844395768268279e-11,5.05969213603681e-11,3.189697877736824e-11
0.0,14,14.0,0.0,30.0,0.0,0.0,0.0,0.0,-13.0,0.0,2.0,0.0,0.0,0.0,1.0789101310841965e-09,8.602134041633481e-10,6.13871056112171e-10,4.3905939310463513e-10,3.0798900557554943e-10,2.1316291547390263e-10,1.6035604755239297e-10,1.1636214175430718e-10,8.674978080810977e-11,5.325853994210672e-11,3.939163425656185e-11,2.661696929545069e-11,1.6091333430124778e-11,9.918104609057821e-12,5.525446788034667e-12,3.1946014686752767e-12,1.6324123321084322e-12,6.754828552613603e-09,6.213308688217818e-09,5.813990829563268e-09,4.4504891860637435e-09,3.682254478279469e-09,2.9019133632044928e-09,2.4420468640956482e-09,2.0700769228150713e-09,1.6843346532737178e-09,1.3866364650717974e-09,1.042737340338097e-09,8.12034957781141e-10,6.040847337929655e-10,4.720745937726974e-10,3.2385832563523195e-10,2.45238115891685e-10,1.6921550531827743e-10,1.1136984923895233e-10,7.138272540388918e-11,5.0089995790296036e-11,3.194209480659186e-11
0.0,15,15.0,0.0,30.0,0.0,0.0,0.0,0.0,-13.0,0.0,2.0,0.0,0.0,0.0,1.0368364289329642e-09,8.143806365607058e-10,5.726470001165898e-10,4.4180955900244924e-10,3.210184872583585e-10,2.368410143115161e-10,1.6302813804341664e-10,1.1921483834125986e-10,8.39264410914246e-11,5.7054223155614814e-11,4.045392685718179e-11,2.551896371839466e-11,1.6911829639102675e-11,1.0230524653951352e-11,5.71055349250503e-12,3.2653404898891224e-12,1.6257900732268373e-12,6.931786939519238e-09,6.233090036864225e-09,5.350529930515717e-09,4.385255946333314e-09,3.601857939451548e-09,3.1307858532760062e-09,2.6149398983248675e-09,2.21901759041775e-09,1.693525496503395e-09,1.3497199168625565e-09,1.1042946470432768e-09,7.950956064439934e-10,5.944373197577227e-10,4.5386266384427504e-10,3.286606724065229e-10,2.350528420928796e-10,1.593634433138005e-10,1.1219648341437838e-10,7.580184975742651e-11,4.625311952468377e-11,3.096333443563997e-11
0.0,16,16.0,0.0,30.0,0.0,0.0,0.0,0.0,-13.0,0.0,2.0,0.0,0.0,0.0,1.0842909280262317e-09,8.471293334583878e-10,5.690712627738915e-10,4.307056120191135e-10,3.147561857777785e-10,2.2773352645188898e-10,1.7266223369181402e-10,1.1397943823470435e-10,8.000006710600486e-11,5.921317214192494e-11,3.7545455280145306e-11,2.5760829589961337e-11,1.7276834396113568e-11,9.48192267197879e-12,5.389204141122459e-12,3.1872501000221007e-12,1.6071138716874654e-12,6.726730590390477e-09,6.035645755593423e-09,5.209826118228212e-09,4.5562151756058386e-09,3.7145720695242986e-09,2.83626776293906e-09,2.698579093506807e-09,2.001263864009053e-09,1.7384629664723458e-09,1.3143417625043594e-09,9.786068702626651e-10,7.899599603403988e-10,6.062115620755082e-10,4.404479576207229e-10,3.1718326491309925e-10,2.2777821118182818e-10,1.5980530188561395e-10,1.1121384693188947e-10,7.637141458961037e-11,5.1629638724412286e-11,3.379253664866928e-11
0.0,17,17.0,0.0,30.0,0.0,0.0,0.0,0.0,-13.0,0.0,2.0,0.0,0.0,0.0,1.1013704363032384e-09,7.973079111050522e-10,5.968197347208426e-10,4.2766389235736854e-10,3.252125725545342e-10,2.3226500785715853e-10,1.6449296458870235e-10,1.1952681454255506e-10,8.392613647181081e-11,5.919214453234591e-11,3.859665290110124e-11,2.6999149575014093e-11,1.6048869788974522e-11,9.729770560886543e-12,5.608483783943603e-12,2.94682808685467e-12,1.677701588232091e-12,6.457847674347581e-09,6.078388848772639e-09,5.3336753715084064e-09,4.378292291697482e-09,3.6197271095801885e-09,3.0235182031991923e-09,2.492629803875544e-09,2.0961957939589157e-09,1.6829305643020805e-09,1.3584248660916636e-09,1.0748779643907348e-09,7.999560834041946e-10,6.15869169488212e-10,4.35284951774278e-10,3.2228692508840755e-10,2.2212595234204115e-10,1.633274627276e-10,1.068543006128861e-10,7.995459710651203e-11,4.9284308820581865e-11,3.2945415161139174e-11
0.0,18,18.0,0.0,30.0,0.0,0.0,0.0,0.0,-13.0,0.0,2.0,0.0,0.0,0.0,1.0859914482518282e-09,8.117450670491973e-10,6.050220849879633e-10,4.437228332196874e-10,3.317606070639106e-10,2.2490618157739266e-10,1.654536079083143e-10,1.1696769934734788e-10,8.596619802071113e-11,5.852494814823349e-11,3.912833019929345e-11,2.595456845511518e-11,1.5922963949027418e-11,9.799717633678451e-12,5.657449283498806e-12,3.1132246441609036e-12,1.5766766739518353e-12,6.803550092298966e-09,5.910225294793204e-09,5.405009605136786e-09,4.591267972892248e-09,3.68417947265719e-09,3.002594489822163e-09,2.5814231972771974e-09,1.940409884066671e-09,1.583299097440367e-09,1.355878290141125e-09,1.0037025958828968e-09,8.036414694511837e-10,5.824858219055987e-10,4.4693648491878365e-10,3.4229168719768667e-10,2.342864218985545e-10,1.6635394906157705e-10,1.1206498186830329e-10,7.487640522126914e-11,5.0812317445019386e-11,3.3687518707264534e-11
0.0,19,19.0,0.0,30.0,0.0,0.0,0.0,0.0,-13.0,0.0,2.0,0.0,0.0,0.0,1.1045436779382141e-09,8.271648903144565e-10,6.512284127471955e-10,4.432599171197434e-10,3.3580874432233497e-10,2.2548540380948422e-10,1.678117942269955e-10,1.131836167991484e-10,8.168925952598839e-11,5.839786357284793e-11,3.68834738765988e-11,2.5978982622640978e-11,1.578805325397942e-11,9.58441325448063e-12,5.6161856944368615e-12,3.105981416715062e-12,1.6585112541374971e-12,6.774730558761855e-09,5.730137066335416e-09,5.320686325329202e-09,4.368856271562574e-09,3.862715335758003e-09,3.0394466925171832e-09,2.5722798484347188e-09,2.008497004320214e-09,1.6099723370603127e-09,1.3029838715310181e-09,9.690655918936448e-10,7.644702271500412e-10,5.912427157749581e-10,4.698063969641126e-10,3.424253542640408e-10,2.3302989828330135e-10,1.6246641053702718e-10,1.1434192973166034e-10,7.626468357450331e-11,5.043250563503735e-11,3.2384223882701974e-11
0.0,20,20.0,0.0,30.0,0.0,0.0,0.0,0.0,-13.0,0.0,2.0,0.0,0.0,0.0,1.0587295020802752e-09,8.391168606033021e-10,5.860099953157871e-10,4.4926571961178785e-10,3.2481894053938277e-10,2.2667300047927295e-10,1.7314062796976532e-10,1.2262541509943377e-10,8.786398946566743e-11,6.004012392854134e-11,4.140672919771196e-11,2.6160708908460234e-11,1.6863147337621313e-11,9.590405934751044e-12,5.390361503974015e-12,3.090210073856072e-12,1.6577760209846102e-12,6.5517365826906014e-09,6.3346633264397425e-09,5.221858077511376e-09,4.4954564741519225e-09,3.8213723160041676e-09,2.997891996424626e-09,2.55635597913821e-09,2.0176422137724964e-09,1.6773179252087067e-09,1.3432294909748062e-09,1.0617992296153723e-09,8.340013151711666e-10,6.259371292060973e-10,4.427127129573401e-10,3.459296170074703e-10,2.4476071928746454e-10,1.6017084948338255e-10,1.1575720319855633e-10,7.684744374812778e-11,5.191083115618098e-11,3.355736621846499e-11
0.0,21,21.0,0.0,30.0,0.0,0.0,0.0,0.0,-13.0,0.0,2.0,0.0,0.0,0.0,1.0868351659943745e-09,7.864592940299797e-10,5.912148863258455e-10,4.266417694442871e-10,3.1968317471862465e-10,2.3245093492497065e-10,1.6411171306413647e-10,1.195346755561745e-10,8.47381654120254e-11,5.90894426008565e-11,3.935076672652769e-11,2.4777338999137857e-11,1.60850488789673e-11,9.452819801945173e-12,5.44578197894767e-12,2.837281258357164e-12,1.5375105996084184e-12,6.4053433686638635e-09,5.939012996433051e-09,5.500054306062448e-09,4.371293192984723e-09,3.743124592485234e-09,3.0464053162783315e-09,2.3948888132248625e-09,1.9645139454207925e-09,1.7294195874240608e-09,1.3093992561244444e-09,1.0674488820120511e-09,7.581052122349256e-10,6.35053524184619e-10,4.6244556196057135e-10,3.3388878892968584e-10,2.2923792874328299e-10,1.647100207286355e-10,1.176139077378324e-10,7.729607698596052e-11,5.0557477380063256e-11,3.3674266954714026e-11
0.0,22,22.0,0.0,30.0,0.0,0.0,0.0,0.0,-13.0,0.0,2.0,0.0,0.0,0.0,1.1032082237991025e-09,8.065911029947979e-10,5.89645762122331e-10,4.079481550610989e-10,3.417893808438222e-10,2.1916712274713286e-10,1.661026223357424e-10,1.2413576237540552e-10,8.837610861063812e-11,5.6408022988220565e-11,3.912999255022869e-11,2.487721911699747e-11,1.626577954548685e-11,9.987211744616465e-12,5.556037287989248e-12,2.8805099056502888e-12,1.4656396330000817e-12,6.738556006393286e-09,6.098648681184002e-09,5.089103351922294e-09,4.535097604176653e-09,3.801602056408288e-09,3.0916390040228572e-09,2.5035396455875768e-09,2.0862943869959713e-09,1.6105061610400662e-09,1.3307237032557373e-09,9.958892301401619e-10,8.040460425019028e-10,6.1712331872004e-10,4.487781042671689e-10,3.311200356677431e-10,2.3068890697193048e-10,1.4960005107704514e-10,1.0867329624839045e-10,7.656600101302877e-11,5.344866452976502e-11,3.334699052337233e-11
0.0,23,23.0,0.0,30.0,0.0,0.0,0.0,0.0,-13.0,0.0,2.0,0.0,0.0,0.0,1.0759709208295796e-09,7.954330207270899e-10,5.916085235082852e-10,4.542829718679992e-10,3.1187426816458556e-10,2.2804839697519614e-10,1.678361979438668e-10,1.2663602886675743e-10,8.514846575538782e-11,5.896817113579044e-11,3.9000364650882566e-11,2.5258038124364734e-11,1.4795179175542217e-11,9.651907478412872e-12,5.225489711013098e-12,2.956202214457897e-12,1.568776962823696e-12,6.389840832065498e-09,6.202621833784281e-09,5.1839472880480765e-09,4.5273766195874416e-09,3.51912059326999e-09,3.0228347236763583e-09,2.5165099032705055e-09,2.043503679033799e-09,1.7062086900697981e-09,1.352599700890415e-09,1.0513815786136328e-09,7.9740352907744e-10,6.225609421480737e-10,4.2099910914425194e-10,3.32528162908024e-10,2.3053261087436682e-10,1.5715770321142326e-10,1.1953337103100003e-10,8.003140279923508e-11,5.192535461636145e-11,3.41986201380116e-11
0.0,24,24.0,0.0,30.0,0.0,0.0,0.0,0.0,-13.0,0.0,2.0,0.0,0.0,0.0,1.1252699156156938e-09,7.782993623901619e-10,5.796374791953822e-10,4.3795210380599673e-10,3.160545732812174e-10,2.361695342060588e-10,1.7053009445470508e-10,1.2216389695574714e-10,8.751231480053881e-11,6.179103489529602e-11,3.861589727583334e-11,2.5792111176792895e-11,1.637242031697469e-11,9.552098171230519e-12,5.251689731083965e-12,2.8309608333137463e-12,1.5817706122502145e-12,7.0416314893664595e-09,6.137346475943551e-09,5.3566941392319064e-09,4.250284095780427e-09,3.801844041613734e-09,3.056838889291872e-09,2.5150590717808284e-09,1.953627149549296e-09,1.7270297252464081e-09,1.3135925179230953e-09,1.0396519735706146e-09,8.034951232937191e-10,6.032895407846864e-10,4.48055248552882e-10,3.3543914030520465e-10,2.464130069582896e-10,1.663827551066389e-10,1.179039643456529e-10,7.628776665241264e-11,5.372059129322981e-11,3.37915771303963e-11
0.0,25,25.0,0.0,30.0,0.0,0.0,0.0,0.0,-13.0,0.0,2.0,0.0,0.0,0.0,1.1198711821149216e-09,8.278532232581089e-10,5.625565678700441e-10,4.3666158664253166e-10,3.0968396645434455e-10,2.3147845766762496e-10,1.7054313299641537e-10,1.332754108924836e-10,8.504168416108656e-11,6.119497061149453e-11,4.077888586874924e-11,2.5400471118455677e-11,1.6110990449271985e-11,9.252331659845731e-12,5.3868162181580605e-12,2.9325568688576516e-12,1.5375761400308217e-12,6.71678606883378e-09,6.013843996545115e-09,5.1121893487823385e-09,4.3850755632510506e-09,3.864971194233618e-09,3.159072792493637e-09,2.5133555397126868e-09,2.0936729328556337e-09,1.7339121271993654e-09,1.3032810632156217e-09,1.029941013861674e-09,8.079697935722092e-10,5.996355215710228e-10,4.3514359701635846e-10,3.289347650253574e-10,2.3433973969328553e-10,1.628568533362547e-10,1.1503214062917452e-10,7.735307561074234e-11,5.2946357152283834e-11,3.544729517423314e-11
0.0,26,26.0,0.0,30.0,0.0,0.0,0.0,0.0,-13.0,0.0,2.0,0.0,0.0,0.0,1.1037870371796361e-09,8.229945976714121e-10,6.028666563757087e-10,4.250780851052419e-10,3.171761051091364e-10,2.41279699202716e-10,1.7360572048114712e-10,1.2244541461565107e-10,8.997464118905789e-11,6.161181870379386e-11,3.902735943441608e-11,2.5688794009157877e-11,1.6046568838283223e-11,9.713816571706273e-12,5.404662303466273e-12,2.899284502813892e-12,1.5214800360829489e-12,6.552855488077331e-09,6.0930135419486405e-09,5.23004670992658e-09,4.4119005792292945e-09,3.633210100728265e-09,3.150595405853694e-09,2.4345475890331167e-09,2.0362969133360275e-09,1.7348026980218675e-09,1.3566201500381716e-09,1.0621140571705214e-09,8.027155219733864e-10,5.963374336465003e-10,4.5297909904551303e-10,3.409676143140953e-10,2.025716989959618e-10,1.6255472967835423e-10,1.1248062030919978e-10,7.727867044740889e-11,5.4641079351065347e-11,3.4560827424248393e-11
0.0,27,27.0,0.0,30.0,0.0,0.0,0.0,0.0,-13.0,0.0,2.0,0.0,0.0,0.0,1.0659907581512249e-09,8.006039954428356e-10,5.920507087198866e-10,4.35084514775701e-10,3.2334509513557024e-10,2.271076914203035e-10,1.7113531655295339e-10,1.2194542652782094e-10,8.664064671446199e-11,6.026501581654174e-11,3.877207822446507e-11,2.4530841679554108e-11,1.4689817588331158e-11,9.361602528300377e-12,5.263981689324216e-12,2.9751723710440906e-12,1.4036544807151469e-12,6.9258394862891864e-09,6.138808660217806e-09,4.9395015653487455e-09,4.496225680279952e-09,3.6464290376637984e-09,3.0851963065272894e-09,2.582917713816855e-09,2.0292238765287453e-09,1.682896948015605e-09,1.274703818665455e-09,1.0660192543773314e-09,8.008702139257112e-10,6.322640485520638e-10,4.357591556503345e-10,3.369341672603143e-10,2.3206325990993892e-10,1.6691385143207588e-10,1.1213905131929332e-10,7.656295774428786e-11,5.224843756205725e-11,3.511535208723851e-11
0.0,28,28.0,0.0,30.0,0.0,0.0,0.0,0.0,-13.0,0.0,2.0,0.0,0.0,0.0,1.0739470942577135e-09,8.101446937309524e-10,5.941849380605662e-10,4.3503740180662835e-10,3.2644058938397265e-10,2.323935508126098e-10,1.7754747495420198e-10,1.239872249359832e-10,8.440146323634566e-11,6.174983049089539e-11,4.008375765081559e-11,2.4826145862920454e-11,1.5000606307885685e-11,8.30157085920899e-12,4.882857233444195e-12,2.950576570749734e-12,1.4492920453629886e-12,6.678378612215863e-09,6.122887509713575e-09,5.50907044552441e-09,4.3789617574869284e-09,3.8363672035963646e-09,3.0582856789321222e-09,2.5542593177145216e-09,1.9762229275467416e-09,1.6700703090781905e-09,1.2519523022481904e-09,1.043239981593548e-09,8.15213914968387e-10,5.972129080362172e-10,4.502628002005486e-10,3.3021653643888905e-10,2.2323260043825354e-10,1.6059713126085078e-10,1.1629615319129998e-10,8.075949236685295e-11,5.2864073677291574e-11,3.302052832106397e-11
0.0,29,29.0,0.0,30.0,0.0,0.0,0.0,0.0,-13.0,0.0,2.0,0.0,0.0,0.0,1.103427297030347e-09,8.71437965789162e-10,5.884980354461396e-10,4.2872326100739394e-10,3.4071997845016023e-10,2.395232173270521e-10,1.6843606565484987e-10,1.2223715982572853e-10,9.076849568621297e-11,5.961382437605149e-11,3.859374823067312e-11,2.5131193455771214e-11,1.57463723817886e-11,9.218365737316179e-12,5.174952848554322e-12,2.8060214348637962e-12,1.445652627479416e-12,6.801686500648296e-09,6.064291971390368e-09,5.051760266882676e-09,4.578097515019557e-09,3.6218838722991394e-09,2.987561565543139e-09,2.598569786650635e-09,2.0452601064373636e-09,1.7136833511006189e-09,1.3493460695709844e-09,1.0184409304119761e-09,8.191909729300128e-10,6.177944813864532e-10,4.592793815895526e-10,3.3181930019521094e-10,2.4149268757757733e-10,1.7581869002890425e-10,1.1580425822496109e-10,7.929502987009532e-11,5.439441441694219e-11,3.51814174307388e-11
0.0,30,30.0,0.0,30.0,0.0,0.0,0.0,0.0,-13.0,0.0,2.0,0.0,0.0,0.0,1.062282502432599e-09,8.030440644854623e-10,5.823212196936107e-10,4.4710149581954235e-10,3.378984826501715e-10,2.3584846130198583e-10,1.7659720829296812e-10,1.327403111750445e-10,8.55189144656139e-11,6.045961763801898e-11,4.1138344337185656e-11,2.5184109005126433e-11,1.5786982760951632e-11,9.219165035238052e-12,5.097596673167371e-12,2.8843005643933454e-12,1.4273651526728001e-12,6.3227593787018065e-09,6.1370359152164155e-09,5.264692438024201e-09,4.462581876154806e-09,3.730965817227718e-09,3.124725279278504e-09,2.5450668975481817e-09,2.019632652953611e-09,1.8062876591369982e-09,1.3348369777228405e-09,1.0311763152063747e-09,8.229146444191879e-10,5.792726295170774e-10,4.522891224501283e-10,3.385206133083297e-10,2.2864842045185974e-10,1.6681926076193257e-10,1.1299055483472783e-10,7.551619815966244e-11,5.1218098224602684e-11,3.371258450642808e-11
0.0,31,31.0,0.0,30.0,0.0,0.0,0.0,0.0,-13.0,0.0,2.0,0.0,0.0,0.0,1.0960433086008796e-09,8.248313536925019e-10,6.45717533739355e-10,4.453640437227699e-10,3.28196200684695e-10,2.419379615187149e-10,1.7441358904396568e-10,1.3072936831154056e-10,9.250074537001708e-11,5.908793817246214e-11,3.9594848615398507e-11,2.5739328399855692e-11,1.5135582054246467e-11,9.255259364126527e-12,5.112107045942e-12,2.7939606061771064e-12,1.482276264758135e-12,6.623136958416534e-09,6.0312758469714906e-09,5.3294690294861275e-09,4.468273681811156e-09,3.6413949658658696e-09,3.1376114593967696e-09,2.3600298361132407e-09,2.089442606196363e-09,1.651675929785633e-09,1.3196471978735203e-09,1.0303030885631434e-09,7.660509546868784e-10,5.850517814761238e-10,4.6150671027495253e-10,3.312119875984023e-10,2.3430261993264294e-10,1.6944463209332357e-10,1.1156961216758927e-10,8.041013876679265e-11,5.4311127547393164e-11,3.573975819758574e-11
0.0,32,32.0,0.0,30.0,0.0,0.0,0.0,0.0,-13.0,0.0,2.0,0.0,0.0,0.0,1.0762719421396123e-09,8.225707718479873e-10,6.007712892721015e-10,4.481042915261095e-10,3.3148396185761293e-10,2.461621949662462e-10,1.7280410923719513e-10,1.2684619469241727e-10,8.849059028630573e-11,5.894556861030792e-11,4.133120962560183e-11,2.5069818870939105e-11,1.5702664798893324e-11,8.91169775354343e-12,4.9007641589866556e-12,2.817745582001161e-12,1.3780105572788402e-12,7.236462870706694e-09,6.256471430029585e-09,5.2200257840202095e-09,4.189730913387954e-09,3.6623640615034827e-09,3.014794041779351e-09,2.6368033326444207e-09,2.204824547207496e-09,1.6585480849398545e-09,1.3150004291723745e-09,1.0405743398746058e-09,7.673922552904917e-10,5.991603218088641e-10,4.678783476233787e-10,3.3284601245843083e-10,2.2608420158219293e-10,1.7351324383203848e-10,1.135574204493599e-10,8.017309530937541e-11,5.4624533493441916e-11,3.5402625164835976e-11
0.0,33,33.0,0.0,30.0,0.0,0.0,0.0,0.0,-13.0,0.0,2.0,0.0,0.0,0.0,1.0310652426896788e-09,8.037904167374674e-10,5.921153445248919e-10,4.4988086644934154e-10,3.294012083355959e-10,2.4383387683735407e-10,1.729983436257739e-10,1.2381691778634903e-10,8.819027572782949e-11,5.92671983100946e-11,3.939943109970025e-11,2.398026404158414e-11,1.488760283298296e-11,8.660094666057717e-12,4.7711847399498684e-12,2.6147474267018596e-12,1.3187037646691935e-12,6.8247746262299824e-09,5.986944187687962e-09,5.303443880975158e-09,4.494901487860498e-09,3.80373506259145e-09,2.9502045633001227e-09,2.382156753252279e-09,2.03430880957714e-09,1.7224222676910683e-09,1.3355859107372836e-09,1.0686218509295464e-09,7.723843422524622e-10,5.98877268074781e-10,4.2965077022620906e-10,3.429050587981123e-10,2.3833329438746266e-10,1.63267236449341e-10,1.1494828109780172e-10,8.201003089160872e-11,5.524797885990671e-11,3.575248359564869e-11
0.0,34,34.0,0.0,30.0,0.0,0.0,0.0,0.0,-13.0,0.0,2.0,0.0,0.0,0.0,1.0885985433794615e-09,8.311926526817427e-10,6.097445306987772e-10,4.611809655954961e-10,3.148038883540552e-10,2.491367165931827e-10,1.7065233481364777e-10,1.2826075306137817e-10,9.338082139038598e-11,6.057111698928653e-11,3.901914436945816e-11,2.4496035242016747e-11,1.5232651380331698e-11,9.11293819018805e-12,4.9805558038110945e-12,2.6238214561302226e-12,1.3799880640436484e-12,6.816671862891805e-09,5.633227608357341e-09,5.138440851179915e-09,4.5104665956743965e-09,3.84392992232923e-09,3.1839303071597436e-09,2.5301056326512154e-09,2.0906810410148023e-09,1.707453981192422e-09,1.2492138494626244e-09,1.0104962136886255e-09,7.950222369221826e-10,6.308089480372e-10,4.4751820980620633e-10,3.358761674731609e-10,2.396095686097007e-10,1.7148364347480268e-10,1.1238881015740712e-10,7.969162719686786e-11,5.2349650892118967e-11,3.264636659425011e-11
0.0,35,35.0,0.0,30.0,0.0,0.0,0.0,0.0,-13.0,0.0,2.0,0.0,0.0,0.0,1.050954414239343e-09,7.717707899713593e-10,5.884118542629254e-10,4.368584960405098e-10,3.3162879431889367e-10,2.379084107966319e-10,1.7141285220620736e-10,1.2972508740637444e-10,9.06051808183466e-11,5.76387613146168e-11,4.05471048348946e-11,2.6177093775247925e-11,1.4494302132777887e-11,8.564479417801864e-12,4.836841880998851e-12,2.4870241144834167e-12,1.3024141587244317e-12,6.338638905631357e-09,5.810922566306347e-09,5.240192711972633e-09,4.387740617699451e-09,3.5588684681966132e-09,3.0043786206546274e-09,2.530575513036841e-09,2.029165448962872e-09,1.6279579629094281e-09,1.3690895712820166e-09,1.044753015080409e-09,8.034558866883688e-10,5.815202850926964e-10,4.5220781639763644e-10,3.246427883314568e-10,2.2848190150184957e-10,1.8424522348393928e-10,1.215068025865791e-10,8.661990693238301e-11,5.4984282880714156e-11,3.6528032689829964e-11
0.0,36,36.0,0.0,30.0,0.0,0.0,0.0,0.0,-13.0,0.0,2.0,0.0,0.0,0.0,1.15545162150126e-09,8.234636008798122e-10,5.866520379911183e-10,4.3012354524497247e-10,3.2219991695045706e-10,2.4163734839117914e-10,1.9226797489095816e-10,1.2986260680960687e-10,8.567500957916686e-11,6.11099098942066e-11,4.0213941509962234e-11,2.6019690920264255e-11,1.4569252629661662e-11,8.944989066041841e-12,4.8767565005922746e-12,2.5189557181631733e-12,1.3265279025035144e-12,6.96792537496207e-09,6.099392007398953e-09,5.0810649933878195e-09,4.2988414269916735e-09,3.770166719714735e-09,3.094058309204455e-09,2.5930842668888067e-09,2.1253155703528498e-09,1.6621764488394257e-09,1.343344260987625e-09,1.0941154002242639e-09,7.906334495800346e-10,6.452994498480842e-10,4.3964597877773017e-10,3.1997885732308353e-10,2.4522033337084964e-10,1.6732415969045084e-10,1.167669169437487e-10,8.2172767014762e-11,5.22893614024789e-11,3.729446715647155e-11
0.0,37,37.0,0.0,30.0,0.0,0.0,0.0,0.0,-13.0,0.0,2.0,0.0,0.0,0.0,1.1325882094758295e-09,7.945328701604616e-10,5.931256289271128e-10,4.192941751415908e-10,3.2565159076487867e-10,2.4815674834550704e-10,1.7136017267350308e-10,1.3170834643785973e-10,9.308825752208512e-11,5.910080154079007e-11,3.836433183388428e-11,2.5169759528643115e-11,1.5716842672482426e-11,8.476681057582767e-12,4.773629277611545e-12,2.630091051135614e-12,1.2945769088654701e-12,6.156881705466702e-09,5.74907184286719e-09,5.3583303165447076e-09,4.608179256131326e-09,3.808352740153728e-09,2.980648313769048e-09,2.433200990941087e-09,2.1591894171114077e-09,1.7161604089504217e-09,1.3240093020039487e-09,1.0641172555819237e-09,8.056452088800969e-10,6.120288299542327e-10,4.526714474343175e-10,3.1731855994935374e-10,2.297166316084068e-10,1.7071530953261134e-10,1.1585235974721267e-10,8.670876716646229e-11,5.789953744269567e-11,3.637346810332864e-11
0.0,38,38.0,0.0,30.0,0.0,0.0,0.0,0.0,-13.0,0.0,2.0,0.0,0.0,0.0,1.0098343485394693e-09,7.974956852971181e-10,5.934485973930872e-10,4.489130698637501e-10,3.3505541796015704e-10,2.2939939819927262e-10,1.7392354605548e-10,1.2830738215074376e-10,8.668773875874232e-11,6.389838109620949e-11,3.899067138631774e-11,2.3841898436324366e-11,1.5472267408477764e-11,8.512843239211401e-12,4.911875977602719e-12,2.506510344537742e-12,1.2697234618154607e-12,6.6576523060368964e-09,6.2481580950739e-09,5.124994035866732e-09,4.7891571719592145e-09,3.6989580766540957e-09,3.1772570659924264e-09,2.629434980204023e-09,2.07307898726265e-09,1.6855841700330393e-09,1.2563752876317882e-09,1.0486062158763848e-09,7.849079123932963e-10,6.187530353773714e-10,4.181478382913735e-10,3.225155678751076e-10,2.421448196975643e-10,1.7091058870447862e-10,1.2083056072107673e-10,8.214183465416325e-11,5.544236214729878e-11,3.571016481981497e-11
0.0,39,39.0,0.0,30.0,0.0,0.0,0.0,0.0,-13.0,0.0,2.0,0.0,0.0,0.0,1.1871885808837957e-09,8.081112140527892e-10,5.81263455107566e-10,4.579739717654609e-10,3.271285638688521e-10,2.392956933122166e-10,1.7800512409563613e-10,1.2705892251286918e-10,9.327882909192999e-11,6.036251039758717e-11,4.087930815699409e-11,2.5226821825870213e-11,1.5277005260493e-11,9.069514615750309e-12,4.777087466425598e-12,2.434746385328526e-12,1.2626244223199322e-12,6.795502093388814e-09,6.213417055735829e-09,5.317951235401681e-09,4.400139787393246e-09,3.908007384495692e-09,3.0661657522976685e-09,2.6328360842955e-09,2.015317944802213e-09,1.6312884217509e-09,1.2765727697946175e-09,9.765539074874847e-10,7.89435673184575e-10,6.087859980955795e-10,4.26005128600831e-10,3.33829246786277e-10,2.366279393413645e-10,1.7043677415206076e-10,1.2324648271778744e-10,8.377192290653206e-11,5.389097208725701e-11,3.659772457596819e-11
0.0,40,40.0,0.0,30.0,0.0,0.0,0.0,0.0,-13.0,0.0,2.0,0.0,0.0,0.0,1.07875072046559e-09,8.272244784106855e-10,5.948856260153292e-10,4.727289020289307e-10,3.2018307308378506e-10,2.42652652291567e-10,1.7911194452527173e-10,1.2920586324235775e-10,8.89931584917866e-11,6.096569775804526e-11,4.1420849357155027e-11,2.5125168989411107e-11,1.491438161404069e-11,8.096349244414149e-12,4.570483420189933e-12,2.5273869945530553e-12,1.2164269345620693e-12,6.947419027240833e-09,5.602872555488429e-09,5.380230493510874e-09,4.401089356648122e-09,3.769653295218887e-09,3.062053366799394e-09,2.5217828055853427e-09,2.0172020361096546e-09,1.6794804055388295e-09,1.2533839283902914e-09,1.0389854787293555e-09,8.25090044115852e-10,5.883675290357846e-10,4.4635707412690905e-10,3.3381188623420246e-10,2.4199843157316045e-10,1.7443739682543515e-10,1.2322440952707873e-10,8.359492226844719e-11,5.6010083520031286e-11,3.70185653865663e-11
0.0,41,41.0,0.0,30.0,0.0,0.0,0.0,0.0,-13.0,0.0,2.0,0.0,0.0,0.0,1.0482777747335053e-09,7.796693014024563e-10,6.051079358616237e-10,4.4442782445591504e-10,3.342876545632725e-10,2.397603172075773e-10,1.7352047904808495e-10,1.2631658188939012e-10,8.980813046988312e-11,6.01791108521231e-11,3.860159122620999e-11,2.483366431329945e-11,1.5374031695683686e-11,8.105797014007483e-12,4.580056989664898e-12,2.2843576222143853e-12,1.196934406037678e-12,6.649354435062652e-09,6.1535846729233395e-09,5.29442540741412e-09,4.653425922202949e-09,3.734488293330241e-09,3.1654191040191678e-09,2.5849825853162073e-09,2.0550530841836305e-09,1.6923858534814453e-09,1.3079867891077181e-09,9.750923973217192e-10,7.90469845393313e-10,6.016626121087663e-10,4.425066343487732e-10,3.332964221807996e-10,2.2906006330835479e-10,1.725303341807885e-10,1.2484593108199714e-10,8.362473598548518e-11,5.562122289817067e-11,3.78054939971139e-11
0.0,42,42.0,0.0,30.0,0.0,0.0,0.0,0.0,-13.0,0.0,2.0,0.0,0.0,0.0,1.051440931524991e-09,8.582711238141431e-10,6.131363741955406e-10,4.541002014021604e-10,3.1072077589118095e-10,2.493029701833144e-10,1.885581236215708e-10,1.247289193110388e-10,9.212149882633733e-11,5.802960066034176e-11,3.76243011622465e-11,2.4009908147375853e-11,1.5016309999682953e-11,8.646661988820303e-12,4.394228641249682e-12,2.3915741146682714e-12,1.1416222950224769e-12,6.7650582863427055e-09,6.0717164077038e-09,5.068451014972248e-09,4.490418489249517e-09,3.611695620163739e-09,2.982431632766969e-09,2.5233447392747393e-09,1.9286040261034645e-09,1.6616779908753694e-09,1.3140109534963733e-09,1.043064490074792e-09,7.838102473198907e-10,5.985899255895899e-10,4.4698181057551183e-10,3.305740392683577e-10,2.485482075957241e-10,1.773853619748402e-10,1.207532127013183e-10,9.016274528798653e-11,5.521650287895532e-11,3.531975394950172e-11
0.0,43,43.0,0.0,30.0,0.0,0.0,0.0,0.0,-13.0,0.0,2.0,0.0,0.0,0.0,1.0998879027831711e-09,8.230025179319444e-10,6.192481715095615e-10,4.418737467287439e-10,3.4951014668935737e-10,2.392347240505105e-10,1.9317472650304101e-10,1.3039022047461033e-10,8.993076488877072e-11,6.36031790923007e-11,3.985393732564262e-11,2.495802500349336e-11,1.4727838791045537e-11,8.089288529799018e-12,4.336940026948664e-12,2.2876532616427708e-12,1.1946401579633543e-12,6.578800046437469e-09,6.1906870020261484e-09,5.376850813676582e-09,4.2855076206736685e-09,3.783311907667144e-09,2.9403728890998336e-09,2.5866948444519724e-09,2.139841530161886e-09,1.6145060258736477e-09,1.3478962931505377e-09,1.0431930269265747e-09,7.910226914236832e-10,5.96346489434793e-10,4.64930447766131e-10,3.235230738241067e-10,2.3272912264322878e-10,1.7512050678499244e-10,1.2629865404216815e-10,8.871212018790813e-11,5.738017027165606e-11,3.742050023373473e-11
0.0,44,44.0,0.0,30.0,0.0,0.0,0.0,0.0,-13.0,0.0,2.0,0.0,0.0,0.0,1.0448511373924464e-09,8.151669599826765e-10,6.251612411206898e-10,4.440026564036859e-10,3.357073448879191e-10,2.433230124437574e-10,1.8983233332346655e-10,1.3196386033843974e-10,9.103464894065109e-11,6.206815443586219e-11,3.992936530066174e-11,2.341200919976358e-11,1.4755534074809762e-11,7.9927585324172e-12,4.3605691199290514e-12,2.2656081386168443e-12,1.0910658230168031e-12,6.389414659706503e-09,6.098867459872277e-09,5.276414775292631e-09,4.096894867341436e-09,3.660860336484329e-09,3.0162527347134573e-09,2.593412649636239e-09,2.117717363693098e-09,1.7096656112726854e-09,1.3315081296002292e-09,1.032362186816477e-09,7.991861586592961e-10,5.750035937133466e-10,4.318624364528844e-10,3.263956999559029e-10,2.479207187311174e-10,1.7628226695662927e-10,1.1983049157054203e-10,9.323528844758367e-11,5.756119423946367e-11,3.580032870673252e-11
0.0,45,45.0,0.0,30.0,0.0,0.0,0.0,0.0,-13.0,0.0,2.0,0.0,0.0,0.0,1.0356800078496962e-09,8.266758577004049e-10,6.419335954778841e-10,4.5523594219904573e-10,3.2866829012805945e-10,2.4459875553842437e-10,1.7703656068642528e-10,1.2673172603308333e-10,9.720777492831182e-11,5.863173194730881e-11,3.9164149678560336e-11,2.3381364472552125e-11,1.4341986823378396e-11,7.967284525010924e-12,4.319442663748767e-12,2.343082372316147e-12,1.1049519861052893e-12,6.5608205281908015e-09,6.219233095987295e-09,5.47021093101171e-09,4.4973969241272095e-09,3.806382591776961e-09,3.0052124675448273e-09,2.587719955752211e-09,2.071340996922908e-09,1.7074897808735603e-09,1.2880439493441742e-09,1.0251983239384558e-09,7.677491980759737e-10,5.834215850563139e-10,4.4720864398480083e-10,3.382833889368215e-10,2.2921998367950696e-10,1.8104867350092302e-10,1.3464879879546515e-10,8.89043541267461e-11,5.625011305598747e-11,3.630549671236055e-11
0.0,46,46.0,0.0,30.0,0.0,0.0,0.0,0.0,-13.0,0.0,2.0,0.0,0.0,0.0,1.1016269544808516e-09,8.28857117189603e-10,6.032851040454738e-10,4.473118871056207e-10,3.162770253361155e-10,2.5539348790608784e-10,1.709304079498575e-10,1.2732484339811783e-10,8.848710899046938e-11,6.032940573070249e-11,4.1625180975125645e-11,2.489015289085716e-11,1.361100328555203e-11,7.481659507152228e-12,4.341160648076351e-12,2.1409905283540946e-12,1.08666113746919e-12,6.440485536884271e-09,5.962053014735392e-09,5.251623321678144e-09,4.279429090233685e-09,3.6261775283713665e-09,3.0348325618245803e-09,2.629314657963253e-09,2.079863007672784e-09,1.676685801720237e-09,1.398911684227683e-09,1.0568365534650629e-09,7.882307022172786e-10,6.213336074153668e-10,4.750954292875202e-10,3.463138057817597e-10,2.3735208925623695e-10,1.8435243804121974e-10,1.3082311202050375e-10,8.7833557501051e-11,6.00158576200552e-11,3.690183577831185e-11
0.0,47,47.0,0.0,30.0,0.0,0.0,0.0,0.0,-13.0,0.0,2.0,0.0,0.0,0.0,1.046652942896345e-09,7.844230564514383e-10,5.93184856199312e-10,4.407106009751135e-10,3.458608816870081e-10,2.5059981102034323e-10,1.8649828456958527e-10,1.3026841064319603e-10,8.743211656831897e-11,6.030187343786443e-11,3.899623383424097e-11,2.3396229033904158e-11,1.4018483873396498e-11,7.56948694311088e-12,4.332449547599887e-12,2.1003327079593093e-12,1.114631708258149e-12,6.839402689941266e-09,5.945685765542881e-09,5.402666020131836e-09,4.378127210055491e-09,3.684996703829742e-09,3.132341582009238e-09,2.6171433169883667e-09,2.04273314808943e-09,1.5976384559358785e-09,1.331799506664947e-09,1.0197056514308794e-09,7.886277820176777e-10,6.000928717050525e-10,4.475947042313443e-10,3.290188486797229e-10,2.334333376468897e-10,1.825159859717491e-10,1.3148059786636447e-10,8.385775643569352e-11,5.4278796521282807e-11,3.825786324640141e-11
0.0,48,48.0,0.0,30.0,0.0,0.0,0.0,0.0,-13.0,0.0,2.0,0.0,0.0,0.0,1.0740991900899637e-09,8.200777908321864e-10,6.057881961151952e-10,4.2420043941916074e-10,3.5164987886811087e-10,2.705870217466834e-10,1.8663881909912603e-10,1.3192930826357065e-10,9.531968137040763e-11,6.143211308677815e-11,3.8407839067729975e-11,2.4323027817667026e-11,1.4009022898223554e-11,7.857337587511467e-12,4.1017145867894516e-12,2.019605880205628e-12,1.0464386824348593e-12,6.74460052133373e-09,5.66175996169332e-09,5.326456977705421e-09,4.57652792369676e-09,3.57320409459654e-09,3.0304383613763887e-09,2.537830539893619e-09,2.143061818422714e-09,1.5544630864602538e-09,1.2472445797896342e-09,1.0750915203764882e-09,7.76739863481688e-10,6.021389659833614e-10,4.4216753612420686e-10,3.2776231198154333e-10,2.6198152978015664e-10,1.7795212511725187e-10,1.3418888284418397e-10,8.865213984307805e-11,6.072845866067211e-11,3.599366997774986e-11
0.0,49,49.0,0.0,30.0,0.0,0.0,0.0,0.0,-13.0,0.0,2.0,0.0,0.0,0.0,1.1014040536448727e-09,8.034085422012307e-10,5.992578427265686e-10,4.504011208703145e-10,3.467746649752968e-10,2.49544744938754e-10,1.8174746906588245e-10,1.345473502683393e-10,8.959188981822082e-11,5.91705310028098e-11,3.845879099945586e-11,2.313204370230506e-11,1.3875290051483744e-11,7.874852853021813e-12,4.1042634858712015e-12,2.111420987187527e-12,1.0294517466874066e-12,6.6840232697204065e-09,6.221517359849909e-09,5.322148798910582e-09,4.700808884713868e-09,3.6729115909087507e-09,2.968752335354594e-09,2.423514033609679e-09,2.0608670094723145e-09,1.578123263015749e-09,1.3418098436103603e-09,1.0067283584233882e-09,8.022246699874902e-10,6.121362992466435e-10,4.4427950883779147e-10,3.4847706591238014e-10,2.618923388694112e-10,1.8836037728011366e-10,1.273861063872418e-10,9.479370436325992e-11,6.043649689371965e-11,3.630033808486357e-11
0.0,50,50.0,0.0,30.0,0.0,0.0,0.0,0.0,-13.0,0.0,2.0,0.0,0.0,0.0,1.0507724992985056e-09,8.677303850050899e-10,6.353633371480988e-10,4.809295662299775e-10,3.396372339875765e-10,2.732432944404408e-10,1.7978663776597535e-10,1.335498789524792e-10,9.098702257263678e-11,6.029305607494711e-11,3.7132946142855164e-11,2.3078160550595866e-11,1.3689801868051272e-11,7.549244525734608e-12,4.122733529425876e-12,2.0831004110233644e-12,9.300464241365014e-13,6.743831882244457e-09,6.1889160442571205e-09,5.372865959621894e-09,4.331443462765889e-09,3.6827556916178667e-09,3.030145570423545e-09,2.519398787006494e-09,2.0923116690523926e-09,1.6990853816398137e-09,1.285385040396101e-09,9.791445080884516e-10,8.131607429622675e-10,6.234187941409984e-10,4.611903265785684e-10,3.4265651471591244e-10,2.457054083151216e-10,1.768482188062208e-10,1.302311404169938e-10,8.7598689879187e-11,5.829938521467574e-11,3.7678382851345255e-11
0.0,51,51.0,0.0,30.0,0.0,0.0,0.0,0.0,-13.0,0.0,2.0,0.0,0.0,0.0,1.1028551299448575e-09,8.288947357873327e-10,6.14456568586721e-10,4.3698674156406765e-10,3.346645764552411e-10,2.484783158788932e-10,1.920587738792315e-10,1.3907270023504515e-10,8.733588635743923e-11,5.6760483467605996e-11,3.8763271756610867e-11,2.427442750977188e-11,1.3262539784826731e-11,7.439057032164043e-12,3.9143060662766e-12,2.092398074319319e-12,9.345090940442191e-13,6.8430747111816e-09,6.0502658016147136e-09,5.295911775826796e-09,4.36960978220838e-09,3.559347501711868e-09,3.0413611716822483e-09,2.4872271442350936e-09,2.122582540931904e-09,1.6683969243587497e-09,1.3181335585915697e-09,1.0583804811449982e-09,8.010554714761232e-10,6.087146589496643e-10,4.69081455183612e-10,3.407174305350988e-10,2.516519143715291e-10,1.883426359420414e-10,1.3866090229918283e-10,8.727968631967333e-11,5.94719801259384e-11,3.5076291082696704e-11
0.0,52,52.0,0.0,30.0,0.0,0.0,0.0,0.0,-13.0,0.0,2.0,0.0,0.0,0.0,1.1024236404662946e-09,8.221967994830091e-10,6.443650480067916e-10,4.4674017073927316e-10,3.4587078498055665e-10,2.5807338319375255e-10,1.9389889568326195e-10,1.3367296579977414e-10,8.852100491791693e-11,6.283708652639649e-11,3.741363438829663e-11,2.3819311717397917e-11,1.3773130747395167e-11,7.585750480983702e-12,3.91068799565215e-12,1.9603727979870043e-12,1.0039169934474693e-12,6.890788202079065e-09,5.972891122972341e-09,5.179044573448253e-09,4.741448140206714e-09,3.81946676549455e-09,3.155273192323655e-09,2.5350454280310677e-09,1.994874345326615e-09,1.6765515069368264e-09,1.357065596616528e-09,1.0271818260661857e-09,8.019762456755025e-10,6.252551098920665e-10,4.741363805111419e-10,3.44982676032737e-10,2.456843184439675e-10,1.867547972606446e-10,1.255515397231339e-10,9.640366544649873e-11,6.21765035117244e-11,3.6135490086119446e-11
0.0,53,53.0,0.0,30.0,0.0,0.0,0.0,0.0,-13.0,0.0,2.0,0.0,0.0,0.0,1.056358608867542e-09,7.856057565147745e-10,6.012432563092659e-10,4.6109290695049894e-10,3.4462554689822377e-10,2.5359437856231483e-10,1.9597656267540413e-10,1.2848481017667668e-10,8.93655287651912e-11,5.952739640219265e-11,3.766674596714723e-11,2.3811419224040248e-11,1.3325110925475613e-11,7.0129798368310276e-12,3.688439412273052e-12,2.032529844959294e-12,9.398710588397402e-13,6.852412180093226e-09,5.9509315582151975e-09,5.556162120921425e-09,4.406896283375621e-09,3.6919169533073424e-09,3.030214128828332e-09,2.5276177766196764e-09,2.0559615103919843e-09,1.5912752675486684e-09,1.303314135701439e-09,1.0639574521295491e-09,7.456503722738584e-10,6.107430459334615e-10,4.434779730869829e-10,3.6633392204049845e-10,2.514005797852849e-10,1.7778176471892926e-10,1.3260366336292204e-10,9.659178662068659e-11,5.948955936217602e-11,3.77448509871034e-11
0.0,54,54.0,0.0,30.0,0.0,0.0,0.0,0.0,-13.0,0.0,2.0,0.0,0.0,0.0,1.0625474717297431e-09,7.856732141204425e-10,6.026377976722732e-10,4.409190451713889e-10,3.5885752307015116e-10,2.582241261223421e-10,1.8219777419461996e-10,1.331239104064219e-10,8.664916012121445e-11,5.926136272094525e-11,3.791359357896957e-11,2.2034648397579e-11,1.3143168171788546e-11,7.2545242133323696e-12,3.758816931588994e-12,1.973168742641247e-12,9.66281557320989e-13,6.632825127928527e-09,6.171104248323957e-09,5.240998544741983e-09,4.287285904983792e-09,3.87100920380796e-09,3.073924422107111e-09,2.5821206306064763e-09,1.9291478204399214e-09,1.6931673917932376e-09,1.262935004631137e-09,1.016248922025495e-09,7.948377051147005e-10,5.922223435923298e-10,4.741121770299301e-10,3.6038190958237727e-10,2.5238689770019614e-10,1.919385989634112e-10,1.2981350390108046e-10,9.043374872309227e-11,6.070216314816434e-11,3.8949713010017895e-11
0.0,55,55.0,0.0,30.0,0.0,0.0,0.0,0.0,-13.0,0.0,2.0,0.0,0.0,0.0,1.0765598287896781e-09,8.084025950064416e-10,6.070008474000964e-10,4.701953451057744e-10,3.48875248001303e-10,2.6241913436855543e-10,1.878846000245742e-10,1.3252118144408985e-10,8.905224739017274e-11,5.870464309664636e-11,3.8273765933895e-11,2.3117041824296684e-11,1.3107512888337834e-11,6.772272644512271e-12,3.799942871137174e-12,1.8480559706150035e-12,8.721700310870314e-13,6.394246277316631e-09,6.055978086929797e-09,5.345234087257267e-09,4.4645727316034e-09,3.462123732136844e-09,2.969217754335361e-09,2.4965160136951645e-09,1.9705579380837482e-09,1.616545927474199e-09,1.3362981378588657e-09,1.0127754908100911e-09,8.24136210821827e-10,6.103365249084395e-10,4.4617097019143994e-10,3.404663397790891e-10,2.681146464767709e-10,1.7661517238769737e-10,1.4487277223732312e-10,9.169220881862191e-11,5.872556009618385e-11,3.961529941484168e-11
0.0,56,56.0,0.0,30.0,0.0,0.0,0.0,0.0,-13.0,0.0,2.0,0.0,0.0,0.0,1.0701117529760931e-09,8.366515343785595e-10,6.025587837543335e-10,4.884638875242548e-10,3.4676477678780254e-10,2.580533494619442e-10,1.862737565766564e-10,1.262108665473064e-10,8.984164663803273e-11,6.052308368248752e-11,3.8364012940214345e-11,2.1399876222163527e-11,1.2716135345989707e-11,6.772638734806367e-12,3.691582786463132e-12,1.9059730835962737e-12,8.954648741337709e-13,7.06578917519818e-09,5.744066815646601e-09,5.004641994360289e-09,4.670778351964576e-09,3.769562878033258e-09,2.939671308940095e-09,2.5398510737969427e-09,2.167470715558163e-09,1.6731681883513082e-09,1.3500299464994917e-09,1.0219847844638783e-09,7.955172849439806e-10,6.126622013666013e-10,4.849161648392493e-10,3.5210255348219555e-10,2.596094704515314e-10,1.9443175438190447e-10,1.3263701728591627e-10,8.968926269857497e-11,6.038307644271108e-11,3.610849108701909e-11
0.0,57,57.0,0.0,30.0,0.0,0.0,0.0,0.0,-13.0,0.0,2.0,0.0,0.0,0.0,1.0548245164856534e-09,8.131428779437836e-10,6.385345921428395e-10,4.611843378785936e-10,3.61760421400468e-10,2.629695801405931e-10,1.8895887880117372e-10,1.337949406910039e-10,9.223727686259414e-11,5.963778601900517e-11,3.7136472337364216e-11,1.9516693168456254e-11,1.2421990993147414e-11,6.985876897198318e-12,3.603259253372093e-12,1.7270414051050922e-12,9.001976472146066e-13,6.9364505679036615e-09,6.231186259581496e-09,5.257633353186158e-09,4.425466893517395e-09,3.5776042691714946e-09,3.1180959212269217e-09,2.6691299217855532e-09,2.0155754034570545e-09,1.6475101379411709e-09,1.3273318322092562e-09,1.0344835291764972e-09,8.053040128301665e-10,6.384349302546461e-10,4.390408544982838e-10,3.6646622014909733e-10,2.738237580150731e-10,1.9272201811241226e-10,1.379744104649026e-10,9.474666000806754e-11,5.917383217831052e-11,3.7547062272494735e-11
0.0,58,58.0,0.0,30.0,0.0,0.0,0.0,0.0,-13.0,0.0,2.0,0.0,0.0,0.0,1.0545305337077893e-09,8.247678898630411e-10,5.973039994820519e-10,4.629749934353552e-10,3.55933794039507e-10,2.6886320663604605e-10,1.9266843992258235e-10,1.2766686929094254e-10,9.384132590234533e-11,5.615374576506325e-11,3.6752239811670106e-11,2.188956750145194e-11,1.324858948885267e-11,6.665389707190781e-12,3.467809358238446e-12,1.8039290634187473e-12,8.237752596182113e-13,6.825685070671295e-09,6.0258829572569486e-09,5.047139288531821e-09,4.6616232833567014e-09,3.6543898692952035e-09,2.9793403003083045e-09,2.487988614739099e-09,2.104159379827124e-09,1.7680749413507052e-09,1.3193962627334695e-09,1.025130513160008e-09,7.898235787195822e-10,6.130005579684604e-10,4.816697180402661e-10,3.5841636148630434e-10,2.7708746084589235e-10,1.937180398922757e-10,1.342873512320717e-10,9.383965182728541e-11,6.076105885863291e-11,3.7615938449883337e-11
0.0,59,59.0,0.0,30.0,0.0,0.0,0.0,0.0,-13.0,0.0,2.0,0.0,0.0,0.0,1.064523102155199e-09,7.877985834500211e-10,6.044209967412432e-10,4.776146918746215e-10,3.5818989141833807e-10,2.663410689430641e-10,1.9595533331485252e-10,1.3293603736694349e-10,9.085890567720661e-11,6.010181936356671e-11,3.6018026024099603e-11,2.283629552130484e-11,1.1639875461327635e-11,6.79989722952183e-12,3.4503654790414617e-12,1.7046443298807553e-12,8.178796955729283e-13,6.693352872697948e-09,6.043761323278139e-09,5.362068645951307e-09,4.348809090378464e-09,3.883555890045777e-09,3.133991007446687e-09,2.6209033558781586e-09,2.1527828238580455e-09,1.6656598420494687e-09,1.356854611902595e-09,1.0369801371665514e-09,7.783791725140667e-10,6.323964017927624e-10,4.751917505905114e-10,3.683668740146278e-10,2.7032733559630474e-10,1.9836386177412905e-10,1.462579655603678e-10,9.586135329037734e-11,6.049643346211037e-11,3.9227295175784926e-11
0.0,60,60.0,0.0,30.0,0.0,0.0,0.0,0.0,-13.0,0.0,2.0,0.0,0.0,0.0,1.1005441080873652e-09,8.259226753003245e-10,6.249206284901808e-10,4.733883090409414e-10,3.573793044058673e-10,2.7553052167955024e-10,1.9209774753697656e-10,1.357258851109285e-10,9.017530774838723e-11,5.622632841176124e-11,3.587283869862235e-11,2.1146844366552157e-11,1.1947290983284664e-11,6.367454046502748e-12,3.424168393870424e-12,1.6864261894493056e-12,7.373529650776219e-13,6.440303828427873e-09,6.37244319669359e-09,5.065351098432964e-09,4.422124807105667e-09,3.672416392113782e-09,3.01337876340527e-09,2.486850287035514e-09,1.9868810037384043e-09,1.7067548582553957e-09,1.37584321201229e-09,1.009765663020382e-09,8.203009932759999e-10,5.929202332938383e-10,4.714281592728112e-10,3.502017189640412e-10,2.6532707036599907e-10,1.9578048025810363e-10,1.39559768389257e-10,1.0028137753246627e-10,6.063271772195977e-11,3.6108008083710806e-11
0.0,61,61.0,0.0,30.0,0.0,0.0,0.0,0.0,-13.0,0.0,2.0,0.0,0.0,0.0,1.085230890076472e-09,8.562722982247264e-10,6.301699534133926e-10,4.737366497106758e-10,3.4636853967181426e-10,2.5858034641352127e-10,1.9096897661005314e-10,1.3726924256907387e-10,8.604309001138616e-11,5.894165560375552e-11,3.678174153407823e-11,2.0470576058518137e-11,1.1874264499040953e-11,6.469573408212231e-12,3.129763910426503e-12,1.6279030926360928e-12,7.697812465083053e-13,6.205170942101812e-09,6.053109911177926e-09,5.436205661023366e-09,4.129039012269817e-09,3.6670998432142274e-09,3.0287798767069574e-09,2.457898097096578e-09,2.0551444472486577e-09,1.690759510499163e-09,1.3510926545574276e-09,1.0164828536980657e-09,8.420526920287623e-10,6.133066527639412e-10,4.538221471702552e-10,3.755921343588895e-10,2.7192265868190267e-10,1.993784304340288e-10,1.4290490420022486e-10,9.314562968587185e-11,6.320581759771611e-11,3.62780538000879e-11
0.0,62,62.0,0.0,30.0,0.0,0.0,0.0,0.0,-13.0,0.0,2.0,0.0,0.0,0.0,1.1156713905846092e-09,8.098327872758654e-10,5.974557431098301e-10,4.82157943997581e-10,3.5462742203059976e-10,2.692797499779061e-10,1.9608316113072987e-10,1.2956450214600045e-10,9.016178127723133e-11,5.6909719143135456e-11,3.66089472695444e-11,2.0005847207226732e-11,1.161912703133344e-11,6.256268362174283e-12,3.2206826571632576e-12,1.5259897414312e-12,7.161467414906691e-13,6.610588379650839e-09,5.78257467267003e-09,5.427218786388674e-09,4.364808826783635e-09,3.6198447109426305e-09,3.2126711631901705e-09,2.472388965018482e-09,2.0080542362542017e-09,1.6770386567231572e-09,1.3947608156597258e-09,9.94679955632864e-10,8.125774464011089e-10,6.562741499154712e-10,4.5985710511948074e-10,3.7124543050409286e-10,2.7648234796035514e-10,2.080011694499558e-10,1.3777060939330312e-10,9.567857324034469e-11,6.168025626759898e-11,3.493512941448438e-11
0.0,63,63.0,0.0,30.0,0.0,0.0,0.0,0.0,-13.0,0.0,2.0,0.0,0.0,0.0,1.0881028396972466e-09,8.166708045299701e-10,6.602072487389732e-10,4.843003659852297e-10,3.7092204964319345e-10,2.6519027240258213e-10,1.9284026526827824e-10,1.3723453411814356e-10,8.866958632023357e-11,5.3969354514613316e-11,3.530979556939371e-11,1.9974398045892577e-11,1.0941551316762966e-11,6.32516068515908e-12,3.2641931210036908e-12,1.5863836125911928e-12,7.286846851123756e-13,6.7821437696740585e-09,6.153496601972455e-09,5.381698605158177e-09,4.421403385182268e-09,3.754671403780966e-09,3.131242821028774e-09,2.6528458292926843e-09,2.0087898873586255e-09,1.6387048165567963e-09,1.3197012128729731e-09,1.1194338634195778e-09,8.110151918779122e-10,6.43298496485795e-10,5.125262813994191e-10,3.78626139710787e-10,2.6618720204844617e-10,1.950314682467081e-10,1.4884581904581118e-10,9.603477651744779e-11,6.253016282730667e-11,3.472894768226774e-11
