Line_number,Fiducial,Easting,Northing,Height,Elevation,tx_pitch,tx_roll,tx_yaw,txrx_dx,txrx_dy,txrx_dz,rx_pitch,rx_roll,rx_yaw,S0Z_time_1.431e-04,S0Z_time_1.801e-04,S0Z_time_2.266e-04,S0Z_time_2.846e-04,S0Z_time_3.581e-04,S0Z_time_4.506e-04,S0Z_time_5.671e-04,S0Z_time_7.136e-04,S0Z_time_8.981e-04,S0Z_time_1.131e-03,S0Z_time_1.423e-03,S0Z_time_1.791e-03,S0Z_time_2.255e-03,S0Z_time_2.838e-03,S0Z_time_3.573e-03,S0Z_time_4.498e-03,S0Z_time_5.662e-03,S1Z_time_1.409e-05,S1Z_time_1.610e-05,S1Z_time_1.909e-05,S1Z_time_2.360e-05,S1Z_time_2.960e-05,S1Z_time_3.709e-05,S1Z_time_4.609e-05,S1Z_time_5.759e-05,S1Z_time_7.209e-05,S1Z_time_9.060e-05,S1Z_time_1.141e-04,S1Z_time_1.431e-04,S1Z_time_1.801e-04,S1Z_time_2.266e-04,S1Z_time_2.846e-04,S1Z_time_3.581e-04,S1Z_time_4.506e-04,S1Z_time_5.671e-04,S1Z_time_7.136e-04,S1Z_time_8.981e-04,S1Z_time_1.131e-03
0.0,0,0.0,0.0,30.0,0.0,0.0,0.0,0.0,-13.0,0.0,2.0,0.0,0.0,0.0,1.0960081081987377e-10,7.246269487248626e-11,4.872614029527083e-11,3.706433173206766e-11,2.8634311518534988e-11,2.1975905826922502e-11,1.619319774991522e-11,1.2571504408326635e-11,9.429843912783393e-12,7.2135973627991e-12,5.234093568334816e-12,3.7615668236227724e-12,2.69760506960159e-12,1.8499441648270203e-12,1.1880898359517915e-12,8.734233022709217e-13,5.198570417950819e-13,3.0183861607484332e-09,2.4424721548322274e-09,1.8327250194535067e-09,1.4075914879777538e-09,1.0675754774942347e-09,7.564483193298311e-10,5.374791997186127e-10,3.736579968219446e-10,2.391007608459765e-10,1.574391691647281e-10,1.1046890380727087e-10,6.967842080765944e-11,4.924625650789093e-11,3.449855656421474e-11,2.7034341878580932e-11,1.918734360940733e-11,1.413624627426208e-11,9.848984223740691e-12,7.0090888443702396e-12,4.857841862330319e-12,3.2002538293624807e-12
0.0,1,1.0,0.0,30.0,0.0,0.0,0.0,0.0,-13.0,0.0,2.0,0.0,0.0,0.0,9.942943126355392e-11,6.74545317582496e-11,4.354591201679589e-11,3.1550361315491066e-11,2.1446887940838e-11,1.6867597672574858e-11,1.2955538458793049e-11,9.90876076745621e-12,7.665816843832692e-12,5.493956807611604e-12,4.290564079830527e-12,2.7868290952351606e-12,2.1527302059172296e-12,1.4328962155182287e-12,1.0312251321846691e-12,7.110739733863983e-13,4.277588910261822e-13,3.1483266505389836e-09,2.354110175166588e-09,1.870350248047969e-09,1.3149415530090511e-09,9.301995030905681e-10,6.942224788966637e-10,4.949947755879696e-10,3.650237743762843e-10,2.3794995196073644e-10,1.5806197085123622e-10,9.415122558981256e-11,6.500104899539598e-11,4.2945800532889774e-11,3.1043880555418275e-11,2.1569794241885425e-11,1.5161627014339035e-11,1.0821633416541199e-11,7.888582926467393e-12,5.3880248399273585e-12,3.97548817987532e-12,2.5995091814349034e-12
0.0,2,2.0,0.0,30.0,0.0,0.0,0.0,0.0,-13.0,0.0,2.0,0.0,0.0,0.0,1.0090752763030678e-10,6.329589376397731e-11,3.8360589067023364e-11,2.6930989437375762e-11,1.9252539606980284e-11,1.2938632229825745e-11,1.0246270101376521e-11,7.919363576138616e-12,5.572438969780947e-12,4.3347625315091245e-12,3.1938065688771923e-12,2.439724112940019e-12,1.6676674403375068e-12,1.2037235768333346e-12,8.012989045110672e-13,5.859030757577577e-13,3.736439234378863e-13,3.1381525993706106e-09,2.2676544648904553e-09,1.7232474087904656e-09,1.2216347835248925e-09,8.520369025535805e-10,6.242991845108138e-10,4.630377634097516e-10,3.1475004640139866e-10,2.2520242266778833e-10,1.5260844192904054e-10,1.0404168275985289e-10,6.587899487967354e-11,4.089631711505961e-11,2.59015637618177e-11,1.8498018102147946e-11,1.2340233661142642e-11,7.923816444654012e-12,5.829079351976323e-12,4.5625164678907916e-12,2.9632649536584483e-12,1.8399162040889213e-12
0.0,3,3.0,0.0,30.0,0.0,0.0,0.0,0.0,-13.0,0.0,2.0,0.0,0.0,0.0,1.0355969464458065e-10,6.010604736023423e-11,3.74350909086331e-11,2.2993830449265886e-11,1.6879270564210612e-11,1.1325916648485983e-11,8.32132324367945e-12,6.1341202561091e-12,4.6760659688760515e-12,3.4621868327984132e-12,2.8089263729905773e-12,1.9055410955767638e-12,1.4526554542436225e-12,1.0191272412482776e-12,6.826165712291129e-13,4.5319832055148494e-13,3.096238132485747e-13,3.4855656969747435e-09,2.5378628977448396e-09,1.8050163941183158e-09,1.1944928490389499e-09,7.680638825301434e-10,5.616244611666347e-10,4.3343150322861645e-10,2.8544195159213217e-10,2.1765282161221574e-10,1.5187039798600025e-10,1.03128335842261e-10,6.573177843650351e-11,3.9525685966787014e-11,2.5551407278825714e-11,1.6980114133552087e-11,1.1365833831291617e-11,7.492986146543013e-12,4.9165677785875876e-12,3.346205663394728e-12,2.282698506213969e-12,1.4512519376283091e-12
0.0,4,4.0,0.0,30.0,0.0,0.0,0.0,0.0,-13.0,0.0,2.0,0.0,0.0,0.0,9.334911569041008e-11,5.890070475952465e-11,3.653023454392776e-11,2.2169932296815984e-11,1.4539054234129302e-11,1.0003901175059082e-11,7.159574133249842e-12,5.430276013761549e-12,4.020029685220511e-12,2.8601081222536115e-12,2.0138004748936257e-12,1.528872907601167e-12,1.1815162465947802e-12,8.327257973898964e-13,5.910037811551411e-13,3.8630139147182067e-13,2.7741303261313706e-13,3.7186711549994973e-09,2.7203071887285355e-09,1.7614879297064586e-09,1.1200460044016123e-09,7.527987439645014e-10,5.044956123116835e-10,3.7367852917908297e-10,2.636781530970957e-10,2.099015938816552e-10,1.3777309503966622e-10,9.522212303497906e-11,6.130693200701631e-11,4.1112125307219067e-11,2.6118617164727305e-11,1.6941408806829705e-11,9.551943404865857e-12,6.963676801945047e-12,4.48559702095901e-12,2.8500277083741572e-12,1.8974700467550666e-12,1.3193257731152756e-12
0.0,5,5.0,0.0,30.0,0.0,0.0,0.0,0.0,-13.0,0.0,2.0,0.0,0.0,0.0,9.067131070733914e-11,5.942294009760765e-11,3.367432202361308e-11,2.1852937643345156e-11,1.3535040488523894e-11,9.053887680285908e-12,6.194061283170304e-12,4.57306477149301e-12,3.251184417569497e-12,2.4876880833747125e-12,1.7767462670154555e-12,1.3041545568599359e-12,1.012082415075619e-12,6.714144621075872e-13,5.01474640155038e-13,3.342781453278319e-13,2.0875813217353288e-13,4.183433915678108e-09,2.692434923873221e-09,1.9031367160224234e-09,1.1699241543140417e-09,7.272600872494868e-10,5.060127296767243e-10,3.4516045772695695e-10,2.454506128833534e-10,1.8821781246866808e-10,1.3164116940495503e-10,8.828988683585118e-11,6.125454596629501e-11,3.728439772334165e-11,2.5130894138940846e-11,1.5439402606227295e-11,9.847483528006806e-12,5.9895850870556595e-12,3.6699129128201105e-12,2.3494074485023927e-12,1.7118399841364222e-12,9.023048254757302e-13
0.0,6,6.0,0.0,30.0,0.0,0.0,0.0,0.0,-13.0,0.0,2.0,0.0,0.0,0.0,8.374894117640483e-11,5.3893166107122706e-11,3.553825317822471e-11,1.9913519732920504e-11,1.2758023514190044e-11,8.62510090536043e-12,5.56279642484423e-12,3.915877331755915e-12,2.828056324279214e-12,2.032230067224997e-12,1.5012529766093083e-12,1.1170821116457806e-12,8.531113579649924e-13,5.832908194970778e-13,4.0540594767977476e-13,2.7670017205417823e-13,1.7419426977360372e-13,3.939609288515281e-09,3.003709306596939e-09,1.9567045996186643e-09,1.237445120918515e-09,7.420141157721231e-10,4.634139610836812e-10,3.2871676651235255e-10,2.5117400068893123e-10,1.545891489567518e-10,1.1518206334183962e-10,8.361259987735354e-11,5.834263201740671e-11,3.883674576047981e-11,2.6579190486308663e-11,1.610029309173955e-11,9.203023848445502e-12,5.6646745197862226e-12,3.768256862266217e-12,2.1385062331920343e-12,1.4342715942608034e-12,9.052550386849225e-13
0.0,7,7.0,0.0,30.0,0.0,0.0,0.0,0.0,-13.0,0.0,2.0,0.0,0.0,0.0,7.385941498396497e-11,4.771832387919796e-11,3.109901323006075e-11,2.0724306825613485e-11,1.2622032024442212e-11,8.256190154976503e-12,5.21516887662556e-12,3.505570952611989e-12,2.4288871313850687e-12,1.7427969357248147e-12,1.316279859695788e-12,9.641339688565117e-13,6.933048516671965e-13,5.057628570825561e-13,3.494126983912582e-13,2.4852865146605635e-13,1.5830042126026133e-13,4.27048070139248e-09,3.24327962551719e-09,2.0782061308664232e-09,1.325538140938753e-09,7.66340649653622e-10,4.807802976402607e-10,3.203169205889921e-10,2.1917246187475942e-10,1.5523205398777864e-10,1.0731014787385689e-10,7.940892276335568e-11,5.3735933047458736e-11,3.589178099291154e-11,2.3581876521546283e-11,1.4991383171375465e-11,9.361978788359432e-12,4.9548124398046635e-12,3.303313977654363e-12,2.0198031995497643e-12,1.4025231843248525e-12,7.474768206769486e-13
0.0,8,8.0,0.0,30.0,0.0,0.0,0.0,0.0,-13.0,0.0,2.0,0.0,0.0,0.0,7.323266915254233e-11,4.863708711162286e-11,2.998679054349013e-11,1.9723062464617383e-11,1.185847473326648e-11,7.530618080774436e-12,4.660236505535457e-12,3.311031271343973e-12,2.0266908696250327e-12,1.5460394791728712e-12,1.1810138940029257e-12,7.733295952435249e-13,6.202951873080621e-13,4.140967541983921e-13,2.9062179974430573e-13,2.2065025101643073e-13,1.5171279900825525e-13,4.426110686636021e-09,3.3575489088372014e-09,2.316259748145041e-09,1.3100302576712928e-09,8.100455263915824e-10,4.901952892477017e-10,3.3251339237924423e-10,2.0687568166641762e-10,1.3269140482772396e-10,9.675465108212583e-11,7.18080736227299e-11,5.0264765174649306e-11,3.7692585831163475e-11,2.255186547555148e-11,1.429548007184485e-11,8.859725639385528e-12,5.2818160932746565e-12,2.8178756194694664e-12,2.0317282263170392e-12,1.076612961264727e-12,7.259694460523548e-13
0.0,9,9.0,0.0,30.0,0.0,0.0,0.0,0.0,-13.0,0.0,2.0,0.0,0.0,0.0,6.431695145098102e-11,4.5152492613800376e-11,2.891972366793536e-11,1.8552560592501923e-11,1.1488709025779037e-11,7.30160896616058e-12,4.318961428399761e-12,2.9180027834948556e-12,1.965103266426403e-12,1.3742305013839689e-12,9.970582425927466e-13,6.801669401594466e-13,5.554445161405527e-13,3.8609469036855584e-13,2.592179907121672e-13,1.815937203909351e-13,1.317984660610113e-13,4.046075541365624e-09,3.2812177415752557e-09,2.268593970767938e-09,1.4334322691997268e-09,8.298375817544723e-10,4.766726964473107e-10,2.9132295791347437e-10,1.9656286459741635e-10,1.3637388029354854e-10,9.530721016454543e-11,6.721224616841855e-11,4.783254803990154e-11,3.3760411144880064e-11,2.1912099578506896e-11,1.5101181254718594e-11,8.2297390107977e-12,5.068932290238735e-12,2.942979461048535e-12,2.001760710367711e-12,1.2473473180804625e-12,7.533906275172477e-13
0.0,10,10.0,0.0,30.0,0.0,0.0,0.0,0.0,-13.0,0.0,2.0,0.0,0.0,0.0,6.25014406101893e-11,4.081606522421895e-11,2.64854050612941e-11,1.8639493672488423e-11,1.1707201960782805e-11,7.062906192619163e-12,4.543150672567416e-12,2.697460103480209e-12,1.8060562172093312e-12,1.2560529305040547e-12,8.821767883775853e-13,6.023613373424446e-13,4.441106262483994e-13,3.295361191351095e-13,2.1582795548226005e-13,1.3223954545061984e-13,1.233278087336442e-13,4.409403640120754e-09,3.3099023810214652e-09,2.304710444255746e-09,1.3884737455502917e-09,8.576540610871782e-10,5.041029545083051e-10,3.1298813762410925e-10,1.863306282361439e-10,1.256256314767234e-10,9.05281791580117e-11,6.106332283099581e-11,4.223739086451326e-11,2.992381039672273e-11,2.0708169505541295e-11,1.455314066676268e-11,8.715041606496404e-12,5.2786796821950614e-12,2.9178839665596937e-12,1.6681345867558797e-12,1.2156403248450174e-12,6.583899399022204e-13
0.0,11,11.0,0.0,30.0,0.0,0.0,0.0,0.0,-13.0,0.0,2.0,0.0,0.0,0.0,5.6473239693978325e-11,3.9318910738780425e-11,2.5055761158507436e-11,1.720530449364191e-11,1.0985822744987936e-11,6.865364640540635e-12,4.302923509319857e-12,2.754687747974333e-12,1.7364462543248126e-12,1.1163549009624137e-12,8.151642568720846e-13,5.507939485904667e-13,4.068101565519495e-13,2.8231561142647854e-13,1.993075475067572e-13,1.577747955954673e-13,9.272957691263735e-14,4.348450208469106e-09,3.357014084223797e-09,2.369805138294709e-09,1.568795194907114e-09,8.96095129525931e-10,5.151325495533898e-10,3.0000547280081413e-10,2.0332407579384687e-10,1.1711850081729998e-10,8.609679613047395e-11,5.945352045307808e-11,3.990444511522925e-11,2.8738932734069686e-11,1.994023756285901e-11,1.344187982913284e-11,8.398633253787918e-12,5.123459253357519e-12,3.0492976741347e-12,1.548673641454341e-12,9.25114045271015e-13,6.171406315135836e-13
0.0,12,12.0,0.0,30.0,0.0,0.0,0.0,0.0,-13.0,0.0,2.0,0.0,0.0,0.0,5.3488631773193157e-11,3.595940569348212e-11,2.2781697768632787e-11,1.6101917173641518e-11,1.0955993655662634e-11,6.796084085948061e-12,3.961222771183971e-12,2.6178144624370837e-12,1.601578885342946e-12,1.0208174957863307e-12,6.94941168603705e-13,4.790829508349193e-13,3.60727072265592e-13,2.519821463891286e-13,1.88604054817479e-13,1.0113461424475921e-13,6.391755720667898e-14,4.629457013571028e-09,3.3014961099389392e-09,2.431482538695021e-09,1.6182058644163362e-09,9.086605917288658e-10,5.754319148071659e-10,3.3356865783868195e-10,1.950225200000379e-10,1.1934194623172565e-10,8.047202708195643e-11,5.339431401747881e-11,3.75616103576131e-11,2.7480574739735647e-11,1.9033739908377887e-11,1.3456612698962196e-11,8.250630197762086e-12,5.1535565122036404e-12,3.2474751968339023e-12,1.8072199405755438e-12,8.76452654420394e-13,4.4419076283183896e-13
0.0,13,13.0,0.0,30.0,0.0,0.0,0.0,0.0,-13.0,0.0,2.0,0.0,0.0,0.0,4.903256614013782e-11,3.1449907845049475e-11,2.1218000450197363e-11,1.5042548232332197e-11,9.629491828895573e-12,6.956184603210543e-12,4.062968505771585e-12,2.4275453498788676e-12,1.585039396136814e-12,1.0067599482346373e-12,6.651715393965501e-13,4.2693332843285556e-13,3.4298590915448886e-13,2.431495810580954e-13,1.5706308235280667e-13,9.95992991934795e-14,7.945261432185492e-14,4.296344265318343e-09,3.6300600867430024e-09,2.5517872360427428e-09,1.5976122711207813e-09,9.217215789917232e-10,5.802480625713137e-10,3.3386583856482337e-10,1.9717485630364817e-10,1.2389101736719717e-10,7.572503174704206e-11,5.151577607925184e-11,3.558230492312331e-11,2.47180478886676e-11,1.6388684218756263e-11,1.1823149222892842e-11,8.297720292145226e-12,4.962164314242294e-12,3.472150922960848e-12,1.9477521239726506e-12,9.610365765449013e-13,5.770492969961699e-13
0.0,14,14.0,0.0,30.0,0.0,0.0,0.0,0.0,-13.0,0.0,2.0,0.0,0.0,0.0,5.2574364961718054e-11,3.079534021996479e-11,2.0306476490681898e-11,1.4346873805990997e-11,9.702572114728162e-12,6.190716927936631e-12,3.960300225943699e-12,2.5683450895338086e-12,1.5283977856140926e-12,9.220012290714288e-13,6.391872067191138e-13,4.172171390302181e-13,2.839702016483072e-13,1.953023306948341e-13,1.4200628569869827e-13,1.0133581340009098e-13,8.422187117853664e-14,4.435448687127077e-09,3.443353483522013e-09,2.5214406600574956e-09,1.6224103463761671e-09,9.191397232879068e-10,5.819725135508499e-10,3.358950736039984e-10,2.0851492011645848e-10,1.1910753414750905e-10,7.527649505997709e-11,4.951501805840663e-11,3.399691384261729e-11,2.3399609417065546e-11,1.6332594848807542e-11,1.112643585846669e-11,7.52147724619247e-12,4.681380821614259e-12,3.200401140527699e-12,1.7580596464015629e-12,8.144386830249054e-13,5.937498966994553e-13
0.0,15,15.0,0.0,30.0,0.0,0.0,0.0,0.0,-13.0,0.0,2.0,0.0,0.0,0.0,4.453752042375128e-11,2.8663843592605707e-11,1.9238700486615e-11,1.313230179823514e-11,9.079868036930235e-12,6.136308470006137e-12,3.694528935235223e-12,2.5197134054609966e-12,1.5216683071951798e-12,8.87788947198801e-13,6.387173865732606e-13,3.648364862094331e-13,2.804950670825203e-13,1.7872961532902178e-13,1.471683140168593e-13,9.283547297515404e-14,5.93318267234133e-14,4.551449481693501e-09,3.5022140381278006e-09,2.4981196883661038e-09,1.6023289791124739e-09,9.80692497481073e-10,5.812947342426205e-10,3.544824337402611e-10,2.099227034002909e-10,1.2557118176667234e-10,7.543651287022526e-11,4.754987011963886e-11,3.154882649721487e-11,2.2215885049658636e-11,1.552599492938433e-11,1.0650743067605356e-11,7.546454932663667e-12,4.872790268002651e-12,2.8406753631458707e-12,1.646249970060855e-12,9.152760474699696e-13,5.296275558741996e-13
0.0,16,16.0,0.0,30.0,0.0,0.0,0.0,0.0,-13.0,0.0,2.0,0.0,0.0,0.0,4.439487684647323e-11,2.7886218033045573e-11,1.8369978739456907e-11,1.2647696869095062e-11,8.7109704145762e-12,5.699889083816707e-12,3.689508182554749e-12,2.376521286911751e-12,1.3807581564800057e-12,9.495358851837594e-13,5.51774373658861e-13,3.4608256942922695e-13,2.425974124871458e-13,1.58488076144342e-13,1.0736974163682279e-13,8.373962457082131e-14,5.361791390992254e-14,4.51130355276673e-09,3.3585286810930504e-09,2.4443124928340464e-09,1.6373936825909482e-09,1.0121357845031307e-09,5.797690858702927e-10,3.616123740620716e-10,1.9760313854365035e-10,1.2652876368744925e-10,7.373131519039052e-11,4.786083156053146e-11,3.094668145235667e-11,2.1554598857720813e-11,1.4306415692611407e-11,1.010123056474963e-11,6.718045295359205e-12,4.7094407607362504e-12,2.8719418366115145e-12,1.6913571896443148e-12,1.0974828499715906e-12,3.396467486473001e-13
0.0,17,17.0,0.0,30.0,0.0,0.0,0.0,0.0,-13.0,0.0,2.0,0.0,0.0,0.0,4.609526086628903e-11,2.6269538791827296e-11,1.7166286162005816e-11,1.134773103552722e-11,8.233299614661723e-12,5.400904489245384e-12,3.534706997002642e-12,2.394472118975006e-12,1.3704482986307056e-12,8.479725588006089e-13,5.605418750107208e-13,3.4504673610854106e-13,2.1320678724910252e-13,1.4810236502637077e-13,1.2188725127060915e-13,6.828517614137503e-14,6.850858379992239e-14,4.619739195390431e-09,3.576048467937763e-09,2.352078872834048e-09,1.6200407302026388e-09,1.0594017518374579e-09,6.089178950601823e-10,3.636677210149726e-10,2.1595539609925906e-10,1.2936995093673582e-10,7.283566819823547e-11,4.493635942915943e-11,2.8592885502496392e-11,1.9077450859271832e-11,1.4295057567362012e-11,9.120624572478153e-12,6.684536381011616e-12,4.375250736873474e-12,2.923159070118214e-12,1.7528443361397604e-12,9.577301744479891e-13,6.259838686057778e-13
0.0,18,18.0,0.0,30.0,0.0,0.0,0.0,0.0,-13.0,0.0,2.0,0.0,0.0,0.0,4.368786799567008e-11,2.602193709159915e-11,1.589957741195014e-11,1.1173463438625439e-11,7.850985241558448e-12,5.054942767738984e-12,3.6833579158148445e-12,2.263544896132299e-12,1.4706614504299988e-12,8.426892817985131e-13,5.278194785494795e-13,3.379566036732512e-13,2.300386329319581e-13,1.3127259948347768e-13,9.70580178753332e-14,6.896638616185505e-14,4.346908826485216e-14,4.4204832738124555e-09,3.392189883697924e-09,2.710209004017694e-09,1.7063048653388246e-09,1.078474234573084e-09,5.952805710309513e-10,3.5392426170119837e-10,2.3307836996161873e-10,1.2599919027730541e-10,7.789531684940098e-11,4.607184014651732e-11,2.913635765421671e-11,1.8779473782329198e-11,1.3255708167165966e-11,9.01029881932796e-12,6.043161451445043e-12,4.074504746548241e-12,2.5120298772241603e-12,1.6218780113591618e-12,1.0082253774804382e-12,6.378332733729669e-13
0.0,19,19.0,0.0,30.0,0.0,0.0,0.0,0.0,-13.0,0.0,2.0,0.0,0.0,0.0,4.359630934298897e-11,2.4964537772546666e-11,1.514623985803057e-11,1.067349821196737e-11,7.171762802784372e-12,5.006447259818908e-12,3.3635246397671385e-12,2.292069832391607e-12,1.3627500617958252e-12,8.693896242483694e-13,5.127346036913359e-13,3.083775291030999e-13,2.0153219262401812e-13,1.2925481152819022e-13,7.476896079764695e-14,5.623508561519044e-14,4.5081288182272854e-14,4.62140304609859e-09,3.562815779608958e-09,2.490769321028609e-09,1.5971019687456036e-09,1.0503068462361701e-09,5.902072079625935e-10,4.024459704427247e-10,2.291613957120815e-10,1.3634660418799277e-10,7.624308921951371e-11,4.393407378998752e-11,2.8934124419741063e-11,1.841618351408935e-11,1.2171754094147343e-11,8.269022609007689e-12,6.081808230122582e-12,4.169196811058508e-12,2.4826291178618096e-12,1.5237355756222513e-12,8.96776978767154e-13,3.9338348838735414e-13
0.0,20,20.0,0.0,30.0,0.0,0.0,0.0,0.0,-13.0,0.0,2.0,0.0,0.0,0.0,4.378126662565159e-11,2.4927407123383876e-11,1.4094710395805435e-11,1.0006975323894064e-11,7.137879617237106e-12,4.7719673670641754e-12,3.035425408969534e-12,2.1170750464778994e-12,1.3820820759899822e-12,8.396788456699939e-13,5.305710371532634e-13,2.9366422049857615e-13,1.8863395140652522e-13,1.1885360020537248e-13,8.99223680525357e-14,4.543972372654331e-14,3.099144963635294e-14,4.640203091185282e-09,3.4841019762869725e-09,2.414464207636474e-09,1.6727152801394226e-09,1.0748535991469133e-09,6.265903986045885e-10,3.916567008500065e-10,2.3164258396957997e-10,1.357707178355822e-10,7.989100012072003e-11,4.5625541059850116e-11,2.7026932477830095e-11,1.7131186989787525e-11,1.17584282927148e-11,7.58153306299849e-12,5.269654736097074e-12,3.767497534008341e-12,2.4988011906638016e-12,1.4614900046043123e-12,9.032519648558927e-13,6.651803942231101e-13
0.0,21,21.0,0.0,30.0,0.0,0.0,0.0,0.0,-13.0,0.0,2.0,0.0,0.0,0.0,4.243109584755509e-11,2.4408195753297598e-11,1.3918039984795e-11,1.0112690840290557e-11,6.3530551931937855e-12,4.47150256953808e-12,3.103047024781578e-12,1.9912884708706716e-12,1.2984872612550636e-12,7.967419972862989e-13,5.158386931496856e-13,2.710662878223472e-13,1.8508090227814438e-13,1.1204859101069743e-13,7.126064397306271e-14,6.775792653297363e-14,2.8777016390721575e-14,4.7081481638163795e-09,3.577326408784494e-09,2.4960126952793857e-09,1.6827360929707922e-09,1.0481430257235514e-09,6.536692423608491e-10,3.920937821839583e-10,2.4581177542187473e-10,1.3646950003203318e-10,7.868686553795746e-11,4.7149551247517474e-11,2.7088858401931044e-11,1.6933609519981885e-11,1.1266840017953015e-11,7.929827403946312e-12,5.053069527919433e-12,3.537171382928538e-12,2.377659942071618e-12,1.4569404647776306e-12,8.446994069578175e-13,6.207067379944471e-13
0.0,22,22.0,0.0,30.0,0.0,0.0,0.0,0.0,-13.0,0.0,2.0,0.0,0.0,0.0,4.4139495970416805e-11,2.518879249679918e-11,1.3403420086065516e-11,9.4257583005469e-12,6.3770999034475275e-12,4.356244099678077e-12,2.899794354576142e-12,1.8810633985734277e-12,1.245739964091947e-12,8.098518640466916e-13,5.201708066350657e-13,2.797275186766987e-13,2.049628032534009e-13,1.0855205461527058e-13,7.890583384709825e-14,4.7927509510470937e-14,2.9789145402404146e-14,4.709431145993377e-09,3.6596449606427038e-09,2.6190326103648686e-09,1.6602696878835897e-09,1.0585865823270682e-09,6.572573020753877e-10,4.287564592305079e-10,2.362071697398314e-10,1.4091163729813036e-10,7.851165776183593e-11,4.588329057458974e-11,2.6739649023083012e-11,1.6975005401021873e-11,1.0317109029582237e-11,7.587915725178441e-12,4.9842028669548185e-12,3.115416395118777e-12,2.124075464119891e-12,1.367726144474022e-12,7.135379245145991e-13,6.470126201234265e-13
0.0,23,23.0,0.0,30.0,0.0,0.0,0.0,0.0,-13.0,0.0,2.0,0.0,0.0,0.0,4.418285371944267e-11,2.364838022548484e-11,1.3152319217948888e-11,8.999553788376405e-12,5.929414937173569e-12,4.098867919229368e-12,2.895436794168434e-12,1.8572675337887888e-12,1.2315988368132218e-12,7.438745652623716e-13,4.466695997398888e-13,2.807547947849693e-13,1.6055859720276994e-13,1.1657051987659589e-13,6.866253659168848e-14,4.8540361930020615e-14,2.642014388302636e-14,4.39145840270204e-09,3.6331255873263887e-09,2.557089440687381e-09,1.6050451461436497e-09,1.0849554266701932e-09,6.393839776108002e-10,4.184276683161875e-10,2.503799545823876e-10,1.433443260248904e-10,8.482604484264498e-11,4.7433258275415263e-11,2.562682717204189e-11,1.6789284712788237e-11,1.1037097732146245e-11,7.043562178699491e-12,4.6271484562185246e-12,3.149000581386964e-12,2.0267702580426896e-12,1.3163615953927556e-12,8.384024504683821e-13,4.3912091260361636e-13
0.0,24,24.0,0.0,30.0,0.0,0.0,0.0,0.0,-13.0,0.0,2.0,0.0,0.0,0.0,4.576132886613989e-11,2.547830824149202e-11,1.2963963419281441e-11,8.98852632307247e-12,5.678093879970899e-12,3.884224974425515e-12,2.709364928324671e-12,1.907719277042043e-12,1.191517982651196e-12,7.769964707432854e-13,5.043986218699793e-13,2.635230553850285e-13,1.770460291906356e-13,1.0612062693253292e-13,6.644463992128804e-14,3.424406877017529e-14,3.0039509708610525e-14,4.571774123822458e-09,3.399610925773722e-09,2.4740155363330592e-09,1.629383122682875e-09,1.0695914235597527e-09,6.905905390901406e-10,4.096889717040291e-10,2.3895613258978715e-10,1.435193407865784e-10,8.365509636333937e-11,4.6370741485237135e-11,2.7562547338801537e-11,1.6061694203372263e-11,9.647470467100564e-12,6.821054561487836e-12,4.494802143493059e-12,2.9714115229857213e-12,2.011034854028601e-12,1.315129706026572e-12,8.437276862405317e-13,3.738687486064774e-13
0.0,25,25.0,0.0,30.0,0.0,0.0,0.0,0.0,-13.0,0.0,2.0,0.0,0.0,0.0,4.8261141935556636e-11,2.4822440909540305e-11,1.2528354585961626e-11,7.983499007547716e-12,5.657000733513589e-12,3.6808235798548895e-12,2.588087884200695e-12,1.743312664582581e-12,1.1905804361307594e-12,8.049627175250164e-13,4.761389709445395e-13,2.685856334888093e-13,1.6546857957154195e-13,9.835171333733784e-14,5.3528877242569554e-14,4.114125402108007e-14,2.5054414978711757e-14,4.503948035476701e-09,3.4463723729646823e-09,2.5386817056293048e-09,1.6323379576957757e-09,9.903133897249443e-10,6.472025965749122e-10,4.1176307919096654e-10,2.4213957186488753e-10,1.5251901931323113e-10,8.731872673020103e-11,4.9144125827021446e-11,2.7603930150146462e-11,1.6467709323153142e-11,9.693455070457839e-12,6.061563541183989e-12,4.3082950179042756e-12,2.952291167115058e-12,1.7399172085824136e-12,1.2140059612761425e-12,8.003135468731976e-13,6.39936861524729e-13
0.0,26,26.0,0.0,30.0,0.0,0.0,0.0,0.0,-13.0,0.0,2.0,0.0,0.0,0.0,4.8460617113945183e-11,2.4747958541535762e-11,1.2723152398825705e-11,8.182312675029993e-12,5.2288274208659195e-12,3.4828338221723988e-12,2.4345003739868027e-12,1.7668803088921252e-12,1.119250340973185e-12,7.350032849102538e-13,4.732296959075939e-13,2.7067748464166737e-13,1.5686374353842144e-13,1.0927824062759073e-13,5.647358592312835e-14,4.438556746820392e-14,3.575372596569269e-14,4.514970701779094e-09,3.625706108267176e-09,2.559065356543255e-09,1.6933392847750543e-09,1.0802188776677099e-09,7.260706243540032e-10,4.081636694875523e-10,2.363627410167668e-10,1.5632694755622527e-10,8.627737182539231e-11,4.9642204098922454e-11,2.671984356190457e-11,1.7365120623689608e-11,9.996868009413912e-12,6.505713572376942e-12,3.7905479169990215e-12,2.511503159111449e-12,1.9885173424625337e-12,9.630752336483335e-13,7.993414914773393e-13,5.335769813516845e-13
0.0,27,27.0,0.0,30.0,0.0,0.0,0.0,0.0,-13.0,0.0,2.0,0.0,0.0,0.0,4.653013099170003e-11,2.4316073242315518e-11,1.353173369922287e-11,7.860154418798894e-12,5.21346261875307e-12,3.6057277547042385e-12,2.434600340998559e-12,1.6274662596091675e-12,1.121008229208455e-12,6.914078804241828e-13,4.73295211972078e-13,2.6174542017366185e-13,1.7052184610875761e-13,1.118661694905362e-13,5.999207394919734e-14,2.2988548587598994e-14,4.248378700266336e-14,4.5715045150473835e-09,3.5087045339938602e-09,2.4803522640148896e-09,1.592059806270212e-09,1.0658967849851123e-09,6.476785805184082e-10,4.0887554713043256e-10,2.3552145892650343e-10,1.522134267430922e-10,8.550106042896419e-11,5.1109465131471434e-11,2.776969258671759e-11,1.6710466385647487e-11,9.1203563594193e-12,5.752739863564007e-12,3.8070752045867505e-12,2.524831240894723e-12,1.4677594376935502e-12,1.2688627321908756e-12,6.719052117801794e-13,2.587343164864211e-13
0.0,28,28.0,0.0,30.0,0.0,0.0,0.0,0.0,-13.0,0.0,2.0,0.0,0.0,0.0,4.782914430194872e-11,2.5524988784694067e-11,1.2076854422130894e-11,8.132955896974284e-12,4.9594020224491685e-12,3.2428378700308057e-12,2.2516902788595886e-12,1.5627043754646583e-12,1.0715265221844438e-12,6.96843356216391e-13,4.3429542648505255e-13,2.59814005630565e-13,1.6794269977380037e-13,1.046358240393328e-13,7.021594983549263e-14,3.468521069582244e-14,5.274948692922738e-14,4.4955122937155534e-09,3.593153223892539e-09,2.5599078312957434e-09,1.634187846650831e-09,1.0974671042051592e-09,6.780856163180755e-10,4.454890254406611e-10,2.4122473287531496e-10,1.534287825469543e-10,8.881311871394828e-11,5.095581223194382e-11,2.9995683568623465e-11,1.6249702163115013e-11,9.378794855677462e-12,5.6319212263852375e-12,3.4629907244270037e-12,2.2474117685351043e-12,1.7641601956943554e-12,1.19711328591599e-12,7.060181808554713e-13,1.7951389068367225e-13
0.0,29,29.0,0.0,30.0,0.0,0.0,0.0,0.0,-13.0,0.0,2.0,0.0,0.0,0.0,4.996850956602277e-11,2.357184953145309e-11,1.3111975241534787e-11,8.012771117860169e-12,4.784693355209384e-12,3.230494739621778e-12,2.115333572967401e-12,1.403746975553838e-12,9.889422959350603e-13,6.447441130026653e-13,4.409178424252534e-13,2.8394720852576447e-13,1.5784345077713842e-13,6.885952679367094e-14,4.8883059257772204e-14,3.111487603059069e-14,2.0864268372290567e-14,4.680812474592429e-09,3.504794101302391e-09,2.534650711072638e-09,1.631207977654381e-09,1.0155508493567396e-09,6.622984552500195e-10,4.167986667416276e-10,2.519528478105048e-10,1.4974239287741253e-10,9.800633764783757e-11,5.2555978578802943e-11,2.8910383404832653e-11,1.6060402386498587e-11,9.867707229689805e-12,5.438421465982587e-12,3.5680649262029465e-12,2.30038556260671e-12,1.5134029295782919e-12,9.288063258753595e-13,6.79849501905254e-13,4.051067273860301e-13
0.0,30,30.0,0.0,30.0,0.0,0.0,0.0,0.0,-13.0,0.0,2.0,0.0,0.0,0.0,4.579057944651499e-11,2.4669587029026034e-11,1.2345919988421502e-11,7.964010696903258e-12,4.6760193666088615e-12,3.1134906042677336e-12,2.0701843695876757e-12,1.4584808659764698e-12,1.002126370258606e-12,6.074426965061675e-13,4.4093473671814497e-13,2.6151651438742985e-13,1.5124829202567912e-13,9.639610169882216e-14,4.245008101639283e-14,3.585194182171079e-14,2.1607678142951038e-14,4.862353190516729e-09,3.7183032985956397e-09,2.482720962450035e-09,1.7111990471353957e-09,1.1129517260398166e-09,6.282493838505692e-10,4.1953533532152503e-10,2.541732388964349e-10,1.5428028795122392e-10,9.104496560435129e-11,5.3461084483858396e-11,3.029162704422785e-11,1.7124489797004626e-11,9.207079247295751e-12,5.7212487037060754e-12,3.4074451530878733e-12,2.2667494720133783e-12,1.1668801766738804e-12,1.0049357338160192e-12,5.917199673851431e-13,5.318060235508532e-13
0.0,31,31.0,0.0,30.0,0.0,0.0,0.0,0.0,-13.0,0.0,2.0,0.0,0.0,0.0,5.227825979474961e-11,2.614029628354111e-11,1.3070655361945057e-11,7.678828977230904e-12,4.470451274355559e-12,3.031980900576242e-12,2.0892232864133728e-12,1.3464499122429198e-12,9.635259286554764e-13,6.045708840758239e-13,4.4057429416385255e-13,2.638915686599317e-13,1.5466670106260357e-13,1.1437587199845169e-13,4.915172637029317e-14,1.9394948089141092e-14,3.4148530817986026e-14,4.619131179249645e-09,3.641665197123879e-09,2.6138272617155888e-09,1.7105947876106638e-09,1.006089618876502e-09,6.549536257296398e-10,4.08473715799818e-10,2.7369002833621206e-10,1.5480774775292138e-10,9.80215419617372e-11,5.3978557944789305e-11,2.842085229098549e-11,1.672216629992738e-11,9.242615470156733e-12,5.441504189544628e-12,3.4187287127451964e-12,2.0855768800947442e-12,1.2306592982888763e-12,9.966694743721533e-13,5.81487855683943e-13,2.706445187000584e-13
0.0,32,32.0,0.0,30.0,0.0,0.0,0.0,0.0,-13.0,0.0,2.0,0.0,0.0,0.0,5.346222489033438e-11,2.5643131750894904e-11,1.2834363495361631e-11,7.623728396196577e-12,4.365553356142613e-12,2.8907607666242496e-12,1.9235297427210516e-12,1.259982912894655e-12,8.673745542469188e-13,5.919633413886796e-13,4.0649966256289313e-13,2.569072055426052e-13,1.578117536279676e-13,9.635141568279937e-14,4.741566937060436e-14,4.399696459022253e-14,1.9849170100043375e-14,4.640739682655633e-09,3.436697727456615e-09,2.567439917595988e-09,1.5845447004083562e-09,1.0439726022876758e-09,6.4564520529307e-10,4.410493911689243e-10,2.591133997527979e-10,1.6001607282501357e-10,9.579834119272616e-11,5.256122699841896e-11,2.8505218622616727e-11,1.7340837222765597e-11,8.882308327530032e-12,5.696333638467016e-12,3.36120006777766e-12,2.0038020062191404e-12,1.2839366598076624e-12,7.911828173447912e-13,5.814227074720912e-13,3.1026684644096953e-13
0.0,33,33.0,0.0,30.0,0.0,0.0,0.0,0.0,-13.0,0.0,2.0,0.0,0.0,0.0,5.264284349862229e-11,2.6361465096400994e-11,1.2807570706786567e-11,7.373863715202367e-12,4.2606028410843144e-12,2.7929289683547186e-12,2.0241627638499233e-12,1.2556169272781434e-12,8.880975876185416e-13,5.72823643569345e-13,3.7756119403019127e-13,2.279120368251269e-13,1.4298875307604422e-13,9.646747163214382e-14,5.803311093851573e-14,3.5213440357691245e-14,8.67820762328105e-15,4.484158575434096e-09,3.620369387517388e-09,2.620119574876432e-09,1.676468327148549e-09,1.075698113085929e-09,6.936366029574918e-10,4.33210482574327e-10,2.7550040180149086e-10,1.5844699034894641e-10,9.309079981218508e-11,5.5966648196327194e-11,3.060530441929717e-11,1.6886915077368948e-11,1.0165916863534528e-11,5.4619787603183146e-12,3.0730100071762608e-12,1.96257007101013e-12,1.1764706095998663e-12,7.109530452468747e-13,5.173234427392621e-13,3.3128032329699053e-13
0.0,34,34.0,0.0,30.0,0.0,0.0,0.0,0.0,-13.0,0.0,2.0,0.0,0.0,0.0,5.321351460599771e-11,2.7608017272445933e-11,1.2998487789334745e-11,7.146118860225185e-12,4.379073055420554e-12,2.5419590318234057e-12,1.7951203773271264e-12,1.177395223994722e-12,8.368048214768467e-13,5.518175408713088e-13,3.931205832186601e-13,2.4361783669352797e-13,1.387128366365047e-13,5.828715917186213e-14,5.2099231628804555e-14,3.413229626850518e-14,1.449128698308468e-14,4.474914874866943e-09,3.488148808216697e-09,2.608115140732222e-09,1.762279312023905e-09,1.0596282392425284e-09,6.697359131076277e-10,4.35787873120806e-10,2.5904680217186027e-10,1.565897563761108e-10,9.906019652239516e-11,5.490957864077111e-11,2.966050951850662e-11,1.720598531662425e-11,9.154764139629193e-12,5.385220342932498e-12,3.2069311288495845e-12,1.9753587691627293e-12,1.2574683192651713e-12,7.49397939665796e-13,5.455142340522805e-13,3.140527111536717e-13
0.0,35,35.0,0.0,30.0,0.0,0.0,0.0,0.0,-13.0,0.0,2.0,0.0,0.0,0.0,5.166101225429409e-11,2.5806974238444428e-11,1.3257254763319918e-11,7.16770007753286e-12,4.418913842072003e-12,2.52570300379882e-12,1.8115497606791129e-12,1.1238904071448814e-12,8.111114018135942e-13,5.363102790873164e-13,3.896434375383387e-13,2.310657699870937e-13,1.522504859890851e-13,7.855171690855746e-14,4.857946184206142e-14,2.4167684886269245e-14,8.574492546678762e-15,4.550262246775736e-09,3.3809915557467136e-09,2.5071720820367655e-09,1.6769696018759845e-09,1.019157037208295e-09,7.019007674977359e-10,4.3265440908595886e-10,2.73564456060694e-10,1.6016532582722612e-10,9.550118083952262e-11,5.430783441408565e-11,3.04124432616653e-11,1.7921947491691527e-11,9.254492605638783e-12,5.2594545988535495e-12,2.971346745017815e-12,1.6578397260000718e-12,1.1382854631376787e-12,6.784170348892824e-13,6.185158530708647e-13,4.234246127239966e-13
0.0,36,36.0,0.0,30.0,0.0,0.0,0.0,0.0,-13.0,0.0,2.0,0.0,0.0,0.0,5.402414282824614e-11,2.73569126376747e-11,1.3773352016412994e-11,7.465512010135622e-12,4.173615911793676e-12,2.5573732228499224e-12,1.805063170617314e-12,1.0815496360905939e-12,7.90325169437638e-13,5.28732646374703e-13,3.5444575237938563e-13,2.3126964556746866e-13,1.3627263163575673e-13,9.263133993207931e-14,4.389524782204664e-14,4.0563087544359677e-14,1.451088341586318e-14,4.530475867631791e-09,3.456318936572327e-09,2.5577608169191824e-09,1.681776178834947e-09,1.0383120154397154e-09,6.525021203169061e-10,4.3724758954462976e-10,2.530525806384529e-10,1.6507553813064683e-10,9.613084191099188e-11,5.664719744597397e-11,3.2989226631635283e-11,1.764552566873456e-11,9.542159199639488e-12,5.334353182447393e-12,3.2488801113789124e-12,1.947461432992748e-12,1.2691267696622213e-12,8.353647609800905e-13,5.179426308240915e-13,2.829217040201748e-13
0.0,37,37.0,0.0,30.0,0.0,0.0,0.0,0.0,-13.0,0.0,2.0,0.0,0.0,0.0,5.685267455804425e-11,2.7219379229029934e-11,1.4689360695459272e-11,7.571637029759475e-12,4.32741652098619e-12,2.501170494185116e-12,1.5929484415172702e-12,1.107312136991034e-12,7.489183357041211e-13,5.143515893329134e-13,3.5256080638642454e-13,2.290199242210913e-13,1.3849521830635183e-13,8.994614885986149e-14,6.379869593216808e-14,3.625696118481188e-14,8.752668303309435e-15,4.527979536494515e-09,3.66566460040256e-09,2.494489950874748e-09,1.6629800609275772e-09,1.0464389414165712e-09,6.51799550889038e-10,4.3559037611068556e-10,2.6503761198598026e-10,1.6188612690663896e-10,9.773625147429558e-11,5.7973508452821425e-11,3.1729097301246234e-11,1.6336797933985496e-11,9.625900982848275e-12,5.3559206244864e-12,3.1420223482091892e-12,1.9855051800530013e-12,9.367601719817097e-13,6.907584644969224e-13,4.292700075936965e-13,5.553338400392215e-13
0.0,38,38.0,0.0,30.0,0.0,0.0,0.0,0.0,-13.0,0.0,2.0,0.0,0.0,0.0,5.069536881799188e-11,2.7178411066234136e-11,1.3746788102003701e-11,7.472420335136738e-12,4.2081475649002106e-12,2.562906361439559e-12,1.5384300597218537e-12,1.0275070643963514e-12,7.212267499177732e-13,4.66488813597384e-13,3.534163542974228e-13,2.1474921886365658e-13,1.493868717768369e-13,1.019792095680291e-13,3.321629823783823e-14,2.77043040592831e-14,1.5130199705101462e-14,4.57112224825767e-09,3.5446737802348968e-09,2.4587723569816923e-09,1.6783512196807984e-09,1.04955216720518e-09,6.827033018109749e-10,4.0742428991727574e-10,2.643200614243018e-10,1.627989848090418e-10,1.007001865377537e-10,5.6043657334365e-11,3.42335920650491e-11,1.7731015353238163e-11,9.99841298040463e-12,5.1152640395426895e-12,3.222901038056543e-12,1.8276213784092667e-12,1.1727447824851362e-12,6.106970301652626e-13,3.9334831758118705e-13,3.9000131086475986e-13
0.0,39,39.0,0.0,30.0,0.0,0.0,0.0,0.0,-13.0,0.0,2.0,0.0,0.0,0.0,5.566515181107619e-11,2.8795373750773136e-11,1.346571964114102e-11,7.680255560853243e-12,4.23333668331552e-12,2.3903762428838173e-12,1.5242162287360226e-12,1.048570986511882e-12,6.872503018876833e-13,4.78950555082446e-13,3.4793324274719473e-13,2.0942129218603955e-13,1.4912291887855138e-13,7.207018678982215e-14,4.5326521983951776e-14,3.343971177250436e-14,1.9315870421397523e-14,4.346489497674926e-09,3.427403855580754e-09,2.5026566117927396e-09,1.6645111001719816e-09,9.835605421065581e-10,6.802674913710816e-10,4.155220866652436e-10,2.5663904328819857e-10,1.5850238853389742e-10,9.888490926457108e-11,5.720368770940745e-11,3.238312389367811e-11,1.7548111999282863e-11,9.896105140865241e-12,5.397652159475519e-12,3.1374977400488438e-12,1.5565677877039417e-12,1.111048045250957e-12,7.422142278717281e-13,2.941963781538223e-13,6.200385257481634e-14
0.0,40,40.0,0.0,30.0,0.0,0.0,0.0,0.0,-13.0,0.0,2.0,0.0,0.0,0.0,5.552054794180891e-11,3.0048318991970675e-11,1.4049683490532914e-11,7.714954502382454e-12,4.289945470472213e-12,2.3241400537774785e-12,1.508889209390324e-12,9.843262638890277e-13,6.359759285614379e-13,4.5437098596655267e-13,3.6321853886278284e-13,2.0361108463576381e-13,1.341556505007962e-13,8.753111730929836e-14,4.962912928345432e-14,2.466715166735836e-14,2.275245111402603e-14,4.3608146417972144e-09,3.696242294317485e-09,2.437966056174957e-09,1.6493131952874591e-09,1.0029791614843013e-09,6.696349943317253e-10,4.2517066249037704e-10,2.4985633521044035e-10,1.674313869908822e-10,1.0091392608725451e-10,5.5379664281359896e-11,3.413153909939754e-11,1.9662440410913032e-11,1.037597188521567e-11,5.792204505937211e-12,3.0951337773055177e-12,1.7748927033818422e-12,1.0469066507367618e-12,5.625198543812445e-13,4.1783877248244775e-13,1.9406817135437334e-13
0.0,41,41.0,0.0,30.0,0.0,0.0,0.0,0.0,-13.0,0.0,2.0,0.0,0.0,0.0,5.3871995147749345e-11,2.7881273839131136e-11,1.42886049140711e-11,7.729038951637139e-12,4.1002199024896464e-12,2.4449789309562583e-12,1.5123960722551393e-12,9.30279453005749e-13,6.612325427460388e-13,4.662704299946914e-13,3.436259721459286e-13,1.985149219361785e-13,1.4110467794322247e-13,6.099468550814609e-14,4.875327946592644e-14,3.2805279087813294e-14,6.894584130656945e-15,4.683238930445327e-09,3.58285137891754e-09,2.542498428654039e-09,1.5841592678386162e-09,1.0916404311180552e-09,6.600141879221596e-10,4.0216912588031083e-10,2.732067798023533e-10,1.6306490553358682e-10,1.0032918550836661e-10,5.750947683477313e-11,3.380615260176876e-11,1.9613653466676324e-11,1.0084420866924148e-11,5.758069486201839e-12,3.114520938977233e-12,1.738780465315914e-12,1.050440024743897e-12,6.033499784995337e-13,5.044648300799405e-13,1.4907587768594557e-13
0.0,42,42.0,0.0,30.0,0.0,0.0,0.0,0.0,-13.0,0.0,2.0,0.0,0.0,0.0,5.3059429337252433e-11,2.8473775387229328e-11,1.4893487326271847e-11,7.755550769145699e-12,4.2090941973703304e-12,2.3090615125011813e-12,1.437977393755598e-12,9.472031497499124e-13,6.411765373908086e-13,4.3891655085393533e-13,3.2331964537572664e-13,1.788937568605707e-13,1.2868903156292113e-13,6.963315237245023e-14,3.507369518533821e-14,2.2114827530100242e-14,2.9583037979289127e-14,4.710605218231389e-09,3.541202465628072e-09,2.527922572163161e-09,1.6875400207088392e-09,1.0557065821274057e-09,6.449128619899704e-10,3.9957086712447756e-10,2.4935730670001694e-10,1.6363169661160978e-10,9.799114126879842e-11,5.7037099483742405e-11,3.526369994300288e-11,1.9075393101581094e-11,1.028792097512951e-11,5.757707603758338e-12,3.3646278990277647e-12,1.872914723690232e-12,1.0069125115233542e-12,6.480154732079872e-13,4.876922248282476e-13,1.6219659182863302e-13
0.0,43,43.0,0.0,30.0,0.0,0.0,0.0,0.0,-13.0,0.0,2.0,0.0,0.0,0.0,5.5749418120394686e-11,2.956158492148883e-11,1.4692009476217588e-11,8.139470539779718e-12,4.1773633617472905e-12,2.339751403820485e-12,1.4935482776009673e-12,9.219863305076796e-13,6.434454990040855e-13,3.8654455000490526e-13,2.9302485957438973e-13,1.9614058038259548e-13,1.1605908570492602e-13,8.050266774997838e-14,2.9654805235647865e-14,4.8810853514416234e-14,2.1122638677952828e-14,4.461492038403437e-09,3.552118372658885e-09,2.498627456385675e-09,1.6134314075296906e-09,1.066882086268832e-09,6.418957443982958e-10,4.016779949112496e-10,2.666472134181432e-10,1.641353907077742e-10,9.801889222425316e-11,5.6057959137162975e-11,3.3485234099847034e-11,1.974477335705874e-11,1.126977003413201e-11,5.999687352860378e-12,3.1062822707910672e-12,1.6282247051292395e-12,1.1022786359298232e-12,6.210749603818115e-13,2.454331112548399e-13,3.1031558158655897e-13
0.0,44,44.0,0.0,30.0,0.0,0.0,0.0,0.0,-13.0,0.0,2.0,0.0,0.0,0.0,5.545226203481713e-11,2.8078047283799485e-11,1.4791132052297117e-11,7.765718513586987e-12,4.452653490485071e-12,2.4844803331488508e-12,1.5181096410293156e-12,8.965996584713981e-13,5.883608017029651e-13,4.091128909617516e-13,2.7463708568992325e-13,1.948304839223302e-13,1.267938198288391e-13,7.885426643558986e-14,5.760868226112945e-14,1.3578020617817352e-14,1.9281577364241084e-14,4.4209249391921305e-09,3.25724878097213e-09,2.5245615179094e-09,1.6572761015508285e-09,1.07266728383321e-09,6.625500191250484e-10,4.316190200747858e-10,2.8187259435581465e-10,1.641747571844238e-10,1.0247047427811578e-10,5.879014529093431e-11,3.397920350773609e-11,1.8889046770066984e-11,1.089409912215758e-11,5.914916878416936e-12,3.002088351508912e-12,1.7517666605074348e-12,1.0726097457451193e-12,4.3350341001649974e-13,4.941723930686266e-13,1.0878139176824854e-13
0.0,45,45.0,0.0,30.0,0.0,0.0,0.0,0.0,-13.0,0.0,2.0,0.0,0.0,0.0,5.609084417653089e-11,2.8348319519755535e-11,1.4847091443603737e-11,7.728848462466054e-12,4.250914792154824e-12,2.352422675702261e-12,1.4655649533366544e-12,8.519936134617928e-13,5.781436857918949e-13,3.9470478867228493e-13,2.6333821980702585e-13,1.8939882309865613e-13,1.2566606646514177e-13,8.475375423640697e-14,4.240656551692659e-14,2.7114326851740463e-14,2.3074153971370925e-14,4.573465062266332e-09,3.585865301044635e-09,2.5110562554485848e-09,1.6552185013569231e-09,1.0426989546743462e-09,6.386254837194278e-10,4.4228969376391916e-10,2.5621774782351847e-10,1.5519070909196821e-10,9.647287847755029e-11,5.689855623160931e-11,3.4066656101287866e-11,1.8755190474943304e-11,1.095100523466314e-11,6.50660502795025e-12,3.203760168178063e-12,1.8463017305230713e-12,8.727171178745286e-13,5.575941088195164e-13,3.637256039260604e-13,3.8853058171115157e-13
0.0,46,46.0,0.0,30.0,0.0,0.0,0.0,0.0,-13.0,0.0,2.0,0.0,0.0,0.0,5.864746119233449e-11,3.077061823845312e-11,1.5341845387304937e-11,7.728541835021732e-12,4.28424531911201e-12,2.3101248374250257e-12,1.4278426771421064e-12,9.134367922642192e-13,5.668224561918164e-13,3.809231583237593e-13,2.7068670888898126e-13,2.0023643201432546e-13,1.1704934258723565e-13,6.883461850964109e-14,4.9659846829828815e-14,1.9166658514290806e-14,2.7919872371091145e-14,4.6909164136247535e-09,3.349672294417249e-09,2.4945510234712653e-09,1.6979656654569915e-09,1.0817357078427396e-09,6.550865902041468e-10,4.1989644133273756e-10,2.597582059415548e-10,1.5940594461723804e-10,9.606078215403681e-11,5.756312330061102e-11,3.512425725183534e-11,1.9137052297259624e-11,1.0972901744257333e-11,6.295206608553821e-12,3.314162264643609e-12,1.8823618540872144e-12,9.664087054989458e-13,6.389136088071796e-13,1.5796212973671387e-13,2.0844107062684038e-14
0.0,47,47.0,0.0,30.0,0.0,0.0,0.0,0.0,-13.0,0.0,2.0,0.0,0.0,0.0,5.5341517155779264e-11,2.8433003493794783e-11,1.46313047695272e-11,8.272645169879403e-12,4.331313450548562e-12,2.266578525469675e-12,1.4207595711578245e-12,8.37803606674976e-13,5.449687219209864e-13,3.510469985481684e-13,2.8932914602151915e-13,1.8232403069460305e-13,1.2305971472619356e-13,7.024938650344067e-14,4.6959660189853874e-14,3.1392436004972256e-14,2.2136359094226936e-16,4.459709161504259e-09,3.592491014833462e-09,2.5275068224654035e-09,1.6936621666101258e-09,1.0374660547907262e-09,6.667456078289506e-10,4.1813888370317866e-10,2.568685356868563e-10,1.6202780814717064e-10,1.0394842256587918e-10,5.923201223020498e-11,3.424884866772845e-11,2.0262693114347558e-11,1.1171726348775687e-11,5.64500363462437e-12,3.4032970913911487e-12,1.720871532672825e-12,1.1066262572943995e-12,5.584084159536064e-13,3.3870230089747635e-13,2.1138026261450366e-13
0.0,48,48.0,0.0,30.0,0.0,0.0,0.0,0.0,-13.0,0.0,2.0,0.0,0.0,0.0,5.5968752065952705e-11,3.019463638370684e-11,1.5552505725929633e-11,8.792545351591515e-12,4.271797362965178e-12,2.3642364258449157e-12,1.3090286843349862e-12,7.806323345661467e-13,5.134461535790788e-13,3.506418196148119e-13,2.5001738660303813e-13,1.6900627350021936e-13,1.0228317117381429e-13,6.193909076666508e-14,3.7076764891048496e-14,3.195263111767479e-14,2.4600544236542316e-14,4.615794974317227e-09,3.6222331773237476e-09,2.516046313516331e-09,1.6003032676213398e-09,1.0320165220207132e-09,6.721413977378981e-10,4.3673346239648576e-10,2.7494697794498346e-10,1.6652427674915884e-10,1.0102641418258763e-10,5.976906768157926e-11,3.446565553584162e-11,2.0318519798343357e-11,1.1338783967609236e-11,6.059792833652776e-12,3.174905439565832e-12,1.566327551857062e-12,9.699481806257271e-13,6.18098960602349e-13,2.577413205823613e-13,2.0464648112122766e-13
0.0,49,49.0,0.0,30.0,0.0,0.0,0.0,0.0,-13.0,0.0,2.0,0.0,0.0,0.0,5.652036470988722e-11,2.958682060848774e-11,1.6617602748231156e-11,8.597227509700977e-12,4.145790251070185e-12,2.423720066060672e-12,1.3611351205744712e-12,7.601028448674579e-13,5.2101134238393e-13,3.5276224721313743e-13,2.6959273811923605e-13,1.6965170434186622e-13,1.0899198744078157e-13,7.043103618726349e-14,4.862464578435797e-14,2.844369459392197e-14,8.408120931666643e-16,4.5911314284572945e-09,3.478895175667561e-09,2.564879071423333e-09,1.5569374808042662e-09,1.030453663862166e-09,6.758473792442444e-10,4.2043852484641023e-10,2.670098205301533e-10,1.6995579995251343e-10,1.0517929774530173e-10,5.877509786251185e-11,3.500812736604843e-11,2.068855949857232e-11,1.1414218725235815e-11,6.436401148286005e-12,3.0681849800743213e-12,1.819447464636013e-12,8.084954576771575e-13,5.126940486188955e-13,2.4209378332524726e-13,1.205936693250588e-13
0.0,50,50.0,0.0,30.0,0.0,0.0,0.0,0.0,-13.0,0.0,2.0,0.0,0.0,0.0,5.40294203389916e-11,2.7651900047572276e-11,1.5799707351515444e-11,8.744972463438688e-12,4.520844816303674e-12,2.3654120329693913e-12,1.4000449303133755e-12,7.660411291121993e-13,5.219161957071127e-13,3.2604129850128665e-13,2.663313235801391e-13,1.6569163318076805e-13,1.30725345895455e-13,6.507326210307378e-14,4.450455055918998e-14,3.247713521705923e-14,1.6093261403751255e-14,4.61752651355302e-09,3.4002922536537063e-09,2.5377082812553153e-09,1.6445466111756911e-09,9.887795343816162e-10,6.465557084165741e-10,4.316522425652732e-10,2.699392572095887e-10,1.5593784924751294e-10,9.984380478279075e-11,5.693386995274242e-11,3.588240768080463e-11,2.1095884238474205e-11,1.1345889591454666e-11,6.5401161808414825e-12,3.370557038717364e-12,1.8108827414483354e-12,1.0745195579407092e-12,5.15181025640962e-13,4.262411990111793e-13,2.5415598399703794e-13
0.0,51,51.0,0.0,30.0,0.0,0.0,0.0,0.0,-13.0,0.0,2.0,0.0,0.0,0.0,5.6232288352092464e-11,3.057331389555563e-11,1.5151569652222955e-11,8.860923060932355e-12,4.4116999503931756e-12,2.3800334856035777e-12,1.2897354201677313e-12,7.878450907551428e-13,4.895151679255952e-13,3.1319249272403873e-13,2.3414668211654027e-13,1.6030861102021963e-13,1.0073496299299868e-13,5.602531389293679e-14,4.063860919752368e-14,3.2687366537372173e-14,1.3798053233133233e-14,4.3657770889212236e-09,3.1351758662453994e-09,2.551840482238067e-09,1.7438133110920284e-09,1.0589547705010302e-09,6.800821901151332e-10,4.0882837419294596e-10,2.539361772352483e-10,1.6156806351580762e-10,1.0009909899595506e-10,5.676827453224793e-11,3.5146611714361356e-11,2.014951645339677e-11,1.1550057118432413e-11,6.708248235592665e-12,3.602366356020644e-12,1.7912950571255356e-12,1.0208065749796446e-12,5.714424410682349e-13,2.482318923363778e-13,2.1658909305691975e-13
0.0,52,52.0,0.0,30.0,0.0,0.0,0.0,0.0,-13.0,0.0,2.0,0.0,0.0,0.0,5.7242754415588213e-11,3.070377309766687e-11,1.59113139450578e-11,9.010523479192419e-12,4.399289995866905e-12,2.435935055182919e-12,1.4036582171904603e-12,7.927530831884319e-13,4.773806250477676e-13,3.128911128109155e-13,2.2698491815774988e-13,1.4286440386738789e-13,1.0905212693101495e-13,6.404156947155798e-14,4.4681944338606915e-14,2.359883456179249e-14,1.3107150119922222e-14,4.453511262621203e-09,3.553906300139794e-09,2.5677706918670696e-09,1.6986146453221985e-09,1.047611094393792e-09,6.565736085978514e-10,4.5700983127646555e-10,2.645064338269424e-10,1.5476028616199393e-10,9.916549551088181e-11,5.5328963727720164e-11,3.751446469157867e-11,2.1291654193915247e-11,1.1596006470301097e-11,6.43229535778543e-12,3.4254179286097707e-12,1.9260243588187086e-12,1.0334641323605302e-12,5.030297745871922e-13,5.593577390606418e-13,1.7445641597637758e-13
0.0,53,53.0,0.0,30.0,0.0,0.0,0.0,0.0,-13.0,0.0,2.0,0.0,0.0,0.0,5.562296809010695e-11,3.0936148239996585e-11,1.5784682423436364e-11,8.262068417057766e-12,4.500579133408152e-12,2.377426052703046e-12,1.4076314814182515e-12,8.095463462821452e-13,5.080356551054531e-13,3.126866191389485e-13,2.2641911812867387e-13,1.3242606183067287e-13,1.0340203007045394e-13,4.436777802278686e-14,3.871144101459976e-14,3.347428415614644e-14,2.066912619400637e-14,4.787665871447055e-09,3.465946452014063e-09,2.512985783797743e-09,1.720401787874588e-09,1.0848001785411898e-09,6.98926650005198e-10,4.085292717647997e-10,2.7160558385975514e-10,1.6942623112835453e-10,1.0070236015534182e-10,6.33987095738466e-11,3.6091048652153634e-11,1.9158325274096003e-11,1.2117042168663718e-11,6.1358540893535945e-12,3.4058949005892952e-12,1.904367964403881e-12,1.2070918875957528e-12,4.571922657229539e-13,2.8784578032150513e-13,3.0638810172456983e-13
0.0,54,54.0,0.0,30.0,0.0,0.0,0.0,0.0,-13.0,0.0,2.0,0.0,0.0,0.0,5.3482375658709817e-11,3.083642691070318e-11,1.523290458438884e-11,8.210437186256052e-12,4.583319732158027e-12,2.425505547617512e-12,1.3867244631586716e-12,7.877719300913512e-13,4.841076187818946e-13,3.207478400590465e-13,2.3890116595864155e-13,1.3089664733898376e-13,1.0031640449230483e-13,6.071233931101129e-14,2.0013163873511862e-14,4.0692982323025945e-14,9.32328880301248e-15,4.728709981669232e-09,3.483914164696856e-09,2.6090379541885954e-09,1.6388232054720265e-09,1.0910622878020891e-09,6.698189343698114e-10,4.3127518372766024e-10,2.701182593596919e-10,1.6504141037815725e-10,9.797535333802249e-11,5.829184265139917e-11,3.799168876342775e-11,2.1756151082445485e-11,1.1906517293858795e-11,6.821777645672837e-12,3.4308972599620466e-12,1.885101610683704e-12,8.118730928428116e-13,4.515947727326714e-13,2.7647807096003403e-13,1.5204824503897331e-13
0.0,55,55.0,0.0,30.0,0.0,0.0,0.0,0.0,-13.0,0.0,2.0,0.0,0.0,0.0,5.697328174766918e-11,2.9083131055100238e-11,1.5831409527681798e-11,8.791014284074426e-12,4.655814189546234e-12,2.5012572376033853e-12,1.3488937882209052e-12,7.224035276704748e-13,4.807604949028625e-13,2.973662190383052e-13,2.2139391186136988e-13,1.5106267089146147e-13,1.0105232055130941e-13,6.968925060670902e-14,3.882855481470468e-14,2.5400742652240657e-14,7.948118214137922e-15,4.575813518778557e-09,3.5475647484411735e-09,2.55896858070713e-09,1.7290314852234393e-09,1.1008370418762222e-09,6.95555911522197e-10,4.193226421853053e-10,2.6526882145824784e-10,1.6884131322860032e-10,9.987696885903599e-11,6.230426640315315e-11,3.32629733510651e-11,2.188696557809933e-11,1.1609210352831582e-11,6.592633441552088e-12,3.5135524309686815e-12,1.976803192912996e-12,9.666467171082412e-13,7.331179866989624e-13,3.458617127768429e-13,1.437623644936527e-13
0.0,56,56.0,0.0,30.0,0.0,0.0,0.0,0.0,-13.0,0.0,2.0,0.0,0.0,0.0,5.836658773352502e-11,3.095668482254494e-11,1.5790867864384606e-11,9.156738064355503e-12,4.775041246925645e-12,2.5525408210339727e-12,1.3324713262044988e-12,7.48173186526759e-13,4.596140228724698e-13,2.9744480735592916e-13,2.2479442796054795e-13,1.4278312881728634e-13,9.286820456497349e-14,5.320162416761006e-14,3.4499540820834005e-14,3.855649149738977e-14,3.1706131697820305e-14,4.644198008038345e-09,3.4866938603017864e-09,2.51111802427046e-09,1.6806540678903734e-09,9.70767564344759e-10,6.706990266490155e-10,4.1779491170752507e-10,2.5854381651640617e-10,1.6350225758736972e-10,9.707222394031512e-11,6.091805882684098e-11,3.5717308147312677e-11,2.1568321852337033e-11,1.1181972553371792e-11,6.737309865088321e-12,3.3668683510691766e-12,1.8314860509562144e-12,1.1253492024690859e-12,4.771921876464064e-13,4.2643950794845995e-13,3.632403435309947e-13
0.0,57,57.0,0.0,30.0,0.0,0.0,0.0,0.0,-13.0,0.0,2.0,0.0,0.0,0.0,5.797122913642621e-11,3.0948650875457745e-11,1.5116329094420595e-11,8.845431531132744e-12,4.805263499449007e-12,2.7004816809253584e-12,1.3569103513973533e-12,7.658909215053748e-13,4.556922582643883e-13,2.7881219120110505e-13,2.2059156029174307e-13,1.3012250900934976e-13,8.195545251824458e-14,4.279742162648413e-14,4.8406273894254787e-14,4.069588192719272e-14,-4.393022683902762e-15,4.5370134575172525e-09,3.54259668570264e-09,2.5100319916784225e-09,1.6638980365519737e-09,1.0615794274683105e-09,6.824609778227402e-10,4.191113580069922e-10,2.8653431758337804e-10,1.6562073257851022e-10,9.852003626638855e-11,6.054684146608456e-11,3.625861804096821e-11,2.049138614350602e-11,1.1985361284109686e-11,6.9104280930661635e-12,3.692751224747017e-12,1.8671324639672873e-12,1.0746645814409485e-12,5.179949627739338e-13,3.20865862880533e-13,1.3867425593561509e-13
0.0,58,58.0,0.0,30.0,0.0,0.0,0.0,0.0,-13.0,0.0,2.0,0.0,0.0,0.0,5.4784784057212076e-11,3.044459112291849e-11,1.6067198516423278e-11,9.506994370377922e-12,5.063664396749077e-12,2.540607278710885e-12,1.3300280436052137e-12,7.064800170993296e-13,4.182257965232466e-13,3.0578206460127126e-13,2.0415640254005677e-13,1.2938020224231815e-13,8.742769889075819e-14,4.57423322962996e-14,4.904583437294165e-14,2.3553108510762366e-14,1.3493948550052937e-14,4.545779835728756e-09,3.6401750575017355e-09,2.5369856154887835e-09,1.6571097607364584e-09,1.097519477914676e-09,6.882622098811176e-10,4.1278859589374877e-10,2.6741513413838245e-10,1.600371559262965e-10,1.0589362482517752e-10,6.094557135730321e-11,3.361097273261548e-11,2.0790814948369085e-11,1.2285874530993907e-11,6.747942542152614e-12,3.628253165454493e-12,1.872928541183212e-12,1.1590740084831685e-12,4.0531646800393733e-13,4.5387027831819335e-13,1.6760978687390118e-13
0.0,59,59.0,0.0,30.0,0.0,0.0,0.0,0.0,-13.0,0.0,2.0,0.0,0.0,0.0,5.866570768643751e-11,3.1020159732733946e-11,1.5947552011852913e-11,9.07162114439047e-12,4.806449097326703e-12,2.380991215539167e-12,1.3640982780823876e-12,7.703304711080016e-13,4.5045403534254345e-13,2.718159557140499e-13,1.9173541477522202e-13,1.0829113028939035e-13,7.991850949435441e-14,4.226178892910639e-14,5.2419908819535935e-14,2.7733379184752864e-14,1.118274026262142e-14,4.519719165085993e-09,3.7068852909434525e-09,2.5332118735048855e-09,1.6315902146444947e-09,1.0653042411316529e-09,6.805813723217428e-10,4.275571677863224e-10,2.6984417695394573e-10,1.6192179807711579e-10,9.935329157778411e-11,6.01228092840081e-11,3.6525968646444545e-11,2.1984982245935952e-11,1.2264860314907355e-11,6.47815551213509e-12,3.4513327765672257e-12,2.0884555414544327e-12,9.742229984772633e-13,7.606376746415203e-13,4.2832752622814383e-13,8.273033900531875e-14
0.0,60,60.0,0.0,30.0,0.0,0.0,0.0,0.0,-13.0,0.0,2.0,0.0,0.0,0.0,5.4887020777802896e-11,3.058906833330582e-11,1.6160224857522165e-11,8.905940354384158e-12,4.636840851369817e-12,2.5359545484179433e-12,1.3884625278303564e-12,7.538792843936857e-13,4.4030965237497117e-13,3.0224882709254933e-13,1.9164340979474837e-13,1.1730334868065963e-13,1.0238683909298333e-13,6.81965847489685e-14,6.626098649462111e-14,4.2642622574181867e-14,2.689157054039718e-14,4.52410962744135e-09,3.3204877986399005e-09,2.5442391184488913e-09,1.6491090503031648e-09,1.0451512908117982e-09,6.709579128130882e-10,4.2076236384511286e-10,2.6400844398611366e-10,1.623113186015869e-10,9.669126784343208e-11,5.976510988401167e-11,3.750797918539452e-11,2.1392643588280874e-11,1.2052418799757019e-11,6.706299698390833e-12,3.761456163357199e-12,2.0502633976970695e-12,1.0594248122737797e-12,4.46982583654066e-13,1.7553404429697482e-13,2.521113311153409e-13
0.0,61,61.0,0.0,30.0,0.0,0.0,0.0,0.0,-13.0,0.0,2.0,0.0,0.0,0.0,5.5475924634861835e-11,2.928710632810286e-11,1.570633156992902e-11,8.801934858015052e-12,4.836454309927708e-12,2.58509494193065e-12,1.4474052586644908e-12,7.429927280818925e-13,4.2887736167755627e-13,2.447912188592938e-13,1.8153996521054443e-13,1.0192962086904978e-13,8.07602664503148e-14,6.256787736478406e-14,5.1586656562587123e-14,1.2790701921894822e-14,1.720176445493543e-14,4.426693844028848e-09,3.544597600002528e-09,2.4879754127470577e-09,1.65069494023678e-09,1.1018758405527585e-09,6.75468736401952e-10,4.27758700986615e-10,2.7547716913554867e-10,1.593128703820098e-10,9.904911597346745e-11,6.065658941302188e-11,3.728442982262264e-11,2.1874488982476283e-11,1.2382057534291002e-11,7.066462796122347e-12,3.797405621422648e-12,2.062250347392242e-12,1.178631260712391e-12,4.4171871636260274e-13,1.8321825510906661e-13,1.9617594333289335e-13
0.0,62,62.0,0.0,30.0,0.0,0.0,0.0,0.0,-13.0,0.0,2.0,0.0,0.0,0.0,5.943192385535444e-11,3.08484680182852e-11,1.5740994376766633e-11,9.516796236864616e-12,4.819542786446973e-12,2.579312311197518e-12,1.325852466745423e-12,7.51431468796184e-13,4.529438208026315e-13,2.5776924670655585e-13,1.9855035078309992e-13,1.0271273418855469e-13,7.35516277358144e-14,5.652947480986554e-14,4.9117420908055176e-14,1.5653609304575742e-14,1.377964198852554e-14,4.400197320469451e-09,3.6153559540496043e-09,2.462004991503478e-09,1.6751617446474608e-09,1.0603715370830391e-09,6.452218073821693e-10,4.334710566475808e-10,2.505877729697159e-10,1.6887900115526604e-10,9.644560643366107e-11,6.408020229429862e-11,3.710049634416374e-11,2.1763671755272167e-11,1.1972102167046404e-11,7.072150192625187e-12,3.711117467560906e-12,1.96400975902667e-12,1.1102514605636979e-12,4.452279696541442e-13,3.4086645767687244e-13,3.7225091604320455e-14
0.0,63,63.0,0.0,30.0,0.0,0.0,0.0,0.0,-13.0,0.0,2.0,0.0,0.0,0.0,5.690468596910036e-11,3.098502884767731e-11,1.6493442559395784e-11,9.313028240794615e-12,5.006542040233094e-12,2.602191642829709e-12,1.4010577326081516e-12,7.464664482890107e-13,4.620933411635167e-13,2.5947870133032895e-13,1.9622656983566163e-13,1.1161973200992903e-13,9.878438736192924e-14,5.3243007054241865e-14,3.8598401216213356e-14,1.3128097995376576e-14,2.1033724175923263e-14,4.717464078044618e-09,3.634148648354757e-09,2.5839990042055122e-09,1.6121714397109058e-09,1.0343333919614389e-09,6.430872701121391e-10,4.31989228762205e-10,2.694193439911286e-10,1.6574015242231864e-10,1.0121696196702743e-10,6.026201899550841e-11,3.5857359305865e-11,2.1011964764787613e-11,1.2086805346442188e-11,6.8437239363037245e-12,3.99550096569861e-12,2.103160781590672e-12,1.1839138539442758e-12,8.287528669245755e-13,3.790130140784724e-13,2.0017072704874572e-13
