Line_number,Fiducial,Easting,Northing,Height,Elevation,tx_pitch,tx_roll,tx_yaw,txrx_dx,txrx_dy,txrx_dz,rx_pitch,rx_roll,rx_yaw,S0Z_time_1.431e-04,S0Z_time_1.801e-04,S0Z_time_2.266e-04,S0Z_time_2.846e-04,S0Z_time_3.581e-04,S0Z_time_4.506e-04,S0Z_time_5.671e-04,S0Z_time_7.136e-04,S0Z_time_8.981e-04,S0Z_time_1.131e-03,S0Z_time_1.423e-03,S0Z_time_1.791e-03,S0Z_time_2.255e-03,S0Z_time_2.838e-03,S0Z_time_3.573e-03,S0Z_time_4.498e-03,S0Z_time_5.662e-03,S1Z_time_1.409e-05,S1Z_time_1.610e-05,S1Z_time_1.909e-05,S1Z_time_2.360e-05,S1Z_time_2.960e-05,S1Z_time_3.709e-05,S1Z_time_4.609e-05,S1Z_time_5.759e-05,S1Z_time_7.209e-05,S1Z_time_9.060e-05,S1Z_time_1.141e-04,S1Z_time_1.431e-04,S1Z_time_1.801e-04,S1Z_time_2.266e-04,S1Z_time_2.846e-04,S1Z_time_3.581e-04,S1Z_time_4.506e-04,S1Z_time_5.671e-04,S1Z_time_7.136e-04,S1Z_time_8.981e-04,S1Z_time_1.131e-03
0.0,0,0.0,0.0,30.0,0.0,0.0,0.0,0.0,-13.0,0.0,2.0,0.0,0.0,0.0,1.963851398077952e-11,1.6544288694908505e-11,1.3082155855712592e-11,1.0934062578167234e-11,8.810240780213051e-12,7.1008493356058376e-12,6.176682260967559e-12,4.465987070092736e-12,3.543208556138511e-12,2.7126163390289623e-12,2.142675641965382e-12,1.569096430036376e-12,1.2170383996933372e-12,9.009501550088631e-13,6.042571808695496e-13,4.1370540331624683e-13,2.726729185294476e-13,1.5506788884307386e-10,1.1273215496391235e-10,8.777613968972944e-11,6.628886189007443e-11,5.5308665328663924e-11,4.0449882953637163e-11,3.616397214791008e-11,3.0312097185577006e-11,2.4914682610884204e-11,1.996051308138285e-11,1.7149131749518427e-11,1.3990656808158797e-11,1.108683240142318e-11,8.220804406163546e-12,7.1893394804449784e-12,5.513748781800438e-12,3.929873430957546e-12,2.9862003300897842e-12,2.2253471950228696e-12,1.6467794968541775e-12,1.210323251958321e-12
0.0,1,1.0,0.0,30.0,0.0,0.0,0.0,0.0,-13.0,0.0,2.0,0.0,0.0,0.0,1.8226548624045154e-11,1.484540417947887e-11,1.1408597378168008e-11,1.0112760711752807e-11,7.904352091034892e-12,6.360404455953091e-12,4.96200898677798e-12,4.173852844769966e-12,3.16861396891817e-12,2.3822998782316614e-12,2.020585427360526e-12,1.4780242632091487e-12,1.0884055771617627e-12,7.79569622606489e-13,5.437167800774529e-13,3.7726969383033466e-13,2.5107859659546084e-13,2.1992253904527405e-10,1.5142601224858216e-10,1.0215150463539072e-10,6.63522438603978e-11,4.9328352104305735e-11,3.990340904845877e-11,3.061462379919665e-11,2.72354063997942e-11,2.1780476197208664e-11,1.8373515634662813e-11,1.528056771400321e-11,1.2301801035208122e-11,1.049103989757368e-11,7.98694732370859e-12,6.197046310191493e-12,4.675758928924121e-12,3.612379135062876e-12,2.9671079476829046e-12,2.0520969145896044e-12,1.3119678447416137e-12,1.0828535568645118e-12
0.0,2,2.0,0.0,30.0,0.0,0.0,0.0,0.0,-13.0,0.0,2.0,0.0,0.0,0.0,1.5743494396863744e-11,1.3254720885532105e-11,1.0190713729585183e-11,8.997341196975961e-12,6.9386136159339415e-12,5.619398847384713e-12,4.717315643486295e-12,3.798572479929115e-12,3.1191796063089613e-12,2.3533924432346672e-12,1.648699704223674e-12,1.2881354014210185e-12,1.0437907190371815e-12,7.232198679784363e-13,4.853108299990581e-13,3.5840205776687147e-13,2.362957183994705e-13,2.843540418477056e-10,2.0031724038314535e-10,1.319307042092388e-10,7.696130477549771e-11,5.1748550127445616e-11,3.752723420352388e-11,2.9615819643922154e-11,2.567231698043852e-11,2.1018037353083366e-11,1.6517728740009087e-11,1.3617259528072063e-11,1.0752629143187416e-11,9.251742994502782e-12,6.740137078139302e-12,5.469176049610964e-12,4.143538453634209e-12,3.4413513596224843e-12,2.412313407994608e-12,1.764626431570064e-12,1.2246777351273787e-12,9.375227992887128e-13
0.0,3,3.0,0.0,30.0,0.0,0.0,0.0,0.0,-13.0,0.0,2.0,0.0,0.0,0.0,1.469305438773359e-11,1.1514891664156714e-11,9.732652847760324e-12,7.785463402408674e-12,6.278935013898516e-12,5.4042011741919906e-12,4.224064317044758e-12,3.273661675501669e-12,2.652308251794409e-12,2.071680512122732e-12,1.6075331595844213e-12,1.210848676866412e-12,8.972236950891561e-13,6.427884954193152e-13,4.804247621972869e-13,3.348422907004184e-13,2.200644418410692e-13,3.8173249352973825e-10,2.517824521027923e-10,1.604237962641855e-10,9.427482097379147e-11,6.147337060813165e-11,3.7926199376470474e-11,2.859022019312713e-11,2.2185523008671118e-11,1.8213153649727432e-11,1.529386398520829e-11,1.2689501362588539e-11,9.367471509507727e-12,7.911776872412484e-12,6.304140826296849e-12,5.300212448688535e-12,3.923869984372481e-12,3.185233968798307e-12,2.0601828728437387e-12,1.6712561638961584e-12,1.318402723837811e-12,6.842239162602666e-13
0.0,4,4.0,0.0,30.0,0.0,0.0,0.0,0.0,-13.0,0.0,2.0,0.0,0.0,0.0,1.3197417640924902e-11,1.1115388535730062e-11,8.754279068213944e-12,6.967094886608334e-12,5.753984011405397e-12,4.577675330508584e-12,3.5946877777389923e-12,3.077905844961202e-12,2.4470661197299893e-12,1.8447359918844177e-12,1.4482960663519357e-12,1.1221337153696534e-12,7.974453876579071e-13,6.145478030336666e-13,4.280080476370679e-13,2.8597360757981865e-13,1.874994156300162e-13,4.4241155391883143e-10,3.1492858764622437e-10,2.0297881146955866e-10,1.1514641914994126e-10,6.581685053740326e-11,4.019748627110414e-11,2.7276916421349634e-11,2.1630696519023935e-11,1.7382613227619924e-11,1.3865027341948041e-11,1.1033599640101551e-11,9.141929281747815e-12,7.292446216848753e-12,5.971439936688115e-12,4.263380435458439e-12,3.624653913948575e-12,2.673923656372181e-12,1.9482438668005843e-12,1.6500479187418494e-12,1.2102621660675011e-12,6.991870799939409e-13
0.0,5,5.0,0.0,30.0,0.0,0.0,0.0,0.0,-13.0,0.0,2.0,0.0,0.0,0.0,1.1935343397679834e-11,9.696828513863032e-12,7.66143025470641e-12,6.302683689025238e-12,5.248971892623082e-12,4.277323326932246e-12,3.3774776518947094e-12,2.8636305081084677e-12,2.1636469946416676e-12,1.6975554119410376e-12,1.3954610465430939e-12,1.038158232943022e-12,8.08155262241642e-13,5.831175955195769e-13,3.67790996194655e-13,2.743416331847301e-13,1.941948204685249e-13,5.315217534546064e-10,3.863150368558667e-10,2.591686948776467e-10,1.4467457146148736e-10,8.2296517517688e-11,4.259447997024293e-11,3.0509657046996805e-11,2.0935278801517472e-11,1.6199017873103287e-11,1.2866743697049008e-11,9.706647679365177e-12,7.989776011899261e-12,6.603592579701035e-12,5.2221796209410745e-12,3.9954064494192354e-12,3.0917068545502666e-12,2.316818980753372e-12,1.8600769608177276e-12,1.2717595552849979e-12,1.0696444434295836e-12,7.53988985393072e-13
0.0,6,6.0,0.0,30.0,0.0,0.0,0.0,0.0,-13.0,0.0,2.0,0.0,0.0,0.0,1.1036478064356163e-11,9.28206793110847e-12,7.1610719257122795e-12,6.198742571118148e-12,5.035132231769387e-12,3.911141145902547e-12,3.1877499621750844e-12,2.3234364082002946e-12,2.0000818717886316e-12,1.5924043813798432e-12,1.115822645406575e-12,9.534653916410373e-13,7.031174197664697e-13,4.905649232157003e-13,3.651893496815228e-13,2.570849955478986e-13,1.7002364848450036e-13,5.598434379336129e-10,4.437716289377418e-10,3.03966071663103e-10,1.7516384861024398e-10,9.945468103620726e-11,5.086702180482376e-11,3.231864273537807e-11,2.0519828779954036e-11,1.5323251664752727e-11,1.163801295492297e-11,9.177271862914838e-12,7.454340258577639e-12,6.179711540965447e-12,4.202161987751743e-12,3.79090647304365e-12,2.958376519120536e-12,2.2683708769574075e-12,1.6080545956926704e-12,1.0800761691228038e-12,1.0789308181330462e-12,8.147994960030132e-13
0.0,7,7.0,0.0,30.0,0.0,0.0,0.0,0.0,-13.0,0.0,2.0,0.0,0.0,0.0,1.011183498172814e-11,7.885764058268667e-12,6.527822042793527e-12,5.3742488580393686e-12,4.438258790875658e-12,3.4901411667272744e-12,2.82992782581178e-12,2.3334220078277696e-12,1.7223482201772157e-12,1.4037679765203885e-12,1.0971091421566917e-12,8.445592483540814e-13,6.264659894363392e-13,5.056896916630047e-13,3.5049108535656195e-13,2.5557919008461907e-13,1.6433444208434033e-13,6.185830423699048e-10,4.77345023120146e-10,3.2557694135390115e-10,2.1290256849364218e-10,1.15118190257216e-10,6.355391084061925e-11,3.657560392160464e-11,2.194172359529462e-11,1.5430269756655247e-11,1.0488596141435136e-11,8.688265482227444e-12,6.9540246403524295e-12,5.2283167513504776e-12,4.501860913647491e-12,3.3970782925941624e-12,2.5001966079023434e-12,2.067975526696251e-12,1.6003847559980318e-12,1.0631612798806284e-12,8.399336456826638e-13,5.094291267287465e-13
0.0,8,8.0,0.0,30.0,0.0,0.0,0.0,0.0,-13.0,0.0,2.0,0.0,0.0,0.0,9.806629626278498e-12,7.1033073616475815e-12,6.044448949920475e-12,5.1336601042383254e-12,3.946627269867856e-12,3.295062202779926e-12,2.6140130062559082e-12,2.0703572712136645e-12,1.7336544878906097e-12,1.3141145974323128e-12,1.0492818092249712e-12,7.748002014997703e-13,6.08862242514098e-13,4.341401619548161e-13,3.116573348518534e-13,2.1758589940654243e-13,1.374374797331827e-13,6.686051274316021e-10,5.091813590457434e-10,3.7477274148194343e-10,2.3316425154225893e-10,1.3749843827325527e-10,7.202920919657499e-11,4.138943494689441e-11,2.4011247694431255e-11,1.5155177591710442e-11,1.0535997455485574e-11,7.568390607159225e-12,5.8880080706462e-12,4.992853035448508e-12,3.9449627319256e-12,3.2731963456472707e-12,2.3888659078968713e-12,1.8420914111158973e-12,1.4060880047326395e-12,9.089179635827008e-13,6.030663993922687e-13,4.908079161891818e-13
0.0,9,9.0,0.0,30.0,0.0,0.0,0.0,0.0,-13.0,0.0,2.0,0.0,0.0,0.0,9.412754146410096e-12,7.215584272126081e-12,5.409480130546126e-12,4.447827404194031e-12,3.66845430739754e-12,3.0264512385264982e-12,2.362921123630796e-12,1.8806799233088175e-12,1.5414620772425545e-12,1.230737880218149e-12,9.594069527273967e-13,7.849505395375161e-13,5.638648519958484e-13,4.110400905992873e-13,2.8920003935027044e-13,2.094777447169417e-13,1.4490521930464593e-13,7.025522991899363e-10,5.485387982068914e-10,3.925194902272169e-10,2.709626709262918e-10,1.6558960477069932e-10,8.833686958876508e-11,4.777907322615315e-11,2.627810264098407e-11,1.597857195043535e-11,1.053655072742538e-11,7.716390086619075e-12,5.951047141092972e-12,4.559934806838639e-12,3.6192094029377707e-12,2.887853767055053e-12,2.4696593216328e-12,1.6465917659001154e-12,1.0462359904229858e-12,8.246389813307165e-13,1.0693486261607912e-12,3.907243609041141e-13
0.0,10,10.0,0.0,30.0,0.0,0.0,0.0,0.0,-13.0,0.0,2.0,0.0,0.0,0.0,8.447386581830152e-12,6.141703629449822e-12,5.300318823026467e-12,4.134843395160418e-12,3.449227046725467e-12,2.7081492332725496e-12,2.1516141261171227e-12,1.7528233490812517e-12,1.441329748036493e-12,1.1225112417994131e-12,8.741943624095723e-13,6.269817154515801e-13,4.776584433843442e-13,3.636635205994544e-13,2.735633929889012e-13,1.9193208606810064e-13,1.2848080815764253e-13,6.870113875643863e-10,5.851359456916854e-10,4.252188967480717e-10,2.841471103741717e-10,1.7475492314873958e-10,1.0526655801294458e-10,5.7227865393722056e-11,3.024906978867755e-11,1.7090715208278535e-11,1.0710373711314e-11,7.08557822011817e-12,5.724623571101893e-12,4.305615981284311e-12,3.366630867715528e-12,2.7227234767137477e-12,1.9005295786720518e-12,1.384714692756838e-12,1.0648580399076496e-12,8.798713421627375e-13,7.234958795591189e-13,5.283029803391281e-13
0.0,11,11.0,0.0,30.0,0.0,0.0,0.0,0.0,-13.0,0.0,2.0,0.0,0.0,0.0,8.684055554196093e-12,5.975660785223363e-12,4.902389707227455e-12,3.855279796937885e-12,3.2224724559181783e-12,2.4502335214365634e-12,2.0425937139596573e-12,1.6403547142227933e-12,1.2833523165939167e-12,1.0346404412334514e-12,8.193886264859415e-13,6.205212563305493e-13,4.805556776596883e-13,3.4747365095912366e-13,2.5112123530547176e-13,1.8650489672763252e-13,1.241934776230313e-13,6.88868601109705e-10,6.25379210998019e-10,4.4692531189425283e-10,2.9695155927123053e-10,1.999644993592075e-10,1.1030953986957563e-10,6.09344462026885e-11,3.333861572940467e-11,1.936207632191965e-11,1.075419389170822e-11,7.617096226811566e-12,5.487365258605585e-12,4.141522897779071e-12,3.0586866413985045e-12,2.3564646843391196e-12,1.6641913828997824e-12,1.4888847347230367e-12,1.068717308635487e-12,7.046751411758108e-13,5.846678232064662e-13,2.802375148494226e-13
0.0,12,12.0,0.0,30.0,0.0,0.0,0.0,0.0,-13.0,0.0,2.0,0.0,0.0,0.0,8.011878429231725e-12,5.6123128359516075e-12,4.400334749953457e-12,3.494141562190453e-12,2.7455898716487102e-12,2.3027380476318587e-12,1.7824332876833847e-12,1.4537771064929805e-12,1.2061681178009448e-12,9.584754606025153e-13,7.433345053924466e-13,5.305777563010079e-13,4.767502625600141e-13,3.3391655851896585e-13,2.483478650038084e-13,1.6834208098044785e-13,1.2164535343725759e-13,7.336491352198637e-10,6.327237723230333e-10,4.531088642851506e-10,3.2624805398731127e-10,1.9273787346814566e-10,1.234135319421025e-10,7.325242634003135e-11,3.92701631748787e-11,2.144608382900256e-11,1.1587402560316521e-11,7.271646670894609e-12,5.3464120696927305e-12,3.807537383471139e-12,2.9629551086398592e-12,2.0756027492591105e-12,1.6882185304925067e-12,1.1557657743085095e-12,1.0173096763638436e-12,9.199073482393846e-13,6.242981513476022e-13,2.099536668691104e-13
0.0,13,13.0,0.0,30.0,0.0,0.0,0.0,0.0,-13.0,0.0,2.0,0.0,0.0,0.0,8.258077844325355e-12,5.519450216797685e-12,3.940891059459732e-12,3.417707732008653e-12,2.5817181961149566e-12,2.084643294859014e-12,1.673937574447544e-12,1.3765354048711021e-12,1.1275830356613442e-12,8.661172798094692e-13,6.724509851676775e-13,5.31863116034402e-13,3.82967858629569e-13,3.000412674195662e-13,2.1853610849956407e-13,1.5987691039731348e-13,1.0437548371526124e-13,7.629048500096328e-10,6.108247020802216e-10,4.87276099688589e-10,3.434893901019679e-10,2.2011502847927308e-10,1.3268127975371766e-10,7.952428440648855e-11,4.137549045721933e-11,2.290552589299077e-11,1.2447796724430247e-11,7.324450189158332e-12,5.129578718039096e-12,3.6181293868792217e-12,2.578735407410758e-12,2.0074999886418405e-12,1.687220632733945e-12,1.141419897011461e-12,7.888914862183481e-13,7.829917254848176e-13,6.710125747766724e-13,3.908591901991684e-13
0.0,14,14.0,0.0,30.0,0.0,0.0,0.0,0.0,-13.0,0.0,2.0,0.0,0.0,0.0,8.527511632820023e-12,5.622878916658892e-12,3.886109053395613e-12,3.0330199770791127e-12,2.4582400441753947e-12,1.950527693077242e-12,1.6034258830597539e-12,1.2874266833089267e-12,1.0542869784967025e-12,8.135653250434965e-13,6.471211747632262e-13,4.818132148983424e-13,3.873516525401035e-13,2.79928836209556e-13,2.045570388964891e-13,1.4249117576885684e-13,1.0410417481849417e-13,7.290158658595686e-10,6.43036512522172e-10,4.891437715569897e-10,3.5079568366506344e-10,2.2844612658099496e-10,1.4713536464801777e-10,8.725596128426442e-11,4.8095677814769795e-11,2.4937581943020843e-11,1.3592523021387024e-11,8.000349371275831e-12,4.984053694633452e-12,3.3075592245143877e-12,2.6992870470323755e-12,1.830089275541116e-12,1.4679298299980548e-12,1.0551582329019333e-12,8.706608039979835e-13,5.954549548886339e-13,4.2957593384573113e-13,2.3618181980396674e-13
0.0,15,15.0,0.0,30.0,0.0,0.0,0.0,0.0,-13.0,0.0,2.0,0.0,0.0,0.0,9.029554907375394e-12,5.434169502856657e-12,3.883359994672094e-12,2.93033716153434e-12,2.326533054060351e-12,1.833171752478494e-12,1.5635866348442285e-12,1.1755675316092745e-12,9.34761486894761e-13,7.603242123106925e-13,5.831666342734382e-13,4.558723188915506e-13,3.609815986632689e-13,2.6383969370988097e-13,2.0019600142779488e-13,1.3797775512200764e-13,9.697242608149207e-14,7.704956702485643e-10,6.532925835639893e-10,4.691561055604571e-10,3.6469949451960314e-10,2.334856675980038e-10,1.533956118403059e-10,9.501290346929892e-11,5.34189983753896e-11,2.8940523017488928e-11,1.446524490869388e-11,8.458570709877814e-12,5.2700069378963386e-12,3.2676775737598526e-12,2.3897600404619622e-12,1.8547033499677833e-12,1.5470545703798992e-12,1.033067588404657e-12,9.079721951310353e-13,5.625847489397975e-13,4.829975324315671e-13,1.8171099125567734e-13
0.0,16,16.0,0.0,30.0,0.0,0.0,0.0,0.0,-13.0,0.0,2.0,0.0,0.0,0.0,8.87513911927112e-12,5.407218965136224e-12,3.577269832838785e-12,2.6604787252848196e-12,2.0973844622271926e-12,1.705305190799099e-12,1.3462979825152413e-12,1.0529716345499654e-12,8.872392074489881e-13,7.233923095962842e-13,5.277243262779064e-13,4.448373388549609e-13,3.3884169412902317e-13,2.502440861253152e-13,1.7281450741084171e-13,1.3196312462202956e-13,8.824096362342392e-14,8.043922058211994e-10,6.305016983457134e-10,5.16968280028154e-10,3.631146781318553e-10,2.4293629750890273e-10,1.5729195273777278e-10,9.65426753108848e-11,5.766826507417395e-11,3.4066374367944954e-11,1.5589140794700202e-11,9.286618761293094e-12,4.882040691619621e-12,3.2307946862045024e-12,2.1421331399883157e-12,1.6655084080503763e-12,1.12698777768001e-12,9.45545913884158e-13,8.985651540687146e-13,5.501770450881304e-13,4.0418607388142454e-13,3.097954312557449e-13
0.0,17,17.0,0.0,30.0,0.0,0.0,0.0,0.0,-13.0,0.0,2.0,0.0,0.0,0.0,1.0107486729669968e-11,5.341074900944571e-12,3.4420357994225223e-12,2.5905671066673418e-12,2.068505933854847e-12,1.6413263764883334e-12,1.2951524717285146e-12,1.0829871672472584e-12,7.921586861958922e-13,6.49592073006511e-13,5.048948008119275e-13,4.048694385496855e-13,3.1298110634914795e-13,2.1680746858766683e-13,1.7320143087669858e-13,1.1843639766626749e-13,8.376316179634642e-14,7.937778123178461e-10,6.448781983468932e-10,5.185953239766241e-10,3.6623101163391827e-10,2.607934325453548e-10,1.6312848357427135e-10,1.0191083020930287e-10,6.329632381286741e-11,3.380150107233129e-11,1.8608890833805292e-11,9.64726370031327e-12,5.049487847784089e-12,3.23093297810742e-12,2.163871778263843e-12,1.7416228064603476e-12,1.3351389979192802e-12,8.617442729805717e-13,5.74674362078503e-13,4.761228364836938e-13,1.42731810066167e-13,2.1601295087446106e-13
0.0,18,18.0,0.0,30.0,0.0,0.0,0.0,0.0,-13.0,0.0,2.0,0.0,0.0,0.0,1.1191860187895404e-11,5.4910165731832535e-12,3.587298731484428e-12,2.300686827961472e-12,1.8793483361363256e-12,1.3733346302696692e-12,1.1907938595189804e-12,9.790098634797732e-13,8.228615355323767e-13,5.913665380174495e-13,4.631092780205456e-13,3.8196481747263045e-13,2.9002877628668023e-13,2.181550291046775e-13,1.540563536110554e-13,1.1087454399901525e-13,7.676067921278673e-14,8.203972556701383e-10,6.760498406509507e-10,5.238347352297964e-10,3.7927225893895993e-10,2.4318718564670266e-10,1.7082736700590574e-10,1.0454917332927193e-10,6.877947396606777e-11,3.591619683555457e-11,1.979134390302939e-11,1.0529085780416469e-11,5.807879904961286e-12,3.197144521162098e-12,2.172506283218476e-12,1.6248881357171874e-12,1.2264793847335878e-12,8.76004568905829e-13,6.588669000067677e-13,4.613292299739645e-13,5.978905370994488e-13,2.0234085611721506e-13
0.0,19,19.0,0.0,30.0,0.0,0.0,0.0,0.0,-13.0,0.0,2.0,0.0,0.0,0.0,1.1234990226201584e-11,5.906675413605728e-12,3.4155154606631055e-12,2.4388923473410607e-12,1.6826937305688512e-12,1.384922601749434e-12,1.1296692934345887e-12,8.951864780511911e-13,7.193333036963279e-13,5.082513291386334e-13,4.3992447170603863e-13,3.463382104177109e-13,2.6776249727094107e-13,1.9348429501806703e-13,1.3992351617791837e-13,1.0824535120463584e-13,7.597613184438589e-14,7.969959106698197e-10,7.106002024748163e-10,5.270508959415708e-10,3.830310803376482e-10,2.561284780172296e-10,1.7825551664750068e-10,1.0764438893289421e-10,6.945188503859424e-11,4.1213264303786354e-11,2.2094296764966504e-11,1.1443178171330593e-11,6.227817933845867e-12,3.3342428407447967e-12,2.1856353097469863e-12,1.4288587730530605e-12,1.2584320489875702e-12,8.160044636578588e-13,5.49093362259708e-13,4.020696878691714e-13,2.874574124340806e-13,1.1336131267833307e-13
0.0,20,20.0,0.0,30.0,0.0,0.0,0.0,0.0,-13.0,0.0,2.0,0.0,0.0,0.0,1.1551306671954908e-11,5.869778174168678e-12,3.550897133499647e-12,2.3087994291535433e-12,1.6275463595807082e-12,1.3689885312273864e-12,1.105666721818511e-12,8.333316272184716e-13,6.536196600707753e-13,5.045804003723535e-13,4.0754851977177967e-13,3.3614006519258094e-13,2.3451958727755976e-13,1.9368734798999937e-13,1.358147971363814e-13,9.699573096161116e-14,6.89912906503312e-14,8.506307756011911e-10,6.919736323697484e-10,5.16652672303871e-10,3.8109928575043317e-10,2.7505401537191146e-10,1.8837387727677104e-10,1.285132691629589e-10,7.5611359048657e-11,4.431764835699188e-11,2.4164647087106805e-11,1.217937957033156e-11,6.027055151855685e-12,3.5445710743790224e-12,2.237256456395928e-12,1.4968982757847436e-12,8.908821299378808e-13,7.894718800007689e-13,7.809807802165053e-13,4.2815373319666843e-13,2.253371687773863e-13,2.579283569178947e-13
0.0,21,21.0,0.0,30.0,0.0,0.0,0.0,0.0,-13.0,0.0,2.0,0.0,0.0,0.0,1.3514029962457487e-11,6.605548738377512e-12,3.425780309731574e-12,2.1511548628912158e-12,1.5878691949488492e-12,1.1655436363669806e-12,9.772758102453258e-13,7.849567237409429e-13,6.104425552085293e-13,5.105961902921025e-13,3.886574718234776e-13,3.0406051828908785e-13,2.377963004605218e-13,1.7512265872976314e-13,1.3163219972307062e-13,9.509053362934707e-14,6.297288049055187e-14,8.785608391243924e-10,6.769333576831713e-10,5.64813727306885e-10,4.0362372937310284e-10,2.776610903180835e-10,1.757164481032725e-10,1.2378759037512983e-10,7.470485925634355e-11,4.710589049752349e-11,2.6273303078297172e-11,1.3003377581579667e-11,6.7728023484263625e-12,3.711042766927661e-12,2.208144279138583e-12,1.310681315050927e-12,8.536477755295505e-13,7.005818625643236e-13,6.45493968052044e-13,2.769413859203816e-13,2.47059251705365e-13,1.5578044289503151e-13
0.0,22,22.0,0.0,30.0,0.0,0.0,0.0,0.0,-13.0,0.0,2.0,0.0,0.0,0.0,1.3780258156365758e-11,6.643246572771251e-12,3.537929002631951e-12,2.1376191158256653e-12,1.5358832773618981e-12,1.2203256488079837e-12,9.70052329295067e-13,7.083115445097357e-13,5.980496311044135e-13,4.757764642010589e-13,3.684028301989386e-13,2.9260154411147365e-13,2.1985971690046868e-13,1.7035664152854098e-13,1.245524156954199e-13,8.494997391177469e-14,6.319409076370877e-14,8.506066463180199e-10,7.375283243841354e-10,5.765100418185867e-10,3.939886501149067e-10,2.8658841814366896e-10,2.0099083067997831e-10,1.2821916223681531e-10,7.786975555177786e-11,4.739381793372789e-11,2.7319540055030102e-11,1.4055358075485548e-11,7.0981868040540585e-12,3.6193236658168663e-12,2.3538635450140875e-12,1.3275737387800583e-12,8.8477754357022e-13,7.064380856650532e-13,7.259270753228038e-13,2.4036287279603046e-13,3.9159334735338056e-13,1.2453854978921552e-13
0.0,23,23.0,0.0,30.0,0.0,0.0,0.0,0.0,-13.0,0.0,2.0,0.0,0.0,0.0,1.5176251695582045e-11,7.238954885651077e-12,3.6082700865809656e-12,2.1939757450052988e-12,1.516945473149481e-12,1.1119304626033666e-12,8.94609165054333e-13,7.217765953024636e-13,5.527326163287104e-13,4.57707796682353e-13,3.4787364206282534e-13,2.6408408538668466e-13,2.0977847566173174e-13,1.5478205224568045e-13,1.168850291261896e-13,7.822387345030755e-14,5.588228378428511e-14,8.546213132423425e-10,6.710244513887832e-10,5.398881048419231e-10,4.184407109029325e-10,2.8808306045386727e-10,1.9105506306393546e-10,1.2376800084850774e-10,8.339412392692615e-11,5.183869742606616e-11,2.908254821490595e-11,1.4910746024620418e-11,7.855458055856435e-12,4.262873417180346e-12,2.2395778664550813e-12,1.4248103594264144e-12,8.613615461027521e-13,6.162067373220274e-13,5.178259306941748e-13,1.9954499773855168e-13,3.601940400529608e-13,2.69082036227074e-13
0.0,24,24.0,0.0,30.0,0.0,0.0,0.0,0.0,-13.0,0.0,2.0,0.0,0.0,0.0,1.6153435669522747e-11,7.727767074161106e-12,3.655586871980492e-12,2.0771396456945895e-12,1.4496648393653394e-12,1.1026207398209267e-12,7.999422066176515e-13,6.552793257806889e-13,5.024582077488661e-13,3.908485209751873e-13,3.1542515508062524e-13,2.4359377544780747e-13,1.98601989593576e-13,1.4890823489926488e-13,1.1127848191518107e-13,7.889655956848116e-14,5.485223335892605e-14,9.356017614100188e-10,7.033813942808191e-10,6.033411603562878e-10,4.1097361038090947e-10,2.9485709031152683e-10,1.9387889862494664e-10,1.3426420606957447e-10,8.736491335304085e-11,5.1706112444695476e-11,3.1409102169882654e-11,1.630120468571839e-11,8.677269442253746e-12,4.492117072398536e-12,2.3663601994981164e-12,1.1802395209501639e-12,7.86551854857719e-13,5.251282497077843e-13,3.405356134306241e-13,3.8498202182426743e-13,9.929931236934307e-14,2.2087028114278525e-13
0.0,25,25.0,0.0,30.0,0.0,0.0,0.0,0.0,-13.0,0.0,2.0,0.0,0.0,0.0,1.6450963291488954e-11,7.614045802940105e-12,3.641869777036089e-12,2.129009513158632e-12,1.3134205075023302e-12,1.011376153812402e-12,7.713859785857511e-13,5.93650795784888e-13,4.875468282349007e-13,3.9835608437894813e-13,3.072458650428403e-13,2.4033574878990265e-13,1.8161075555275384e-13,1.3659401600665893e-13,9.974749385460226e-14,7.576177487397804e-14,5.3230474627571074e-14,8.716317267447009e-10,7.631363455041441e-10,5.670048637099755e-10,4.1707199422131433e-10,2.9106114450478337e-10,2.000573080716581e-10,1.3766994983879603e-10,8.551222746783491e-11,5.601300443281448e-11,3.227666809790082e-11,1.7471106955667596e-11,9.501969865679885e-12,4.536701121318808e-12,2.187400234221441e-12,1.1687696678848808e-12,8.915464787199237e-13,4.404840453670643e-13,3.6234997227911645e-13,3.1665426037884734e-13,-1.2109857974687653e-13,1.9295167851115245e-13
0.0,26,26.0,0.0,30.0,0.0,0.0,0.0,0.0,-13.0,0.0,2.0,0.0,0.0,0.0,1.7411111026386916e-11,8.150227446286419e-12,4.0149944126873885e-12,2.021176143505054e-12,1.3641057680195063e-12,9.130391276490275e-13,7.271617429842231e-13,6.061230948740269e-13,4.653899832706295e-13,3.5364209445973343e-13,2.7737199191900537e-13,2.28149519024654e-13,1.6819857307701946e-13,1.322569775203413e-13,9.318428257501095e-14,7.151909682436156e-14,5.223493236224131e-14,9.032325758201848e-10,7.711513029628272e-10,5.679943535206543e-10,4.160641745378724e-10,2.943393334207465e-10,2.1448546391242007e-10,1.3764595615321507e-10,9.229176512659855e-11,5.8070338394597394e-11,3.540037693404632e-11,1.8737016981420853e-11,1.0295383540039909e-11,5.120904543194915e-12,2.3052647709484247e-12,1.4263045063052588e-12,8.067657583401636e-13,7.194631876612967e-13,4.63235670777534e-13,2.5019569932476205e-13,3.000447906480082e-13,2.832835684308608e-13
0.0,27,27.0,0.0,30.0,0.0,0.0,0.0,0.0,-13.0,0.0,2.0,0.0,0.0,0.0,1.9446166508737853e-11,9.467980449596702e-12,4.437450496885891e-12,2.274896499416348e-12,1.425617900457048e-12,9.386924483794608e-13,7.028364756459018e-13,5.447309236962291e-13,4.5347819376668954e-13,3.3794649884316745e-13,2.754715181415262e-13,2.0492916149897877e-13,1.7141281722259326e-13,1.220949239576574e-13,9.691761932238279e-14,6.875245534107193e-14,4.7759224075851965e-14,9.165062496605408e-10,7.793423570976429e-10,5.820665458549785e-10,4.3125278363145613e-10,2.9841974948418347e-10,2.0053503074586625e-10,1.4203501963138565e-10,9.406241635620101e-11,5.758945402771749e-11,3.642687206919451e-11,1.9920985635319175e-11,1.0243001733906872e-11,5.304363765990123e-12,2.664101109860771e-12,1.474482350000676e-12,7.736134854081895e-13,4.079061138779329e-13,4.610209020037893e-13,5.809946529545965e-14,1.7111911070858052e-13,2.7444098017826756e-14
0.0,28,28.0,0.0,30.0,0.0,0.0,0.0,0.0,-13.0,0.0,2.0,0.0,0.0,0.0,1.8996554790291272e-11,9.115270390653512e-12,4.409886350545841e-12,2.4040395598074573e-12,1.3457484590632854e-12,8.954413333044902e-13,6.787027523105135e-13,5.138047501952076e-13,3.99782797550553e-13,3.181732790867816e-13,2.3914496139426467e-13,1.9711185450658006e-13,1.4514337863537062e-13,1.175464546200394e-13,8.333515858049723e-14,6.242984592583094e-14,4.462087909280451e-14,8.759159777822761e-10,8.020666681931329e-10,6.154624921907654e-10,4.3723371083628775e-10,2.9662876874425974e-10,2.118555235595527e-10,1.4331436552652845e-10,1.0294970154157511e-10,5.991229483446541e-11,3.650557957420614e-11,2.086840640694256e-11,1.054200107440048e-11,5.7236058810355255e-12,2.613494672906014e-12,1.461427998690449e-12,9.72293684411925e-13,6.180327313039611e-13,3.620608535575248e-13,2.111254270788157e-13,1.2516092507331804e-13,-4.105967159766833e-14
0.0,29,29.0,0.0,30.0,0.0,0.0,0.0,0.0,-13.0,0.0,2.0,0.0,0.0,0.0,2.1204916070405752e-11,1.0008807848344708e-11,4.76225694740112e-12,2.332868940633944e-12,1.3868919487301506e-12,8.628058510224561e-13,6.322928048676871e-13,5.05869074373845e-13,3.9412650281841423e-13,3.007162468804893e-13,2.4078585342065154e-13,1.9020493472294035e-13,1.4148936346588947e-13,1.1024246618008396e-13,7.655611019358277e-14,6.214943209597003e-14,4.2355067525131925e-14,9.190597344866111e-10,7.920753587064924e-10,6.074817419968822e-10,4.400753390327852e-10,3.040740180887567e-10,2.1289241001189748e-10,1.4408439550499797e-10,9.482167158195313e-11,6.085196957924401e-11,3.995018403832218e-11,2.129572358723625e-11,1.2402878149681322e-11,6.279907043236261e-12,3.1092951574746327e-12,1.4373734904009098e-12,7.703955505086721e-13,3.961820407628817e-13,3.181421775348297e-13,2.986224752097426e-14,2.0141594113836649e-13,2.5323833581401354e-13
0.0,30,30.0,0.0,30.0,0.0,0.0,0.0,0.0,-13.0,0.0,2.0,0.0,0.0,0.0,2.1375169769675712e-11,1.0116673179530018e-11,4.969690442914619e-12,2.392307345162522e-12,1.3848538405296089e-12,8.59441435197914e-13,5.95018214187581e-13,4.791950277755502e-13,3.7254185289170074e-13,2.911272554766008e-13,2.2370215627266073e-13,1.7479103243241596e-13,1.4110731076094463e-13,1.0619949457905655e-13,7.625923799926099e-14,5.50218782656924e-14,4.171430209143095e-14,9.740992891713403e-10,8.227172855231284e-10,5.937091845101121e-10,4.740964823891743e-10,3.1293869639828026e-10,2.1429828490051813e-10,1.4715702568411698e-10,9.486772598334142e-11,6.367563842692593e-11,3.760983352299979e-11,2.282527949054741e-11,1.176403024539044e-11,6.3352311746317464e-12,3.1582365124182655e-12,1.5919380653232047e-12,6.738129565781441e-13,4.2340558261590646e-13,3.32295597461258e-13,7.420854428803814e-14,2.738997807890645e-14,1.4681720749580337e-13
0.0,31,31.0,0.0,30.0,0.0,0.0,0.0,0.0,-13.0,0.0,2.0,0.0,0.0,0.0,2.2159806020008622e-11,1.075484840180234e-11,4.984773237291002e-12,2.375949676164777e-12,1.2971405947229312e-12,8.274172301290984e-13,5.567090911407118e-13,4.5333491314290296e-13,3.5179601650493973e-13,2.680834086629213e-13,2.2233987960680788e-13,1.6848449823632432e-13,1.2908043518378434e-13,9.466837595133671e-14,7.599227141109069e-14,5.182738698910342e-14,3.815329456315383e-14,1.0086529737926192e-09,8.024732740006719e-10,6.08092700930768e-10,4.591160114208112e-10,3.0779065861845625e-10,2.1489855958540886e-10,1.4677781977854417e-10,1.0177384490671704e-10,6.545637678005094e-11,3.862454709622521e-11,2.3514220771221225e-11,1.3500059972077138e-11,6.79047495132248e-12,3.2558879241949608e-12,1.5969666203819131e-12,9.003142984897311e-13,4.706701147385629e-13,4.265657201212319e-13,2.4804610822561917e-13,1.8303627744148e-13,2.792969043317412e-14
0.0,32,32.0,0.0,30.0,0.0,0.0,0.0,0.0,-13.0,0.0,2.0,0.0,0.0,0.0,2.2136534722609305e-11,1.114029130335702e-11,5.224161060474399e-12,2.4954037021686553e-12,1.3818418583027728e-12,8.159590685665366e-13,5.901449640150474e-13,4.573829121567401e-13,3.3429926150998954e-13,2.5135840369333835e-13,1.9998679804638557e-13,1.550262706258547e-13,1.2365807432365313e-13,9.481497081798517e-14,7.294702957546826e-14,4.612045166546889e-14,3.707717142810351e-14,1.008590428537615e-09,8.125529033935393e-10,6.179008290518353e-10,4.17857299781666e-10,3.1274430719205654e-10,2.1869710996814443e-10,1.5365967602661137e-10,1.0136105528241393e-10,6.297476246020709e-11,4.311486730749984e-11,2.356839117738771e-11,1.3606326185041116e-11,7.102478983299536e-12,3.661577486554653e-12,1.949357722893635e-12,9.432286928468909e-13,4.678253749305184e-13,2.4840144508187853e-13,9.708542619490982e-14,2.8546789347894026e-13,5.78122727178402e-14
0.0,33,33.0,0.0,30.0,0.0,0.0,0.0,0.0,-13.0,0.0,2.0,0.0,0.0,0.0,2.3239138852989306e-11,1.1713010655413046e-11,5.6353406960967396e-12,2.769074852033157e-12,1.5070130334281004e-12,8.173649659784064e-13,5.561842671792439e-13,4.034807888151395e-13,3.1696797408950397e-13,2.5058200288011624e-13,1.9074952242038657e-13,1.4967035987088772e-13,1.1223677201764568e-13,8.439495391178336e-14,6.33189693112795e-14,4.603716547138991e-14,3.2587113125198485e-14,1.0157644764864553e-09,8.660343841325808e-10,6.443344691240615e-10,4.3438999811643746e-10,3.089148343056845e-10,2.1828533265764397e-10,1.457500163281653e-10,9.866749615914947e-11,6.787863676136293e-11,4.065920538753333e-11,2.525865235591366e-11,1.462494461542953e-11,7.450801444145343e-12,3.2786970230102292e-12,1.6919122759017057e-12,1.0399171775615314e-12,5.561874113588976e-13,3.5298786794809103e-13,3.501251583926097e-13,8.085128638622169e-14,1.4355277535154973e-13
0.0,34,34.0,0.0,30.0,0.0,0.0,0.0,0.0,-13.0,0.0,2.0,0.0,0.0,0.0,2.4128605635288664e-11,1.239000679692235e-11,5.852122642307788e-12,2.9132263034630005e-12,1.5185066715772347e-12,7.986985369887101e-13,4.973238611299881e-13,3.9544596064224694e-13,2.849210717216659e-13,2.456710740289029e-13,1.866452828165046e-13,1.398814010849725e-13,1.0883314197578023e-13,8.193248197973943e-14,6.297476081360807e-14,4.3085588853158094e-14,3.1009491660120044e-14,1.0725091777270414e-09,8.393381212814786e-10,6.899085210012407e-10,4.679949068636763e-10,3.3430292719516077e-10,2.220145200868737e-10,1.5593031346490357e-10,1.0246026085917633e-10,7.009286441300863e-11,4.551726164905614e-11,2.6223930332724417e-11,1.4391406702665524e-11,7.878205497734634e-12,4.005946357287399e-12,1.9659697906884236e-12,8.888087782032042e-13,5.060603428804794e-13,2.8673720664520063e-13,2.95863471270983e-13,1.3063957928153312e-13,5.82260405209455e-14
0.0,35,35.0,0.0,30.0,0.0,0.0,0.0,0.0,-13.0,0.0,2.0,0.0,0.0,0.0,2.442175192648113e-11,1.2530834465627501e-11,6.1322311888822114e-12,2.9538090775649394e-12,1.4848058926459252e-12,8.529859408520394e-13,5.613549309688083e-13,3.9177090595361627e-13,2.8543793004062025e-13,2.1651350804035833e-13,1.7045124588311107e-13,1.3636324346273434e-13,1.0422574039834228e-13,8.006228585411645e-14,5.830211447500306e-14,4.256691383549837e-14,3.2134470152893336e-14,1.077793410391713e-09,8.418005705485368e-10,6.496574540025224e-10,5.112310775334424e-10,3.329977031282532e-10,2.283889156628951e-10,1.562344498490329e-10,1.036651436432396e-10,7.014337127075239e-11,4.48881764785239e-11,2.600966056333905e-11,1.535910757642505e-11,7.826092390195722e-12,4.1476970923190554e-12,2.072003578955858e-12,1.0575200698927494e-12,4.285050661516088e-13,2.869598584190425e-13,1.5598073247637975e-13,-6.72916264956735e-14,2.0618882877969228e-13
0.0,36,36.0,0.0,30.0,0.0,0.0,0.0,0.0,-13.0,0.0,2.0,0.0,0.0,0.0,2.5666838311416105e-11,1.3901102773575796e-11,6.4884740407512706e-12,3.161334201043006e-12,1.5101004094594408e-12,8.535540247141619e-13,5.170329485358308e-13,3.657864798671268e-13,2.8282357158643205e-13,2.0722717574794732e-13,1.639917281311414e-13,1.287479188797461e-13,9.750381367067484e-14,7.195695169517022e-14,5.693127947039904e-14,3.830578360417111e-14,2.89394019556134e-14,1.0830018647019443e-09,8.793228645242281e-10,6.679414258820712e-10,4.950718198381411e-10,3.301863247667561e-10,2.2825559062809542e-10,1.6696312146896095e-10,1.0526798159136721e-10,6.806193974862084e-11,4.535380417954399e-11,2.7054133757369778e-11,1.6174986721640247e-11,8.482106132811493e-12,4.493025015960789e-12,2.3334604220171882e-12,1.1185562263673476e-12,4.3416642604860255e-13,2.339928599945845e-13,2.1372886957572663e-13,8.585463026825255e-14,-6.470600263780569e-14
0.0,37,37.0,0.0,30.0,0.0,0.0,0.0,0.0,-13.0,0.0,2.0,0.0,0.0,0.0,2.6659120716987473e-11,1.3045572531442285e-11,6.503050885890092e-12,3.2360592634082688e-12,1.6754582928996392e-12,8.183390020616672e-13,5.24115003519186e-13,3.6265362515409394e-13,2.6988563958246913e-13,2.0253958098109673e-13,1.5675599551575825e-13,1.2012247169285816e-13,9.496063345251831e-14,7.157817440914707e-14,5.2471815791952095e-14,4.0514405953457697e-14,2.6505154565189358e-14,1.0748282320509152e-09,8.927399811480864e-10,6.906476178072611e-10,4.5935253429683567e-10,3.2155667305555217e-10,2.3547058838255575e-10,1.5474260408520687e-10,1.0716696553021406e-10,7.100634804750818e-11,4.54093405818429e-11,2.927595099096242e-11,1.634162196027953e-11,9.053285274369022e-12,4.577340412496575e-12,2.4897146526290455e-12,1.0812060138177998e-12,4.124551648302169e-13,4.0311768215509814e-13,8.933944981522402e-14,5.044359823038778e-14,5.4509630578585414e-14
0.0,38,38.0,0.0,30.0,0.0,0.0,0.0,0.0,-13.0,0.0,2.0,0.0,0.0,0.0,2.6516244573262643e-11,1.3674066131136037e-11,7.324730129638796e-12,3.3452009832499845e-12,1.6920895803032218e-12,8.506482946486663e-13,5.099611453574479e-13,3.485908878935591e-13,2.5266770086188086e-13,1.871125436916039e-13,1.5290373047307399e-13,1.1663867817076243e-13,9.53074113525815e-14,7.065343947545157e-14,5.2172834997400565e-14,3.494013470693107e-14,2.7024280921558155e-14,1.1464064951859012e-09,8.912017546497035e-10,6.793578631392308e-10,5.27418766466052e-10,3.580198058434363e-10,2.40933516612744e-10,1.6430582189342497e-10,1.0829454702189408e-10,7.455079517986867e-11,4.668082546014936e-11,2.8415612734383893e-11,1.7175957090263992e-11,9.134900512844493e-12,5.052148151381986e-12,2.3387018695049624e-12,1.0900504982476632e-12,6.353012171818504e-13,3.0578456069507347e-13,1.4478226065388288e-13,1.674750812228598e-13,-6.994158914303156e-14
0.0,39,39.0,0.0,30.0,0.0,0.0,0.0,0.0,-13.0,0.0,2.0,0.0,0.0,0.0,2.6728874025963442e-11,1.5003144823007715e-11,7.353066791080371e-12,3.496677786501545e-12,1.7734921874462417e-12,8.583394181543647e-13,4.978171180780872e-13,3.3577495270728815e-13,2.507313948252678e-13,1.8437810522693943e-13,1.431085235546991e-13,1.1525587851721859e-13,8.770127453496137e-14,6.694246654475179e-14,4.920910958824825e-14,3.5841358071986306e-14,2.6008466421114284e-14,1.0860857402095858e-09,8.873997728200437e-10,6.88943608765708e-10,4.852765362124061e-10,3.460587901420053e-10,2.1858264245101224e-10,1.6407652169160557e-10,1.1067340068204394e-10,7.636085383686915e-11,4.644839582159603e-11,2.931365536713247e-11,1.5733652434559017e-11,9.638690070632688e-12,5.032930017547949e-12,2.5173531437182084e-12,1.2953455611746079e-12,7.134917669648655e-13,2.0045926037643142e-13,1.7492666773540561e-13,4.648250117855829e-16,-6.01781735952263e-14
0.0,40,40.0,0.0,30.0,0.0,0.0,0.0,0.0,-13.0,0.0,2.0,0.0,0.0,0.0,2.930882814065539e-11,1.468471481204714e-11,7.299295256555145e-12,3.717455273354138e-12,1.803850005800677e-12,8.753610767856782e-13,5.228013476654557e-13,3.2894099151204016e-13,2.302189127817856e-13,1.8270771018415334e-13,1.3782722966005493e-13,1.0599457694561979e-13,7.861496609520652e-14,5.981192069834859e-14,4.555721430904468e-14,3.240680873467543e-14,2.3868360753721556e-14,1.0218448078695372e-09,9.109007578002546e-10,7.204550962984676e-10,5.092548213900535e-10,3.6522361830022635e-10,2.389434584144911e-10,1.7058864624318666e-10,1.0973220032840497e-10,7.24303346140119e-11,4.870237512231524e-11,2.8304195991350286e-11,1.715536420402642e-11,9.919109568474098e-12,5.36167720065933e-12,2.611710224211582e-12,1.219619930114716e-12,5.729338747004285e-13,3.243697695861204e-13,1.6085169908209174e-13,-5.1456960386590634e-14,6.934098606438848e-14
0.0,41,41.0,0.0,30.0,0.0,0.0,0.0,0.0,-13.0,0.0,2.0,0.0,0.0,0.0,2.8920917369539812e-11,1.568924873515605e-11,7.782190727443576e-12,3.876947628747854e-12,1.8451004091960614e-12,9.207116652825663e-13,5.131431512587238e-13,3.0309687818862334e-13,2.2383140807986336e-13,1.6543830906401425e-13,1.2631417948621933e-13,1.0060828931487262e-13,8.22503507302191e-14,5.696768625347828e-14,4.3169676137469226e-14,3.289604989516833e-14,2.403559539615953e-14,1.1794289097126753e-09,9.086007533861496e-10,6.970649336637734e-10,5.207908833089691e-10,3.658049317443074e-10,2.436665032616109e-10,1.6912788481782314e-10,1.1520447085622893e-10,7.640392617832261e-11,4.909190181825588e-11,2.9918320157292624e-11,1.8833719590363908e-11,1.0055571328023221e-11,5.291870664646249e-12,2.8379238788022374e-12,1.3614728235884416e-12,6.336664865884049e-13,2.8081910251063603e-13,8.372845237786498e-14,5.889870367916708e-14,4.9320148149378805e-14
0.0,42,42.0,0.0,30.0,0.0,0.0,0.0,0.0,-13.0,0.0,2.0,0.0,0.0,0.0,2.957343003110491e-11,1.522092739472201e-11,8.232944061158226e-12,3.981193879814894e-12,1.9275485652448932e-12,9.401781214932456e-13,5.300652317766681e-13,3.237630345572594e-13,2.134957758171792e-13,1.5742730314941912e-13,1.2423945371001233e-13,1.0108950093644036e-13,7.203562540221885e-14,5.6311841662054505e-14,4.023210627457058e-14,3.232308402229096e-14,2.2838615340590542e-14,1.1490859270810172e-09,9.173572309623991e-10,7.34880356944196e-10,4.923672253363502e-10,3.597569430964426e-10,2.442807218789664e-10,1.7133870406864247e-10,1.1113837580918166e-10,7.865663263729167e-11,4.7959726478939874e-11,3.026841832680441e-11,1.923836034298813e-11,1.0077304405656152e-11,5.7380458936100676e-12,2.730412817329922e-12,1.2722655305749934e-12,7.064667663514179e-13,4.3873351522944237e-13,5.1476724168320256e-14,3.3228244764276353e-15,7.978985119330898e-14
0.0,43,43.0,0.0,30.0,0.0,0.0,0.0,0.0,-13.0,0.0,2.0,0.0,0.0,0.0,2.8293644023347422e-11,1.62854482045765e-11,8.410743779004811e-12,4.053083440731098e-12,1.99776432823178e-12,9.955260842001512e-13,5.293528845423943e-13,3.095266455551223e-13,2.1346316294946188e-13,1.5304609568812174e-13,1.179820344461738e-13,9.601694139119941e-14,7.036535188271625e-14,5.521263124105769e-14,4.120289990307803e-14,2.9557553445838114e-14,1.940711693402911e-14,1.2266163333596408e-09,9.781233709241546e-10,7.317990873625024e-10,5.249339864849207e-10,3.6183518434167054e-10,2.4104291907339425e-10,1.6661318559703555e-10,1.1041816363519256e-10,7.020872440513343e-11,5.1332904241349694e-11,3.206495650018758e-11,1.859944234531585e-11,1.019279465540272e-11,5.7760689094075726e-12,2.8405620387881873e-12,1.5772806090730752e-12,7.94607073057592e-13,3.637740742203302e-13,1.7188872826824867e-13,9.506241970388822e-15,3.7733102169848585e-13
0.0,44,44.0,0.0,30.0,0.0,0.0,0.0,0.0,-13.0,0.0,2.0,0.0,0.0,0.0,2.7130569307877228e-11,1.6272133857962507e-11,8.431363154170702e-12,4.204095139335204e-12,2.188302550071044e-12,1.0337760904132358e-12,5.484217669798415e-13,3.2746275215839313e-13,2.012915765605291e-13,1.5178211941788647e-13,1.182633751676772e-13,9.068443905853433e-14,7.218388377724364e-14,5.321583028672988e-14,3.9347221145964043e-14,2.901562974576501e-14,2.0444499562226913e-14,1.1684143889937652e-09,1.0110667255301308e-09,7.09845462763798e-10,5.367960602360676e-10,3.6236350008565627e-10,2.422207826317712e-10,1.807083924199981e-10,1.2458692305679106e-10,7.592603985506586e-11,4.835387379463854e-11,3.0829675636995154e-11,1.892450979014343e-11,1.1147896306543201e-11,5.822649776873682e-12,3.249868060997579e-12,1.4607396993606689e-12,6.49455541171137e-13,2.44000209315371e-13,2.452981596322346e-14,1.061117196324066e-13,5.755797572827942e-14
0.0,45,45.0,0.0,30.0,0.0,0.0,0.0,0.0,-13.0,0.0,2.0,0.0,0.0,0.0,3.0798072048225494e-11,1.753651538631852e-11,8.641896304385952e-12,4.358998354885548e-12,2.160699021992608e-12,1.0678748245603015e-12,5.352621601571716e-13,3.1839932132732434e-13,2.0414307903139493e-13,1.4426011604770126e-13,1.0735533667822925e-13,8.757718118156661e-14,6.645618350604012e-14,4.830149060988259e-14,3.6943752446747264e-14,2.7953169688717706e-14,2.0539729211519958e-14,1.257713104258561e-09,9.483188254288499e-10,7.797460704868716e-10,5.597667227774416e-10,3.8834310622944237e-10,2.5517893921277953e-10,1.7809777479286265e-10,1.1973902417486086e-10,7.780111574602947e-11,5.2400627917361886e-11,3.205911208371057e-11,1.8607167746651424e-11,1.1103955015329743e-11,6.3400077166022924e-12,3.197467557628056e-12,1.4751251325556899e-12,7.406760468598166e-13,4.1135643060751254e-13,4.096190079955664e-14,9.906167240689182e-14,2.1907848112325433e-13
0.0,46,46.0,0.0,30.0,0.0,0.0,0.0,0.0,-13.0,0.0,2.0,0.0,0.0,0.0,3.100203018918681e-11,1.6822894192525628e-11,9.436879093028194e-12,4.913247078460461e-12,2.2497645426297833e-12,1.1631878530703046e-12,5.635212131064917e-13,3.137118651342329e-13,2.0631332889895334e-13,1.343499065506946e-13,1.0935430702217958e-13,7.845990853885336e-14,6.162189658249471e-14,4.4379197596045335e-14,3.6790179391865727e-14,2.6740679336225423e-14,1.9592171693785476e-14,1.2517663529752417e-09,1.0718929385577496e-09,7.580604272480683e-10,5.656359292792243e-10,4.062381835224873e-10,2.541676165547592e-10,1.8716873431990809e-10,1.1649729593317903e-10,8.010006253796269e-11,5.0739872423911563e-11,3.146121166612489e-11,2.0603177080359298e-11,1.155389750291073e-11,6.480540295741673e-12,3.2864771374949455e-12,1.7087806507901048e-12,7.706216345187612e-13,4.2269681278227486e-13,4.545761447253647e-14,-3.344308731278243e-14,1.2629568385507027e-13
0.0,47,47.0,0.0,30.0,0.0,0.0,0.0,0.0,-13.0,0.0,2.0,0.0,0.0,0.0,3.0056908243143223e-11,1.6784368557375006e-11,9.323194942913116e-12,4.8558145952901135e-12,2.2953123302588577e-12,1.14057903186599e-12,5.594304265493473e-13,2.936963054411081e-13,1.8894879475069066e-13,1.3652668304376688e-13,1.0085954299401448e-13,7.736705708162689e-14,6.050150638999745e-14,4.5410219689013554e-14,3.549360383778358e-14,2.2491316396767747e-14,1.7863800699254526e-14,1.282194889114214e-09,9.828782813548203e-10,7.591561372366623e-10,5.858710357447572e-10,3.904621177341549e-10,2.7032706875344684e-10,1.7912732793132947e-10,1.2428352683714968e-10,7.881879303213571e-11,5.1752394824851545e-11,3.286066256518554e-11,1.9984890586229647e-11,1.1235711349726939e-11,6.5471664463818064e-12,3.375908889779915e-12,1.6903655139281544e-12,9.930130217870643e-13,3.1853113551397025e-13,1.5372007953881426e-13,-8.887496830412594e-14,1.0328534692491985e-13
0.0,48,48.0,0.0,30.0,0.0,0.0,0.0,0.0,-13.0,0.0,2.0,0.0,0.0,0.0,3.0425108313745896e-11,1.7134198499044742e-11,9.043302541609373e-12,4.770966821385245e-12,2.335231490574459e-12,1.156014311138693e-12,5.645964645963915e-13,3.156703750592857e-13,1.8934546576574493e-13,1.2574931181186197e-13,9.908952705016984e-14,7.409055801332473e-14,5.3019613310273936e-14,4.346001006290062e-14,3.1834452027753075e-14,2.2728579793392165e-14,1.7495218632522158e-14,1.2957010380983542e-09,1.0537822681459202e-09,7.767764711791175e-10,5.54946274897521e-10,3.9738472175378623e-10,2.6757342425888153e-10,1.770631497220319e-10,1.1946656341958472e-10,7.6693378521102e-11,5.276405293164809e-11,3.22967791745354e-11,2.119016759020552e-11,1.2372538820184952e-11,6.665083779552819e-12,3.153377956362011e-12,1.843092866456813e-12,8.844943352974389e-13,3.4962939006819536e-13,1.0410401448158031e-13,6.670784184897754e-14,1.8967045104894728e-13
0.0,49,49.0,0.0,30.0,0.0,0.0,0.0,0.0,-13.0,0.0,2.0,0.0,0.0,0.0,3.276253828166472e-11,1.7586006049251444e-11,9.286928213035321e-12,5.1909098448210776e-12,2.4020513539208424e-12,1.1947064198975627e-12,5.703900151056879e-13,3.199464139395459e-13,1.8598637210529955e-13,1.3293673382790257e-13,9.441302795110115e-14,7.395308444475602e-14,5.607239247534936e-14,4.286202873312774e-14,3.155300472488743e-14,2.260951368599921e-14,1.646501386986028e-14,1.2670154093892175e-09,1.0768312733953555e-09,7.634884612232122e-10,5.542768543450234e-10,3.893693767212464e-10,2.5947996362800434e-10,1.8628973028881561e-10,1.249316454672124e-10,7.544151432477145e-11,5.307756549094678e-11,3.42546644879218e-11,1.990616376950479e-11,1.2628071886759958e-11,7.401561375307941e-12,3.6544578774062e-12,1.8965453850533377e-12,8.872052374474642e-13,4.1952871585593596e-13,2.2900343147831765e-13,2.843009758586575e-13,4.794668694193461e-14
0.0,50,50.0,0.0,30.0,0.0,0.0,0.0,0.0,-13.0,0.0,2.0,0.0,0.0,0.0,3.1807908333442546e-11,1.6758898535640924e-11,9.925253774512452e-12,5.2851110926872126e-12,2.6316723441484956e-12,1.2456769342495973e-12,5.695034148863532e-13,2.941451940885383e-13,1.9095250614706122e-13,1.2525975764158522e-13,9.524100937100188e-14,6.737404575854403e-14,5.1991355106036723e-14,4.07353488165501e-14,2.78931566174237e-14,2.2335091436635656e-14,1.3124395365829333e-14,1.2702257958610885e-09,1.0742055874385361e-09,8.234596630352134e-10,5.762363900973495e-10,3.927137511680815e-10,2.712923059469299e-10,1.889827347183335e-10,1.229539619528261e-10,7.656238222255348e-11,5.208130290963363e-11,3.446265685864972e-11,2.0360996139037856e-11,1.2511901133283957e-11,7.150126432605817e-12,3.683675638567933e-12,1.932717699400431e-12,1.128053922808379e-12,2.6351951087469495e-13,2.1700569811033754e-13,1.3646554388216568e-13,1.517797837491909e-13
0.0,51,51.0,0.0,30.0,0.0,0.0,0.0,0.0,-13.0,0.0,2.0,0.0,0.0,0.0,3.1223492266832965e-11,1.750422629227462e-11,9.418770583751125e-12,5.1525931671676955e-12,2.60251634774895e-12,1.298043149904325e-12,6.193476057694611e-13,2.998377070372862e-13,1.880747953102003e-13,1.1999364462043618e-13,9.15380562370014e-14,6.541492325823357e-14,4.8458270295511856e-14,3.618781235175978e-14,3.155534458769394e-14,2.0459134972844593e-14,1.5468306665370604e-14,1.3427660101601903e-09,1.1315316430682708e-09,8.283601094644835e-10,5.775265040919213e-10,4.0363561815007585e-10,2.6844753559810816e-10,1.8243846903073747e-10,1.258670557600869e-10,8.302158274775871e-11,5.293851065622307e-11,3.280294195180087e-11,2.091117586010872e-11,1.2949920549850937e-11,7.409959987967483e-12,4.081984608274358e-12,1.9396765693382832e-12,8.608690425375706e-13,4.007506758025186e-13,1.5922969907827654e-13,5.877929197186794e-14,2.4060890806386395e-14
0.0,52,52.0,0.0,30.0,0.0,0.0,0.0,0.0,-13.0,0.0,2.0,0.0,0.0,0.0,3.1364517397597e-11,1.7886378160487568e-11,9.7090594191744e-12,5.4643598096144885e-12,2.764143840836423e-12,1.230486126867636e-12,6.350534139856594e-13,3.2456824664976155e-13,1.7847467492787874e-13,1.2191589500033275e-13,8.09419883018338e-14,6.473974232768307e-14,4.855601112735024e-14,3.451040561609984e-14,2.8031720785370225e-14,1.9482760371531068e-14,1.2633563369655332e-14,1.3293634197672181e-09,1.0750426675381878e-09,8.84835012953844e-10,6.103414454776718e-10,3.9745875447634383e-10,2.831787366463883e-10,1.9318861539942914e-10,1.2605467256951747e-10,8.789904696063216e-11,5.33192030632972e-11,3.3204910933746985e-11,2.135171247334474e-11,1.2484311814981321e-11,7.284548681309788e-12,4.208658750092594e-12,1.973372003032464e-12,1.134683859754386e-12,4.190098574261733e-13,1.6713889087140988e-13,8.938679421243713e-14,1.7245493583951417e-13
0.0,53,53.0,0.0,30.0,0.0,0.0,0.0,0.0,-13.0,0.0,2.0,0.0,0.0,0.0,3.1568582299721156e-11,1.779266074564356e-11,1.0336089076760431e-11,5.374182741050355e-12,2.559501232291877e-12,1.333077881422143e-12,6.574093474811999e-13,3.2594285731582137e-13,1.791755774505455e-13,1.1375177052272563e-13,8.385995697972299e-14,6.535748676639181e-14,4.665424529747129e-14,3.4220371296016345e-14,2.4991997276396972e-14,1.921477549240416e-14,1.484425308179468e-14,1.3600958494485512e-09,1.1395358352903904e-09,8.339549309603707e-10,5.915082868786237e-10,4.3348028856677133e-10,2.825909031844532e-10,1.912362547334868e-10,1.248534125966709e-10,8.394015579831823e-11,5.581762290946788e-11,3.5004806955874016e-11,2.1539796924982273e-11,1.2422793511017111e-11,7.44878129410177e-12,4.04233047971852e-12,2.2217171027516017e-12,1.0776571884505994e-12,5.122764065790378e-13,2.766564282881378e-13,1.5246241326571728e-13,-5.331952237395414e-14
0.0,54,54.0,0.0,30.0,0.0,0.0,0.0,0.0,-13.0,0.0,2.0,0.0,0.0,0.0,3.2127180033984506e-11,1.890206609229817e-11,1.005160011829673e-11,5.4139689091360095e-12,2.8314696753023447e-12,1.4261947983052042e-12,6.854024350237284e-13,3.2279216496995744e-13,1.889472423284515e-13,1.164110577952102e-13,8.069457533827729e-14,5.753368166188119e-14,4.363248425885041e-14,3.3564648429656986e-14,2.464327291769061e-14,1.6188714703000293e-14,1.4344764127563402e-14,1.3774940025652937e-09,1.179470936652482e-09,8.486168338039818e-10,6.20447930774149e-10,3.943447300491103e-10,2.9970388238558555e-10,1.951219993294247e-10,1.2777878871327675e-10,8.635043228567525e-11,5.39095325487242e-11,3.5350384802448534e-11,2.1031541824129277e-11,1.3404990139091446e-11,7.2546987389631115e-12,3.934344529042016e-12,2.3925095051438206e-12,1.0515778198234302e-12,4.4647636915383257e-13,2.2554237256994546e-13,-2.0611457791345334e-14,-1.88165265851403e-14
0.0,55,55.0,0.0,30.0,0.0,0.0,0.0,0.0,-13.0,0.0,2.0,0.0,0.0,0.0,3.360520051375238e-11,1.9341697002771348e-11,1.088949496322135e-11,5.716467073245806e-12,2.9876295857975004e-12,1.3574291423470998e-12,6.712034829720631e-13,3.468159940453575e-13,1.7587194634658568e-13,1.1054306528122112e-13,8.072909769406732e-14,5.6289163187315954e-14,4.47405058504698e-14,3.254054395675324e-14,2.395256712204011e-14,1.770195369733041e-14,1.5131011967064914e-14,1.4316537450834565e-09,1.1090287354523118e-09,9.218038986025041e-10,6.208693860488203e-10,4.262735883093663e-10,2.810419196670785e-10,1.914761543637156e-10,1.2768309332382835e-10,8.315633987616701e-11,5.598412231994743e-11,3.504996525886353e-11,2.103275175899304e-11,1.2688043587468245e-11,7.493056082653194e-12,4.37968204942324e-12,2.180001484030074e-12,1.1776156027897695e-12,4.318480745020382e-13,2.3104783971063405e-13,-8.765979395172057e-14,1.6206262644661875e-13
0.0,56,56.0,0.0,30.0,0.0,0.0,0.0,0.0,-13.0,0.0,2.0,0.0,0.0,0.0,3.390653151632886e-11,1.8398125358163653e-11,1.0127884180458286e-11,5.68725299824053e-12,3.008800459317683e-12,1.4911308288981831e-12,7.143419563544158e-13,3.529408581968554e-13,1.8427237454124716e-13,1.0830461047266436e-13,7.214160483612836e-14,6.240542882716724e-14,4.17789185035877e-14,3.327748075953122e-14,2.1828259708040933e-14,1.6409940117558685e-14,1.2099339352395252e-14,1.393765262185697e-09,1.1704451436027528e-09,8.788557446117526e-10,6.089658243654259e-10,4.529852792897121e-10,2.8904568530598327e-10,2.0054494758224486e-10,1.332166856420631e-10,8.98338362098708e-11,5.5466771615724465e-11,3.2962870974715284e-11,2.1526030205621085e-11,1.3675282897179184e-11,8.060748797567535e-12,4.6993378082960145e-12,2.4463017695426383e-12,1.240809292053006e-12,5.186149905493852e-13,3.697106166042021e-14,1.5537609701263743e-14,9.181917147529133e-14
0.0,57,57.0,0.0,30.0,0.0,0.0,0.0,0.0,-13.0,0.0,2.0,0.0,0.0,0.0,3.474021683385469e-11,1.9696391659689435e-11,1.0533110943878124e-11,5.673433338176701e-12,3.1771306693631084e-12,1.4692915575071645e-12,6.91032053163697e-13,3.5133357185651775e-13,1.8440698413514465e-13,1.0952901149485138e-13,7.920372449882615e-14,5.3893981780656e-14,4.123138413989595e-14,3.1907182932313723e-14,1.8493275108486016e-14,1.7344272284885585e-14,1.2669338259208833e-14,1.417085197073774e-09,1.2079940656749675e-09,9.095580322274343e-10,6.16357335346953e-10,4.5788066268104495e-10,2.850609619916267e-10,1.964688010886712e-10,1.4105949861654712e-10,8.556912808100431e-11,5.594431722427068e-11,3.6262322789567336e-11,2.1817006612311158e-11,1.3703071512215305e-11,8.072030633724002e-12,4.422898576516774e-12,2.5442187217915347e-12,1.2171948622811214e-12,5.366687708151817e-13,1.890216017959592e-13,-1.8223060808726696e-14,8.48595243454613e-14
0.0,58,58.0,0.0,30.0,0.0,0.0,0.0,0.0,-13.0,0.0,2.0,0.0,0.0,0.0,3.559926839654134e-11,1.8952256242494643e-11,1.1040103881977969e-11,5.793524617671399e-12,3.131352123442613e-12,1.5225147428023302e-12,7.551110856724604e-13,3.6075030233945426e-13,1.988309117458204e-13,1.112141517174635e-13,7.103147988233795e-14,5.176156065358836e-14,3.823350943968887e-14,2.795750472136438e-14,2.0390383265656305e-14,1.6209383312173845e-14,1.2677576109179681e-14,1.555375262972447e-09,1.2195304325438224e-09,9.043097238693963e-10,6.702433712803701e-10,4.390929146244751e-10,3.0382488991073885e-10,1.9856831440126052e-10,1.3451867042463357e-10,9.120401132076066e-11,5.92663635104188e-11,3.770634372883091e-11,2.2435891426414496e-11,1.4486226339116967e-11,7.794656551917451e-12,4.662237999947694e-12,2.387338412171565e-12,1.2880621330710917e-12,5.583754520817738e-13,2.3910555500761055e-13,-5.018129115623219e-15,3.8307574483001954e-14
0.0,59,59.0,0.0,30.0,0.0,0.0,0.0,0.0,-13.0,0.0,2.0,0.0,0.0,0.0,3.412965237026602e-11,1.985824824868728e-11,1.0309539232338807e-11,5.996515973767335e-12,3.1736155528398866e-12,1.620181978607969e-12,7.799916890594912e-13,3.7808395499966945e-13,1.9447167477390874e-13,1.0449380999124303e-13,7.194490360203064e-14,5.143806745854573e-14,3.7306998533341296e-14,3.0122515305078415e-14,1.9722763562632787e-14,1.5007670988242817e-14,1.0579885204567725e-14,1.5514594556319373e-09,1.1663094781530116e-09,9.650845688392665e-10,6.650659054390403e-10,4.6025877297546686e-10,3.115684392380761e-10,2.1027079133755133e-10,1.3972051721962055e-10,8.992240842973366e-11,5.996676014739934e-11,3.4750744850101496e-11,2.3502032117471166e-11,1.467640960271903e-11,8.469698589654285e-12,4.813238322462484e-12,2.5436315279737408e-12,1.1024038279796148e-12,5.63042626594542e-13,2.7744697660595623e-13,1.3158161140148862e-13,2.0271482522448097e-14
0.0,60,60.0,0.0,30.0,0.0,0.0,0.0,0.0,-13.0,0.0,2.0,0.0,0.0,0.0,3.335616487676305e-11,2.0522098522771194e-11,1.1554597365590753e-11,6.1611076492000695e-12,3.3616430544575745e-12,1.5943682220956489e-12,7.715888696647874e-13,3.6117520518844666e-13,1.8899923882371442e-13,1.0966544692666858e-13,7.105363883981181e-14,4.894426243185955e-14,3.821323604668473e-14,2.7471547318441972e-14,1.970075907108915e-14,1.5634955125158058e-14,9.990271566486994e-15,1.6048743373522076e-09,1.2146497492933703e-09,9.805466400395415e-10,6.850199513988295e-10,4.3235587820851905e-10,3.141496587781702e-10,1.997294913731949e-10,1.3446832980848492e-10,9.152652259999904e-11,5.6389874651144006e-11,3.796648915429064e-11,2.3234359969480034e-11,1.47848933735905e-11,8.441848914412386e-12,4.67862376772152e-12,2.4733071654613394e-12,1.2123122939579398e-12,6.855002774480937e-13,3.6506559905959986e-13,2.75289175384745e-13,9.995421938810285e-14
0.0,61,61.0,0.0,30.0,0.0,0.0,0.0,0.0,-13.0,0.0,2.0,0.0,0.0,0.0,3.444595055327571e-11,2.049693535692672e-11,1.1127716799867559e-11,6.0066914806996955e-12,3.228292644061734e-12,1.6702514679167835e-12,8.160613569965728e-13,4.0165258630852306e-13,1.9481473864565173e-13,1.1085775562153561e-13,6.726635610361834e-14,4.5692088833564133e-14,3.6578475678832786e-14,2.661032298731594e-14,2.1002003491723414e-14,1.2954134927577365e-14,9.316394562866639e-15,1.5385951470889394e-09,1.294468252593692e-09,9.574648462639664e-10,6.757981526078365e-10,4.529871377345634e-10,3.09978487378329e-10,2.116598082493611e-10,1.299069182773612e-10,9.009206384161242e-11,5.988355284631869e-11,3.7275931007375203e-11,2.340362356687059e-11,1.513954230878589e-11,8.118832641010859e-12,4.581159714216964e-12,2.5713985822970773e-12,1.1851796629702395e-12,7.25146074343328e-13,2.0158079379599058e-13,1.7530113802029476e-13,-1.0774584157082921e-13
0.0,62,62.0,0.0,30.0,0.0,0.0,0.0,0.0,-13.0,0.0,2.0,0.0,0.0,0.0,3.531241945969297e-11,2.0954160587725176e-11,1.1139850880659006e-11,6.268187107609599e-12,3.331512041550259e-12,1.7159503257399486e-12,8.501662337669224e-13,4.100259394252559e-13,2.1954896475688903e-13,1.0350457194136895e-13,6.917389147105411e-14,4.720513594764052e-14,3.473518555461581e-14,2.5025697743884544e-14,1.979521891559599e-14,1.3757846884009706e-14,9.20859488546672e-15,1.6026754474858026e-09,1.3966221672295503e-09,9.829328221103156e-10,6.630740452400638e-10,4.673662569887502e-10,3.17731786601299e-10,2.1969951299587162e-10,1.3813265550975171e-10,9.600457821516444e-11,5.792039814025132e-11,3.820313074866547e-11,2.331422355449571e-11,1.468375015407026e-11,8.734981348527315e-12,4.8093983958384955e-12,2.4444926076741493e-12,1.418874804539312e-12,6.908805509578527e-13,3.179129138291937e-13,1.967641153974799e-13,2.1761591166417786e-13
0.0,63,63.0,0.0,30.0,0.0,0.0,0.0,0.0,-13.0,0.0,2.0,0.0,0.0,0.0,3.585039736780205e-11,2.027521660034813e-11,1.1212560675470999e-11,6.1210711987688315e-12,3.409155515395265e-12,1.8113081143261896e-12,8.652232323257667e-13,4.0204152774285835e-13,2.159967935061282e-13,1.113375808703954e-13,6.706332195944803e-14,4.494279996856176e-14,3.1520221671570553e-14,2.308455433069421e-14,1.686928335331249e-14,1.373645724042234e-14,9.764514089453923e-15,1.6640097718129065e-09,1.3314280244233366e-09,9.808787585224318e-10,6.865287206620444e-10,4.711970215444689e-10,3.1891768708911774e-10,2.2059384592242803e-10,1.3570202260004832e-10,9.480883252018137e-11,5.877149021050699e-11,3.702174387004472e-11,2.3558601945004585e-11,1.3509150759746746e-11,8.391233776752835e-12,4.895914961770605e-12,2.702435019914413e-12,1.2647641365937442e-12,7.437712855762709e-13,2.7655225073846615e-13,1.8238718220193545e-13,6.776969283151098e-14
