Line_number,Fiducial,Easting,Northing,Height,Elevation,tx_pitch,tx_roll,tx_yaw,txrx_dx,txrx_dy,txrx_dz,rx_pitch,rx_roll,rx_yaw,SZ_time_1.431e-04,SZ_time_1.801e-04,SZ_time_2.266e-04,SZ_time_2.846e-04,SZ_time_3.581e-04,SZ_time_4.506e-04,SZ_time_5.671e-04,SZ_time_7.136e-04,SZ_time_8.981e-04,SZ_time_1.131e-03,SZ_time_1.423e-03,SZ_time_1.791e-03,SZ_time_2.255e-03,SZ_time_2.838e-03,SZ_time_3.573e-03,SZ_time_4.498e-03,SZ_time_5.662e-03,SZ_time_1.409e-05,SZ_time_1.610e-05,SZ_time_1.909e-05,SZ_time_2.360e-05,SZ_time_2.960e-05,SZ_time_3.709e-05,SZ_time_4.609e-05,SZ_time_5.759e-05,SZ_time_7.209e-05,SZ_time_9.060e-05,SZ_time_1.141e-04,SZ_time_1.431e-04,SZ_time_1.801e-04,SZ_time_2.266e-04,SZ_time_2.846e-04,SZ_time_3.581e-04,SZ_time_4.506e-04,SZ_time_5.671e-04,SZ_time_7.136e-04,SZ_time_8.981e-04,SZ_time_1.131e-03
0.0,0,0.0,0.0,30.0,0.0,0.0,0.0,0.0,-13.0,0.0,2.0,0.0,0.0,0.0,-3.376633297852581e-12,3.961850190279416e-14,-1.2851382334190874e-12,-6.842700631280889e-12,7.1549830192260515e-12,2.7453528970100425e-12,-9.770671965577334e-12,1.5065141435364766e-11,-6.224989127193159e-12,3.931602391572333e-12,1.5417090362550214e-12,9.868844482867123e-13,-1.9265287041220938e-12,5.015145114903644e-12,-1.0916209248037945e-13,-1.6520157277769398e-12,-5.384907444820752e-12,-1.0958882444482343e-11,2.2033116435635747e-12,-3.440786940309816e-12,-1.7238151252698835e-12,4.851950872811136e-12,1.0154613304746528e-12,-1.603658143023924e-12,-1.265157765094451e-11,5.543732042003711e-12,-1.9292345904196887e-12,6.3956629285036914e-12,-3.376633297852581e-12,3.961850190279416e-14,-1.2851382334190874e-12,-6.842700631280889e-12,7.1549830192260515e-12,2.7453528970100425e-12,-9.770671965577334e-12,1.5065141435364766e-11,-6.224989127193159e-12,3.931602391572333e-12
0.0,1,1.0,0.0,30.0,0.0,0.0,0.0,0.0,-13.0,0.0,2.0,0.0,0.0,0.0,-1.1347440204222686e-12,-7.34807205230929e-12,-3.476862665198139e-12,-6.175104798445741e-12,-5.800808009401135e-13,-6.309815898360774e-12,-1.4894536216113e-11,1.0406052004081078e-11,-1.896102412866904e-11,5.768372581831273e-12,2.7039934987427696e-12,8.234679711151565e-13,-4.721930996826173e-12,2.699753501564564e-12,-1.1037990028789498e-12,-1.1271172029784203e-12,-6.798337980138359e-12,-5.172055323468902e-12,7.851479414980312e-12,-2.9457928486676266e-12,-1.914898605617293e-12,1.114064889385917e-11,-9.365507736291007e-12,9.483651063104607e-13,-1.599593184290535e-11,-1.2624706607897984e-12,8.177449385125159e-12,2.3952997153753524e-11,-1.1347440204222686e-12,-7.34807205230929e-12,-3.476862665198139e-12,-6.175104798445741e-12,-5.800808009401135e-13,-6.309815898360774e-12,-1.4894536216113e-11,1.0406052004081078e-11,-1.896102412866904e-11,5.768372581831273e-12
0.0,2,2.0,0.0,30.0,0.0,0.0,0.0,0.0,-13.0,0.0,2.0,0.0,0.0,0.0,4.006066684357477e-12,-8.310315545205779e-12,1.2392925464563942e-11,-4.791744517501401e-13,9.532721611333519e-13,4.086817774278238e-12,-1.7927224853239287e-11,1.3038028585113344e-11,-1.8234060411242618e-11,-6.2668281294611555e-12,1.877971598776964e-12,1.1538316089095396e-12,-6.020420156547338e-12,4.020074777804991e-12,-3.642159878771767e-12,-9.685639665372508e-13,-8.895770831085293e-12,2.0898824265425725e-12,4.851506472485504e-12,-5.3476722508203e-12,1.1515030209768966e-11,7.328093531213037e-12,-9.074148477346088e-12,-3.1007333579835545e-12,-3.162208124324855e-11,3.1950395449069062e-12,-1.7673401503061813e-12,9.563250253099985e-12,4.006066684357477e-12,-8.310315545205779e-12,1.2392925464563942e-11,-4.791744517501401e-13,9.532721611333519e-13,4.086817774278238e-12,-1.7927224853239287e-11,1.3038028585113344e-11,-1.8234060411242618e-11,-6.2668281294611555e-12
0.0,3,3.0,0.0,30.0,0.0,0.0,0.0,0.0,-13.0,0.0,2.0,0.0,0.0,0.0,4.374483855762812e-12,-1.1081435951594233e-11,1.1443753384151704e-11,5.501599258685251e-12,1.0212335945470943e-11,1.3271257497350303e-11,-1.0186483329932716e-11,1.438620943036454e-11,-1.3596535466661418e-11,-2.5147180820521685e-11,2.1311423964394381e-13,2.8722703333080664e-12,-6.856448217835965e-12,7.014687977748441e-12,-1.3496720791901418e-12,1.9884953665591776e-13,-9.839796380411317e-12,6.227543110372951e-12,2.015157887951514e-12,-1.464114289701331e-11,1.7217272308609934e-11,2.8831072266045973e-12,-5.3121495680625815e-12,-1.0208313718255124e-11,-4.169941779077424e-11,2.6752073285684975e-12,-1.9358679640391755e-11,1.8695281026670294e-11,4.374483855762812e-12,-1.1081435951594233e-11,1.1443753384151704e-11,5.501599258685251e-12,1.0212335945470943e-11,1.3271257497350303e-11,-1.0186483329932716e-11,1.438620943036454e-11,-1.3596535466661418e-11,-2.5147180820521685e-11
0.0,4,4.0,0.0,30.0,0.0,0.0,0.0,0.0,-13.0,0.0,2.0,0.0,0.0,0.0,1.9791858724887435e-11,-2.1729177323161437e-11,1.2733002222176023e-11,3.2180051333176677e-12,6.83496198008307e-12,-6.710054335777989e-13,-1.3072074056557783e-11,5.9444815597659365e-12,-2.3850035650083933e-11,-2.8757424983686004e-11,-4.45316935954316e-12,8.246989859870436e-12,-7.577509359296423e-12,8.057816887709624e-12,-8.686057192869676e-13,-3.02864879051792e-12,-1.0375788179202399e-11,5.447528249440625e-12,2.1006614007935752e-12,-1.4051296326675521e-11,1.6019897986226728e-11,-1.4742229637321423e-12,-1.6874069771044545e-11,-1.59574835174092e-11,-4.417044479554644e-11,4.888895821694344e-12,-7.498117860273492e-12,2.212743346503241e-11,1.9791858724887435e-11,-2.1729177323161437e-11,1.2733002222176023e-11,3.2180051333176677e-12,6.83496198008307e-12,-6.710054335777989e-13,-1.3072074056557783e-11,5.9444815597659365e-12,-2.3850035650083933e-11,-2.8757424983686004e-11
0.0,5,5.0,0.0,30.0,0.0,0.0,0.0,0.0,-13.0,0.0,2.0,0.0,0.0,0.0,-2.3918603778290188e-14,-3.334035838303225e-11,1.2987683053902672e-11,-9.658461642886102e-12,-4.264871722910358e-12,-1.7037842819941598e-11,-3.827308458618115e-12,8.479259834757635e-12,-1.2864297547196438e-11,-3.0901876535056146e-11,-2.1677201290061565e-12,9.983102139908703e-12,-8.696896409858274e-12,9.140877732244566e-12,-1.8443904771432135e-12,-9.268606150204986e-12,-1.0375169307157601e-11,8.70697195545244e-12,-8.791453785011355e-12,-1.4277964933152277e-11,1.2706327691841944e-11,-9.845583530960314e-12,-2.232448604116609e-11,-6.797766996854497e-12,-5.836313423131916e-11,8.152325114524902e-12,-3.1203426379990273e-12,7.509807184880199e-12,-2.3918603778290188e-14,-3.334035838303225e-11,1.2987683053902672e-11,-9.658461642886102e-12,-4.264871722910358e-12,-1.7037842819941598e-11,-3.827308458618115e-12,8.479259834757635e-12,-1.2864297547196438e-11,-3.0901876535056146e-11
0.0,6,6.0,0.0,30.0,0.0,0.0,0.0,0.0,-13.0,0.0,2.0,0.0,0.0,0.0,1.671411348842e-11,-5.104022034924453e-11,1.7747604126136784e-11,-9.221558216916583e-12,3.0457307895775787e-12,-2.4117286187769757e-11,-1.6785241669469575e-11,1.524186265689612e-11,-1.7132172283262446e-11,-2.504105822328502e-11,-3.2616504727404033e-12,1.3322933534872359e-11,-1.0214335249036163e-11,7.071929164106522e-12,-4.562510200660022e-12,-5.1107350742056635e-12,-8.709054807141808e-12,4.3648343347445905e-12,-4.16845824321972e-12,-2.0737945516868527e-11,1.6766867412254834e-11,3.833064392198791e-12,-2.4110297992388386e-11,-4.861281123528186e-12,-6.338122763860368e-11,-3.401617631865428e-12,-1.7399798374843017e-11,1.0929220280394245e-11,1.671411348842e-11,-5.104022034924453e-11,1.7747604126136784e-11,-9.221558216916583e-12,3.0457307895775787e-12,-2.4117286187769757e-11,-1.6785241669469575e-11,1.524186265689612e-11,-1.7132172283262446e-11,-2.504105822328502e-11
0.0,7,7.0,0.0,30.0,0.0,0.0,0.0,0.0,-13.0,0.0,2.0,0.0,0.0,0.0,2.0680941380856443e-11,-5.0928916868032375e-11,2.4069984945041737e-12,-7.536562958608458e-12,-1.491422860752079e-12,-3.3643132763386535e-11,-1.0333797932604923e-11,2.7924036739593717e-11,-8.696141478854183e-12,-1.6887032212264774e-11,-1.5047148823004904e-12,1.1397153130206622e-11,-6.800943866141844e-12,5.167486556521485e-12,-2.822749851707993e-12,5.751137433191204e-13,-7.83608118178364e-12,-1.2844368703597615e-12,-3.4672720104160263e-12,-2.6782532802683295e-11,1.9344275089334343e-11,1.3718740894544362e-13,-2.3454245280613835e-11,3.4638301786069456e-12,-6.813066797820484e-11,1.4131170351891123e-11,-1.7907899135092118e-11,1.888063656882063e-12,2.0680941380856443e-11,-5.0928916868032375e-11,2.4069984945041737e-12,-7.536562958608458e-12,-1.491422860752079e-12,-3.3643132763386535e-11,-1.0333797932604923e-11,2.7924036739593717e-11,-8.696141478854183e-12,-1.6887032212264774e-11
0.0,8,8.0,0.0,30.0,0.0,0.0,0.0,0.0,-13.0,0.0,2.0,0.0,0.0,0.0,1.8331984108470738e-11,-5.023917681793846e-11,3.454100747621233e-12,2.8087413477425546e-12,1.7025572530600527e-11,-3.868706669853694e-11,-9.772343502256238e-12,4.0846327578565094e-11,1.3178430351262352e-11,-9.476215041505172e-12,-1.5917506031649391e-13,8.657933446481366e-12,-2.6033106938508526e-12,6.630991235095211e-12,-2.902160327102743e-12,1.045884378818536e-12,-7.894462729550055e-12,-3.5114586001496386e-13,-9.511105189527796e-12,-1.6714842298505323e-11,2.096444877513762e-11,-6.167901416201872e-12,-2.3776188391577936e-11,-1.289537048316781e-11,-6.562130351178658e-11,4.996816415318572e-12,-1.3300333321860075e-11,-5.357385414189167e-12,1.8331984108470738e-11,-5.023917681793846e-11,3.454100747621233e-12,2.8087413477425546e-12,1.7025572530600527e-11,-3.868706669853694e-11,-9.772343502256238e-12,4.0846327578565094e-11,1.3178430351262352e-11,-9.476215041505172e-12
0.0,9,9.0,0.0,30.0,0.0,0.0,0.0,0.0,-13.0,0.0,2.0,0.0,0.0,0.0,9.69067034210838e-12,-5.4011940773786134e-11,-3.656564002566362e-12,5.411570008893585e-12,1.552021975378304e-11,-3.4917754696255715e-11,-1.2655523089467144e-11,3.956510810961601e-11,1.3947754918019219e-11,1.38468936519309e-12,-3.473002937522202e-12,1.2620304001938647e-11,-2.561140543540895e-12,-1.0892339119863447e-12,-7.750835128139647e-12,3.4685047496832526e-13,-6.32268410550578e-12,-9.332491069121269e-12,-1.1336866979086726e-11,-2.779135597324644e-11,2.9682324115689356e-11,-2.229617080614647e-12,-1.2375081116022685e-11,-1.6933283612318925e-11,-6.471088158040443e-11,-1.099060996617241e-11,-1.5608353546457708e-12,7.330663685049054e-12,9.69067034210838e-12,-5.4011940773786134e-11,-3.656564002566362e-12,5.411570008893585e-12,1.552021975378304e-11,-3.4917754696255715e-11,-1.2655523089467144e-11,3.956510810961601e-11,1.3947754918019219e-11,1.38468936519309e-12
0.0,10,10.0,0.0,30.0,0.0,0.0,0.0,0.0,-13.0,0.0,2.0,0.0,0.0,0.0,9.905330349356321e-12,-4.3542801834690605e-11,2.615476020685689e-12,7.2423841364677085e-12,1.5274990533319537e-11,-3.928066995824333e-11,-2.5558618663310573e-11,3.4666097618138434e-11,1.175240936244082e-11,1.1138302786932019e-11,-5.5479703802264955e-12,1.4951137481931718e-11,-3.34271568244867e-12,-2.3504990878396394e-13,-8.076798788696565e-12,1.4752373945507779e-12,-8.151072082853361e-12,-2.289785083298324e-11,-7.998093710760632e-12,-3.0157524591573325e-11,2.5379864818865237e-11,-9.454305917842377e-12,4.661869125763976e-12,-1.4122097528231406e-11,-5.6626184914441204e-11,-3.190659060929065e-11,9.475010179302192e-12,2.6489634250895653e-11,9.905330349356321e-12,-4.3542801834690605e-11,2.615476020685689e-12,7.2423841364677085e-12,1.5274990533319537e-11,-3.928066995824333e-11,-2.5558618663310573e-11,3.4666097618138434e-11,1.175240936244082e-11,1.1138302786932019e-11
0.0,11,11.0,0.0,30.0,0.0,0.0,0.0,0.0,-13.0,0.0,2.0,0.0,0.0,0.0,1.1672418881242423e-11,-3.2505995843304974e-11,9.102337645620813e-13,7.316080812402432e-12,1.6284134015905645e-11,-4.3399568626388506e-11,-2.0160697246525242e-11,4.048847910768367e-11,4.446169739712895e-12,1.7329870829122072e-11,-6.382761335481497e-12,1.2348095683549233e-11,2.790440751871338e-13,1.6504804376654982e-12,-6.166367674146551e-12,1.4260805478458567e-12,-7.273914547617083e-12,-3.1339402363266857e-11,-9.474262809083105e-12,-3.664164238737824e-11,1.8288292829142806e-11,-1.0580425894817142e-11,6.368022722064555e-13,-1.5989658342017054e-11,-4.663048289803236e-11,-2.5925349476388354e-11,2.8213359195576696e-11,3.5908156505179954e-11,1.1672418881242423e-11,-3.2505995843304974e-11,9.102337645620813e-13,7.316080812402432e-12,1.6284134015905645e-11,-4.3399568626388506e-11,-2.0160697246525242e-11,4.048847910768367e-11,4.446169739712895e-12,1.7329870829122072e-11
0.0,12,12.0,0.0,30.0,0.0,0.0,0.0,0.0,-13.0,0.0,2.0,0.0,0.0,0.0,2.1705117613970186e-11,-3.3971411013222205e-11,-1.3326503137040286e-12,6.743070172784763e-12,1.7170092996591362e-11,-3.367040795345414e-11,-2.142200798168074e-11,3.552826327892765e-11,4.0194768191399144e-12,2.898890486736193e-11,-8.136340498731707e-12,1.756007815456434e-11,-2.4317825362669956e-13,-1.46519134490213e-12,-3.7448123753058176e-12,2.968444061764748e-12,-8.523860846638919e-12,-2.9003138730188502e-11,-1.622479187850437e-11,-4.2718264410795795e-11,2.0523228509165623e-11,-1.3659119569211367e-11,-9.666464931592204e-12,-9.877896989693026e-12,-4.785293722975106e-11,-1.4249455453567457e-11,4.023550665439424e-11,4.1761468139514764e-11,2.1705117613970186e-11,-3.3971411013222205e-11,-1.3326503137040286e-12,6.743070172784763e-12,1.7170092996591362e-11,-3.367040795345414e-11,-2.142200798168074e-11,3.552826327892765e-11,4.0194768191399144e-12,2.898890486736193e-11
0.0,13,13.0,0.0,30.0,0.0,0.0,0.0,0.0,-13.0,0.0,2.0,0.0,0.0,0.0,2.4592001094212997e-11,-2.7836041758677573e-11,-1.234190337265033e-11,1.4670903815935193e-11,6.553008297841735e-12,-3.63834059649034e-11,-1.4028589006980198e-11,4.1147905571491505e-11,1.2083684095892802e-11,2.6236629492684613e-11,-9.224080263169964e-12,1.6576449504005433e-11,5.769191971111285e-13,5.461674199933783e-14,-1.6527077251805435e-12,8.1384195571681e-12,-8.074321888490399e-12,-2.195203644085122e-11,-1.1643565470077599e-12,-3.744354471231347e-11,1.490165977509781e-11,-1.4003935394881496e-11,-2.104699994707212e-11,-1.4233538707913788e-11,-5.33858893430586e-11,-5.636155707524482e-12,3.7663201773864985e-11,5.940452239099182e-11,2.4592001094212997e-11,-2.7836041758677573e-11,-1.234190337265033e-11,1.4670903815935193e-11,6.553008297841735e-12,-3.63834059649034e-11,-1.4028589006980198e-11,4.1147905571491505e-11,1.2083684095892802e-11,2.6236629492684613e-11
0.0,14,14.0,0.0,30.0,0.0,0.0,0.0,0.0,-13.0,0.0,2.0,0.0,0.0,0.0,2.98361793320335e-11,-2.4821980579023162e-11,5.475316221548783e-13,1.652689208285006e-11,7.685012443159759e-12,-4.029848612560688e-11,-1.3126723689243316e-11,4.309880122478462e-11,1.671194986405233e-11,2.6978685290435702e-11,-1.0294743021200387e-11,1.8833066895789332e-11,-1.6819871312913121e-12,1.9735015784554962e-12,-8.187992081660243e-13,5.7671832604431915e-12,-6.802111527910847e-12,-7.832789464511688e-12,1.047663205181828e-12,-4.5717503241762144e-11,1.4793189851442557e-11,-9.725486266813533e-12,-1.9428849060279293e-11,-7.972805176666986e-12,-5.280381842488907e-11,-2.6491763582116214e-11,2.9834994842412817e-11,5.586630945476403e-11,2.98361793320335e-11,-2.4821980579023162e-11,5.475316221548783e-13,1.652689208285006e-11,7.685012443159759e-12,-4.029848612560688e-11,-1.3126723689243316e-11,4.309880122478462e-11,1.671194986405233e-11,2.6978685290435702e-11
0.0,15,15.0,0.0,30.0,0.0,0.0,0.0,0.0,-13.0,0.0,2.0,0.0,0.0,0.0,3.34598673148855e-11,-1.2565348071681307e-11,-1.0180219214084861e-11,2.3603504708085217e-11,1.908340399722728e-11,-5.616130750840573e-11,-1.835184311482532e-11,4.4354936686284167e-11,6.649527623526952e-12,2.337127526831294e-11,-8.861432544090082e-12,1.811097118434756e-11,-2.18708746243529e-12,-2.9405608050138905e-13,-5.672696368208485e-12,3.696431612217683e-12,-3.3423017626174033e-12,-7.633910898827809e-12,2.095397712641053e-12,-5.1930121500524495e-11,9.28394923428382e-12,-4.6009801995548e-12,-1.7854754340937026e-11,-6.8102315685685955e-12,-4.982711284880298e-11,-2.444892607724972e-11,2.329009011106048e-11,4.705123456885572e-11,3.34598673148855e-11,-1.2565348071681307e-11,-1.0180219214084861e-11,2.3603504708085217e-11,1.908340399722728e-11,-5.616130750840573e-11,-1.835184311482532e-11,4.4354936686284167e-11,6.649527623526952e-12,2.337127526831294e-11
0.0,16,16.0,0.0,30.0,0.0,0.0,0.0,0.0,-13.0,0.0,2.0,0.0,0.0,0.0,4.559336836589753e-11,-4.996276250834601e-12,-1.47892771491879e-11,2.2927910601556774e-11,1.1838769551643828e-11,-6.795099771652928e-11,-6.884252829594668e-12,3.50653861056058e-11,5.4724741113675844e-12,1.7277042521505048e-11,-5.416138941570178e-12,1.9744930021151568e-11,2.0483317483419094e-13,-6.950145794107267e-13,-3.800177063776958e-12,4.9969272654593584e-12,-1.9689892489574984e-12,-4.076692164345873e-12,2.562864804894166e-12,-5.848441725877795e-11,1.1645934441225172e-11,-8.061984953869835e-12,-2.241215518596291e-11,-9.829586735736744e-12,-5.005456315549796e-11,-1.2837350009597923e-11,2.0095261618569703e-11,4.346311665260495e-11,4.559336836589753e-11,-4.996276250834601e-12,-1.47892771491879e-11,2.2927910601556774e-11,1.1838769551643828e-11,-6.795099771652928e-11,-6.884252829594668e-12,3.50653861056058e-11,5.4724741113675844e-12,1.7277042521505048e-11
0.0,17,17.0,0.0,30.0,0.0,0.0,0.0,0.0,-13.0,0.0,2.0,0.0,0.0,0.0,2.7720677619249823e-11,-4.221840336688064e-12,-1.0694868304203273e-11,2.181806590502467e-11,7.526090988453732e-12,-6.536522309348518e-11,-3.1861031504389657e-12,3.679317771619292e-11,4.510454445782485e-12,2.328708461098729e-11,-5.861331221644041e-12,2.079980531735563e-11,7.980975097439118e-13,-6.48000898015477e-13,-7.54683099346014e-12,2.4560448494189267e-12,-2.4967358197668315e-12,2.544493661410359e-12,9.739706837143446e-12,-5.573172028497153e-11,9.857891789319017e-12,1.2179028555658678e-11,-2.981239391245798e-11,1.222623004647484e-12,-3.579825615636852e-11,-1.5646063979254632e-11,2.0131714203021048e-11,4.4033396597953166e-11,2.7720677619249823e-11,-4.221840336688064e-12,-1.0694868304203273e-11,2.181806590502467e-11,7.526090988453732e-12,-6.536522309348518e-11,-3.1861031504389657e-12,3.679317771619292e-11,4.510454445782485e-12,2.328708461098729e-11
0.0,18,18.0,0.0,30.0,0.0,0.0,0.0,0.0,-13.0,0.0,2.0,0.0,0.0,0.0,2.4985153962694377e-11,-7.394588324091547e-12,-8.360412603489539e-12,1.564907530470572e-11,1.3342274457267152e-11,-6.98240168328747e-11,-1.4475883040365811e-12,2.460071578760851e-11,1.1548706188467862e-11,1.586278580872723e-11,1.7519387205134022e-13,2.02360727817899e-11,-6.126646886993963e-13,-4.3153428278723856e-12,-9.762497559859815e-12,1.95238156515834e-12,-2.8762020164171483e-12,-1.3197837400853708e-12,7.559290030154337e-12,-6.209722404176519e-11,8.826410689978341e-12,3.4408673144977907e-12,-2.994958106946324e-11,-2.2770016579376682e-12,-4.0755177645379094e-11,-8.902907178188809e-12,2.274278788760044e-11,4.9855295416399245e-11,2.4985153962694377e-11,-7.394588324091547e-12,-8.360412603489539e-12,1.564907530470572e-11,1.3342274457267152e-11,-6.98240168328747e-11,-1.4475883040365811e-12,2.460071578760851e-11,1.1548706188467862e-11,1.586278580872723e-11
0.0,19,19.0,0.0,30.0,0.0,0.0,0.0,0.0,-13.0,0.0,2.0,0.0,0.0,0.0,3.309068422363742e-11,-1.025569916058163e-11,-1.150673772876839e-11,2.3771927557124702e-11,2.5699778462741973e-11,-5.99674061894383e-11,4.239500429890425e-12,3.0477800958303194e-11,1.2654764851899458e-11,1.5008071993445195e-12,2.423243402264598e-12,2.065241818860395e-11,-7.539794049228516e-12,6.934951956103507e-15,-8.87641786774365e-12,4.490669109573057e-12,-9.494632686401687e-13,-4.022280063613636e-12,9.340010220491742e-14,-7.007318393539633e-11,2.5034405772199154e-11,-1.5344743336337046e-12,-1.9591652362629697e-11,-6.464719484000654e-12,-4.4564423750267537e-11,-4.523415912598229e-12,3.4596864208232665e-11,4.7206994980575746e-11,3.309068422363742e-11,-1.025569916058163e-11,-1.150673772876839e-11,2.3771927557124702e-11,2.5699778462741973e-11,-5.99674061894383e-11,4.239500429890425e-12,3.0477800958303194e-11,1.2654764851899458e-11,1.5008071993445195e-12
0.0,20,20.0,0.0,30.0,0.0,0.0,0.0,0.0,-13.0,0.0,2.0,0.0,0.0,0.0,4.385719170803511e-11,-3.2389983856826314e-12,-9.075084184373061e-13,1.503032209672001e-11,1.5655046806784443e-11,-6.12833500851807e-11,8.425679818632212e-12,2.0696154232838948e-11,1.2777656429184799e-11,1.0739278713928788e-11,1.4154790363244883e-12,2.4299869606222843e-11,-6.870544405252374e-12,-3.065471782312394e-13,-5.824733132082317e-12,5.346071203070438e-12,2.7229594842888397e-14,2.0785210197441276e-12,9.212110787752911e-12,-6.990648991938993e-11,3.630986262227231e-11,1.2465084250346602e-11,-3.436681248619143e-11,-5.561961209089351e-12,-3.8742883320957785e-11,-5.4876096029152915e-12,3.690611411708107e-11,3.579197829143736e-11,4.385719170803511e-11,-3.2389983856826314e-12,-9.075084184373061e-13,1.503032209672001e-11,1.5655046806784443e-11,-6.12833500851807e-11,8.425679818632212e-12,2.0696154232838948e-11,1.2777656429184799e-11,1.0739278713928788e-11
0.0,21,21.0,0.0,30.0,0.0,0.0,0.0,0.0,-13.0,0.0,2.0,0.0,0.0,0.0,5.051523934614324e-11,-8.420860106944164e-12,-8.668890561350274e-12,2.216623817516974e-11,2.1185702660673883e-11,-5.677840987433098e-11,4.980150236420093e-12,2.0915294512880583e-11,5.305078356988393e-12,1.2563181949867845e-11,2.9274858693623717e-12,2.6092982190643873e-11,-3.0628038438508395e-12,2.6359375466483275e-12,-2.586061950432093e-12,6.245789932356483e-12,6.224262460196535e-14,-7.479809100877991e-13,1.3431849308369136e-11,-7.233694579201563e-11,4.084370894491362e-11,1.1273636085940633e-11,-3.778450736503209e-11,3.62082368346148e-13,-4.659947192787802e-11,5.473146396448415e-12,3.756724526686849e-11,2.3915914850896995e-11,5.051523934614324e-11,-8.420860106944164e-12,-8.668890561350274e-12,2.216623817516974e-11,2.1185702660673883e-11,-5.677840987433098e-11,4.980150236420093e-12,2.0915294512880583e-11,5.305078356988393e-12,1.2563181949867845e-11
0.0,22,22.0,0.0,30.0,0.0,0.0,0.0,0.0,-13.0,0.0,2.0,0.0,0.0,0.0,5.0679063359193786e-11,-2.738063487106059e-13,-8.954557191669249e-12,2.2071992888144106e-11,2.3494595019401425e-11,-5.880844338351925e-11,1.477421026457236e-12,1.450656985118077e-11,7.2392024773447225e-12,-1.4300819922292915e-12,1.8155453576193614e-12,2.628704104448734e-11,-5.682376296781239e-12,2.588920115649567e-12,4.388801273477074e-12,7.994303549671035e-12,1.6825180133639124e-12,5.42260927648714e-12,3.836650863585547e-13,-8.203370970166913e-11,4.447729014120146e-11,1.77881563253634e-11,-3.74958709312029e-11,-5.246068262489997e-12,-4.2095472779679396e-11,-2.4248745697170706e-12,4.000500099411536e-11,2.356732210398631e-11,5.0679063359193786e-11,-2.738063487106059e-13,-8.954557191669249e-12,2.2071992888144106e-11,2.3494595019401425e-11,-5.880844338351925e-11,1.477421026457236e-12,1.450656985118077e-11,7.2392024773447225e-12,-1.4300819922292915e-12
0.0,23,23.0,0.0,30.0,0.0,0.0,0.0,0.0,-13.0,0.0,2.0,0.0,0.0,0.0,5.402044678263939e-11,-1.8438007047537685e-11,-7.879349451248067e-12,2.1238367840693516e-11,2.3945667992708515e-11,-5.406610300081915e-11,-4.88724790712281e-12,1.901106348124466e-11,1.3790633027879788e-11,1.0156495798135954e-11,4.029188404649865e-13,2.4418585171147296e-11,-8.5126348436261e-12,3.2578829657238984e-12,2.635240206244688e-12,6.211042280925305e-12,2.283897815721186e-12,-7.905373646596693e-12,-6.1819875603448066e-12,-8.426521355662269e-11,4.430970148711004e-11,2.360373443804357e-11,-4.463467759487576e-11,4.331276511126632e-12,-5.0174250879320835e-11,-2.303334423093069e-12,4.3946644181508554e-11,3.704750612972819e-11,5.402044678263939e-11,-1.8438007047537685e-11,-7.879349451248067e-12,2.1238367840693516e-11,2.3945667992708515e-11,-5.406610300081915e-11,-4.88724790712281e-12,1.901106348124466e-11,1.3790633027879788e-11,1.0156495798135954e-11
0.0,24,24.0,0.0,30.0,0.0,0.0,0.0,0.0,-13.0,0.0,2.0,0.0,0.0,0.0,4.7572432680048e-11,-3.138447306799795e-11,-5.667331794924626e-12,3.2766035758099825e-11,3.32204692892298e-11,-5.926196590947356e-11,-9.05839961490845e-12,2.709313570523965e-11,1.7601076472140444e-11,1.577597786213458e-11,1.502803711814924e-12,2.2506334372932206e-11,-1.4588304155370144e-11,7.939629094574847e-12,1.961538396433629e-12,1.0394353403652899e-11,2.9724500471322565e-12,-8.8869319024841e-12,-2.952954107675533e-12,-8.280906319935067e-11,3.1526028718821356e-11,2.1439789221449197e-11,-3.512995080439156e-11,3.6808262557482316e-12,-5.2519009964431253e-11,-8.051097609913395e-12,5.755580926968849e-11,3.6876655977857404e-11,4.7572432680048e-11,-3.138447306799795e-11,-5.667331794924626e-12,3.2766035758099825e-11,3.32204692892298e-11,-5.926196590947356e-11,-9.05839961490845e-12,2.709313570523965e-11,1.7601076472140444e-11,1.577597786213458e-11
0.0,25,25.0,0.0,30.0,0.0,0.0,0.0,0.0,-13.0,0.0,2.0,0.0,0.0,0.0,3.729111994475896e-11,-4.554075877304787e-11,9.343418876251544e-12,2.6495240458027374e-11,4.7683515069930925e-11,-5.389171924036481e-11,-1.5527139091573592e-11,3.131106652212935e-11,4.249421152135485e-12,1.8043681172237042e-12,1.6381465470105447e-12,2.4573665913004797e-11,-1.821155924596672e-11,8.422079712851621e-12,3.769577485177395e-12,1.5106427220637493e-11,3.0917816153958936e-12,-1.540882898694982e-11,-4.204606866410133e-12,-8.308629666188532e-11,3.817394004241124e-11,2.3451590458147832e-11,-3.4297677877719187e-11,6.109523229332795e-12,-5.417179911263203e-11,-1.3296061154698051e-11,5.609062873617989e-11,4.3308732982663e-11,3.729111994475896e-11,-4.554075877304787e-11,9.343418876251544e-12,2.6495240458027374e-11,4.7683515069930925e-11,-5.389171924036481e-11,-1.5527139091573592e-11,3.131106652212935e-11,4.249421152135485e-12,1.8043681172237042e-12
0.0,26,26.0,0.0,30.0,0.0,0.0,0.0,0.0,-13.0,0.0,2.0,0.0,0.0,0.0,4.161208015948504e-11,-4.299426973182501e-11,1.7236277308627613e-11,1.6352220115541967e-11,3.4194668244153144e-11,-5.7507651642438287e-11,6.070384141646938e-13,4.656488140341512e-11,7.50142380235925e-12,-6.106101531187521e-12,5.177145486506861e-13,2.6800927429828236e-11,-2.0052448748711587e-11,1.0862503579429853e-11,3.724366364885683e-12,1.2055680077382262e-11,2.524366861818517e-12,-1.0376731580846821e-11,1.918447095517884e-12,-9.119738328578183e-11,1.560579874349118e-11,3.6271493812516617e-11,-2.68494157571295e-11,8.889274809468165e-12,-5.786045387584975e-11,-2.97421789607437e-11,6.955761603431652e-11,4.623309700575107e-11,4.161208015948504e-11,-4.299426973182501e-11,1.7236277308627613e-11,1.6352220115541967e-11,3.4194668244153144e-11,-5.7507651642438287e-11,6.070384141646938e-13,4.656488140341512e-11,7.50142380235925e-12,-6.106101531187521e-12
0.0,27,27.0,0.0,30.0,0.0,0.0,0.0,0.0,-13.0,0.0,2.0,0.0,0.0,0.0,4.2486315167481784e-11,-1.9913135604440402e-11,3.355648814656153e-12,1.458594022443986e-11,4.0972564392938284e-11,-4.51476761589372e-11,8.27881424383687e-12,5.3314700424777944e-11,9.7515912480402e-12,-2.1946067713696735e-11,4.195117535088915e-13,2.464889376259822e-11,-2.2337753406764627e-11,9.98896386948603e-12,5.3137844163182654e-12,1.088494559330445e-11,-1.903672498855994e-12,-7.323927912799401e-12,3.0103436014704076e-12,-8.113817406485425e-11,2.3311226462155196e-11,4.1121520657060536e-11,-4.179886678694747e-11,-5.219682611654293e-12,-5.016729358520568e-11,-3.160333794759896e-11,7.580198400256203e-11,3.560433485741589e-11,4.2486315167481784e-11,-1.9913135604440402e-11,3.355648814656153e-12,1.458594022443986e-11,4.0972564392938284e-11,-4.51476761589372e-11,8.27881424383687e-12,5.3314700424777944e-11,9.7515912480402e-12,-2.1946067713696735e-11
0.0,28,28.0,0.0,30.0,0.0,0.0,0.0,0.0,-13.0,0.0,2.0,0.0,0.0,0.0,5.0305960837864076e-11,-9.355856050514444e-12,1.1544359477041133e-11,1.1548283856412708e-11,4.6478513646703586e-11,-5.4770957524684616e-11,-3.308504851224299e-12,6.02606419546793e-11,1.2207112422818303e-11,-1.6741245683303363e-11,4.6250762626506925e-12,2.1438634754935953e-11,-2.0392655945048016e-11,8.587064522588368e-12,5.8955504789462256e-12,5.966446692429981e-12,-4.5786800983378235e-12,1.123099277640341e-12,-5.6423867800330256e-12,-7.825618302748584e-11,1.5329671550500825e-11,3.297171092538136e-11,-4.4039222734421335e-11,-5.311018462791657e-12,-5.4795552994081884e-11,-3.7095395653994994e-11,5.816670195468617e-11,2.72988816110001e-11,5.0305960837864076e-11,-9.355856050514444e-12,1.1544359477041133e-11,1.1548283856412708e-11,4.6478513646703586e-11,-5.4770957524684616e-11,-3.308504851224299e-12,6.02606419546793e-11,1.2207112422818303e-11,-1.6741245683303363e-11
0.0,29,29.0,0.0,30.0,0.0,0.0,0.0,0.0,-13.0,0.0,2.0,0.0,0.0,0.0,5.587088967320084e-11,-2.0997472893004375e-11,2.0845143501218e-12,1.2855573794675266e-11,5.471818369314882e-11,-5.565919891303412e-11,-2.883807062528342e-12,5.785358925050138e-11,1.706522955905003e-11,-1.0386356946506443e-11,2.8515445373331256e-12,2.2162278572761286e-11,-1.6655765530350884e-11,6.690144878441122e-12,8.459196576079693e-13,2.6848851367759705e-12,-9.610260984603172e-12,6.889488679673346e-12,4.177076325091085e-12,-8.593876585605929e-11,1.1544643180618862e-11,4.898411975509142e-11,-6.184529352820882e-11,-1.0662379116773252e-11,-5.5663389961826135e-11,-4.109134005034483e-11,7.120112411173022e-11,1.856584443880922e-11,5.587088967320084e-11,-2.0997472893004375e-11,2.0845143501218e-12,1.2855573794675266e-11,5.471818369314882e-11,-5.565919891303412e-11,-2.883807062528342e-12,5.785358925050138e-11,1.706522955905003e-11,-1.0386356946506443e-11
0.0,30,30.0,0.0,30.0,0.0,0.0,0.0,0.0,-13.0,0.0,2.0,0.0,0.0,0.0,5.040707796790024e-11,-2.541727837062193e-11,8.06394852445334e-12,1.4657637341619228e-11,5.992482241828625e-11,-6.769216242819182e-11,-4.728891386512068e-12,4.939255671561428e-11,1.4278817977185849e-11,1.0860210321949238e-11,2.9488026073331496e-12,2.016041291353262e-11,-1.639622271194484e-11,5.540644193658445e-12,-3.266259022629188e-13,4.044246260413359e-12,-1.0549825173150227e-11,-1.434526928706027e-12,3.960894065176706e-12,-9.763748824707711e-11,5.366183299306901e-12,4.328617482527691e-11,-5.655637929188206e-11,-1.851926780882622e-11,-5.7266638954532084e-11,-4.871472017269459e-11,7.88601423356159e-11,2.4472467767085802e-11,5.040707796790024e-11,-2.541727837062193e-11,8.06394852445334e-12,1.4657637341619228e-11,5.992482241828625e-11,-6.769216242819182e-11,-4.728891386512068e-12,4.939255671561428e-11,1.4278817977185849e-11,1.0860210321949238e-11
0.0,31,31.0,0.0,30.0,0.0,0.0,0.0,0.0,-13.0,0.0,2.0,0.0,0.0,0.0,6.621949159416757e-11,-2.3869459419130373e-11,-2.1467698021688014e-12,9.769647314333244e-12,5.083815539288162e-11,-7.233437637935118e-11,-2.0893376699123627e-11,6.689137750600269e-11,1.7550362331612115e-11,1.9999623813022962e-11,3.4465839249384626e-12,1.854540741610062e-11,-1.3324448528532004e-11,6.645146511490425e-12,2.0409423092153305e-12,1.2327835316135884e-12,-1.1545182009043671e-11,6.969543881819472e-12,7.00307042440708e-13,-8.170239852846738e-11,1.454617913679462e-12,4.879064236355615e-11,-5.6960827015616616e-11,-1.8842500688234085e-11,-6.301880085409823e-11,-4.3485737491250796e-11,8.067382754612873e-11,2.1049288641697652e-11,6.621949159416757e-11,-2.3869459419130373e-11,-2.1467698021688014e-12,9.769647314333244e-12,5.083815539288162e-11,-7.233437637935118e-11,-2.0893376699123627e-11,6.689137750600269e-11,1.7550362331612115e-11,1.9999623813022962e-11
0.0,32,32.0,0.0,30.0,0.0,0.0,0.0,0.0,-13.0,0.0,2.0,0.0,0.0,0.0,7.138255876679128e-11,-1.6472835122248258e-11,-1.9925873175787837e-12,1.6845339708848093e-11,4.467238048018066e-11,-8.089866672493864e-11,-1.4564973107419016e-11,6.369651091351984e-11,2.7964622032991148e-11,3.453423065548132e-11,-2.559174242531e-12,1.7335182263280796e-11,-1.6114384028926788e-11,8.865245617585672e-12,-4.897338231218581e-13,-4.4086460601637887e-13,-1.0293164692755936e-11,2.139622253214256e-13,6.212172017355122e-12,-7.681353813782495e-11,2.2216803190138903e-11,4.2902785261737304e-11,-6.517042447671324e-11,-1.9469044623207647e-11,-8.072247696196726e-11,-4.7988661824910806e-11,8.608935000296683e-11,4.83342272713658e-12,7.138255876679128e-11,-1.6472835122248258e-11,-1.9925873175787837e-12,1.6845339708848093e-11,4.467238048018066e-11,-8.089866672493864e-11,-1.4564973107419016e-11,6.369651091351984e-11,2.7964622032991148e-11,3.453423065548132e-11
0.0,33,33.0,0.0,30.0,0.0,0.0,0.0,0.0,-13.0,0.0,2.0,0.0,0.0,0.0,7.295467275287751e-11,-2.0476000245453573e-11,-8.921690964736491e-12,1.6179469959901406e-11,4.768562951112401e-11,-9.201465964175705e-11,-1.6779560796007245e-11,6.141060322697776e-11,4.328928562392355e-11,3.781574178578288e-11,1.2757092363736143e-12,1.7108435795622064e-11,-1.2831538013674218e-11,1.2939252492660689e-11,-4.794211339009245e-12,-5.0548109445805635e-12,-1.0646183522785065e-11,1.4625553404366044e-11,1.610087397546271e-11,-6.652233289080823e-11,2.9721238285413584e-11,5.0319973291506814e-11,-6.733850286132342e-11,-1.6883440028942244e-11,-8.035994934511451e-11,-5.482661374959695e-11,8.155121134288554e-11,-1.3360283338397096e-11,7.295467275287751e-11,-2.0476000245453573e-11,-8.921690964736491e-12,1.6179469959901406e-11,4.768562951112401e-11,-9.201465964175705e-11,-1.6779560796007245e-11,6.141060322697776e-11,4.328928562392355e-11,3.781574178578288e-11
0.0,34,34.0,0.0,30.0,0.0,0.0,0.0,0.0,-13.0,0.0,2.0,0.0,0.0,0.0,6.998389137257358e-11,-1.558479054647216e-11,-1.5721043869157401e-12,1.6042063137239796e-11,3.259072887586127e-11,-8.286180495029467e-11,-1.3701309368725773e-11,5.64859270136493e-11,5.198420238581214e-11,2.915623892220902e-11,2.6077342552846003e-12,1.5749303179738594e-11,-1.5208012418188407e-11,1.5332106623801086e-11,-5.496793731773055e-12,-6.85005242431891e-12,-5.198822468277757e-12,2.4506850098253814e-11,2.713653270982897e-11,-7.096316187019178e-11,2.1462107209623966e-11,3.8529428645003e-11,-6.991234390323925e-11,-1.2079330364159041e-11,-8.652455003002441e-11,-5.338388328743174e-11,7.625354655556381e-11,-2.0626063344301292e-11,6.998389137257358e-11,-1.558479054647216e-11,-1.5721043869157401e-12,1.6042063137239796e-11,3.259072887586127e-11,-8.286180495029467e-11,-1.3701309368725773e-11,5.64859270136493e-11,5.198420238581214e-11,2.915623892220902e-11
0.0,35,35.0,0.0,30.0,0.0,0.0,0.0,0.0,-13.0,0.0,2.0,0.0,0.0,0.0,8.200992573682407e-11,-1.4271573524358327e-11,5.4242107030838335e-12,3.9491883005705703e-11,1.927135793018545e-11,-6.306967668623037e-11,-1.2712609570013324e-11,5.865032471914261e-11,5.7316366958218085e-11,3.83177832106643e-11,1.3488910253664763e-12,1.0710981962399325e-11,-1.7388977431397755e-11,2.0824522816185594e-11,-7.764906881691092e-12,-3.681357386510572e-12,-3.291589213484955e-12,3.061908335625245e-11,2.1668635319380013e-11,-6.899646713192382e-11,1.998019496828277e-11,3.608696699599669e-11,-7.257222496936648e-11,-2.289274365519875e-12,-8.859121793080086e-11,-4.086189733293399e-11,6.859191341602649e-11,-1.91232662681503e-11,8.200992573682407e-11,-1.4271573524358327e-11,5.4242107030838335e-12,3.9491883005705703e-11,1.927135793018545e-11,-6.306967668623037e-11,-1.2712609570013324e-11,5.865032471914261e-11,5.7316366958218085e-11,3.83177832106643e-11
0.0,36,36.0,0.0,30.0,0.0,0.0,0.0,0.0,-13.0,0.0,2.0,0.0,0.0,0.0,8.187995866719129e-11,-2.5232394086265637e-11,1.920241009007494e-12,4.2216264253280596e-11,2.684675011799879e-11,-5.888389489082424e-11,-5.259705171110403e-12,5.715859868009587e-11,5.37909148703093e-11,3.95112883114651e-11,-2.2706413042720975e-13,8.829422216938472e-12,-1.7595224816525255e-11,1.7558739615203235e-11,-5.379342005894446e-12,-7.070780332540386e-13,-7.486691366858424e-13,2.3206966238344477e-11,2.5780010932826595e-11,-6.067340450153264e-11,1.1279833701688542e-11,5.363873300578876e-11,-7.124251099701914e-11,-5.5466334240959705e-12,-7.811906727340264e-11,-4.737207795029776e-11,7.00976061755448e-11,-2.5259500454985242e-11,8.187995866719129e-11,-2.5232394086265637e-11,1.920241009007494e-12,4.2216264253280596e-11,2.684675011799879e-11,-5.888389489082424e-11,-5.259705171110403e-12,5.715859868009587e-11,5.37909148703093e-11,3.95112883114651e-11
0.0,37,37.0,0.0,30.0,0.0,0.0,0.0,0.0,-13.0,0.0,2.0,0.0,0.0,0.0,7.206571585918107e-11,-1.6004859189997406e-11,1.6192753312650213e-11,3.609800066310945e-11,2.4022575952552874e-11,-5.4543368817863404e-11,-1.716053187498119e-12,5.653642102669483e-11,5.2133259740806134e-11,4.7237490236007613e-11,3.910680847473795e-13,7.541910745175589e-12,-1.597048144420837e-11,8.239530974071442e-12,-2.335574195959006e-12,2.6871784480521655e-13,-1.6214396906045763e-12,1.7450816152053582e-11,2.607127402801459e-11,-5.842712844640347e-11,1.5811775693855443e-11,6.430686625571855e-11,-5.988970406079488e-11,-5.077112001977482e-12,-8.478217870413754e-11,-4.585393453426621e-11,6.868960180329472e-11,-2.8408735886189127e-11,7.206571585918107e-11,-1.6004859189997406e-11,1.6192753312650213e-11,3.609800066310945e-11,2.4022575952552874e-11,-5.4543368817863404e-11,-1.716053187498119e-12,5.653642102669483e-11,5.2133259740806134e-11,4.7237490236007613e-11
0.0,38,38.0,0.0,30.0,0.0,0.0,0.0,0.0,-13.0,0.0,2.0,0.0,0.0,0.0,6.483716538778273e-11,-1.5385918434102822e-11,2.1491711153798e-11,3.3061519514128414e-11,1.953199933921963e-11,-5.184955776626678e-11,-1.3349363565855053e-11,6.564492580516516e-11,4.9508960763461804e-11,4.3595962251797e-11,7.44674927238309e-13,5.666813435586708e-12,-1.9028920856721175e-11,6.77903349691424e-12,1.7233871883053148e-12,-2.1373551683738393e-13,-6.200835764442429e-12,2.295537432693564e-11,3.325555898857911e-11,-6.506213915624304e-11,1.831020808991982e-11,6.484904325931772e-11,-7.210822140923535e-11,-7.462426690697854e-12,-1.1302684503889918e-10,-4.0523680864733234e-11,6.492007653091895e-11,-4.480503271658241e-11,6.483716538778273e-11,-1.5385918434102822e-11,2.1491711153798e-11,3.3061519514128414e-11,1.953199933921963e-11,-5.184955776626678e-11,-1.3349363565855053e-11,6.564492580516516e-11,4.9508960763461804e-11,4.3595962251797e-11
0.0,39,39.0,0.0,30.0,0.0,0.0,0.0,0.0,-13.0,0.0,2.0,0.0,0.0,0.0,5.519520210970192e-11,2.323540403433326e-12,1.3563971979087027e-11,3.3573958114369304e-11,2.398034648094658e-11,-3.964237125282847e-11,-1.8394275543503648e-11,6.979450008116275e-11,3.3111687122798995e-11,4.142513648175408e-11,1.0783227753603177e-12,5.348374826789651e-12,-2.340061465193786e-11,6.601009487455645e-12,2.902845115532898e-12,-3.8044093825693585e-12,-5.166348837763141e-12,1.9832042103177146e-11,2.708354250524281e-11,-6.805478136611556e-11,2.6149606337397447e-11,6.325501599062196e-11,-5.92887048156302e-11,-7.215649978928567e-12,-1.1220322620287942e-10,-3.076298051299656e-11,7.157773384704312e-11,-3.61215846624692e-11,5.519520210970192e-11,2.323540403433326e-12,1.3563971979087027e-11,3.3573958114369304e-11,2.398034648094658e-11,-3.964237125282847e-11,-1.8394275543503648e-11,6.979450008116275e-11,3.3111687122798995e-11,4.142513648175408e-11
0.0,40,40.0,0.0,30.0,0.0,0.0,0.0,0.0,-13.0,0.0,2.0,0.0,0.0,0.0,5.5356902040844225e-11,-2.5617192453978765e-12,9.529612474575416e-12,3.743879494915478e-11,3.1318572923515105e-11,-5.250603467606281e-11,-1.4277434440866978e-11,6.513901242865472e-11,3.683434881994395e-11,4.3183754933829825e-11,7.362748053646635e-12,5.356824049294776e-12,-2.6418270176741963e-11,5.345887314704708e-12,-1.131833978051432e-12,-6.688735168629998e-12,-3.3591616710087963e-12,1.493345166571877e-11,3.2892017968259526e-11,-6.538735610015629e-11,1.5168564065166134e-11,7.711772336606255e-11,-5.896673616327897e-11,-8.032522760799716e-12,-9.274326310653196e-11,-3.3261855240504593e-11,6.21362323191416e-11,-2.926979402628028e-11,5.5356902040844225e-11,-2.5617192453978765e-12,9.529612474575416e-12,3.743879494915478e-11,3.1318572923515105e-11,-5.250603467606281e-11,-1.4277434440866978e-11,6.513901242865472e-11,3.683434881994395e-11,4.3183754933829825e-11
0.0,41,41.0,0.0,30.0,0.0,0.0,0.0,0.0,-13.0,0.0,2.0,0.0,0.0,0.0,5.899519350405071e-11,1.8486537798255118e-11,1.4683820064801145e-11,4.110602679564988e-11,3.8816528980143156e-11,-5.3966574702541085e-11,-1.5089505567911617e-11,6.904877773825686e-11,4.2557726334827014e-11,5.670174107624353e-11,8.780580608349645e-12,6.34252958896214e-12,-2.1720223431724018e-11,6.228508222049702e-12,-2.0786122832841753e-12,-5.934914873162936e-12,-3.752831720281747e-12,1.2418038884520327e-11,3.657773162193871e-11,-6.363978319421621e-11,2.2693285142816782e-11,8.001808558828321e-11,-6.509095157967006e-11,-1.350070867491708e-11,-1.0040786554476384e-10,-2.704832220774931e-11,5.4590887055083706e-11,-2.8933104152228196e-11,5.899519350405071e-11,1.8486537798255118e-11,1.4683820064801145e-11,4.110602679564988e-11,3.8816528980143156e-11,-5.3966574702541085e-11,-1.5089505567911617e-11,6.904877773825686e-11,4.2557726334827014e-11,5.670174107624353e-11
0.0,42,42.0,0.0,30.0,0.0,0.0,0.0,0.0,-13.0,0.0,2.0,0.0,0.0,0.0,5.767206463065292e-11,2.0429073608460483e-11,2.033187520959486e-11,4.166267018491036e-11,3.372009950785937e-11,-4.713687123004103e-11,-6.172270612341782e-12,5.0979921208215565e-11,5.266436403291513e-11,4.7654157729108386e-11,9.930644725413768e-12,7.271516291231815e-12,-1.9436321672733e-11,3.9555786681485935e-12,-2.427436418207521e-12,-6.094401881846748e-12,-3.963477352337082e-12,4.981997589146398e-12,4.423367711956965e-11,-6.747359495881579e-11,2.868268658771186e-11,7.17057724633141e-11,-7.046818551248941e-11,-1.953697140749662e-11,-1.0206714256926116e-10,-3.262017537276697e-11,5.4978046599616644e-11,-2.1604138834683903e-11,5.767206463065292e-11,2.0429073608460483e-11,2.033187520959486e-11,4.166267018491036e-11,3.372009950785937e-11,-4.713687123004103e-11,-6.172270612341782e-12,5.0979921208215565e-11,5.266436403291513e-11,4.7654157729108386e-11
0.0,43,43.0,0.0,30.0,0.0,0.0,0.0,0.0,-13.0,0.0,2.0,0.0,0.0,0.0,6.190462597087044e-11,2.6126797800067035e-11,1.748514546445008e-11,3.788749910350809e-11,3.775086879779831e-11,-3.8500907866370824e-11,-3.016201708232325e-12,3.718661113947346e-11,5.2241786913913604e-11,5.874542800502736e-11,6.5205794055286334e-12,1.2234722908790513e-11,-1.944320361060983e-11,3.1474852191807e-12,4.2843269113948706e-12,-4.8573544181228545e-12,-2.9006071651544065e-12,-2.7043840306324304e-12,5.276929246479051e-11,-6.758426480382957e-11,3.758653827460835e-11,6.293382340244237e-11,-8.282317936114497e-11,-1.0381525294740053e-11,-9.736839993757693e-11,-2.194584691931363e-11,4.8085350200126626e-11,-2.5736974094236604e-11,6.190462597087044e-11,2.6126797800067035e-11,1.748514546445008e-11,3.788749910350809e-11,3.775086879779831e-11,-3.8500907866370824e-11,-3.016201708232325e-12,3.718661113947346e-11,5.2241786913913604e-11,5.874542800502736e-11
0.0,44,44.0,0.0,30.0,0.0,0.0,0.0,0.0,-13.0,0.0,2.0,0.0,0.0,0.0,5.919533125538078e-11,3.316415565319768e-11,1.776507927373258e-11,5.57761482852557e-11,3.705266204735024e-11,-3.159532319433539e-11,-1.295357159857865e-11,3.491146460759967e-11,4.709972580692309e-11,5.0252215146348846e-11,9.676245150311816e-12,1.423357088687802e-11,-1.7577849424219682e-11,1.9424662817023777e-12,3.255296795352264e-12,-2.982209177004513e-12,-1.010058306705305e-12,-3.240725870042884e-12,4.7121169383106275e-11,-6.845991649267786e-11,3.4790925607412225e-11,5.5937581360890897e-11,-8.214199082822773e-11,1.1273798232891957e-12,-1.0309117826628884e-10,-1.5399176247929768e-11,4.946722561664134e-11,-3.4295087693255155e-11,5.919533125538078e-11,3.316415565319768e-11,1.776507927373258e-11,5.57761482852557e-11,3.705266204735024e-11,-3.159532319433539e-11,-1.295357159857865e-11,3.491146460759967e-11,4.709972580692309e-11,5.0252215146348846e-11
0.0,45,45.0,0.0,30.0,0.0,0.0,0.0,0.0,-13.0,0.0,2.0,0.0,0.0,0.0,5.3546079778310204e-11,3.3797000989434916e-11,1.2629598857934656e-11,4.0208912293073556e-11,4.5445473271759714e-11,-2.8943922042680227e-11,-1.4074639408538159e-11,3.058512320601136e-11,4.421132040853712e-11,4.982001602582651e-11,1.1125244434824511e-11,1.438725124371098e-11,-2.039930784196192e-11,-5.258139443292799e-12,2.3117186690306364e-12,-1.1680360050797521e-12,-1.610997485561597e-12,-1.3266211622502635e-11,5.830058826872315e-11,-5.8125806734556385e-11,3.640343005363515e-11,5.788659568367995e-11,-7.40823184749414e-11,-3.0154335969874553e-12,-1.0834721000145321e-10,-9.963764804481098e-12,5.420788847279382e-11,-3.471535857153778e-11,5.3546079778310204e-11,3.3797000989434916e-11,1.2629598857934656e-11,4.0208912293073556e-11,4.5445473271759714e-11,-2.8943922042680227e-11,-1.4074639408538159e-11,3.058512320601136e-11,4.421132040853712e-11,4.982001602582651e-11
0.0,46,46.0,0.0,30.0,0.0,0.0,0.0,0.0,-13.0,0.0,2.0,0.0,0.0,0.0,5.120521960227493e-11,4.2540525457251983e-11,6.263128410665103e-12,4.526263837812921e-11,4.062531774047616e-11,-3.070891668184739e-11,-1.1995855456357065e-11,2.9770764768596657e-11,5.148028678369237e-11,4.584371225697422e-11,1.1756851090458806e-11,1.8966315310041297e-11,-1.5924327503078852e-11,-7.362430030813655e-12,-3.753160232130377e-12,-4.433294453274146e-12,-1.0751359173495146e-12,-6.881984219078156e-12,5.337893743943516e-11,-5.832192480766699e-11,2.0114132142117e-11,5.087784431412336e-11,-7.960079284334216e-11,3.0829184895536317e-12,-1.1164093122614986e-10,-8.674173179992045e-12,4.124738874835637e-11,-3.7779206236536385e-11,5.120521960227493e-11,4.2540525457251983e-11,6.263128410665103e-12,4.526263837812921e-11,4.062531774047616e-11,-3.070891668184739e-11,-1.1995855456357065e-11,2.9770764768596657e-11,5.148028678369237e-11,4.584371225697422e-11
0.0,47,47.0,0.0,30.0,0.0,0.0,0.0,0.0,-13.0,0.0,2.0,0.0,0.0,0.0,5.477764374743764e-11,4.5717562007640596e-11,4.470959735450027e-12,4.882382618648792e-11,5.0030052867783334e-11,-1.7328650358144518e-11,-3.0162533187138935e-12,4.2703063488542876e-11,5.5351181201037315e-11,5.7228347164736484e-11,1.1965240466595546e-11,2.2703247487141142e-11,-1.693217551520974e-11,-1.3324698109912294e-11,-5.0340709431924986e-12,-2.8728528466591228e-12,-3.777317875409171e-12,-9.905632860074984e-12,5.918527183202628e-11,-6.139176070274316e-11,5.403711427028206e-12,5.0329323671936233e-11,-8.682015337444209e-11,-2.6119821395692258e-12,-9.502058643897411e-11,-1.331760597856817e-11,2.7212910980777327e-11,-3.356233524083774e-11,5.477764374743764e-11,4.5717562007640596e-11,4.470959735450027e-12,4.882382618648792e-11,5.0030052867783334e-11,-1.7328650358144518e-11,-3.0162533187138935e-12,4.2703063488542876e-11,5.5351181201037315e-11,5.7228347164736484e-11
0.0,48,48.0,0.0,30.0,0.0,0.0,0.0,0.0,-13.0,0.0,2.0,0.0,0.0,0.0,6.884910043136423e-11,5.1770445106850394e-11,2.608337254410536e-14,5.0735696418012886e-11,5.768863404197189e-11,-2.0491226135423016e-11,-4.0033611128268376e-12,4.11462602466098e-11,5.3737466561737305e-11,6.142032391121479e-11,9.505196679385781e-12,2.8775469207356364e-11,-1.666846995351378e-11,-1.6907824112235175e-11,-3.560486463905964e-12,-9.113376628753317e-12,-2.5630850092669946e-12,1.167588671298949e-12,6.306861660513734e-11,-6.545149851984203e-11,1.2339686126300546e-11,4.698270001191449e-11,-8.033829157542664e-11,-1.961441946281349e-11,-9.768255024417045e-11,3.6053843671895925e-12,2.7008873657084223e-11,-3.749952879543281e-11,6.884910043136423e-11,5.1770445106850394e-11,2.608337254410536e-14,5.0735696418012886e-11,5.768863404197189e-11,-2.0491226135423016e-11,-4.0033611128268376e-12,4.11462602466098e-11,5.3737466561737305e-11,6.142032391121479e-11
0.0,49,49.0,0.0,30.0,0.0,0.0,0.0,0.0,-13.0,0.0,2.0,0.0,0.0,0.0,5.510344224372591e-11,6.286438202368623e-11,7.392613771235796e-12,5.236752080373204e-11,6.113142038882716e-11,-1.1142396955740993e-11,-7.336282081171611e-12,4.9718764373497225e-11,6.312175143463443e-11,5.628903395562415e-11,1.2331613062325166e-11,2.8357887855822482e-11,-1.678144379861461e-11,-1.789404743558628e-11,-6.885567346556734e-13,-8.141252382444988e-12,-3.202987412359635e-13,-1.8105070038942872e-12,6.575295692936422e-11,-7.837991984037857e-11,9.403244616277557e-12,4.121338777424761e-11,-7.188657750661924e-11,-1.9831419888168183e-11,-1.0403574339664056e-10,5.783670138319223e-12,3.823418732988263e-11,-3.671042134571062e-11,5.510344224372591e-11,6.286438202368623e-11,7.392613771235796e-12,5.236752080373204e-11,6.113142038882716e-11,-1.1142396955740993e-11,-7.336282081171611e-12,4.9718764373497225e-11,6.312175143463443e-11,5.628903395562415e-11
0.0,50,50.0,0.0,30.0,0.0,0.0,0.0,0.0,-13.0,0.0,2.0,0.0,0.0,0.0,5.487562511606289e-11,5.219168988802775e-11,3.1774741010874522e-12,5.824024425521026e-11,6.478056178530647e-11,-9.77744517992888e-12,-7.135066229093314e-12,3.9242743207624555e-11,7.152171624767611e-11,4.1624995188804306e-11,1.1475857230912982e-11,2.7770894490452417e-11,-1.401450906544292e-11,-1.978392147233341e-11,-2.5673994424565416e-12,-6.6856947855263655e-12,8.131077227457198e-13,4.741090596820143e-13,5.405032888974737e-11,-7.503364879675218e-11,8.432809118991488e-12,3.398199050021435e-11,-7.424232569441705e-11,3.2144072334519197e-13,-8.861998587440312e-11,2.1212686003662084e-11,3.96881648039453e-11,-4.450594846545535e-11,5.487562511606289e-11,5.219168988802775e-11,3.1774741010874522e-12,5.824024425521026e-11,6.478056178530647e-11,-9.77744517992888e-12,-7.135066229093314e-12,3.9242743207624555e-11,7.152171624767611e-11,4.1624995188804306e-11
0.0,51,51.0,0.0,30.0,0.0,0.0,0.0,0.0,-13.0,0.0,2.0,0.0,0.0,0.0,5.2893942623213395e-11,4.9306444547435714e-11,1.1628860037224337e-11,6.790917195928272e-11,6.963409349323463e-11,-1.5193750620237906e-11,4.603045074831503e-12,5.593892268582432e-11,6.650980849217616e-11,4.795474831042428e-11,1.192373749256256e-11,2.6435225587827735e-11,-1.3170960826397137e-11,-1.6262487365220624e-11,-1.1092327386424615e-11,-4.255754661213413e-12,-3.772422853219687e-12,-1.993425717467796e-12,7.209012397174475e-11,-8.118725025836906e-11,6.85913722800766e-12,3.542796906935472e-11,-7.373495103117066e-11,-2.3526365249187824e-11,-7.078283225401431e-11,3.286841457850906e-11,3.589306240524383e-11,-4.892591657074998e-11,5.2893942623213395e-11,4.9306444547435714e-11,1.1628860037224337e-11,6.790917195928272e-11,6.963409349323463e-11,-1.5193750620237906e-11,4.603045074831503e-12,5.593892268582432e-11,6.650980849217616e-11,4.795474831042428e-11
0.0,52,52.0,0.0,30.0,0.0,0.0,0.0,0.0,-13.0,0.0,2.0,0.0,0.0,0.0,5.272123723688468e-11,4.6548174025545124e-11,3.4329040059048505e-12,5.988986027999465e-11,4.976589083109636e-11,-1.6232536960793296e-11,-3.2366097051194484e-12,7.224577294957695e-11,7.07515840556348e-11,4.5492167007198016e-11,1.48615096236109e-11,2.664670952408209e-11,-1.0162454355244723e-11,-1.6836281352339875e-11,-6.662208159246308e-12,-9.149622191823562e-12,-5.238622849922396e-12,-2.841430433861847e-13,6.93923477940442e-11,-6.093145956949401e-11,-1.246236358650356e-12,3.569912706023957e-11,-7.272614110081317e-11,-2.34317665524267e-11,-6.814803632731509e-11,4.1823431472125795e-11,4.43059277937177e-11,-4.9805291936125595e-11,5.272123723688468e-11,4.6548174025545124e-11,3.4329040059048505e-12,5.988986027999465e-11,4.976589083109636e-11,-1.6232536960793296e-11,-3.2366097051194484e-12,7.224577294957695e-11,7.07515840556348e-11,4.5492167007198016e-11
0.0,53,53.0,0.0,30.0,0.0,0.0,0.0,0.0,-13.0,0.0,2.0,0.0,0.0,0.0,5.1668014103028866e-11,3.481749532381371e-11,-2.5485519561621704e-13,6.603040712604367e-11,2.562966745695198e-11,-1.5902768505099623e-11,-1.2915076249223685e-13,7.513944418199779e-11,6.901409060325141e-11,2.7943942076626076e-11,1.7826958624530332e-11,2.227815365657177e-11,-9.72246234212859e-12,-1.8767919313456834e-11,-8.87531420293285e-12,-4.8693221607262e-12,-7.882702901083026e-12,2.532210633751146e-13,7.516814127755098e-11,-6.141742765773502e-11,1.0047248058204407e-11,3.588469385288803e-11,-6.162454979502439e-11,-2.601762742469407e-11,-6.37029791049851e-11,4.022127866077738e-11,4.46396310146218e-11,-6.146906138664864e-11,5.1668014103028866e-11,3.481749532381371e-11,-2.5485519561621704e-13,6.603040712604367e-11,2.562966745695198e-11,-1.5902768505099623e-11,-1.2915076249223685e-13,7.513944418199779e-11,6.901409060325141e-11,2.7943942076626076e-11
0.0,54,54.0,0.0,30.0,0.0,0.0,0.0,0.0,-13.0,0.0,2.0,0.0,0.0,0.0,6.413936011711402e-11,1.8428798727839574e-11,-4.028913936868201e-12,6.60246179707772e-11,1.4693840932859915e-11,-9.868883397249182e-12,-1.479398563224543e-11,7.109024040253647e-11,7.278775153288688e-11,4.751370159877718e-11,2.2372687195292967e-11,2.3248418630851525e-11,-1.0762243442187587e-11,-1.702001296734797e-11,-4.628704768830634e-12,-6.229158719707625e-12,-6.615705558337136e-12,-8.511785437468067e-13,7.801840067397699e-11,-7.129847677983662e-11,1.2241146245366392e-11,2.8830402266829484e-11,-6.552291963286596e-11,-2.1214468524164506e-11,-5.885874344305781e-11,3.867188719677279e-11,4.516452413941772e-11,-6.603738940223392e-11,6.413936011711402e-11,1.8428798727839574e-11,-4.028913936868201e-12,6.60246179707772e-11,1.4693840932859915e-11,-9.868883397249182e-12,-1.479398563224543e-11,7.109024040253647e-11,7.278775153288688e-11,4.751370159877718e-11
0.0,55,55.0,0.0,30.0,0.0,0.0,0.0,0.0,-13.0,0.0,2.0,0.0,0.0,0.0,6.618825493533098e-11,1.1969521905743338e-11,-6.135328727615e-13,7.362907909377301e-11,1.436069703232239e-11,-6.770030315766747e-12,-1.7274769925443216e-12,7.80850438137947e-11,7.707856509712501e-11,5.48411184313813e-11,1.9678531256948825e-11,2.1650927693677413e-11,-8.989190607452252e-12,-1.7899817040667364e-11,-3.5187210067282875e-12,-9.45829957433125e-12,-6.953872411531181e-12,-1.0602840117193276e-13,8.601841818106904e-11,-7.662031643575746e-11,7.641280476467098e-12,3.718510558090801e-11,-6.183420046575141e-11,-2.953162957679338e-11,-5.387910910753091e-11,2.6311772903936113e-11,3.2116188619944144e-11,-8.043566292616418e-11,6.618825493533098e-11,1.1969521905743338e-11,-6.135328727615e-13,7.362907909377301e-11,1.436069703232239e-11,-6.770030315766747e-12,-1.7274769925443216e-12,7.80850438137947e-11,7.707856509712501e-11,5.48411184313813e-11
0.0,56,56.0,0.0,30.0,0.0,0.0,0.0,0.0,-13.0,0.0,2.0,0.0,0.0,0.0,6.536735895758109e-11,7.675579831380083e-12,9.598677698235412e-12,7.555109821726372e-11,2.061899364639167e-11,-1.0389323040752576e-11,-1.1102275331985849e-11,8.57048287841469e-11,6.977921435825858e-11,4.4978797748854434e-11,1.8708345990805685e-11,1.9818544722555693e-11,-7.583884555707056e-12,-1.9765036681949547e-11,-4.335517632498411e-12,-6.070962705484763e-12,-7.385714639384387e-12,7.804821884369477e-12,7.574783253443502e-11,-7.212486976562247e-11,6.566929764075859e-12,3.801300224264954e-11,-4.722333930935838e-11,-3.5672530272234166e-11,-6.091906056667673e-11,2.446684115414262e-11,1.8860959152767927e-11,-8.92177859150395e-11,6.536735895758109e-11,7.675579831380083e-12,9.598677698235412e-12,7.555109821726372e-11,2.061899364639167e-11,-1.0389323040752576e-11,-1.1102275331985849e-11,8.57048287841469e-11,6.977921435825858e-11,4.4978797748854434e-11
0.0,57,57.0,0.0,30.0,0.0,0.0,0.0,0.0,-13.0,0.0,2.0,0.0,0.0,0.0,6.058900375022953e-11,-5.639518003590764e-13,4.282528280698546e-12,9.056015980633939e-11,2.0325141696441068e-11,1.0352778195827352e-12,-9.30512998997405e-12,8.653767284582016e-11,5.620559738024696e-11,4.611826104335228e-11,1.764855680330733e-11,1.8825389488717805e-11,-4.9158167882245425e-12,-1.8188296864560015e-11,-4.530097713766373e-12,-5.827871241226553e-12,-5.9607256165539085e-12,2.3117983129421485e-11,6.55729126872153e-11,-8.129704352540382e-11,-5.025332273608106e-12,4.6364230179493806e-11,-4.9411744577006815e-11,-4.1032939213901297e-11,-5.889907463110977e-11,2.7414327391408775e-11,1.8439469325536042e-11,-8.892868050880049e-11,6.058900375022953e-11,-5.639518003590764e-13,4.282528280698546e-12,9.056015980633939e-11,2.0325141696441068e-11,1.0352778195827352e-12,-9.30512998997405e-12,8.653767284582016e-11,5.620559738024696e-11,4.611826104335228e-11
0.0,58,58.0,0.0,30.0,0.0,0.0,0.0,0.0,-13.0,0.0,2.0,0.0,0.0,0.0,7.365420686234174e-11,-2.0608592714688328e-12,4.651185702944649e-12,9.166451154825593e-11,2.624760486579935e-11,1.393031362252507e-11,-7.515154805394657e-12,9.377419191479032e-11,6.580973975185158e-11,4.245395421960769e-11,1.3051785950664643e-11,2.2790514669661215e-11,-2.7160619197863864e-12,-1.7249233626983238e-11,-4.65880821217286e-12,-5.02944466535067e-12,-4.480506663257088e-12,2.5436537997842092e-11,6.419659790480628e-11,-7.320546202933374e-11,4.311064092425927e-12,4.4844761381834266e-11,-4.543715278187651e-11,-3.1873804265936564e-11,-5.791668116400938e-11,2.8149812427821224e-11,3.1847701913058655e-11,-1.0091194449709464e-10,7.365420686234174e-11,-2.0608592714688328e-12,4.651185702944649e-12,9.166451154825593e-11,2.624760486579935e-11,1.393031362252507e-11,-7.515154805394657e-12,9.377419191479032e-11,6.580973975185158e-11,4.245395421960769e-11
0.0,59,59.0,0.0,30.0,0.0,0.0,0.0,0.0,-13.0,0.0,2.0,0.0,0.0,0.0,7.385239524651373e-11,4.5107691134148263e-13,1.519652124274773e-12,9.813181633136257e-11,2.4840703562611514e-11,1.0543392181721732e-11,-1.2902159701982837e-11,8.511915086885059e-11,5.646718395817662e-11,3.082742954713179e-11,1.0778204104884897e-11,2.080578313623447e-11,-3.188113442026883e-12,-1.778671689867773e-11,-1.477375765786975e-12,-5.710752475072815e-12,-9.497367979173402e-12,3.812293383948421e-11,5.4338891023483634e-11,-8.006455301859798e-11,1.0541200859930633e-11,3.098695493217998e-11,-5.948852657828478e-11,-3.610393068159363e-11,-5.69545833225828e-11,1.2345006255210704e-11,4.329964048528568e-11,-9.804127615646579e-11,7.385239524651373e-11,4.5107691134148263e-13,1.519652124274773e-12,9.813181633136257e-11,2.4840703562611514e-11,1.0543392181721732e-11,-1.2902159701982837e-11,8.511915086885059e-11,5.646718395817662e-11,3.082742954713179e-11
0.0,60,60.0,0.0,30.0,0.0,0.0,0.0,0.0,-13.0,0.0,2.0,0.0,0.0,0.0,7.292303163486222e-11,1.8217940787000214e-11,8.610576373917215e-12,1.0614104014787563e-10,1.8432899371976592e-11,1.6204858869717754e-11,-5.370344928575308e-12,8.276532702759089e-11,5.450159271120729e-11,3.186923443160568e-11,1.2001937970752572e-11,1.9689173278848714e-11,-5.040051644138512e-12,-1.4181648553893364e-11,-2.624633861635487e-12,-5.315999234858836e-12,-6.639962876771029e-12,3.127131775877326e-11,6.029243003962482e-11,-6.880548675884838e-11,1.6023238548625517e-11,4.30358693082484e-11,-5.189545497791516e-11,-3.2757046724500776e-11,-4.66860597268591e-11,1.729966273877919e-11,4.551701768552784e-11,-9.66066900101255e-11,7.292303163486222e-11,1.8217940787000214e-11,8.610576373917215e-12,1.0614104014787563e-10,1.8432899371976592e-11,1.6204858869717754e-11,-5.370344928575308e-12,8.276532702759089e-11,5.450159271120729e-11,3.186923443160568e-11
0.0,61,61.0,0.0,30.0,0.0,0.0,0.0,0.0,-13.0,0.0,2.0,0.0,0.0,0.0,8.217738998690675e-11,1.452181946995106e-11,9.525039135881722e-12,1.039880384788324e-10,1.2034107234919648e-11,1.9698843876555425e-11,-1.8877049682257367e-11,7.702254674602259e-11,5.055932478468481e-11,3.5057255128044255e-11,1.0126638236157363e-11,2.123531478321317e-11,-7.863685576154807e-12,-1.6075396000753286e-11,-5.950435664630425e-12,-6.154437643199128e-12,-4.405897295673969e-12,3.176727620920294e-11,5.8041943236083665e-11,-6.188280842670602e-11,1.5667947049944875e-11,4.554331732879627e-11,-4.9758551149263464e-11,-2.8817977271036574e-11,-4.0036543538421806e-11,1.2471144282192454e-11,4.8050845118283294e-11,-8.750920705681029e-11,8.217738998690675e-11,1.452181946995106e-11,9.525039135881722e-12,1.039880384788324e-10,1.2034107234919648e-11,1.9698843876555425e-11,-1.8877049682257367e-11,7.702254674602259e-11,5.055932478468481e-11,3.5057255128044255e-11
0.0,62,62.0,0.0,30.0,0.0,0.0,0.0,0.0,-13.0,0.0,2.0,0.0,0.0,0.0,7.769262853256559e-11,-3.299252982095885e-12,-1.7575906572288727e-11,9.769961834479246e-11,5.7550283888712775e-12,1.3610663927878049e-11,-5.472360276678162e-12,8.262671094411643e-11,5.741070751306185e-11,3.2401195665590974e-11,1.2760089005921797e-11,1.877524559123243e-11,-7.509837279880069e-12,-1.219263019389113e-11,-6.473155311660772e-12,-6.125845485459164e-12,-4.539999851664415e-12,3.875419550392693e-11,6.875972390421868e-11,-5.1501746735555674e-11,2.085436194643731e-11,4.4340172252977734e-11,-4.7769040845151637e-11,-2.8241829697179085e-11,-3.119805563177602e-11,-3.662392783003085e-12,6.316771914153404e-11,-8.105940767279453e-11,7.769262853256559e-11,-3.299252982095885e-12,-1.7575906572288727e-11,9.769961834479246e-11,5.7550283888712775e-12,1.3610663927878049e-11,-5.472360276678162e-12,8.262671094411643e-11,5.741070751306185e-11,3.2401195665590974e-11
