Line_number,Fiducial,Easting,Northing,Height,Elevation,tx_pitch,tx_roll,tx_yaw,txrx_dx,txrx_dy,txrx_dz,rx_pitch,rx_roll,rx_yaw,S0Z_time_1.431e-04,S0Z_time_1.801e-04,S0Z_time_2.266e-04,S0Z_time_2.846e-04,S0Z_time_3.581e-04,S0Z_time_4.506e-04,S0Z_time_5.671e-04,S0Z_time_7.136e-04,S0Z_time_8.981e-04,S0Z_time_1.131e-03,S0Z_time_1.423e-03,S0Z_time_1.791e-03,S0Z_time_2.255e-03,S0Z_time_2.838e-03,S0Z_time_3.573e-03,S0Z_time_4.498e-03,S0Z_time_5.662e-03,S1Z_time_1.409e-05,S1Z_time_1.610e-05,S1Z_time_1.909e-05,S1Z_time_2.360e-05,S1Z_time_2.960e-05,S1Z_time_3.709e-05,S1Z_time_4.609e-05,S1Z_time_5.759e-05,S1Z_time_7.209e-05,S1Z_time_9.060e-05,S1Z_time_1.141e-04,S1Z_time_1.431e-04,S1Z_time_1.801e-04,S1Z_time_2.266e-04,S1Z_time_2.846e-04,S1Z_time_3.581e-04,S1Z_time_4.506e-04,S1Z_time_5.671e-04,S1Z_time_7.136e-04,S1Z_time_8.981e-04,S1Z_time_1.131e-03
0.0,0,0.0,0.0,30.0,0.0,0.0,0.0,0.0,-13.0,0.0,2.0,0.0,0.0,0.0,9.871024186828141e-11,6.855437694105634e-11,4.6758462346426355e-11,3.1219921663625766e-11,2.0282106230836092e-11,1.287096142314435e-11,8.014195686056795e-12,4.886957441987129e-12,2.9195370965734926e-12,1.7173351366579805e-12,1.00037723622798e-12,5.749459106853857e-13,3.259655179234932e-13,1.8303421580287098e-13,1.0060411388505109e-13,5.476276411804482e-14,2.91430450606864e-14,4.23325674504926e-09,3.1025346130947326e-09,2.086615623425818e-09,1.2675159324908317e-09,7.696086120986122e-10,4.85420920973355e-10,3.3252836640378784e-10,2.386928592818486e-10,1.7778961460770107e-10,1.3388816365409087e-10,1.002325180780736e-10,7.394978233028766e-11,5.303837632935007e-11,3.682412269916478e-11,2.488430650726377e-11,1.6194555464510204e-11,1.0186026913477481e-11,6.186877594369119e-12,3.644889369508709e-12,2.0767708727288657e-12,1.139704779064329e-12
0.0,1,1.0,0.0,30.0,0.0,0.0,0.0,0.0,-13.0,0.0,2.0,0.0,0.0,0.0,9.74186448226538e-11,6.844574991223506e-11,4.7342150776353616e-11,3.205120918949808e-11,2.108747113600726e-11,1.3527500890958285e-11,8.495249254409948e-12,5.211961500007237e-12,3.1262270168431166e-12,1.842275936970595e-12,1.0729296490167562e-12,6.157253315187301e-13,3.4810406147183684e-13,1.948205914735514e-13,1.0669978357212586e-13,5.785437180680277e-14,3.067601028993295e-14,4.214758686840812e-09,3.086654110526333e-09,2.075116402721241e-09,1.2611978110941787e-09,7.667878095053595e-10,4.836702863405629e-10,3.3018083610749836e-10,2.354334126968119e-10,1.7429511935296426e-10,1.31048087185563e-10,9.854450011946854e-11,7.335952175406945e-11,5.3227272640816286e-11,3.7421859202455317e-11,2.55952210717028e-11,1.6847384683463317e-11,1.0703496085187356e-11,6.554237360024066e-12,3.8854836634824505e-12,2.223596051444478e-12,1.224158259539204e-12
0.0,2,2.0,0.0,30.0,0.0,0.0,0.0,0.0,-13.0,0.0,2.0,0.0,0.0,0.0,9.611948673606402e-11,6.801070572530199e-11,4.756721848957312e-11,3.260190433794008e-11,2.1707872702333814e-11,1.4076522606352352e-11,8.920238185472022e-12,5.511211915516732e-12,3.322805440605519e-12,1.9640560019846536e-12,1.145076741446221e-12,6.568612573305969e-13,3.706921315070253e-13,2.0693595383697803e-13,1.1299575194569679e-13,6.106243768135901e-14,3.22666332306752e-14,4.195839736933843e-09,3.070545415106957e-09,2.0635760671117455e-09,1.255094791754645e-09,7.646934021521847e-10,4.83378590562468e-10,3.298198893566788e-10,2.3415334022312096e-10,1.7222483939288756e-10,1.288608720485312e-10,9.688901160893721e-11,7.248226634758531e-11,5.3046243748351835e-11,3.76918439131237e-11,2.606304180104915e-11,1.7341971871327483e-11,1.1128235952683567e-11,6.8733628893329734e-12,4.1029586297251805e-12,2.3608640875657924e-12,1.3055144679110928e-12
0.0,3,3.0,0.0,30.0,0.0,0.0,0.0,0.0,-13.0,0.0,2.0,0.0,0.0,0.0,9.504184957132402e-11,6.744129989959443e-11,4.754856432310632e-11,3.2930324412918884e-11,2.216805935886328e-11,1.4525213563639868e-11,9.288953062163837e-12,5.782493263644682e-12,3.5071465831949863e-12,2.0812698054193574e-12,1.2160166441542366e-12,6.979487985079375e-13,3.9354746486562126e-13,2.193004637418469e-13,1.194617752431504e-13,6.437446431986154e-14,3.391095661603557e-14,4.176494980479636e-09,3.054222572013868e-09,2.052013200623244e-09,1.2491074970580063e-09,7.628960991855641e-10,4.837567977996672e-10,3.305739311548021e-10,2.3424584373194147e-10,1.7139369088337473e-10,1.2746164210635257e-10,9.551520338142534e-11,7.15397345839034e-11,5.2645096977363835e-11,3.772116360506816e-11,2.6333204650527474e-11,1.7697798604585078e-11,1.1466123711818757e-11,7.144293753938028e-12,4.295738877296305e-12,2.487195546614574e-12,1.382640916933272e-12
0.0,4,4.0,0.0,30.0,0.0,0.0,0.0,0.0,-13.0,0.0,2.0,0.0,0.0,0.0,9.430456963351969e-11,6.688139755120748e-11,4.73851477874151e-11,3.309102817062194e-11,2.249387233687052e-11,1.4883378745175073e-11,9.603528114088229e-12,6.025026223957453e-12,3.6778551984911635e-12,2.1928274141465375e-12,1.2850596220887552e-12,7.386159555835107e-13,4.164913062038377e-13,2.318332218930722e-13,1.2606558851600704e-13,6.777678245529476e-14,3.560447578535184e-14,4.156721586639315e-09,3.037689563716279e-09,2.040444662097839e-09,1.2432410373936559e-09,7.612771152485682e-10,4.844514129074492e-10,3.319106842031987e-10,2.351995015814488e-10,1.7150799756650212e-10,1.2681743038956964e-10,9.454868323888934e-11,7.069026952286159e-11,5.214772313361128e-11,3.758797533365343e-11,2.644929532221979e-11,1.7935948233194527e-11,1.1725597015484804e-11,7.369084866027692e-12,4.463530428596164e-12,2.6018189653863277e-12,1.454611083974605e-12
0.0,5,5.0,0.0,30.0,0.0,0.0,0.0,0.0,-13.0,0.0,2.0,0.0,0.0,0.0,9.394217978269152e-11,6.642808888018007e-11,4.715889271112038e-11,3.31336936032323e-11,2.2710609915860046e-11,1.516201140827331e-11,9.867602860513149e-12,6.2391237767045744e-12,3.83416709911165e-12,2.297938054371766e-12,1.3516362685922431e-12,7.785325012321698e-13,4.393540872702165e-13,2.4445447981445404e-13,1.3277378558450493e-13,7.125493371008274e-14,3.7342206411642914e-14,4.136522180292262e-09,3.0209519761421695e-09,2.0288800235326582e-09,1.237510876476498e-09,7.59820253894978e-10,4.853317979705027e-10,3.335509642074689e-10,2.3665810462284826e-10,1.7227991978646703e-10,1.2680725984555113e-10,9.401976498918198e-11,7.003198072300305e-11,5.1650883433890776e-11,3.7360543314339817e-11,2.6451749562373142e-11,1.8077466791207767e-11,1.1916283591308207e-11,7.551072006376455e-12,4.607033119710144e-12,2.7043783026784214e-12,1.5208094008282785e-12
0.0,6,6.0,0.0,30.0,0.0,0.0,0.0,0.0,-13.0,0.0,2.0,0.0,0.0,0.0,9.393385014290851e-11,6.613653280129152e-11,4.6933591995886074e-11,3.310233137843898e-11,2.2842306625059704e-11,1.5372458922201862e-11,1.0085683840892756e-11,6.425880084741706e-12,3.97583825866869e-12,2.39607952895883e-12,1.4152962678300743e-12,8.174145897956424e-13,4.619795783695712e-13,2.5708753608795045e-13,1.3955265202254998e-13,7.479401351972317e-14,3.9118772925933775e-14,4.115902143765962e-09,3.0040190536543014e-09,2.0173282183020997e-09,1.2319276655311709e-09,7.585327210778274e-10,4.863616520620641e-10,3.3536776177265943e-10,2.384050110130533e-10,1.7348029723884335e-10,1.27283848898658e-10,9.389686833135693e-11,6.961129928278548e-11,5.1223681021431536e-11,3.7096116933573766e-11,2.6377270793200722e-11,1.8142605566920217e-11,1.2048159746967805e-11,7.694306112625741e-12,4.727642798163795e-12,2.794815386568377e-12,1.5809529082598658e-12
0.0,7,7.0,0.0,30.0,0.0,0.0,0.0,0.0,-13.0,0.0,2.0,0.0,0.0,0.0,9.422942211072019e-11,6.602814351729289e-11,4.67547644494894e-11,3.303444931250493e-11,2.291131881717823e-11,1.5525978995268064e-11,1.0262711529754982e-11,6.586913567142093e-12,4.1030338012491565e-12,2.4869611608764105e-12,1.475701628922435e-12,8.550259292765699e-13,4.842275115466735e-13,2.6966026881755617e-13,1.4636892304516746e-13,7.837897261513163e-14,4.092850740628516e-14,4.0948676450094295e-09,2.986902195605094e-09,2.0058000254169117e-09,1.2264994096249825e-09,7.574226487121645e-10,4.875368661373567e-10,3.373120063928612e-10,2.403226634646696e-10,1.749493630421341e-10,1.2811089578727087e-10,9.411701922909807e-11,6.943566559520504e-11,5.090916882918647e-11,3.6839936289073924e-11,2.6258274225098977e-11,1.8150441041874822e-11,1.2131103881735266e-11,7.80317179128716e-12,4.8271753854791366e-12,2.873327846693811e-12,1.6350255239363822e-12
0.0,8,8.0,0.0,30.0,0.0,0.0,0.0,0.0,-13.0,0.0,2.0,0.0,0.0,0.0,9.476891518772587e-11,6.610033759056326e-11,4.6650987163553126e-11,3.296037548161941e-11,2.293793225992455e-11,1.563348633441938e-11,1.040379506092581e-11,6.7241727160620675e-12,4.216225170810379e-12,2.5704848393148546e-12,1.5326168829860199e-12,8.911765368390646e-13,5.059749088364714e-13,2.821062665791531e-13,1.5319043796072335e-13,8.19948819575846e-14,4.2765549138878183e-14,4.073425165361851e-09,2.9696136897269015e-09,1.994307845824827e-09,1.2212340831075491e-09,7.564958124001892e-10,4.888609139229351e-10,3.3936892394980116e-10,2.4235396109236847e-10,1.7658648691849717e-10,1.2917952927207391e-10,9.460850110240377e-11,6.948723788708056e-11,5.0728206168541e-11,3.662495993405103e-11,2.612228930649074e-11,1.8118571465462583e-11,1.2174672943374541e-11,7.882163161749473e-12,4.907647460957061e-12,2.9403580634412523e-12,1.6831804262538004e-12
0.0,9,9.0,0.0,30.0,0.0,0.0,0.0,0.0,-13.0,0.0,2.0,0.0,0.0,0.0,9.549480500603119e-11,6.633587585030882e-11,4.663652169669272e-11,3.29030219605627e-11,2.2939959533285088e-11,1.570535685458618e-11,1.0514056686636655e-11,6.839800930425651e-12,4.316101963957367e-12,2.6467071708078952e-12,1.5858975736446441e-12,9.257199592603861e-13,5.271164561944429e-13,2.9436556123453367e-13,1.599866672883172e-13,8.562716497317688e-14,4.462393904051062e-14,4.0515817374134464e-09,2.95216630076573e-09,1.982864988855954e-09,1.2161404787482666e-09,7.557567158755196e-10,4.9033733550065e-10,3.415362826323765e-10,2.444744354976465e-10,1.783336221654801e-10,1.3041114231976424e-10,9.53046810763382e-11,6.973494135844925e-11,5.068468836190034e-11,3.6472581510728266e-11,2.599150975400707e-11,1.806279611364585e-11,1.2187962800239038e-11,7.935764913025508e-12,4.971130614444381e-12,2.9965741592979406e-12,1.7256588251132144e-12
0.0,10,10.0,0.0,30.0,0.0,0.0,0.0,0.0,-13.0,0.0,2.0,0.0,0.0,0.0,9.635824291327017e-11,6.671050332059293e-11,4.6714651692160105e-11,3.28782056001474e-11,2.2932407669810815e-11,1.575123454628203e-11,1.0598531470505583e-11,6.93604768782089e-12,4.403501966103679e-12,2.715804973420276e-12,1.6354778339994768e-12,9.585495801272642e-13,5.475642394223187e-13,3.0638500914403573e-13,1.667291030373164e-13,8.926179684018235e-14,4.649770686656918e-14,4.029345303827889e-09,2.934573346294569e-09,1.9714852510536605e-09,1.211228117189185e-09,7.552096842314244e-10,4.919685056411681e-10,3.438151677332452e-10,2.4667524797353696e-10,1.801600026589215e-10,1.3175330134926677e-10,9.615053043490872e-11,7.014348096444318e-11,5.077103352719721e-11,3.639420508353072e-11,2.588266763298587e-11,1.799680838401092e-11,1.2179477076496945e-11,7.968384965625237e-12,5.019674295535825e-12,3.0428289710461204e-12,1.7627426347418512e-12
0.0,11,11.0,0.0,30.0,0.0,0.0,0.0,0.0,-13.0,0.0,2.0,0.0,0.0,0.0,9.732105941587732e-11,6.719840175122186e-11,4.6881105097412125e-11,3.2895458389809335e-11,2.2927300889364895e-11,1.5779841380485612e-11,1.0662085538114326e-11,7.015210009677162e-12,4.479359388252121e-12,2.7780456688942727e-12,1.6813577347083746e-12,9.895944177226285e-13,5.672470674373195e-13,3.1811839179941304e-13,1.7339152005355756e-13,9.288546803229197e-14,4.8380950883174266e-14,4.006724986013927e-09,2.9168489055235746e-09,1.960182808645937e-09,1.2065069568639917e-09,7.548593079587601e-10,4.937560595992237e-10,3.4620682751330284e-10,2.4895405513988516e-10,1.8205072476676472e-10,1.3317333488733563e-10,9.710420575950052e-11,7.067912081183788e-11,5.097306210799542e-11,3.6393328486074494e-11,2.5807289249696874e-11,1.7931971332502712e-11,1.2156985586592505e-11,7.984300169996723e-12,5.055277061330443e-12,3.0801027097544907e-12,1.794735841438288e-12
0.0,12,12.0,0.0,30.0,0.0,0.0,0.0,0.0,-13.0,0.0,2.0,0.0,0.0,0.0,9.835529221217204e-11,6.777556478581756e-11,4.7127096393295114e-11,3.2959153290063403e-11,2.2933698059496424e-11,1.5798814954719016e-11,1.0709336351046268e-11,7.079589870103505e-12,4.544668452777273e-12,2.8337632958310256e-12,1.7235910929205977e-12,1.018814692586094e-12,5.861095165839134e-13,3.2952630933954735e-13,1.7995012893862046e-13,9.648570981167634e-14,5.026790974677413e-14,3.983731247963507e-09,2.8990080002525267e-09,1.948972268033733e-09,1.2019871913093527e-09,7.547104810007691e-10,4.957014117197718e-10,3.487119988791997e-10,2.513106834732071e-10,1.8399928983173983e-10,1.3465212722379063e-10,9.813587667890878e-11,7.131273788507755e-11,5.127381172652325e-11,3.646775314116418e-11,2.577227856363878e-11,1.7877227025788857e-11,1.2127386401821644e-11,7.987596355893007e-12,5.079882507504342e-12,3.109442335709402e-12,1.8219619336971583e-12
0.0,13,13.0,0.0,30.0,0.0,0.0,0.0,0.0,-13.0,0.0,2.0,0.0,0.0,0.0,9.944155005638392e-11,6.842151301270765e-11,4.7441742566003566e-11,3.3069748950611526e-11,2.2957894261148254e-11,1.581459939588002e-11,1.0744573514400471e-11,7.13145770159217e-12,4.6004580583114535e-12,2.8833400162536407e-12,1.7622743589319793e-12,1.046197388049508e-12,6.041107709755603e-13,3.4057592860578275e-13,1.8638364567819546e-13,1.0005098194737149e-13,5.2153025759357673e-14,3.960375995964226e-09,2.8810667138445364e-09,1.937868756282366e-09,1.1976791680242888e-09,7.547683023867879e-10,4.978060340363736e-10,3.5133102210176364e-10,2.537453784317496e-10,1.860032173206579e-10,1.3617915978430236e-10,9.922539557428031e-11,7.202091828158544e-11,5.165618455699463e-11,3.661162249998029e-11,2.578071205204084e-11,1.7839154845769574e-11,1.2096595464150011e-11,7.982100266702745e-12,5.095380724136528e-12,3.131908800860361e-12,1.844766760105185e-12
0.0,14,14.0,0.0,30.0,0.0,0.0,0.0,0.0,-13.0,0.0,2.0,0.0,0.0,0.0,1.0056705196247218e-10,6.911984813137112e-11,4.7813792401712935e-11,3.3224989292627085e-11,2.300376188608298e-11,1.5832403990950276e-11,1.0771686425947134e-11,7.173017129118753e-12,4.647773234063876e-12,2.927192326493756e-12,1.7975370106559033e-12,1.071751997304201e-12,6.212233107461868e-13,3.512406312492334e-13,1.9267330100611e-13,1.0357072591815284e-13,5.4030998295917334e-14,3.936672651090936e-09,2.8630422626694833e-09,1.9268879987264987e-09,1.1935933846679386e-09,7.550379791053284e-10,5.00071540296628e-10,3.5406408036518235e-10,2.5625826498254093e-10,1.8806170669337627e-10,1.3774898941531588e-10,1.0035978505213258e-10,7.278583963674846e-11,5.210455199172755e-11,3.681711272306332e-11,2.5832717040214792e-11,1.7822161468863e-11,1.206948288625135e-11,7.971310168413197e-12,5.103604000354389e-12,3.148537870387946e-12,1.863520725288438e-12
0.0,15,15.0,0.0,30.0,0.0,0.0,0.0,0.0,-13.0,0.0,2.0,0.0,0.0,0.0,1.0172379833458002e-10,6.985809588010651e-11,4.823273059978763e-11,3.342094911749237e-11,2.3073173107640206e-11,1.5856230492043003e-11,1.0794106807639236e-11,7.206370015710615e-12,4.6876599927386696e-12,2.9657608300274957e-12,1.829533639013457e-12,1.0955066164135626e-12,6.374314994220723e-13,3.6149959365639393e-13,1.9880280688222125e-13,1.0703538899771656e-13,5.5896826362441194e-14,3.912636214999566e-09,2.844953041647521e-09,1.916046371423366e-09,1.18974051721099e-09,7.555247708956914e-10,5.024996768237874e-10,3.569113698496469e-10,2.588492924365035e-10,1.9017452311103096e-10,1.393589609831154e-10,1.015310350406452e-10,7.35945268585393e-11,5.260554646563836e-11,3.707570988217421e-11,2.5926325876696115e-11,1.7828765824953447e-11,1.2049864407713533e-11,7.958334726336313e-12,5.106312965488154e-12,3.1603151541821747e-12,1.8786178905282536e-12
0.0,16,16.0,0.0,30.0,0.0,0.0,0.0,0.0,-13.0,0.0,2.0,0.0,0.0,0.0,1.029070691358057e-10,7.062718302186144e-11,4.8689378636247764e-11,3.3652872004635583e-11,2.3166447859180847e-11,1.5888959308450264e-11,1.0814772201299497e-11,7.23348327205021e-12,4.721151447439133e-12,2.9995023821079416e-12,1.858437672572847e-12,1.1175044944733664e-12,6.527301280065789e-13,3.71337321611664e-13,2.0475829131606323e-13,1.1043642544817959e-13,5.77458398520395e-14,3.888283337028815e-09,2.8268186590621296e-09,1.905360932712485e-09,1.1861314528091173e-09,7.562339735372948e-10,5.050922893274815e-10,3.5987318358436997e-10,2.6151832343874584e-10,1.9234154476795765e-10,1.41007834753799e-10,1.027343853191126e-10,7.44378822851102e-11,5.3148288331644456e-11,3.737908716190594e-11,2.6058232420506197e-11,1.7859936209908017e-11,1.204054593527459e-11,7.94584827826826e-12,5.105174558328075e-12,3.1681628395035014e-12,1.8904716619313326e-12
0.0,17,17.0,0.0,30.0,0.0,0.0,0.0,0.0,-13.0,0.0,2.0,0.0,0.0,0.0,1.0411428949710775e-10,7.142078281502302e-11,4.917612954982059e-11,3.391579025451778e-11,2.3282782846312886e-11,1.5932478673721202e-11,1.0836113078937326e-11,7.256159778624442e-12,4.749254244875826e-12,3.0288835909978927e-12,1.8844365180804246e-12,1.1378010948136316e-12,6.671229762793438e-13,3.8074315816101714e-13,2.105282080150489e-13,1.1376628072484977e-13,5.957371986464075e-14,3.863632383924119e-09,2.8086599681612794e-09,1.8948494413715903e-09,1.1827773157874235e-09,7.571709253032627e-10,5.078512970298192e-10,3.6294993949778186e-10,2.642652325953383e-10,1.9456263078680976e-10,1.4269502675557411e-10,1.0396709360351287e-10,7.53097290185811e-11,5.372426480076395e-11,3.7719640948820726e-11,2.622441195003203e-11,1.7915440209118777e-11,1.2043411603272092e-11,7.93606720715894e-12,5.10173584509436e-12,3.172934443224376e-12,1.899507752064293e-12
0.0,18,18.0,0.0,30.0,0.0,0.0,0.0,0.0,-13.0,0.0,2.0,0.0,0.0,0.0,1.0534422553221467e-10,7.223466975279934e-11,4.968694197351079e-11,3.4204945233755173e-11,2.342063174621349e-11,1.5987839082110873e-11,1.0860062836268089e-11,7.276015612652127e-12,4.772935254339428e-12,3.054374950140834e-12,1.9077278036452617e-12,1.1564616652457092e-12,6.80621447030952e-13,3.897107812778022e-13,2.1610322461668373e-13,1.1701836356710783e-13,6.137650918203698e-14,3.8387035106152025e-09,2.790499097736726e-09,1.8845303669696053e-09,1.1796894839255827e-09,7.583410228406246e-10,5.107786819440102e-10,3.6614218284342367e-10,2.6708997596374813e-10,1.968376225650863e-10,1.444202271537093e-10,1.0522761030100336e-10,7.620598617470242e-11,5.432702747046862e-11,3.809076282140733e-11,2.6420593788594948e-11,1.799417678136187e-11,1.2059542018339142e-11,7.93074843302996e-12,5.097398274792424e-12,3.175414079632958e-12,1.9061554850218265e-12
0.0,19,19.0,0.0,30.0,0.0,0.0,0.0,0.0,-13.0,0.0,2.0,0.0,0.0,0.0,1.065964439031879e-10,7.306615549143605e-11,5.021719436501244e-11,3.451604157696147e-11,2.357802070633194e-11,1.6055416634256746e-11,1.088808739471249e-11,7.294465037784577e-12,4.7931089752293756e-12,3.07644518529251e-12,1.9285163962981324e-12,1.1735592702387782e-12,6.932433170334204e-13,3.9823770685715255e-13,2.2147609235642064e-13,1.2018700958957487e-13,6.315061448510429e-14,3.813518729618958e-09,2.772359481031506e-09,1.8744228952331102e-09,1.1768795958165207e-09,7.597497376975832e-10,5.138764906129548e-10,3.6945058156583206e-10,2.6999263015024055e-10,1.991663862488313e-10,1.461832337461465e-10,1.0651505941979907e-10,7.712401676134782e-11,5.4951823134915323e-11,3.8486924294103294e-11,2.6642595337887318e-11,1.80944701621627e-11,1.2089348736536507e-11,7.931208062051162e-12,5.093396239781673e-12,3.176317587798046e-12,1.910838568808543e-12
0.0,20,20.0,0.0,30.0,0.0,0.0,0.0,0.0,-13.0,0.0,2.0,0.0,0.0,0.0,1.0787096605241798e-10,7.391363259758798e-11,5.076347320171046e-11,3.484537361799902e-11,2.3752794520790567e-11,1.613507207051366e-11,1.0921229670471859e-11,7.312713790993853e-12,4.810626326517276e-12,3.0955556672227147e-12,1.9470119046420824e-12,1.189173208723023e-12,7.050116324570675e-13,4.063248110806323e-13,2.2664150029147723e-13,1.2326743884061882e-13,6.48928021122152e-14,3.788101976824079e-09,2.7542658813104775e-09,1.8645469292011597e-09,1.1743595508872305e-09,7.614026290587408e-10,5.171468427824483e-10,3.728759228771648e-10,2.729734102330139e-10,2.0154885673637443e-10,1.4798389715022224e-10,1.0782893248598993e-10,7.806214440329146e-11,5.5595228590845184e-11,3.890364087969015e-11,2.688653728572791e-11,1.821431484370401e-11,1.2132712545422817e-11,7.938356308922096e-12,5.090782500235402e-12,3.1762938773635444e-12,1.913966319508881e-12
0.0,21,21.0,0.0,30.0,0.0,0.0,0.0,0.0,-13.0,0.0,2.0,0.0,0.0,0.0,1.0916805759317762e-10,7.477622619065997e-11,5.132334431329156e-11,3.51898607470481e-11,2.3942796791119682e-11,1.6226296079226796e-11,1.096016368697072e-11,7.331760345779862e-12,4.8262654479354634e-12,3.112154933251854e-12,1.963426446124883e-12,1.2033877286822208e-12,7.159537596413006e-13,4.139758838298843e-13,2.315959179592989e-13,1.2625570893930322e-13,6.660018911726892e-14,3.762479172069897e-09,2.7362444124957988e-09,1.8549230859393112e-09,1.172141503450284e-09,7.633053510784268e-10,5.205919421121476e-10,3.764191130778694e-10,2.7603267566510016e-10,2.039850700660645e-10,1.4982211699157204e-10,1.0916892095997157e-10,7.901931399833625e-11,5.6254827116332944e-11,3.933736767625126e-11,2.714896426616418e-11,1.8351568587913257e-11,1.2189115780035759e-11,7.952743924430742e-12,5.090421633888192e-12,3.1759257436394453e-12,1.915926069100546e-12
0.0,22,22.0,0.0,30.0,0.0,0.0,0.0,0.0,-13.0,0.0,2.0,0.0,0.0,0.0,1.1048810672889041e-10,7.565354022162811e-11,5.189513684959662e-11,3.5547023145973115e-11,2.4145992161373243e-11,1.632833516988187e-11,1.1005253366364188e-11,7.352404178887565e-12,4.8407249707489125e-12,3.126673474023701e-12,1.977972536095796e-12,1.2162909513178189e-12,7.261005873830502e-13,4.211972216661652e-13,2.3633743106346876e-13,1.2914866487897888e-13,6.827023116779502e-14,3.736678273659449e-09,2.718322553795797e-09,1.845572688350142e-09,1.1702378517656842e-09,7.654636547549156e-10,5.242140856921862e-10,3.800811798120215e-10,2.791709303704841e-10,2.0647518268131632e-10,1.5169785634125084e-10,1.1053483292805816e-10,7.999486475608769e-11,5.692894185337445e-11,3.978536411881234e-11,2.742689526263921e-11,1.8504095873130447e-11,1.2257761899207369e-11,7.97461530169653e-12,5.092991477962632e-12,3.1757300500515783e-12,1.917077191494966e-12
0.0,23,23.0,0.0,30.0,0.0,0.0,0.0,0.0,-13.0,0.0,2.0,0.0,0.0,0.0,1.1183155846525354e-10,7.654548022291005e-11,5.247775503263025e-11,3.591492274307387e-11,2.4360540953958813e-11,1.644029555214891e-11,1.1056611762262325e-11,7.375259662156346e-12,4.854619986792448e-12,3.1395189856879867e-12,1.9908610273710575e-12,1.227973929206622e-12,7.354858658798322e-13,4.279972653183364e-13,2.40865575131162e-13,1.319438863418072e-13,6.990070851246757e-14,3.710729326512469e-09,2.700529157828379e-09,1.836517751773364e-09,1.168661222824544e-09,7.67883385016794e-10,5.280156707327104e-10,3.838632751742376e-10,2.8238882041996793e-10,2.0901948016094497e-10,1.536111585139308e-10,1.1192655739184605e-10,8.098838535367503e-11,5.761642756168493e-11,4.024555283199875e-11,2.771782540610924e-11,1.866986750863118e-11,1.2337678363436725e-11,8.003963933860293e-12,5.098991664031971e-12,3.176157562109661e-12,1.9177469000123372e-12
0.0,24,24.0,0.0,30.0,0.0,0.0,0.0,0.0,-13.0,0.0,2.0,0.0,0.0,0.0,1.1319888202508937e-10,7.745213427322134e-11,5.307052322641944e-11,3.629208765388847e-11,2.4584836934866042e-11,1.656122487419646e-11,1.1114157447239314e-11,7.40077402678416e-12,4.8684807161155e-12,3.151072279559427e-12,2.0022990860545353e-12,1.2385297801052663e-12,7.441456607125724e-13,4.343862830971675e-13,2.4518117196371107e-13,1.3463963331383833e-13,7.148971091552486e-14,3.6846645039980598e-09,2.682894452168429e-09,1.8277809653339913e-09,1.1674244534418492e-09,7.705704739593025e-10,5.319991979635732e-10,3.877666783027563e-10,2.856871307720886e-10,2.116183787038238e-10,1.5556215976184908e-10,1.133440529249032e-10,8.199962578841399e-11,5.831651482237498e-11,4.07163874960876e-11,2.8019696949307858e-11,1.8847023767120697e-11,1.2427801201946558e-11,8.040586703202268e-12,5.108757825102388e-12,3.1775928809021377e-12,1.918227746601492e-12
0.0,25,25.0,0.0,30.0,0.0,0.0,0.0,0.0,-13.0,0.0,2.0,0.0,0.0,0.0,1.1459055688621861e-10,7.83736961933093e-11,5.367306398835029e-11,3.667743260457527e-11,2.4817518168348806e-11,1.6690173334172116e-11,1.1177665761904519e-11,7.429247859119887e-12,4.882753681241775e-12,3.1616840001632638e-12,2.012488228684783e-12,1.248052857027195e-12,7.521178975130358e-13,4.403760985759409e-13,2.4928617314013726e-13,1.3723479082891403e-13,7.303562215498268e-14,3.6585181436329312e-09,2.665450034500647e-09,1.8193856682286225e-09,1.1665405682100906e-09,7.735309312041481e-10,5.361672719996459e-10,3.917927966356298e-10,2.890667815442825e-10,2.1427242211091757e-10,1.575510962066515e-10,1.1478734694999799e-10,8.302844632888667e-11,5.902869764734421e-11,4.1196737345821894e-11,2.8330853062199512e-11,1.9033908747005158e-11,1.2527041427113479e-11,8.084134399522487e-12,5.1224798326992e-12,3.1803549257375235e-12,1.9187766077095152e-12
0.0,26,26.0,0.0,30.0,0.0,0.0,0.0,0.0,-13.0,0.0,2.0,0.0,0.0,0.0,1.1600706849863873e-10,7.931041810473318e-11,5.428520561166832e-11,3.707018318601424e-11,2.5057459518461132e-11,1.6826236674973406e-11,1.1246813546392453e-11,7.46085673011733e-12,4.8978050561233055e-12,3.1716722449914602e-12,2.021622467948689e-12,1.2566379330750722e-12,7.594419734715521e-13,4.4597985850557487e-13,2.5318351395309097e-13,1.3972881372472705e-13,7.453710444013008e-14,3.6323267768604928e-09,2.6482288616763964e-09,1.8113558212991364e-09,1.166022754870438e-09,7.76770832291915e-10,5.405225992926501e-10,3.9594316553876756e-10,2.9252882386056807e-10,2.1698227620054886e-10,1.5957830550504565e-10,1.1625653814230875e-10,8.407478941168789e-11,5.975265492146407e-11,4.168579101217995e-11,2.8649984270636484e-11,1.9229083218299777e-11,1.2634334658353736e-11,8.134156756824887e-12,5.1402224296280184e-12,3.1846983164611004e-12,1.9196148716724706e-12
0.0,27,27.0,0.0,30.0,0.0,0.0,0.0,0.0,-13.0,0.0,2.0,0.0,0.0,0.0,1.1744890848908574e-10,8.026258259927251e-11,5.490691433611278e-11,3.746980829422029e-11,2.5303753709832497e-11,1.6968584037532484e-11,1.1321216742902799e-11,7.495672782163637e-12,4.91392577336238e-12,3.1813211181181464e-12,2.0298866219263645e-12,1.2643793944680598e-12,7.661584146381126e-13,4.5121183537537953e-13,2.568769801082314e-13,1.421216723166792e-13,7.5993082930744e-14,3.6061291530945447e-09,2.631265233003589e-09,1.8037159743310483e-09,1.165884337671098e-09,7.802963059189925e-10,5.450679844215912e-10,4.0021944640748405e-10,2.960744352345774e-10,2.1974872190103308e-10,1.6164422449042376e-10,1.1775179833396158e-10,8.513866483044727e-11,6.048819696961929e-11,4.218297939228937e-11,2.897607413719475e-11,1.943132228551176e-11,1.2748676029219537e-11,8.190141078996004e-12,5.161946786847173e-12,3.190815859014685e-12,1.9209295322118886e-12
0.0,28,28.0,0.0,30.0,0.0,0.0,0.0,0.0,-13.0,0.0,2.0,0.0,0.0,0.0,1.1891657653456948e-10,8.123048747797244e-11,5.553824619352741e-11,3.787596265476789e-11,2.555568623100665e-11,1.7116473724020916e-11,1.1400460853143881e-11,7.533685353216912e-12,4.931337938874265e-12,3.190880193800454e-12,2.0374548387432795e-12,1.2713704464090374e-12,7.723085620959261e-13,4.560872582708328e-13,2.603710884439151e-13,1.444137998592705e-13,7.740273043240872e-14,3.5799662581468796e-09,2.614594768078322e-09,1.796491229547483e-09,1.1661387492877591e-09,7.841135207300509e-10,5.498063254671707e-10,4.046234235786796e-10,2.997049145022202e-10,2.2257264777893207e-10,1.637493841060312e-10,1.1927337253276196e-10,8.622014199097457e-11,6.123523000851326e-11,4.268791558494144e-11,2.930834824988462e-11,1.9639603083525044e-11,1.2869142773195137e-11,8.251544157151906e-12,5.187531764256145e-12,3.1988421829798277e-12,1.9228749212302074e-12
0.0,29,29.0,0.0,30.0,0.0,0.0,0.0,0.0,-13.0,0.0,2.0,0.0,0.0,0.0,1.20410582511844e-10,8.22144381890321e-11,5.617931386482289e-11,3.8288439717446117e-11,2.581270790100492e-11,1.7269259739512073e-11,1.1484124658853153e-11,7.574819976072982e-12,4.9502021092444955e-12,3.2005648204145564e-12,2.044489378321106e-12,1.277702343765461e-12,7.779342747258891e-13,4.6062216561215e-13,2.636709819423827e-13,1.466060425687348e-13,7.87654522861254e-14,3.5538813270667332e-09,2.5982543794101316e-09,1.7897072017601756e-09,1.1667995018696031e-09,7.882286722820528e-10,5.547406091379246e-10,4.0915700049509157e-10,3.0342167640707996e-10,2.2545504245806875e-10,1.658944027480627e-10,1.2082157685448022e-10,8.731934545793581e-11,6.199373283745198e-11,4.3200349217787134e-11,2.9646228711680126e-11,1.9853086588730727e-11,1.299490692122574e-11,8.3178176541749e-12,5.216793942424838e-12,3.2088584438300287e-12,1.9255748619468664e-12
0.0,30,30.0,0.0,30.0,0.0,0.0,0.0,0.0,-13.0,0.0,2.0,0.0,0.0,0.0,1.2193144833648572e-10,8.321474472968688e-11,5.683026461738499e-11,3.8707134241996484e-11,2.6074407694603346e-11,1.7426391645938696e-11,1.1571797885397709e-11,7.618955327914677e-12,4.970625022572345e-12,3.21055716175114e-12,2.051139678922882e-12,1.2834636623329014e-12,7.830776408061505e-13,4.648332738258078e-13,2.667823384822793e-13,1.486996128345316e-13,8.008087145306167e-14,3.5279198513082522e-09,2.58228224001257e-09,1.7833899755984302e-09,1.1678801577438554e-09,7.926479707063324e-10,5.598739062075912e-10,4.1382219557515236e-10,3.072262460121544e-10,2.2839698721017063e-10,1.6807997887025677e-10,1.223967947174401e-10,8.84364516773154e-11,6.276374158769606e-11,4.3720132369138406e-11,2.998929502107033e-11,2.0071096586943572e-11,1.3125240392569517e-11,8.388427455719808e-12,5.249505777176805e-12,3.220897900098152e-12,1.9291250754726976e-12
0.0,31,31.0,0.0,30.0,0.0,0.0,0.0,0.0,-13.0,0.0,2.0,0.0,0.0,0.0,1.234797093280567e-10,8.423172095238524e-11,5.7491266159424304e-11,3.913201339421116e-11,2.634048745182919e-11,1.758740985736981e-11,1.1663093634443868e-11,7.665937909098139e-12,4.992667427989985e-12,3.2210078519495134e-12,2.0575417210036303e-12,1.2887396273337855e-12,7.877806946882089e-13,4.687378568370512e-13,2.6971129216446734e-13,1.5069604606885836e-13,8.134881380074776e-14,3.5021295800145612e-09,2.566717746035713e-09,1.7775660601763075e-09,1.1693943002643888e-09,7.973776295097076e-10,5.652093677073052e-10,4.1862113819715816e-10,3.1112025314679113e-10,2.3139964890229223e-10,1.703068834533144e-10,1.2399947183659292e-10,8.957168582094502e-11,6.35453395746286e-11,4.424719449740587e-11,3.033725138798481e-11,2.029309794827886e-11,1.3259514498343274e-11,8.46286768259321e-12,5.2854114867142025e-12,3.23495211185877e-12,1.9335957207711487e-12
0.0,32,32.0,0.0,30.0,0.0,0.0,0.0,0.0,-13.0,0.0,2.0,0.0,0.0,0.0,1.2505591513487984e-10,8.526568502456457e-11,5.816249797282068e-11,3.956309498294869e-11,2.6610739367556958e-11,1.775193808832435e-11,1.175765646072263e-11,7.715594394670816e-12,5.016351723175679e-12,3.2320381309913166e-12,2.06381768639963e-12,1.2936115144945878e-12,7.920851380227607e-13,4.723536323118621e-13,2.7246436563723457e-13,1.5259716145254555e-13,8.256929361412895e-14,3.476560515073967e-09,2.5516014744184794e-09,1.7722623414893998e-09,1.1713555052323094e-09,8.024238558736472e-10,5.70750222204457e-10,4.2355606513207115e-10,3.151054270986519e-10,2.344642734323163e-10,1.7257595274241022e-10,1.2563011055565246e-10,9.07253183377876e-11,6.433865025462364e-11,4.47815241600793e-11,3.068990002824408e-11,2.051867563622248e-11,1.3397195563654015e-11,8.540670152328947e-12,5.3242404978569336e-12,3.250977480193897e-12,1.9390339851374606e-12
0.0,33,33.0,0.0,30.0,0.0,0.0,0.0,0.0,-13.0,0.0,2.0,0.0,0.0,0.0,1.266606303245583e-10,8.63169603260212e-11,5.8844146312587e-11,4.0000431476080397e-11,2.688502663594086e-11,1.7919674274228106e-11,1.1855166947395418e-11,7.767741726884452e-12,5.041669175817338e-12,3.243742327781923e-12,2.07007589834376e-12,1.2981561362587076e-12,7.960320673869949e-13,4.756986516860028e-13,2.750484116388613e-13,1.5440502665040852e-13,8.374249937455328e-14,3.451264899475736e-09,2.536975135447539e-09,1.7675060327671312e-09,1.1737773132563157e-09,8.077928427335557e-10,5.764997743986866e-10,4.2862931767428877e-10,3.1918359173620743e-10,2.375921797494909e-10,1.748880815067327e-10,1.2728926397345019e-10,9.18976611499201e-11,6.514383199859839e-11,4.532315572072051e-11,3.104711972415099e-11,2.0747515319199644e-11,1.3537838051645784e-11,8.621410093713603e-12,5.365718448634024e-12,3.2689018518135646e-12,1.945466668993206e-12
0.0,34,34.0,0.0,30.0,0.0,0.0,0.0,0.0,-13.0,0.0,2.0,0.0,0.0,0.0,1.2829443475618072e-10,8.738587640646274e-11,5.953640157086206e-11,4.0444098552083617e-11,2.7163267273445882e-11,1.8090380936364798e-11,1.1955343568212433e-11,7.822195104858183e-12,5.068586568857921e-12,3.256190565217336e-12,2.0764110178446104e-12,1.3024454220654865e-12,7.996617117110835e-13,4.787911920889075e-13,2.7747056193606366e-13,1.5612192640330814e-13,8.486877986562785e-14,3.4262971983783984e-09,2.5228815200342945e-09,1.763324622953002e-09,1.1766732033651968e-09,8.13490762850375e-10,5.824614051776125e-10,4.338433396367392e-10,3.2335666120775614e-10,2.407847545300173e-10,1.7724421696842763e-10,1.289775302120211e-10,9.308906360239792e-11,6.596107389631978e-11,4.587215964193769e-11,3.1408848848295385e-11,2.0979386040313974e-11,1.3681076268504674e-11,8.704708880329747e-12,5.409575869456863e-12,3.2886309408343986e-12,1.9529027262226023e-12
0.0,35,35.0,0.0,30.0,0.0,0.0,0.0,0.0,-13.0,0.0,2.0,0.0,0.0,0.0,1.2995792383272273e-10,8.847276983009443e-11,6.02394570995376e-11,4.08941871154448e-11,2.7445420925219046e-11,1.8263875672159487e-11,1.2057942531857378e-11,7.878774083429554e-12,5.0970521669925145e-12,3.2694315740938065e-12,2.0829044648412476e-12,1.3065460976793837e-12,8.030131837008811e-13,4.816496492274875e-13,2.7973818192994195e-13,1.5775033476738186e-13,8.594863067432097e-14,3.4017140722073744e-09,2.5093644414672476e-09,1.759745823449416e-09,1.180056568139599e-09,8.195237650266051e-10,5.886385732015561e-10,4.3920067630241283e-10,3.2762663631750504e-10,2.4404344755332205e-10,1.7964535347442928e-10,1.3069554706795368e-10,9.429990833797721e-11,6.679059214434961e-11,4.6428635312047335e-11,3.17750720601525e-11,2.121412511087164e-11,1.3826615458259273e-11,8.790234477651576e-12,5.455554748726803e-12,3.310054362565584e-12,1.9613357316989934e-12
0.0,36,36.0,0.0,30.0,0.0,0.0,0.0,0.0,-13.0,0.0,2.0,0.0,0.0,0.0,1.316517087065006e-10,8.957798484990085e-11,6.09535088820393e-11,4.135079789042272e-11,2.773147833813744e-11,1.844002221675144e-11,1.216275619933914e-11,7.937307022824926e-12,5.127000951294941e-12,3.2834955182949876e-12,2.0896250281645973e-12,1.3105194646886735e-12,8.061242496373204e-13,4.84292431093327e-13,2.8185882938884166e-13,1.5929289066876638e-13,8.698268115782235e-14,3.377574341023903e-09,2.49646867136646e-09,1.7567975132482606e-09,1.1839406905975506e-09,8.258979725688834e-10,5.950348180276612e-10,4.447039743628841e-10,3.3199560163464324e-10,2.4736976780137265e-10,1.8209252793424506e-10,1.3244398719814666e-10,9.55306072688839e-11,6.763262678765193e-11,4.699270564074766e-11,3.214580995572088e-11,2.145162520098957e-11,1.3974222867304742e-11,8.877700208529051e-12,5.503413237342632e-12,3.33305112443817e-12,1.970746253421445e-12
0.0,37,37.0,0.0,30.0,0.0,0.0,0.0,0.0,-13.0,0.0,2.0,0.0,0.0,0.0,1.3337641648590924e-10,9.070187391433724e-11,6.167875565913998e-11,4.181403788643282e-11,2.8021453131223696e-11,1.861872233992828e-11,1.2269610559606934e-11,7.99763413989878e-12,5.158359109221182e-12,3.298396750740373e-12,2.0966296264170794e-12,1.3144212777853551e-12,8.090311216396812e-13,4.867378529765067e-13,2.838402160140699e-13,1.607523763739897e-13,8.797168194118001e-14,3.353938939353514e-09,2.484239869559302e-09,1.7545076825719942e-09,1.1883387230482097e-09,8.326194840602829e-10,6.016537647386174e-10,4.503559828261239e-10,3.3646572335172e-10,2.507652802818462e-10,1.8458681601284925e-10,1.3422355391979215e-10,9.678159778942084e-11,6.848743871567608e-11,4.7564512884645963e-11,3.2521111048248853e-11,2.1691823482702245e-11,1.4123719172266457e-11,8.966862345764511e-12,5.5529287672463954e-12,3.3574944707107804e-12,1.981104109826825e-12
0.0,38,38.0,0.0,30.0,0.0,0.0,0.0,0.0,-13.0,0.0,2.0,0.0,0.0,0.0,1.351326904717538e-10,9.18447980357115e-11,6.241539926375025e-11,4.228401818739838e-11,2.8315375487269647e-11,1.879990870721243e-11,1.2378362148796043e-11,8.05960940574533e-12,5.191047798606256e-12,3.314136436788783e-12,2.103964182034053e-12,1.3183017144661933e-12,8.117682758514856e-13,4.890040347070728e-13,2.856901708191298e-13,1.6213169844277482e-13,8.891649300067277e-14,3.3308708606285247e-09,2.4727245076114107e-09,1.7529043751726297e-09,1.1932636681201724e-09,8.396943764752684e-10,6.084991300074832e-10,4.561595548407554e-10,3.410392478767276e-10,2.5423160355702853e-10,1.8712932904539066e-10,1.3603497765151203e-10,9.805333933408975e-11,6.93553068858512e-11,4.814421533325704e-11,3.290104556307887e-11,2.1934692617429416e-11,1.427497051867613e-11,9.0575169461322e-12,5.603899858877002e-12,3.383256025691814e-12,1.99237049486434e-12
0.0,39,39.0,0.0,30.0,0.0,0.0,0.0,0.0,-13.0,0.0,2.0,0.0,0.0,0.0,1.3692119043698903e-10,9.300712705727022e-11,6.316364502126615e-11,4.276085265191265e-11,2.8613287410995657e-11,1.8983538737696326e-11,1.2488894708894425e-11,8.12310151819946e-12,5.2249862272634515e-12,3.330704998197399e-12,2.111664572573072e-12,1.322205429443568e-12,8.143682991707492e-13,4.911088013152798e-13,2.8741660458083304e-13,1.6343387072450125e-13,8.981807237313889e-14,3.308435090385362e-09,2.461969785782141e-09,1.7520156294735524e-09,1.1987283621718524e-09,8.471287106486263e-10,6.155747295065438e-10,4.6211765035981863e-10,3.4571850111911184e-10,2.577704079448339e-10,1.8972121162603826e-10,1.3787901298540963e-10,9.934631034645993e-11,7.023652578177126e-11,4.873198460926529e-11,3.32857006297277e-11,2.218023335389532e-11,1.442788130740374e-11,9.149496252938395e-12,5.656146877480915e-12,3.4102092219405637e-12,2.004499955286446e-12
0.0,40,40.0,0.0,30.0,0.0,0.0,0.0,0.0,-13.0,0.0,2.0,0.0,0.0,0.0,1.3874259295411075e-10,9.418923985403484e-11,6.392370213842649e-11,4.3244657220408165e-11,2.891523923619963e-11,1.9169589426483637e-11,1.2601115804261494e-11,8.18799415504267e-12,5.2600941053791515e-12,3.3480843456798046e-12,2.119757626255031e-12,1.3261716843481696e-12,8.168617662072325e-13,4.930695884221614e-13,2.890274748820089e-13,1.6466199897848003e-13,9.067746551546661e-14,3.2866985273623254e-09,2.4520235432280083e-09,1.751869418790423e-09,1.2047454612993897e-09,8.549285390930426e-10,6.228844865521506e-10,4.682333395528848e-10,3.50505888413926e-10,2.6138341434666416e-10,1.9236363981462392e-10,1.3975643635524745e-10,1.0066100568959623e-10,7.113140312473922e-11,4.932800342305323e-11,3.367517654324889e-11,2.2428468501699357e-11,1.4582387785377222e-11,9.242664917028904e-12,5.709511974011579e-12,3.438232033652886e-12,2.0174422068314637e-12
0.0,41,41.0,0.0,30.0,0.0,0.0,0.0,0.0,-13.0,0.0,2.0,0.0,0.0,0.0,1.4059759176872693e-10,9.53915244963646e-11,6.469578404517691e-11,4.373554961159687e-11,2.922128710829192e-11,1.935805305925798e-11,1.2714953549900563e-11,8.254185687720203e-12,5.296293537217451e-12,3.3662498811884246e-12,2.1282621325540336e-12,1.3302345422169188e-12,8.19277147196221e-13,4.949033536701435e-13,2.9053075149846343e-13,1.6581926673564424e-13,9.149579532212823e-14,3.265729891667782e-09,2.44293416135072e-09,1.7524935909299192e-09,1.2113274301705865e-09,8.630999161484584e-10,6.304324418678039e-10,4.745098068684369e-10,3.5540389501886123e-10,2.650723936490601e-10,1.950578199002968e-10,1.4166804425104225e-10,1.0199793450138339e-10,7.20402578560017e-11,4.9932463679581654e-11,3.40695838420394e-11,2.2679438059987517e-11,1.4738452441222954e-11,9.336916220347703e-12,5.7638584171153596e-12,3.467209060746168e-12,2.0311437787411678e-12
0.0,42,42.0,0.0,30.0,0.0,0.0,0.0,0.0,-13.0,0.0,2.0,0.0,0.0,0.0,1.4248689821488087e-10,9.661437839803291e-11,6.548010867861403e-11,4.423364925629447e-11,2.953149121357451e-11,1.95489337243953e-11,1.2830353553230633e-11,8.321588508393716e-12,5.333510422889937e-12,3.3851722620810313e-12,2.137189842848868e-12,1.334423115727828e-12,8.216407466943706e-13,4.966264954051781e-13,2.9193438207865943e-13,1.6690892206840396e-13,9.227425279316638e-14,3.2455996192334323e-09,2.434750460276597e-09,1.7539158075361493e-09,1.218486533928218e-09,8.716489104366701e-10,6.382227643424109e-10,4.809503556474094e-10,3.6041508711525815e-10,2.6883916664189497e-10,1.978049876600678e-10,1.4361465192255088e-10,1.0335761847787219e-10,7.296341839959247e-11,5.054556487327448e-11,3.446904101036739e-11,2.2933195303118172e-11,1.4896059169778512e-11,9.432168431797483e-12,5.819069491703417e-12,3.4970330264031276e-12,2.0455494793123082e-12
0.0,43,43.0,0.0,30.0,0.0,0.0,0.0,0.0,-13.0,0.0,2.0,0.0,0.0,0.0,1.4441124166662181e-10,9.78582084639541e-11,6.627689871151716e-11,4.473907736584212e-11,2.984591456906198e-11,1.9742244519021184e-11,1.294727613023823e-11,8.390128096881514e-12,5.371675441238509e-12,3.404818928290355e-12,2.146546440519929e-12,1.3387618580941383e-12,8.239766720751226e-13,4.982547796537582e-13,2.9324625822035593e-13,1.6793426499274652e-13,9.301408833194852e-14,3.2263797418331764e-09,2.427521588562208e-09,1.7561634836335714e-09,1.2262348334220183e-09,8.805816195866845e-10,6.462597626588138e-10,4.87558413192283e-10,3.655421132449229e-10,2.726856043946263e-10,2.006064080510182e-10,1.455970925113394e-10,1.0474059055408639e-10,7.39012212063228e-11,5.1167512729673235e-11,3.487367266205707e-11,2.318980365101471e-11,1.5055209147328655e-11,9.52836138158378e-12,5.875047109159677e-12,3.527605760909801e-12,2.060603678771197e-12
0.0,44,44.0,0.0,30.0,0.0,0.0,0.0,0.0,-13.0,0.0,2.0,0.0,0.0,0.0,1.463713700203475e-10,9.912343124720015e-11,6.70863817343356e-11,4.5251957068001624e-11,3.016462222460957e-11,1.993800534534874e-11,1.3065693825894301e-11,8.459741929584168e-12,5.41072468225814e-12,3.4251554005928483e-12,2.1563324641750684e-12,1.3432708858721737e-12,8.263068301557318e-13,4.998032762244042e-13,2.9447418216357166e-13,1.6889863528618633e-13,9.371660364147919e-14,3.208143752037838e-09,2.4212969063463155e-09,1.7592637278992986e-09,1.2345841840427854e-09,8.899041871884927e-10,6.545478976681203e-10,4.943375362023853e-10,3.707877061185564e-10,2.766136290335439e-10,2.0346337527766722e-10,1.4761621655186163e-10,1.0614739394343889e-10,7.485400957044925e-11,5.1798518065974784e-11,3.528360809873459e-11,2.344933417796192e-11,1.5215917347975434e-11,9.625453306279163e-12,5.931710245882416e-12,3.5588387487264685e-12,2.076251409459955e-12
0.0,45,45.0,0.0,30.0,0.0,0.0,0.0,0.0,-13.0,0.0,2.0,0.0,0.0,0.0,1.483680502031037e-10,1.004104731207851e-10,6.790879040162581e-11,4.5772413568454406e-11,3.0487680761793376e-11,2.013624119932852e-11,1.3185589246069267e-11,8.53037831053181e-12,5.450599992836924e-12,3.446146363232277e-12,2.16654417174449e-12,1.3479663235867444e-12,8.286509497407771e-13,5.012863045243968e-13,2.9562583439617706e-13,1.6980540056411754e-13,9.438314418021842e-14,3.1909664525910145e-09,2.4161258623105783e-09,1.7632432842858386e-09,1.2435462384438515e-09,8.996228219245789e-10,6.630917953876655e-10,5.012914164948607e-10,3.761546847378515e-10,2.8062521486600463e-10,2.0637721317974865e-10,1.4967289178496463e-10,1.0757858149293869e-10,7.582213270313386e-11,5.243879584967468e-11,3.569898016374778e-11,2.3711863638035818e-11,1.537820962759228e-11,9.723417991193013e-12,5.9889933014746754e-12,3.590653315159998e-12,2.0924392869148427e-12
0.0,46,46.0,0.0,30.0,0.0,0.0,0.0,0.0,-13.0,0.0,2.0,0.0,0.0,0.0,1.5040206870293255e-10,1.0171977046674338e-10,6.874436255370543e-11,4.630057431341873e-11,3.081515800125231e-11,2.0336980862680745e-11,1.3306953192344861e-11,8.601995185538971e-12,5.491249093664824e-12,3.467756547715572e-12,2.177174336886113e-12,1.3528606609472573e-12,8.310266274593269e-13,5.027173894365511e-13,2.9670874251110285e-13,1.7065794451244838e-13,9.501509213377653e-14,3.1749237898348126e-09,2.4120578649710974e-09,1.7681284757052603e-09,1.2531324534420875e-09,9.097438188188581e-10,6.718962605038733e-10,5.08423886940707e-10,3.81645956781042e-10,2.8472238980215776e-10,2.0934927589035367e-10,1.5176800323167744e-10,1.0903471531050613e-10,7.680594504137208e-11,5.308856443782287e-11,3.611992433321617e-11,2.397747290717439e-11,1.5542120302857384e-11,9.82224221786774e-12,6.046844445940601e-12,3.6229805250081477e-12,2.109116258713236e-12
0.0,47,47.0,0.0,30.0,0.0,0.0,0.0,0.0,-13.0,0.0,2.0,0.0,0.0,0.0,1.5247423211834866e-10,1.0305176988311206e-10,6.959334132288399e-11,4.683656914046749e-11,3.114712285236806e-11,2.0540255920054044e-11,1.342978308072386e-11,8.674558984196646e-12,5.532625518551574e-12,3.489951436790478e-12,2.1882129724136434e-12,1.3579631144450762e-12,8.33449394001544e-13,5.04109227360792e-13,2.9773025166702503e-13,1.7145965522368983e-13,9.561385985646632e-14,3.160092670987732e-09,2.409142148998765e-09,1.7739451505760006e-09,1.263354101392549e-09,9.202735825316783e-10,6.809662902656047e-10,5.157389275561842e-10,3.8726452121007847e-10,2.8890723702987633e-10,2.123809487194783e-10,1.5390245348034618e-10,1.1051636662213383e-10,7.780580576767013e-11,5.3748044980607646e-11,3.654657800032072e-11,2.4246245760688995e-11,1.5707690157023493e-11,9.921923511326366e-12,6.105224006749898e-12,3.6557608592581195e-12,2.126234190820618e-12
0.0,48,48.0,0.0,30.0,0.0,0.0,0.0,0.0,-13.0,0.0,2.0,0.0,0.0,0.0,1.5458536772490813e-10,1.0440692840826445e-10,7.045597523180327e-11,4.738053041204132e-11,3.148364525678283e-11,2.0746100034147693e-11,1.3554081619030242e-11,8.748043520962164e-12,5.574688420568044e-12,3.512697808683597e-12,2.199647978268312e-12,1.3632799862183776e-12,8.359327977121728e-13,5.054736623029335e-13,2.986974969935855e-13,1.7221391362646062e-13,9.618088373719566e-14,3.1465507652849208e-09,2.407427637458939e-09,1.780718633121315e-09,1.2742222863251515e-09,9.312186526164845e-10,6.903070886588176e-10,5.232406717012109e-10,3.9301347106629425e-10,2.9318189690415067e-10,2.1547364922331505e-10,1.560771631457571e-10,1.1202411581950632e-10,7.882207851413468e-11,5.4417460973189105e-11,3.6979079919351884e-11,2.451826792079071e-11,1.5874964809989533e-11,1.0022468172880465e-11,6.164102931475617e-12,3.688943728298396e-12,2.1437483034878933e-12
0.0,49,49.0,0.0,30.0,0.0,0.0,0.0,0.0,-13.0,0.0,2.0,0.0,0.0,0.0,1.5673632405762592e-10,1.0578571376146215e-10,7.133251828957009e-11,4.793259313063767e-11,3.1824796190959713e-11,2.0954548422367773e-11,1.3679855714721465e-11,8.822428975720615e-12,5.617402282722149e-12,3.5359641418431504e-12,2.2114657138927258e-12,1.3688150141937936e-12,8.384885024603862e-13,5.068216716940399e-13,2.9961737825213554e-13,1.7292408203320008e-13,9.671761844620672e-14,3.1343762892333677e-09,2.4069628010677617e-09,1.7884736783924537e-09,1.2857479651189702e-09,9.425857306388584e-10,6.999240807588424e-10,5.30933412347682e-10,3.988959964298753e-10,2.975485690178112e-10,2.1862882842495936e-10,1.5829307146446406e-10,1.1355855266244626e-10,7.985513122448937e-11,5.5097037939624544e-11,3.741756978334119e-11,2.4793626321655784e-11,1.6043993396936645e-11,1.012388957883485e-11,6.223461349568598e-12,3.722486871900677e-12,2.1616174704854437e-12
0.0,50,50.0,0.0,30.0,0.0,0.0,0.0,0.0,-13.0,0.0,2.0,0.0,0.0,0.0,1.589279715086084e-10,1.0718860459827702e-10,7.222323008971825e-11,4.849289503717224e-11,3.217064770346182e-11,2.116563748849565e-11,1.3807115584036525e-11,8.897700965605062e-12,5.6607365645431196e-12,3.559720899909544e-12,2.223651496751399e-12,1.3745697086171131e-12,8.411263967591943e-13,5.081633614536401e-13,3.004965370191906e-13,1.7359349285774285e-13,9.722553152253115e-14,3.123647776517381e-09,2.4077955157837444e-09,1.7972344330660646e-09,1.2979419739672358e-09,9.543817090420876e-10,7.098229271631401e-10,5.388216083918491e-10,4.049153875264359e-10,3.0200951442578165e-10,2.2184797215729427e-10,1.605511369959492e-10,1.1512027660474045e-10,8.090533614849054e-11,5.5787003232698744e-11,3.7862187914220106e-11,2.5072408550010724e-11,1.6214827506605053e-11,1.0226206722442737e-11,6.283287247342556e-12,3.75635568803881e-12,2.179804396608755e-12
0.0,51,51.0,0.0,30.0,0.0,0.0,0.0,0.0,-13.0,0.0,2.0,0.0,0.0,0.0,1.611612029398012e-10,1.0861609077956399e-10,7.312837591266152e-11,4.906157669521086e-11,3.252127297044067e-11,2.1379404571659035e-11,1.3935874034166095e-11,8.973849713277383e-12,5.704665310131529e-12,3.5839407156064592e-12,2.2361900302034055e-12,1.3805436711366111e-12,8.438547112373584e-13,5.0950796967122e-13,3.0134133660724414e-13,1.7422543757445814e-13,9.770609826698314e-14,3.1144438334112392e-09,2.4099729202853917e-09,1.8070244031330067e-09,1.3108150603546145e-09,9.66613701625285e-10,7.200095384143899e-10,5.469098909957596e-10,4.11075037971243e-10,3.065670579999309e-10,2.2513260250364028e-10,1.628523384043217e-10,1.167098972162102e-10,8.197306994497358e-11,5.6487585933744215e-11,3.831307504806079e-11,2.535470242757845e-11,1.6387520336840154e-11,1.0329442975274324e-11,6.343575263006497e-12,3.79052252482511e-12,2.1982756889835776e-12
0.0,52,52.0,0.0,30.0,0.0,0.0,0.0,0.0,-13.0,0.0,2.0,0.0,0.0,0.0,1.6343693431108914e-10,1.1006867365282277e-10,7.404822683425373e-11,4.963878156418333e-11,3.287674635855795e-11,2.1595887782531583e-11,1.4066145891914756e-11,9.050869311979225e-12,5.7491667380290236e-12,3.6085984908708916e-12,2.249065765012597e-12,1.3867348935765327e-12,8.466801417546499e-13,5.108638781730176e-13,3.021578448796362e-13,1.7482315600293246e-13,9.816079691068071e-14,3.106842880920697e-09,2.4135412751269204e-09,1.8178664296503475e-09,1.3243779207263694e-09,9.792890754810764e-10,7.304900893316979e-10,5.55203069953033e-10,4.1737844814807706e-10,3.112235908960107e-10,2.2848427931621147e-10,1.6519767529994072e-10,1.1832803467807798e-10,8.305871387198406e-11,5.719901683709018e-11,3.8770372200551394e-11,2.564059570831234e-11,1.6562126031063387e-11,1.043362504421904e-11,6.404325603214594e-12,3.8249659627347485e-12,2.217001837784719e-12
0.0,53,53.0,0.0,30.0,0.0,0.0,0.0,0.0,-13.0,0.0,2.0,0.0,0.0,0.0,1.6575610532432374e-10,1.1154686634502359e-10,7.498305984126457e-11,5.022465606458869e-11,3.323714348866567e-11,2.1815125903156304e-11,1.4197947554709493e-11,9.12875708416525e-12,5.794222828702087e-12,3.6336714289487024e-12,2.2622631995252366e-12,1.3931400344202693e-12,8.49607975681146e-13,5.122386311637528e-13,3.029518200563343e-13,1.7538982600839239e-13,9.859110403413902e-14,3.1009228852824065e-09,2.4185458256105755e-09,1.8297826737672727e-09,1.338641243976304e-09,9.924154842204913e-10,7.41271033176958e-10,5.637061400841179e-10,4.238292287251786e-10,3.1598157311786205e-10,2.3190460179639572e-10,1.6758816912455485e-10,1.1997532033260004e-10,8.416265404496795e-11,5.7921528504672225e-11,3.923422059982802e-11,2.5930175868556008e-11,1.6738699164727643e-11,1.0538782101222227e-11,6.465543078737681e-12,3.859670108001348e-12,2.235957121639862e-12
0.0,54,54.0,0.0,30.0,0.0,0.0,0.0,0.0,-13.0,0.0,2.0,0.0,0.0,0.0,1.6811968008403295e-10,1.1305119406619354e-10,7.59331579540504e-11,5.081934963789342e-11,3.3602541296431584e-11,2.2037158332141857e-11,1.4331296642481086e-11,9.207513028170463e-12,5.839818921525721e-12,3.659139012484034e-12,2.275767123999907e-12,1.399754671799637e-12,8.526422191199543e-13,5.136389600848236e-13,3.037286995495056e-13,1.7592855370945072e-13,9.899849021816114e-14,3.0967610788995634e-09,2.425030670660678e-09,1.8427946122557479e-09,1.353615760817609e-09,1.0060009022937978e-09,7.523591155934919e-10,5.724242876751287e-10,4.3043110431523946e-10,3.208435361672705e-10,2.353952101244595e-10,1.7002486406730757e-10,1.2165239727153436e-10,8.528528174657602e-11,5.86553553774527e-11,3.9704761675314354e-11,2.6223529972331125e-11,1.6917294355557605e-11,1.0644945064248063e-11,6.5272362541987064e-12,3.894623912650422e-12,2.255119452291443e-12
0.0,55,55.0,0.0,30.0,0.0,0.0,0.0,0.0,-13.0,0.0,2.0,0.0,0.0,0.0,1.7052864777577207e-10,1.1458219442330043e-10,7.689881035631566e-11,5.1423014803360057e-11,3.3973018088036126e-11,2.226202506136221e-11,1.4466211731690519e-11,9.287139345889296e-12,5.885943329861099e-12,3.684982939908286e-12,2.2895628147914617e-12,1.4065735324602708e-12,8.55785723126009e-13,5.150708138079047e-13,3.044935918121177e-13,1.7644236428054414e-13,9.938441591217831e-14,3.094433674282801e-09,2.4330386402264724e-09,1.8569230447738141e-09,1.3693122990269087e-09,1.0200536601984396e-09,7.637613882661656e-10,5.813628969827587e-10,4.3718791728994415e-10,3.2581208577038786e-10,2.389577871293853e-10,1.7250882800220718e-10,1.233599209511576e-10,8.642699377416689e-11,5.940073393159896e-11,4.0182137092531005e-11,2.652074459718254e-11,1.7097965975484383e-11,1.0752146009644039e-11,6.589416705071508e-12,3.929820532093962e-12,2.2744701721240556e-12
0.0,56,56.0,0.0,30.0,0.0,0.0,0.0,0.0,-13.0,0.0,2.0,0.0,0.0,0.0,1.729840233631798e-10,1.1614041774415732e-10,7.788031253165963e-11,5.2035807213602874e-11,3.434865359032421e-11,2.248976667378977e-11,1.4602712155440997e-11,9.367640043665257e-12,5.932586980103412e-12,3.711187030749744e-12,2.3036361841114004e-12,1.4135906967391345e-12,8.590403072526064e-13,5.165393932828595e-13,3.052512711327563e-13,1.7693419342971188e-13,9.975032751090803e-14,3.0940155740920165e-09,2.4426111839695678e-09,1.872188114059805e-09,1.3857418444683854e-09,1.0345824803501355e-09,7.754852222655744e-10,5.905275568351813e-10,4.4410363176210454e-10,3.308899046736869e-10,2.42594059992217e-10,1.7504115344049977e-10,1.2509855982435392e-10,8.758819281349943e-11,6.015790286877699e-11,4.0666488824978104e-11,2.6821905808551373e-11,1.7280767945688828e-11,1.086041769787444e-11,6.6520983741023884e-12,3.965256727484779e-12,2.2939938170098903e-12
0.0,57,57.0,0.0,30.0,0.0,0.0,0.0,0.0,-13.0,0.0,2.0,0.0,0.0,0.0,1.754868483049415e-10,1.1772642741123184e-10,7.887796640647662e-11,5.2657885710223493e-11,3.472952899556995e-11,2.272042435486267e-11,1.4740817856105844e-11,9.449020598320021e-12,5.9797430783765556e-12,3.737737108887568e-12,2.317973890955794e-12,1.4207997800555302e-12,8.624068790319354e-13,5.180491897784557e-13,3.060061752652629e-13,1.774068796222684e-13,1.0009765363403261e-13,3.0955800809332286e-09,2.4537882742007338e-09,1.888609340196624e-09,1.4029156077126072e-09,1.0495965133813929e-09,7.875383210541088e-10,5.999240673653377e-10,4.5118233775012604e-10,3.360797555040001e-10,2.463058019786358e-10,1.776229584937707e-10,1.2686899598262317e-10,8.876928782927214e-11,6.092710333132932e-11,4.115795925525449e-11,2.7127099172696885e-11,1.7465753599158373e-11,1.0969793196415174e-11,6.7152970187983626e-12,4.000932317039939e-12,2.3136778556417137e-12
0.0,58,58.0,0.0,30.0,0.0,0.0,0.0,0.0,-13.0,0.0,2.0,0.0,0.0,0.0,1.7803819129292997e-10,1.19340800205359e-10,7.98920804987467e-11,5.328941238052255e-11,3.511572700145134e-11,2.2954039911935125e-11,1.48805492791656e-11,9.531287680358317e-12,6.027406806808181e-12,3.764620871289876e-12,2.3325634185429137e-12,1.4281940917871835e-12,8.658855482593772e-13,5.196040258896249e-13,3.0676240574400884e-13,1.7786315710894125e-13,1.0042780160716796e-13,3.0991986111456592e-09,2.4666083262088036e-09,1.906205669991455e-09,1.4208450959644104e-09,1.0651053746247361e-09,7.999287331489138e-10,6.095584469183945e-10,4.5842825554029584e-10,3.4138448368843823e-10,2.500948341983844e-10,1.8025538784556647e-10,1.2867192580285432e-10,8.997069446513505e-11,6.17085791345387e-11,4.1656691298553605e-11,2.7436409799839956e-11,1.765297559768278e-11,1.1080305585357387e-11,6.779029741485388e-12,4.036849678210374e-12,2.3335124151990314e-12
0.0,59,59.0,0.0,30.0,0.0,0.0,0.0,0.0,-13.0,0.0,2.0,0.0,0.0,0.0,1.80639149012886e-10,1.209841266594432e-10,8.092297007225857e-11,5.393055261596659e-11,3.550733184703628e-11,2.319065579800531e-11,1.5021927298954038e-11,9.614448926747232e-12,6.0755750499684005e-12,3.791827748427723e-12,2.347393123273245e-12,1.4357667726879963e-12,8.694757352004824e-13,5.212070985332339e-13,3.0752373070471225e-13,1.7830564980430788e-13,1.0074215414514529e-13,3.1049404174063864e-09,2.4811081392611e-09,1.9249955423860685e-09,1.4395421899086598e-09,1.0811191805364723e-09,8.126648644554019e-10,6.194369391793777e-10,4.658457402624356e-10,3.468070204309559e-10,2.539630273908557e-10,1.8293961373099579e-10,1.3050806059531425e-10,9.119283544749191e-11,6.250257700949537e-11,4.216282854262552e-11,2.7749922410570236e-11,1.7842485892349142e-11,1.119198773293105e-11,6.84331459356855e-12,4.073013300789256e-12,2.353490001852216e-12
0.0,60,60.0,0.0,30.0,0.0,0.0,0.0,0.0,-13.0,0.0,2.0,0.0,0.0,0.0,1.8329084692905918e-10,1.2265701142227615e-10,8.197095729585209e-11,5.4581475172861095e-11,3.590442934564422e-11,2.3430315137148217e-11,1.5164973168755143e-11,9.69851275620029e-12,6.124246151044054e-12,3.81934876135342e-12,2.3624522598355373e-12,1.443510912209113e-12,8.731762720665313e-13,5.22861023211459e-13,3.08293590006441e-13,1.7873686604729197e-13,1.0104206624067198e-13,3.112872325569966e-09,2.497322861637958e-09,1.9449969706423704e-09,1.4590192249735438e-09,1.0976485848225768e-09,8.25755490305539e-10,6.295660205697273e-10,4.734392866937022e-10,3.52350385743168e-10,2.5791230373752094e-10,1.856768369250377e-10,1.3237812725061605e-10,9.243614098887182e-11,6.330934685134562e-11,4.267651539915493e-11,2.806772141970286e-11,1.8034335718395757e-11,1.130487212970443e-11,6.9081702459322995e-12,4.109429389736359e-12,2.3736052233154124e-12
0.0,61,61.0,0.0,30.0,0.0,0.0,0.0,0.0,-13.0,0.0,2.0,0.0,0.0,0.0,1.85994440094267e-10,1.243600736326265e-10,8.303637140731968e-11,5.524235223548718e-11,3.630710691541346e-11,2.3673061749998826e-11,1.5309708489190336e-11,9.783488220523023e-12,6.173419696584327e-12,3.847176379372834e-12,2.3777309866649405e-12,1.4514196472257934e-12,8.769854973121071e-13,5.245678788864811e-13,3.090751024331998e-13,1.7915919426229645e-13,1.0132886226286183e-13,3.1230584917282304e-09,2.5152859830796267e-09,1.9662276418359894e-09,1.4792890764019602e-09,1.1147048140416216e-09,8.392097672566345e-10,6.399524079628749e-10,4.812135343040556e-10,3.5801769152774993e-10,2.6194463870302125e-10,1.8846828774129677e-10,1.3428286888443878e-10,9.370104918786522e-11,6.412914196880803e-11,4.3197897262340956e-11,2.8389891032732225e-11,1.822857561679815e-11,1.1418990771621773e-11,6.973615717850214e-12,4.1461055155559e-12,2.393854519425307e-12
0.0,62,62.0,0.0,30.0,0.0,0.0,0.0,0.0,-13.0,0.0,2.0,0.0,0.0,0.0,1.8875111398687182e-10,1.2609394730374856e-10,8.411954888167566e-11,5.591335948183799e-11,3.671545360831965e-11,2.3918940178281764e-11,1.5456155190088494e-11,9.86938488625056e-12,6.2230963281493265e-12,3.875304381326094e-12,2.393220355524559e-12,1.459486243752302e-12,8.809013424905546e-13,5.263292528779514e-13,3.098710747418348e-13,1.7957489952586502e-13,1.0160383327092324e-13,3.1355601860009967e-09,2.53502935795825e-09,1.9887050339354865e-09,1.5003652474155112e-09,1.1322997024822011e-09,8.530372447290898e-10,6.506030667685245e-10,4.891732725550456e-10,3.63812144713655e-10,2.6606206290776643e-10,1.9131522704368174e-10,1.3622304547955025e-10,9.498800642363564e-11,6.496221933184966e-11,4.372712067120822e-11,2.871651535086664e-11,1.842525547625537e-11,1.1534375083324063e-11,7.039670157271925e-12,4.183050309432037e-12,2.4142359055793862e-12
0.0,63,63.0,0.0,30.0,0.0,0.0,0.0,0.0,-13.0,0.0,2.0,0.0,0.0,0.0,1.9156208537616242e-10,1.2785928171844803e-10,8.522083360357075e-11,5.659467615199607e-11,3.712956013828768e-11,2.4167995707856205e-11,1.5604335522081216e-11,9.95621274148258e-12,6.273277578870397e-12,3.9037277227110174e-12,2.4089122885505527e-12,1.4677041632603216e-12,8.849214115628221e-13,5.281462852654165e-13,3.106840123177702e-13,1.7998612103150628e-13,1.0186823454852614e-13,3.1504356100239678e-09,2.556583262326321e-09,2.012446550448326e-09,1.5222619596577484e-09,1.1504457261440685e-09,8.6724787658424e-10,6.615252194332243e-10,4.973234464613834e-10,3.6973705044319613e-10,2.7026666403563983e-10,1.9421894727398656e-10,1.3819943452525878e-10,9.629746774382217e-11,6.580883981526498e-11,4.426433347287318e-11,2.904767848133427e-11,1.8624424590326767e-11,1.165105587434644e-11,7.1063526658902355e-12,4.2202731999281375e-12,2.4347487328216405e-12
