Line_number,Fiducial,Easting,Northing,Height,Elevation,tx_pitch,tx_roll,tx_yaw,txrx_dx,txrx_dy,txrx_dz,rx_pitch,rx_roll,rx_yaw,S0Z_time_7.292e-05,S0Z_time_7.642e-05,S0Z_time_8.092e-05,S0Z_time_8.642e-05,S0Z_time_9.341e-05,S0Z_time_1.024e-04,S0Z_time_1.139e-04,S0Z_time_1.284e-04,S0Z_time_1.464e-04,S0Z_time_1.689e-04,S0Z_time_1.969e-04,S0Z_time_2.324e-04,S0Z_time_2.779e-04,S0Z_time_3.349e-04,S0Z_time_4.069e-04,S0Z_time_4.979e-04,S0Z_time_6.119e-04,S0Z_time_7.559e-04,S0Z_time_9.373e-04,S0Z_time_1.166e-03,S0Z_time_1.454e-03,S0Z_time_1.818e-03,S0Z_time_2.276e-03,S0Z_time_2.855e-03,S0Z_time_3.574e-03,S0Z_time_4.454e-03,S0Z_time_5.530e-03,S0Z_time_6.849e-03,S0Z_time_8.463e-03,S0Z_time_1.044e-02,S1Z_time_1.273e-05,S1Z_time_1.623e-05,S1Z_time_2.073e-05,S1Z_time_2.623e-05,S1Z_time_3.323e-05,S1Z_time_4.222e-05,S1Z_time_5.373e-05,S1Z_time_6.822e-05,S1Z_time_8.622e-05,S1Z_time_1.087e-04,S1Z_time_1.367e-04,S1Z_time_1.722e-04,S1Z_time_2.177e-04,S1Z_time_2.747e-04,S1Z_time_3.467e-04,S1Z_time_4.377e-04,S1Z_time_5.517e-04,S1Z_time_6.957e-04,S1Z_time_8.772e-04,S1Z_time_1.106e-03,S1Z_time_1.394e-03
0.0,0,0.0,0.0,30.0,0.0,0.0,0.0,0.0,-13.0,0.0,2.0,0.0,0.0,0.0,7.045340921199639e-10,6.280010563099782e-10,5.576562677169768e-10,4.2861046748059124e-10,3.333468413305157e-10,2.6593388233638973e-10,1.8149592805116448e-10,1.3854338269350543e-10,9.386684704670627e-11,6.58860096269756e-11,4.0958333944835294e-11,2.8551020314425822e-11,1.7338569182684554e-11,1.102545632413904e-11,7.094705364068496e-12,4.298357446460607e-12,2.7114659105410134e-12,1.6390510549349512e-12,1.0320022798891148e-12,6.106569753844534e-13,3.64834701217531e-13,2.097916219187787e-13,1.0667266753935703e-13,6.295644736073502e-14,3.587810836404867e-14,2.016319481486751e-14,1.2657371390866092e-14,5.715331779594742e-15,3.553193569472231e-15,1.2971969572579828e-15,1.1328853419599887e-08,6.7467083975183825e-09,4.108916877286214e-09,2.6747096073077553e-09,1.7013569277818651e-09,1.0851089564624131e-09,6.387310341555226e-10,3.706514678453992e-10,2.0311942020901424e-10,1.1839647683096014e-10,6.917070476198991e-11,3.7883874669697725e-11,2.344871931059979e-11,1.2830412990627764e-11,6.867009267672745e-12,3.88287981930366e-12,1.9917872564219362e-12,1.139748669992149e-12,6.12310158920014e-13,3.0361724677323856e-13,1.7251218354747788e-13
0.0,1,1.0,0.0,30.0,0.0,0.0,0.0,0.0,-13.0,0.0,2.0,0.0,0.0,0.0,7.407578805493654e-10,6.472466684685591e-10,5.778936635507064e-10,4.19613820032683e-10,3.342826890942221e-10,2.6306844389950346e-10,1.82194324539316e-10,1.3314470903173366e-10,9.74475682522476e-11,6.124851121758016e-11,4.106705652322479e-11,2.631895344324581e-11,1.7227458948497982e-11,1.0724957352303658e-11,6.888953888833518e-12,4.235428862504169e-12,2.6491899342722446e-12,1.5723632664451144e-12,9.732394134533395e-13,5.825356566604516e-13,3.1607816379681064e-13,2.05084019147074e-13,1.1020939533888086e-13,6.404667019396413e-14,3.6086331511093986e-14,1.9600807376219624e-14,1.1315392344812762e-14,8.051302576914266e-15,2.710427134502377e-15,1.3892257405068834e-15,9.866297794409704e-09,6.383198996356325e-09,4.081276593302107e-09,2.706355442337312e-09,1.7345020801789282e-09,1.034493706810994e-09,6.435160332895087e-10,3.5382110466570916e-10,2.0917582024952282e-10,1.202787267890609e-10,6.779257610497102e-11,3.761928896432949e-11,2.087364503978947e-11,1.2215711682416735e-11,6.48447215315097e-12,3.770979079472976e-12,1.86695471639795e-12,1.0212855785041686e-12,5.45564839111193e-13,3.153329653469102e-13,1.778495848567726e-13
0.0,2,2.0,0.0,30.0,0.0,0.0,0.0,0.0,-13.0,0.0,2.0,0.0,0.0,0.0,7.147654317468382e-10,6.546629993829118e-10,5.501086194836296e-10,4.30137516220628e-10,3.476754901335309e-10,2.6975766390803856e-10,2.0127371037815715e-10,1.3818049652091672e-10,8.86002232402602e-11,6.010694201344912e-11,4.042514957016204e-11,2.5105949064590322e-11,1.7423522949885916e-11,1.0904179357121317e-11,6.5977316220161545e-12,4.071798008425699e-12,2.615088174809125e-12,1.5502606080825615e-12,9.374902781556371e-13,5.460732322110463e-13,3.2136505661655334e-13,1.9151135371584678e-13,1.1472276332985814e-13,6.138369812958187e-14,3.4746171132686927e-14,1.900898798744557e-14,1.2044710109017747e-14,6.515055057288781e-15,3.4400563418829786e-15,1.798626026188174e-15,1.0460697634047973e-08,6.782028791570259e-09,4.193392958055503e-09,2.752940278475404e-09,1.6264417840111852e-09,1.0503194131422553e-09,6.330525916765198e-10,3.8120987388063514e-10,2.176350095555503e-10,1.2389693108518626e-10,6.87522380123021e-11,3.7861315297969296e-11,2.0040948511946327e-11,1.1261616375153927e-11,5.9921277336406945e-12,3.4793761024599825e-12,1.8891624061308848e-12,1.0146702310029685e-12,5.689062888348849e-13,3.3119341512593365e-13,1.4906706480229382e-13
0.0,3,3.0,0.0,30.0,0.0,0.0,0.0,0.0,-13.0,0.0,2.0,0.0,0.0,0.0,6.978253686641954e-10,6.67689555290203e-10,5.236282611209955e-10,4.341164524387533e-10,3.4752215482995595e-10,2.661538209747441e-10,1.8031613707461652e-10,1.3372608102678878e-10,9.222899287596586e-11,6.022662497856677e-11,3.760836386236005e-11,2.525403271870907e-11,1.626006908946014e-11,1.0515142616363941e-11,6.216515383040073e-12,3.891880973152117e-12,2.4362248094637793e-12,1.422394952029634e-12,8.739748996993314e-13,5.346875889470407e-13,3.2103607419749856e-13,1.807688173799818e-13,1.1039042993560378e-13,6.18065136648402e-14,3.331249549050613e-14,1.855407806741827e-14,1.087477693255886e-14,5.310987725758633e-15,3.855566636552392e-15,2.2156179544768064e-15,1.0263453537972007e-08,6.721690124961412e-09,4.419755259147212e-09,2.6346056509851263e-09,1.733671969559435e-09,1.0492768549778885e-09,6.256379685908989e-10,3.8367078423498e-10,2.0072193343764059e-10,1.152944224000006e-10,6.92924540699062e-11,3.5959481515104744e-11,2.0246840110870342e-11,1.1103248755833973e-11,6.431517845666485e-12,3.214000401465694e-12,1.9062753898111414e-12,9.762093164675186e-13,5.088958114381587e-13,2.872341931145898e-13,1.400498408053715e-13
0.0,4,4.0,0.0,30.0,0.0,0.0,0.0,0.0,-13.0,0.0,2.0,0.0,0.0,0.0,7.968446346932649e-10,6.194263519697623e-10,5.499194683723298e-10,4.2343560959095363e-10,3.5595806755641677e-10,2.6663891245167837e-10,1.9590368620085146e-10,1.3426746896036605e-10,8.642560647279263e-11,5.855252546360968e-11,3.985339065514212e-11,2.4778664951340628e-11,1.5123254584005526e-11,1.0449623531228898e-11,6.425766225721145e-12,3.751028295025987e-12,2.389257002369569e-12,1.445309156385858e-12,8.803039377581348e-13,5.479308360552448e-13,3.076451241168357e-13,1.8256593419100452e-13,9.922939675638068e-14,5.807668326426737e-14,3.458301175276563e-14,1.8987600415059887e-14,9.659005726120042e-15,5.2380533658542616e-15,7.575128277719222e-16,2.7372396646247376e-15,1.1017097590691234e-08,6.6034385066494515e-09,4.236544656755751e-09,2.778877913337121e-09,1.6904172788174811e-09,1.0571946209356762e-09,6.081280836669085e-10,3.637428779358421e-10,2.144808558374014e-10,1.198854216814328e-10,6.565667543663301e-11,3.58735043399912e-11,2.0637940421408752e-11,1.073983607708886e-11,6.084950707321694e-12,3.308382028256067e-12,1.867765177790616e-12,9.96185082063148e-13,4.955301464039188e-13,2.7851655561723277e-13,1.345330377429387e-13
0.0,5,5.0,0.0,30.0,0.0,0.0,0.0,0.0,-13.0,0.0,2.0,0.0,0.0,0.0,7.236662492425352e-10,6.291181200214727e-10,5.372704500312661e-10,4.075668502681017e-10,3.4297185717838236e-10,2.570726391613243e-10,1.810575523432464e-10,1.2804839597176325e-10,8.888401706035667e-11,5.638933468179664e-11,3.719252177782398e-11,2.4551461503688685e-11,1.5730559974599342e-11,9.393556019698092e-12,5.923492007806702e-12,3.4942983995945584e-12,2.3349352949393816e-12,1.427277813467616e-12,8.303864347054171e-13,5.037752066128203e-13,2.9984371983298944e-13,1.7631888903266224e-13,9.78892922488785e-14,5.832730865313261e-14,3.5273876048206716e-14,2.1505361783309404e-14,1.006806949996793e-14,4.1302595059920836e-15,1.7997929971290775e-15,2.171453347889356e-15,1.03686462359612e-08,6.47508051860244e-09,4.05457816069126e-09,2.705556282702136e-09,1.7638422668833443e-09,1.0642332170254896e-09,6.637850861398632e-10,3.556077512470215e-10,2.1981561015829991e-10,1.1946557538192494e-10,6.586705453661555e-11,3.598839263196839e-11,1.947736188205593e-11,1.0495582337931046e-11,5.9018070356255604e-12,3.0265912692683672e-12,1.7877937499241209e-12,8.705972052422826e-13,4.97673646949326e-13,2.5005224650006425e-13,1.5532485229404642e-13
0.0,6,6.0,0.0,30.0,0.0,0.0,0.0,0.0,-13.0,0.0,2.0,0.0,0.0,0.0,7.256514183615148e-10,6.49586541987781e-10,5.224826491778825e-10,4.360483947273244e-10,3.392711808945517e-10,2.5740747713591255e-10,1.7980814886714808e-10,1.2275660342530585e-10,8.768762714941782e-11,5.5235520378600334e-11,3.5109253290757466e-11,2.3894360949577685e-11,1.41667591269138e-11,8.985343952081905e-12,5.712757582658879e-12,3.5952455558704256e-12,2.0973792853085648e-12,1.3337507193488213e-12,7.817524498468809e-13,5.125286264448841e-13,2.9901409940724997e-13,1.761093533747182e-13,1.0364683570650641e-13,5.5960174394880585e-14,3.455228582074523e-14,1.873499486241113e-14,1.1560434249725184e-14,5.6349862805652e-15,8.007883972436897e-17,2.1682974113328624e-15,1.0340000778455807e-08,6.639294480716762e-09,4.015734527475607e-09,2.6721382320774625e-09,1.824401315738123e-09,1.0667392382739945e-09,6.278437211693624e-10,3.6673686829279836e-10,2.1456154710845985e-10,1.1779629774952663e-10,6.423975410593589e-11,3.387655527403939e-11,1.8659518177335225e-11,1.0457691534780578e-11,5.6182377249669164e-12,3.0582258757257916e-12,1.5256827081156236e-12,9.052484656912157e-13,4.773713256235184e-13,2.764524444411598e-13,1.1386734791244355e-13
0.0,7,7.0,0.0,30.0,0.0,0.0,0.0,0.0,-13.0,0.0,2.0,0.0,0.0,0.0,7.469287038250667e-10,6.700767577399718e-10,5.253528367795442e-10,4.4682096195281843e-10,3.596489588339264e-10,2.580736711987492e-10,1.919735554144618e-10,1.2130516430610213e-10,8.742187913624699e-11,5.63172756025383e-11,3.596810584049105e-11,2.3217081186957982e-11,1.4859386341138308e-11,8.897752170851458e-12,5.5058417583196745e-12,3.4794351880462244e-12,2.106110367507246e-12,1.318470641781037e-12,7.582408250151083e-13,4.884478504350691e-13,2.832413932026283e-13,1.748884399724676e-13,9.537215303049662e-14,5.534783852137851e-14,3.305067951029077e-14,1.825861687722724e-14,8.997043737395827e-15,6.356876140881084e-15,3.0153904388402374e-15,2.346305747495863e-15,1.0697045282422109e-08,6.791803007801094e-09,4.176725806694872e-09,2.8537125036292364e-09,1.759568682749584e-09,1.1142690655120835e-09,6.65468544357912e-10,3.5489375347976144e-10,2.0000774085705693e-10,1.1632640932797621e-10,6.608432374629113e-11,3.4440936477021324e-11,1.8912873917668705e-11,9.932835174892071e-12,5.533089244591622e-12,2.7989198197660917e-12,1.5381726753454313e-12,8.313149131599561e-13,4.4565523181582816e-13,2.6247815046442667e-13,1.31793479564839e-13
0.0,8,8.0,0.0,30.0,0.0,0.0,0.0,0.0,-13.0,0.0,2.0,0.0,0.0,0.0,6.989069049595101e-10,6.60307431796485e-10,5.504673119833077e-10,4.0993224129634474e-10,3.399717466930294e-10,2.655934115995463e-10,1.8567487659056305e-10,1.3241888680443714e-10,8.350569692321434e-11,5.5936223402758784e-11,3.647776686497648e-11,2.181413214257726e-11,1.386366103706988e-11,8.503677565097146e-12,5.017239276415049e-12,3.135924866010136e-12,2.1626501730583353e-12,1.216994959658174e-12,7.589092654420237e-13,4.62112097675846e-13,2.691034336968615e-13,1.6484476429283055e-13,9.312192507781668e-14,5.704383825160722e-14,2.8978868310977705e-14,1.8913784801042286e-14,9.613275591832006e-15,6.069077485411721e-15,3.3833493212558675e-15,3.997415733544438e-15,1.0871904959593196e-08,6.32965483527793e-09,4.148063817921447e-09,2.6797603304509514e-09,1.777233608786425e-09,1.0912672659103067e-09,6.57454522287614e-10,3.599325179594478e-10,2.029973663968812e-10,1.1160788041949755e-10,6.042814465290394e-11,3.3846010905628356e-11,1.76636711203766e-11,1.0142377962537731e-11,5.0681819690105555e-12,2.760371919687384e-12,1.489162676915936e-12,8.682320056720913e-13,4.773105579149607e-13,2.338195463803387e-13,1.3343323086813934e-13
0.0,9,9.0,0.0,30.0,0.0,0.0,0.0,0.0,-13.0,0.0,2.0,0.0,0.0,0.0,7.63013370811251e-10,6.775001871916734e-10,5.455018691460209e-10,4.358870270974604e-10,3.4642333945033597e-10,2.6194636260026426e-10,1.900230306498306e-10,1.2859307907213679e-10,8.379561087216968e-11,5.410508124599789e-11,3.517794953971513e-11,2.210799264105042e-11,1.4278137357469916e-11,8.0419659152253e-12,4.92677704674516e-12,3.275109616404965e-12,1.9097554885088477e-12,1.2019037101966038e-12,7.516937861574051e-13,4.514913235012838e-13,2.6867281736219704e-13,1.6528147469176049e-13,8.8563861141203e-14,5.514187468836345e-14,2.878148723385155e-14,1.805891231847911e-14,8.792797280946348e-15,5.008468119880174e-15,3.3634787867907093e-15,1.8614462375127056e-15,1.0891888776261288e-08,7.007628903523761e-09,4.110164412264283e-09,2.709156861554361e-09,1.7258148723416425e-09,1.1047062494104618e-09,6.529625190336305e-10,3.7140646575444996e-10,2.0479105779684067e-10,1.0366259519633485e-10,6.0681457064045e-11,3.1921875583879744e-11,1.769321892646202e-11,9.096519705468042e-12,5.2407106296790596e-12,2.704385430178541e-12,1.4807647962014121e-12,7.68593377683693e-13,4.471528944521253e-13,2.3583475403487387e-13,1.1917821979959777e-13
0.0,10,10.0,0.0,30.0,0.0,0.0,0.0,0.0,-13.0,0.0,2.0,0.0,0.0,0.0,7.721648744545278e-10,6.314624506411137e-10,5.47045496148887e-10,4.406360367785588e-10,3.4911670147182807e-10,2.499627555965107e-10,1.7618671746987863e-10,1.2912536140271175e-10,8.240405483492562e-11,5.307603708585943e-11,3.231008827560658e-11,2.054561784590791e-11,1.3752703755830064e-11,8.152145437367934e-12,5.278680977481453e-12,3.085288139391131e-12,1.8743374340591197e-12,1.1554044712829295e-12,7.021616003408094e-13,4.393221410475357e-13,2.4550702350631016e-13,1.565428260851408e-13,8.469537708424559e-14,5.139863837121083e-14,2.9665395370875455e-14,1.6521665307044952e-14,6.958226200906971e-15,6.537323335358798e-15,2.8594072456980474e-15,1.5697071354418723e-15,1.0459242312805473e-08,6.783665020542986e-09,4.183348532894389e-09,2.737526354624589e-09,1.6656857885255435e-09,1.100523515779477e-09,6.560653125346314e-10,3.8874337207907485e-10,2.1040311903583172e-10,1.0918526507179064e-10,6.095637969671471e-11,3.163103215163287e-11,1.7279220673844882e-11,9.480207986097423e-12,5.093716753681944e-12,2.6867638679247926e-12,1.4384242381306691e-12,7.468711993933773e-13,4.1978387534201184e-13,2.1458269251513185e-13,1.0948884057079325e-13
0.0,11,11.0,0.0,30.0,0.0,0.0,0.0,0.0,-13.0,0.0,2.0,0.0,0.0,0.0,7.501126064613807e-10,6.564358724982301e-10,5.758552437332896e-10,4.2047461453249616e-10,3.4435883262201266e-10,2.618819984935068e-10,1.8406135410575186e-10,1.1625755897015854e-10,8.32710624974623e-11,5.569475299207737e-11,3.514140677969322e-11,2.108736336165987e-11,1.2293189459452832e-11,7.573507956146883e-12,4.895807886091988e-12,3.1059111477144764e-12,1.831738496966262e-12,1.1066096612607137e-12,6.780503446456405e-13,4.1227332216163294e-13,2.5878408438112365e-13,1.4449562678283545e-13,9.242711003764301e-14,5.2269803955301644e-14,2.7975847757838907e-14,1.5571204431319123e-14,9.467929863223107e-15,5.87069619198165e-15,2.4956133863164828e-15,1.7306222485737088e-15,1.1116500359259124e-08,6.5369941622795366e-09,4.251244744180581e-09,2.6345062805356365e-09,1.7279252775273436e-09,1.080555444845804e-09,6.407869321677333e-10,3.811759370940072e-10,2.1161483241127775e-10,1.0980009696183764e-10,6.360104127660017e-11,3.1763549497360795e-11,1.7595315882933493e-11,8.742887243064321e-12,4.71512981383087e-12,2.5788352306167563e-12,1.3940638737601163e-12,7.6959795215961e-13,4.0715338362188954e-13,2.0820384620539054e-13,1.398043989164882e-13
0.0,12,12.0,0.0,30.0,0.0,0.0,0.0,0.0,-13.0,0.0,2.0,0.0,0.0,0.0,7.027037964582305e-10,6.622491404924842e-10,5.31590820796131e-10,4.39080827494654e-10,3.4989624829177344e-10,2.574618006317483e-10,1.8123505839841357e-10,1.2857008029557275e-10,8.326317802671663e-11,5.207521267077682e-11,3.4458608793209805e-11,2.009400127204618e-11,1.3093424987898207e-11,7.1732863278269995e-12,4.502653183088488e-12,2.87521777803051e-12,1.7896997445446504e-12,1.0962228387021832e-12,6.421999862358814e-13,3.8470296075568587e-13,2.3998934946215423e-13,1.4783271020604998e-13,8.47412673466034e-14,5.3538247201112866e-14,2.816516666317993e-14,1.5404936228410924e-14,9.657707082987782e-15,2.4292713511634222e-15,2.631282292214166e-15,1.1829693642975317e-15,1.0349576638039382e-08,6.829491263552841e-09,4.424056898059225e-09,2.761361153691805e-09,1.811180290415464e-09,1.0616665218335899e-09,6.335708323437956e-10,3.7096966107271056e-10,2.1135414164805884e-10,1.1748513695857762e-10,6.260084816060851e-11,3.163643374040772e-11,1.700081550956981e-11,8.621423710070655e-12,4.836599564404777e-12,2.4454456716036244e-12,1.332554790434211e-12,7.249783434519722e-13,3.876230880116637e-13,2.0174549588955844e-13,1.2182306220340598e-13
0.0,13,13.0,0.0,30.0,0.0,0.0,0.0,0.0,-13.0,0.0,2.0,0.0,0.0,0.0,7.30030301465701e-10,6.339908682903411e-10,5.682858843960281e-10,4.351201353976337e-10,3.3373428990093083e-10,2.5984741829214585e-10,1.7959242163258704e-10,1.2087099564995415e-10,7.865407091055485e-11,5.2845870623190536e-11,3.17321616331174e-11,2.0326922078057903e-11,1.215905768719126e-11,7.568466355427773e-12,4.477456226611645e-12,2.80424270788048e-12,1.729494440971401e-12,1.027623716824416e-12,6.740825651380039e-13,4.0969339063560126e-13,2.493345388905233e-13,1.5131976794589128e-13,8.022698325616612e-14,5.067599407873262e-14,2.7211494287196533e-14,1.594890763374243e-14,8.966488790234288e-15,3.916280227200059e-15,2.093485413037243e-15,2.335967860994575e-15,1.042249347866477e-08,6.5225468559877034e-09,4.272332245358888e-09,2.8123267463363337e-09,1.6880906451163694e-09,1.0716794279307594e-09,6.560053489324802e-10,3.68622354209064e-10,2.0249740832314876e-10,1.0566712740647879e-10,6.221399524897707e-11,3.095538699416062e-11,1.636491543157866e-11,8.783203190626467e-12,4.479603027883555e-12,2.431191818938134e-12,1.3544339828281614e-12,7.289234437905114e-13,3.9745738061656106e-13,2.2723037769961745e-13,1.0247156521686164e-13
0.0,14,14.0,0.0,30.0,0.0,0.0,0.0,0.0,-13.0,0.0,2.0,0.0,0.0,0.0,7.469344793940407e-10,6.442795986311161e-10,5.237966812014131e-10,4.289339688069652e-10,3.325832590839332e-10,2.7449395966847036e-10,1.8332808688289732e-10,1.226500955322519e-10,7.710361490722993e-11,5.20276543801914e-11,3.115810781585901e-11,1.946619261684625e-11,1.2951335848546206e-11,7.358048903548334e-12,4.39775610122945e-12,2.589013947271424e-12,1.6601339202759242e-12,9.882191053521365e-13,6.316803654372721e-13,3.9509415390070787e-13,2.286754648411645e-13,1.3166242851077896e-13,8.44428882834227e-14,4.7790407347827e-14,2.6820387863181223e-14,1.5761663746085766e-14,8.576201624384575e-15,4.31459812552613e-15,-1.534133765057517e-16,3.561154600678715e-15,1.0988305148975816e-08,6.3848499322610314e-09,4.2605734334734986e-09,2.770554733670436e-09,1.787712639911527e-09,1.0567764898454862e-09,6.172440190773e-10,3.536556203817883e-10,2.1002418489006107e-10,1.0986495522733157e-10,6.104362449956441e-11,3.149826973823197e-11,1.5711026310768836e-11,8.093552230860954e-12,4.228856295352356e-12,2.3624644817647474e-12,1.2559674674672996e-12,6.686108729182268e-13,3.64543832155999e-13,1.9412511411538688e-13,1.1343416260670232e-13
0.0,15,15.0,0.0,30.0,0.0,0.0,0.0,0.0,-13.0,0.0,2.0,0.0,0.0,0.0,7.379186174383291e-10,6.609054081076848e-10,5.503833874844077e-10,4.2876571162421574e-10,3.518266413468487e-10,2.6321212434067715e-10,1.797174941542902e-10,1.2003934474291613e-10,7.903851400334615e-11,5.251084176574914e-11,3.265794245876494e-11,1.9402836926008922e-11,1.2172185614380835e-11,6.9243774352684365e-12,4.133944248975602e-12,2.5693581627832787e-12,1.659442154720613e-12,9.92657065807779e-13,6.027852749097268e-13,3.709134648520597e-13,2.214254675241848e-13,1.390687061132116e-13,8.16205932234913e-14,4.871355098226606e-14,2.8188458049461356e-14,1.439074079873765e-14,7.883270568856439e-15,4.252320113490655e-15,1.899709269677391e-15,1.7695809402914191e-15,1.0513659157247848e-08,6.8819265753273e-09,4.398509276822607e-09,2.833741041760977e-09,1.7810791133010119e-09,1.0716003639957289e-09,6.554875978572414e-10,3.822773453470151e-10,2.1147251524572515e-10,1.11541632752398e-10,5.724862390504085e-11,3.1579222840304414e-11,1.6265528018249155e-11,8.467840761665699e-12,4.248950965043825e-12,2.2331222720081727e-12,1.236665396865553e-12,6.442413411826709e-13,3.485812507629033e-13,1.969178643751026e-13,1.112964333189697e-13
0.0,16,16.0,0.0,30.0,0.0,0.0,0.0,0.0,-13.0,0.0,2.0,0.0,0.0,0.0,7.580123483972585e-10,6.661342296667416e-10,5.423710512444209e-10,4.393122888839035e-10,3.2730968861697195e-10,2.5171060508382184e-10,1.7305435905439863e-10,1.184296618542214e-10,8.06847919297139e-11,5.195611581974608e-11,3.1140118467321845e-11,1.8909079058314864e-11,1.183027302675083e-11,6.844362019834694e-12,4.25630877520157e-12,2.4733146270579308e-12,1.6307105388615111e-12,9.621842290926333e-13,5.96735964547277e-13,3.5432135397970625e-13,2.1056329638110052e-13,1.2603701307735917e-13,7.240620934674837e-14,4.659662406762739e-14,2.8277767896983394e-14,1.67885936788739e-14,8.028990056476209e-15,5.554530587922555e-15,1.5864780246419771e-15,1.1369538439784075e-15,1.0909301013923e-08,6.803882221631326e-09,4.0769145678966555e-09,2.8177077277386733e-09,1.8087832458088754e-09,1.0831845968764785e-09,6.562196154367771e-10,3.490738388229581e-10,1.93947080547612e-10,1.0720135448235196e-10,5.748670779419568e-11,3.037261719408141e-11,1.6229226251486827e-11,7.701882126786792e-12,4.261855532022461e-12,2.1606943420769436e-12,1.1846585331889478e-12,6.244079064593173e-13,3.5909073782957615e-13,1.8314278131214038e-13,9.050612545681189e-14
0.0,17,17.0,0.0,30.0,0.0,0.0,0.0,0.0,-13.0,0.0,2.0,0.0,0.0,0.0,7.549026081646658e-10,6.723216690342652e-10,5.364540315352228e-10,4.283976233531886e-10,3.432972932441948e-10,2.477318584438397e-10,1.7625383144480987e-10,1.1584142325851356e-10,7.638039993652421e-11,5.0031871106463594e-11,3.001056017766179e-11,1.9219551528531623e-11,1.075096283345209e-11,6.590572838787869e-12,4.215609601768404e-12,2.3970100416414665e-12,1.4359092430101853e-12,9.270087420561261e-13,5.562707912867391e-13,3.7105437605061775e-13,2.128385534166116e-13,1.317956305441759e-13,7.662744180094494e-14,4.531613015160369e-14,2.3764147830528638e-14,1.4545752428800197e-14,1.0047773557563394e-14,5.241593102890405e-15,2.3605175925837273e-15,6.472228821584644e-16,1.0655243720431674e-08,6.508581965051999e-09,4.099148714219826e-09,2.7900390692279934e-09,1.6965544200451299e-09,1.0769787121594077e-09,6.244715053126935e-10,3.5369469049201877e-10,2.1205927427147682e-10,1.078644745673246e-10,5.990327524890678e-11,2.9337321417317023e-11,1.526374475074005e-11,7.812292227838101e-12,3.8458568639169965e-12,2.036543760108124e-12,1.1149176390063998e-12,6.308926940669068e-13,3.5758243053366625e-13,1.900033502159457e-13,9.790839745234933e-14
0.0,18,18.0,0.0,30.0,0.0,0.0,0.0,0.0,-13.0,0.0,2.0,0.0,0.0,0.0,7.356764243466819e-10,6.741948614173633e-10,5.336917484299833e-10,4.4465575576296974e-10,3.3418330163933967e-10,2.470776461401867e-10,1.752566932772613e-10,1.1874725230361315e-10,8.052781436155874e-11,4.8905892122342555e-11,3.1081124408309295e-11,1.8086549237985608e-11,1.07533011143148e-11,6.12733835039015e-12,3.8934310209688586e-12,2.394784405770874e-12,1.4942629000798375e-12,9.408256396614234e-13,5.535583359759645e-13,3.6286364326836183e-13,2.02182454110228e-13,1.3447757756830703e-13,7.162522558965554e-14,4.3988589703886694e-14,2.6465165925138955e-14,1.3587701628713869e-14,8.945332590760934e-15,5.527740516872806e-15,2.2590160014308897e-15,1.126158275808465e-15,1.0700233551066761e-08,6.697801916276071e-09,4.3732576605781295e-09,2.934171685453511e-09,1.8274629299567625e-09,1.0714763719997568e-09,5.963845468686887e-10,3.5988981385564596e-10,2.0333445311343233e-10,1.1111071831136888e-10,5.6470437507272175e-11,2.9593884543586817e-11,1.4849837616786525e-11,7.572767413717891e-12,4.111988492635689e-12,2.0956682288398123e-12,1.1334628483111225e-12,5.970756161253758e-13,3.0016159796675155e-13,1.9920658304942662e-13,8.071784989974733e-14
0.0,19,19.0,0.0,30.0,0.0,0.0,0.0,0.0,-13.0,0.0,2.0,0.0,0.0,0.0,7.091458016515798e-10,6.661301221841881e-10,5.306769468661029e-10,4.2503115936191787e-10,3.314864638262413e-10,2.48165117094416e-10,1.7269226039899464e-10,1.2188032384829373e-10,7.299738542574653e-11,5.016602345912367e-11,3.158866935949015e-11,1.882705062272004e-11,1.087708250104329e-11,6.426689184629969e-12,3.849040994573011e-12,2.256124869769284e-12,1.4455590864475167e-12,9.010203032225272e-13,5.653643444815864e-13,3.3290225407123304e-13,1.967485657340824e-13,1.1398874464369553e-13,7.217761419207231e-14,4.1185981816470554e-14,2.6083447516813745e-14,1.4185053987456248e-14,8.899800154059245e-15,5.5135870475060654e-15,1.6735348992966505e-15,2.486726798503724e-15,1.1081735400840377e-08,6.900215136578441e-09,4.241307839788929e-09,2.69145005342576e-09,1.8002045316826398e-09,1.0790541616313985e-09,6.4297153376833e-10,3.702179857677414e-10,1.9228717550506024e-10,1.0243559176790197e-10,5.5518238948858696e-11,3.022723609998904e-11,1.3311126998476955e-11,7.555939327513933e-12,3.906317429930232e-12,1.987179713755898e-12,1.0938057653009514e-12,5.821829372395464e-13,3.177719644609878e-13,1.924249036731581e-13,9.36601004088599e-14
0.0,20,20.0,0.0,30.0,0.0,0.0,0.0,0.0,-13.0,0.0,2.0,0.0,0.0,0.0,7.554714366434991e-10,6.45870977005495e-10,5.480403216879038e-10,4.13651601494483e-10,3.3728584307660095e-10,2.5777482889545414e-10,1.7837386990679176e-10,1.1589322296945537e-10,7.44996138350869e-11,4.8840983866476857e-11,2.959532385490469e-11,1.94185693039275e-11,1.0679576876393169e-11,6.451750159918031e-12,3.7766732309784715e-12,2.279063398748984e-12,1.376866501635049e-12,8.481345605893816e-13,5.219514710306819e-13,3.37579711465983e-13,1.9593925842172546e-13,1.19989795479782e-13,7.101322842682284e-14,3.977907708529736e-14,2.4935802086775454e-14,1.3557610177328809e-14,9.846234306141372e-15,3.8774433530040544e-15,2.548344331413176e-15,-1.1403205559115148e-15,1.122997672007679e-08,6.7035745706763506e-09,4.134387004359955e-09,2.783496077720967e-09,1.845707616494651e-09,1.1032432197366522e-09,6.475061519631725e-10,3.7060943008397023e-10,2.0708737780294555e-10,1.0317740003769329e-10,5.65180068833248e-11,2.7737479677229594e-11,1.5256802665505286e-11,6.983367971406696e-12,3.756502692783249e-12,1.838449563321313e-12,1.0698810085159878e-12,5.920384890502387e-13,3.0455215774337926e-13,1.6891179082604806e-13,8.251331838229014e-14
0.0,21,21.0,0.0,30.0,0.0,0.0,0.0,0.0,-13.0,0.0,2.0,0.0,0.0,0.0,7.293200808339714e-10,6.590819494748016e-10,5.314746049783495e-10,4.092330343738385e-10,3.229957042101454e-10,2.5076833511022485e-10,1.7889660435698693e-10,1.082225995340083e-10,7.868605077443978e-11,5.140538540934123e-11,2.9049436650385355e-11,1.8503396640339418e-11,9.89295188605942e-12,5.9505706633613225e-12,3.6270352335172246e-12,2.132855062114885e-12,1.3483787419734843e-12,8.307792668672503e-13,4.894542190180722e-13,3.149177755979352e-13,1.8949580600216937e-13,1.1671881887644406e-13,6.172657958009083e-14,3.9131928442663617e-14,2.388797866913162e-14,1.5212930337226357e-14,8.26743649025787e-15,2.917465942418642e-15,3.279760415742226e-15,1.7232968732386166e-15,1.0841631293151444e-08,6.489629918256515e-09,4.463513904170737e-09,2.7154208753903655e-09,1.7065391536938721e-09,1.083907992947847e-09,6.530870495600355e-10,3.4353726146567143e-10,2.017628313443596e-10,1.1079268112019768e-10,5.279292986189384e-11,2.7564564385217188e-11,1.4729285513318983e-11,7.146190811511701e-12,3.646945927129715e-12,1.935239687044357e-12,9.983101971936156e-13,5.073299577545091e-13,2.887655373260835e-13,1.5941003620285592e-13,9.909432859366882e-14
0.0,22,22.0,0.0,30.0,0.0,0.0,0.0,0.0,-13.0,0.0,2.0,0.0,0.0,0.0,7.04791242293504e-10,6.803747520105239e-10,5.42659995137972e-10,4.5442480786074177e-10,3.4655005967052136e-10,2.504421846213115e-10,1.7943771078971526e-10,1.2086819624337795e-10,7.085377667043759e-11,4.808526814141285e-11,2.817963735338841e-11,1.725137425956025e-11,1.043260934520802e-11,5.88449979761001e-12,3.6262041924138035e-12,2.156076355806972e-12,1.3270114131105647e-12,8.139674594745907e-13,5.332500575521414e-13,3.0775154030710986e-13,1.9162948938152708e-13,1.1038345929171525e-13,6.353113699852013e-14,4.286662268134871e-14,2.4041582920613945e-14,1.3028064125530113e-14,6.746332458177039e-15,4.2449001392288656e-15,2.0833066345821e-15,2.7929254231693026e-15,1.0592643852190082e-08,6.841688683548477e-09,4.075332193738489e-09,2.6801180355401304e-09,1.807858803718794e-09,1.057759645826046e-09,6.422143889530069e-10,3.62111774246398e-10,2.0993195413956418e-10,1.0345712209885663e-10,5.5306317009287914e-11,3.019074902593329e-11,1.3693860105308537e-11,6.815261283345904e-12,3.6115764194445946e-12,1.8351224365482032e-12,9.617596063060903e-13,5.137682965282228e-13,3.100858232682478e-13,1.5247298013199354e-13,9.036054400369593e-14
0.0,23,23.0,0.0,30.0,0.0,0.0,0.0,0.0,-13.0,0.0,2.0,0.0,0.0,0.0,7.110610585099898e-10,6.159016578607736e-10,5.242566295999032e-10,4.211626024655085e-10,3.340914343361283e-10,2.2659164572759236e-10,1.6874124035918878e-10,1.209643575065584e-10,7.113714259524061e-11,5.1263715222190805e-11,2.8282541675749486e-11,1.675285794656957e-11,1.0736574594016909e-11,5.807287322908656e-12,3.335876502760033e-12,2.122706340650017e-12,1.2401463883099504e-12,8.017484782961818e-13,4.836115377673263e-13,3.136372780523551e-13,1.8191132819428757e-13,1.151322476420981e-13,6.860226876441103e-14,4.022730153860169e-14,2.2568593486063465e-14,1.5056205910397543e-14,7.169784908546451e-15,4.311330233783909e-15,2.5808909360529647e-15,5.894961682881148e-16,1.0429072228218324e-08,6.868805493330219e-09,4.5141639277192575e-09,2.979695445726849e-09,1.75616488972209e-09,1.1006132776257715e-09,6.345979563233441e-10,3.7220975560662934e-10,2.048419571940215e-10,1.0097396061615152e-10,5.5832802504465336e-11,2.768900339238748e-11,1.4152190033268162e-11,6.937265644023001e-12,3.4920113815389833e-12,1.7507215448796243e-12,9.732514826253374e-13,5.010726582637061e-13,2.725968206840994e-13,1.5741114024255204e-13,7.862317234802177e-14
0.0,24,24.0,0.0,30.0,0.0,0.0,0.0,0.0,-13.0,0.0,2.0,0.0,0.0,0.0,7.468644678928928e-10,6.657076980857456e-10,5.350661985602225e-10,4.0883179237032987e-10,3.488012630110184e-10,2.5426018860794507e-10,1.7747761102513392e-10,1.1283870459978641e-10,7.59364383807314e-11,4.625364586733947e-11,2.823100254897664e-11,1.6803570501026844e-11,9.66435624657439e-12,5.524015860276008e-12,3.5546851764258163e-12,2.004046340900001e-12,1.21447947444977e-12,7.591883380697875e-13,4.528130507943731e-13,2.9033975542378295e-13,1.7332793957831484e-13,1.1059761587166186e-13,6.739859263616314e-14,3.811784970626472e-14,2.3368090916181685e-14,1.3390193791954616e-14,7.424761427059208e-15,4.139853408903405e-15,3.501635616454679e-15,2.8743400706507646e-15,1.0354364524471214e-08,6.756347737936928e-09,4.454440144362913e-09,2.8119052299763643e-09,1.8337222710097521e-09,1.0874617886236757e-09,6.543656619335675e-10,3.9404846408482824e-10,1.9596756583958166e-10,1.0896715632530516e-10,5.4291524055702745e-11,2.7720795689707624e-11,1.41905469649615e-11,6.873556933830314e-12,3.4083575167159372e-12,1.712544808003091e-12,8.491971492254262e-13,5.053016523504749e-13,2.8803608140681223e-13,1.6720415548842107e-13,6.4766878604153e-14
0.0,25,25.0,0.0,30.0,0.0,0.0,0.0,0.0,-13.0,0.0,2.0,0.0,0.0,0.0,7.347603510773508e-10,6.323295078619527e-10,5.571332326045232e-10,4.224550672231449e-10,3.157440492885245e-10,2.550195172844794e-10,1.7503642450139077e-10,1.1109432318939845e-10,7.103854509606293e-11,4.3757255265917756e-11,2.819393994608378e-11,1.7014369170544315e-11,9.888681805658848e-12,5.511917128533749e-12,3.2744371238917503e-12,1.957187387321925e-12,1.1736595177125188e-12,7.385506997167601e-13,4.672437144841919e-13,2.8751928662404634e-13,1.737163379441362e-13,1.0955820943982255e-13,6.23112705188945e-14,3.4183100229377587e-14,2.1291411163025416e-14,1.4424778871663234e-14,5.4911087686673485e-15,4.398641660339395e-15,4.4892253102193466e-15,2.4076892343181303e-15,1.1310797131371613e-08,6.451295289959592e-09,4.23916362433161e-09,2.7987569539315314e-09,1.8369798589247558e-09,1.065461218559348e-09,6.327089325321785e-10,3.490629263084208e-10,1.9983967176694315e-10,1.0553778304837837e-10,5.436402935027921e-11,2.7050326158079437e-11,1.426004297045841e-11,6.669440649828385e-12,3.1664285430703973e-12,1.8282720079746845e-12,9.018026421396664e-13,4.445393611823848e-13,2.669906699334076e-13,1.6213438565587163e-13,8.771544423559932e-14
0.0,26,26.0,0.0,30.0,0.0,0.0,0.0,0.0,-13.0,0.0,2.0,0.0,0.0,0.0,7.427845965520741e-10,6.373564773821286e-10,5.316137985484275e-10,4.187905770691287e-10,3.2942912273877823e-10,2.2967941727683504e-10,1.6602928386443277e-10,1.1563400680722946e-10,7.415296099554462e-11,4.7095321372369865e-11,2.6662053800407042e-11,1.62096926794889e-11,1.0162808100089181e-11,5.57250842670114e-12,2.993346235816519e-12,1.8597050537178516e-12,1.1449391770449093e-12,7.214891966901362e-13,4.284329277986166e-13,2.781234616872434e-13,1.6836377012307666e-13,1.058440463407516e-13,5.93190168092563e-14,3.5309350308154036e-14,2.3347550593653938e-14,1.2911260512249127e-14,7.5209345146103e-15,3.756784099442179e-15,-4.263222922507438e-17,1.7658387524270485e-15,1.0708352274866629e-08,6.8203947626278965e-09,4.438744086525837e-09,2.8922453584044052e-09,1.8294033214761768e-09,1.0471261675296288e-09,6.426076474515968e-10,3.5526033024967324e-10,1.9232825417202863e-10,1.0164592317064542e-10,5.4758567408670604e-11,2.7606843514798522e-11,1.2807628817872182e-11,6.655747504801473e-12,3.1801022030573256e-12,1.6567854871785455e-12,8.790265539059161e-13,4.532918644695823e-13,2.358016920706311e-13,1.3860160551698629e-13,7.838292816915372e-14
0.0,27,27.0,0.0,30.0,0.0,0.0,0.0,0.0,-13.0,0.0,2.0,0.0,0.0,0.0,7.442580053234918e-10,6.425419151513717e-10,5.339787545678306e-10,4.059682324229074e-10,3.247245002538314e-10,2.38892835724696e-10,1.731361858834643e-10,1.0317546127059449e-10,6.850244185221973e-11,4.383417884816883e-11,2.7604619687419437e-11,1.5784249777568513e-11,9.718631485943135e-12,5.353218578354059e-12,3.1726087620877355e-12,1.7837939121448223e-12,1.1463393675875788e-12,7.159257725307624e-13,4.3507014053367633e-13,2.70469807682335e-13,1.6536765502720995e-13,1.0373064167284477e-13,5.989684273420746e-14,3.385058513527362e-14,2.1970030139341958e-14,1.1473923273232622e-14,6.249996227537691e-15,5.977490474181081e-15,5.139536949545398e-16,-3.9545117209268225e-16,1.1094742620549094e-08,6.723224990395226e-09,4.331633590375471e-09,2.675592025085928e-09,1.7935976981476274e-09,1.0838089902261343e-09,6.239980941968617e-10,3.60473859946292e-10,2.001631270724326e-10,1.0108786806047313e-10,4.8483529529389955e-11,2.57593477642348e-11,1.3532369429404633e-11,6.558995271545542e-12,3.122655018988514e-12,1.627621252475864e-12,8.622699055114531e-13,4.4851517836001864e-13,2.4806668313107765e-13,1.2903601207922406e-13,5.686122469440871e-14
0.0,28,28.0,0.0,30.0,0.0,0.0,0.0,0.0,-13.0,0.0,2.0,0.0,0.0,0.0,7.423152930669252e-10,6.578580682739522e-10,5.167426582166057e-10,4.111174189802919e-10,3.3134764369999845e-10,2.4167955518662386e-10,1.6497091349670128e-10,1.1353200145302231e-10,7.114338258505098e-11,4.6417797631822783e-11,2.7136294565127193e-11,1.5100150322039705e-11,9.242223880309002e-12,5.023022599374149e-12,3.152973586912403e-12,1.798329443443435e-12,1.071877410412422e-12,6.842001586441181e-13,4.1545506481420806e-13,2.5944602724231665e-13,1.6091131998088027e-13,1.0565699470224279e-13,5.2888731580498655e-14,3.3230481878011435e-14,2.104058261826049e-14,1.1768841546954484e-14,6.754251084839611e-15,3.1740029380667293e-15,5.001174467446061e-16,1.0734597332779679e-15,1.1012197243817699e-08,7.189078119089951e-09,4.249742248278196e-09,2.898850395227828e-09,1.8632005719720497e-09,1.0622262109782761e-09,5.914241908789128e-10,3.578052456815889e-10,1.9505445444881245e-10,9.942805665225483e-11,5.404355662817258e-11,2.635144964906987e-11,1.2517260245304628e-11,5.9452876834946835e-12,3.263212717757772e-12,1.6322836350106315e-12,8.086662178330863e-13,4.3085243858621464e-13,2.333923652314278e-13,1.2305074096035216e-13,8.533944522071111e-14
0.0,29,29.0,0.0,30.0,0.0,0.0,0.0,0.0,-13.0,0.0,2.0,0.0,0.0,0.0,6.969438274391865e-10,6.014066965765335e-10,5.599381264535094e-10,4.20269689584729e-10,3.1023650869013605e-10,2.245375150073361e-10,1.6341829830248915e-10,1.1280649305379282e-10,6.840080333593313e-11,4.2761194146809754e-11,2.7078021169690073e-11,1.6332609482861323e-11,9.163219500335423e-12,5.018285007658645e-12,2.9360815911645744e-12,1.8019067614036512e-12,1.080385522243988e-12,6.413844511511154e-13,4.1581959451638244e-13,2.460350042488097e-13,1.6110630855546497e-13,9.646748315965376e-14,5.837561655047867e-14,3.437325454183627e-14,1.9730842002946914e-14,1.2846312975998017e-14,6.793376493899608e-15,4.367310541931985e-15,2.372234724388651e-15,2.0623869793753264e-15,1.0106049928974463e-08,7.029039977821883e-09,4.678539318080389e-09,2.809719278584657e-09,1.799913089013314e-09,1.059564711062862e-09,5.812874285951247e-10,3.5988034661642133e-10,1.8532099999237243e-10,1.000960215950393e-10,5.2786823358596535e-11,2.6172043542976122e-11,1.2850727245778593e-11,6.06563732018823e-12,3.2752003565991995e-12,1.5725807306180497e-12,7.863360771716392e-13,4.315735875581979e-13,2.1045446058858006e-13,1.3115923042018207e-13,4.0188355262124434e-14
0.0,30,30.0,0.0,30.0,0.0,0.0,0.0,0.0,-13.0,0.0,2.0,0.0,0.0,0.0,6.92893983766742e-10,6.561741777538313e-10,5.30442087304021e-10,4.301091006695533e-10,3.2147221203436996e-10,2.4154475630079405e-10,1.583141860832275e-10,1.0119458556207669e-10,6.945686075889276e-11,4.170888340327546e-11,2.6175182198293544e-11,1.5351350759829035e-11,9.101301845083738e-12,5.204850391944475e-12,2.8211423281654497e-12,1.7197649136240417e-12,1.0657770564375453e-12,6.126585745321865e-13,4.0416013882148403e-13,2.3438454090343645e-13,1.4510552718406894e-13,9.614207851773972e-14,5.4421001799539923e-14,3.747908467066266e-14,1.8906085807375912e-14,1.1410304076669941e-14,6.837092002632156e-15,3.93646991612024e-15,3.771764618812518e-16,2.9527537395889575e-15,1.0794321711178557e-08,7.124791983249532e-09,4.427816644199662e-09,2.8243011593817785e-09,1.8102021221316882e-09,1.069968038277585e-09,5.928286516698264e-10,3.4421361823254255e-10,1.9208875172922706e-10,1.026154119284379e-10,4.994079362362175e-11,2.6584472981915296e-11,1.2139255763760635e-11,6.055467284516683e-12,2.9960560557024783e-12,1.5596299228664656e-12,7.979191797505601e-13,3.894530349519431e-13,2.223418308438959e-13,1.2907933554985525e-13,6.99640748128653e-14
0.0,31,31.0,0.0,30.0,0.0,0.0,0.0,0.0,-13.0,0.0,2.0,0.0,0.0,0.0,6.991927216461095e-10,6.248119952067768e-10,5.332705603406953e-10,3.9647832422688685e-10,3.130318527280561e-10,2.41087754124648e-10,1.5181502809079126e-10,1.0708351189311982e-10,6.734575382078201e-11,4.3928512955207076e-11,2.6005935266477554e-11,1.4886926306903432e-11,8.859473449826861e-12,4.782741413090872e-12,2.7887272091249225e-12,1.7838658619934666e-12,1.0202899143983991e-12,6.55149631213502e-13,3.9059667569583406e-13,2.5101768210690954e-13,1.507878679889359e-13,9.56224812959468e-14,5.6127043964330997e-14,3.1768169407661835e-14,2.2158777807298067e-14,1.2850176790586117e-14,5.764820828676994e-15,4.0369414615315066e-15,3.886121627297841e-15,2.328666750937662e-15,1.0799205940791286e-08,7.1409196167997885e-09,4.498166569530133e-09,2.8229031603305243e-09,1.8664515650266937e-09,1.052380379934294e-09,6.317389297530702e-10,3.5597756042526827e-10,1.8243421183112902e-10,9.762531617472031e-11,5.1940406756352296e-11,2.5969938692109394e-11,1.2516654075689063e-11,5.937080816899871e-12,2.971062966562126e-12,1.46084000808204e-12,7.551321699802146e-13,3.936832493497617e-13,2.1074879849403482e-13,1.2411800948915314e-13,6.691673549390085e-14
0.0,32,32.0,0.0,30.0,0.0,0.0,0.0,0.0,-13.0,0.0,2.0,0.0,0.0,0.0,7.396145827563351e-10,6.382752320460381e-10,5.414853646201546e-10,4.0863326229395905e-10,3.222580542970582e-10,2.4173428764074315e-10,1.5812684098594784e-10,1.0523281212833603e-10,6.805305817182813e-11,4.360594547857024e-11,2.4767461816042842e-11,1.3715557891372763e-11,8.590415585772243e-12,4.7160988411332396e-12,2.7949434614715275e-12,1.5932887553822145e-12,9.488441500539933e-13,5.788361997965746e-13,3.592961553410433e-13,2.327697440531857e-13,1.4467301637959521e-13,8.862366708169122e-14,5.3759245517644676e-14,3.435537024973092e-14,2.0041066861826276e-14,1.1780763545920939e-14,8.162182557119968e-15,3.394385280304772e-15,1.4222016220918621e-15,2.4916189083148995e-15,1.085412710799478e-08,6.424074216705621e-09,4.4370398309010215e-09,2.7853180238041887e-09,1.8698238109833187e-09,1.0725959049408968e-09,6.132661532681529e-10,3.198169401121576e-10,1.7608268414525806e-10,9.650310794691923e-11,4.8811244827838575e-11,2.44540642767142e-11,1.2351566253873298e-11,5.736781438164455e-12,2.9147362065821132e-12,1.5126459621170947e-12,7.434438740294226e-13,3.7786465258990747e-13,2.0624207932629592e-13,1.0852978894032878e-13,5.458783749671426e-14
0.0,33,33.0,0.0,30.0,0.0,0.0,0.0,0.0,-13.0,0.0,2.0,0.0,0.0,0.0,7.007269280955062e-10,5.882133112663958e-10,5.114566934941663e-10,3.971877120054561e-10,3.0658322735268233e-10,2.266023081159669e-10,1.6218087866148075e-10,1.0179095769743318e-10,6.782008106467922e-11,4.4740086313748466e-11,2.5281058191377304e-11,1.4389642029925734e-11,8.331074859536853e-12,4.4439608203449474e-12,2.7624666024119986e-12,1.5667676184880229e-12,9.661861615222904e-13,6.071322186304473e-13,3.581130775279457e-13,2.342437840178329e-13,1.439842149263739e-13,9.046115816930001e-14,4.803365186095733e-14,3.117999771624491e-14,2.051193908162807e-14,1.1454736084719684e-14,7.391827452466329e-15,2.6628841186012696e-15,2.0342252253337244e-15,2.9315467909411906e-15,1.119811965730962e-08,6.8225726482988886e-09,4.559711675755268e-09,2.7613319387755096e-09,1.7866872800293455e-09,1.1535859813237984e-09,6.271856985297175e-10,3.3296661302233415e-10,1.9207802949698538e-10,9.955498655011147e-11,4.997961387611958e-11,2.4193092296450853e-11,1.1939577192052737e-11,5.701859928827403e-12,2.7941725709075767e-12,1.4322878631378347e-12,7.085852738225045e-13,3.838633242395129e-13,2.035367131908183e-13,9.919864595112031e-14,6.431223003452639e-14
0.0,34,34.0,0.0,30.0,0.0,0.0,0.0,0.0,-13.0,0.0,2.0,0.0,0.0,0.0,6.994965760497677e-10,6.060770394306925e-10,4.959077097419246e-10,3.9702926318522463e-10,3.1254567332072196e-10,2.3290010814228057e-10,1.562398750042467e-10,9.896009739604078e-11,6.566388743541647e-11,4.054618812678063e-11,2.3515268389896708e-11,1.4468909110620341e-11,8.268573526403143e-12,4.5605701994653565e-12,2.663921566216164e-12,1.541664062768985e-12,9.303946860300961e-13,5.752783021648138e-13,3.429464676209613e-13,2.2152097611660765e-13,1.402235135590745e-13,8.396153462297681e-14,5.1879722486676264e-14,3.162891075646589e-14,1.795751390325526e-14,1.172125461260855e-14,7.405416320797057e-15,4.379133996574519e-15,1.88395618914098e-15,2.322812661387995e-15,1.109018216885546e-08,7.052176626387558e-09,4.613372266589269e-09,2.8483594296237884e-09,1.8411792672607133e-09,1.0722906568439293e-09,6.06230558740004e-10,3.295899364707495e-10,1.9347652688206178e-10,9.301646607862637e-11,4.9386089612552364e-11,2.4017929250725205e-11,1.2084634661309933e-11,5.5554335659248015e-12,2.9244572329542712e-12,1.323926067592893e-12,7.194084398162732e-13,3.7217478859352126e-13,1.9920748177043295e-13,1.294219186378659e-13,5.6578642695263e-14
0.0,35,35.0,0.0,30.0,0.0,0.0,0.0,0.0,-13.0,0.0,2.0,0.0,0.0,0.0,7.647189853320851e-10,6.29175036483222e-10,5.202058357606785e-10,4.02646011050819e-10,3.0658260997856024e-10,2.2414407055364723e-10,1.566590573915772e-10,1.053711005796717e-10,6.483336281157829e-11,4.071474103447279e-11,2.370235809645134e-11,1.4649674334612095e-11,8.11808829743277e-12,4.6307281098006295e-12,2.579872554346208e-12,1.4703824528852593e-12,8.388404502204438e-13,5.834055329602854e-13,3.3480370852871266e-13,2.2053710910350322e-13,1.361385869255256e-13,8.497475202899894e-14,5.010228279055458e-14,3.146221758069178e-14,1.7925731399537583e-14,1.1623331443356611e-14,6.175170717032181e-15,4.683806630862595e-15,1.8459092235602596e-15,8.494817257369598e-16,1.0473204361005705e-08,7.067863480494827e-09,4.492256796421377e-09,2.8111028286846984e-09,1.8183278970434849e-09,1.0010894180839178e-09,5.774999366479214e-10,3.495068362235346e-10,1.8715910781013173e-10,9.169185215039431e-11,4.8462561167846066e-11,2.31352527173307e-11,1.1747024497606065e-11,5.43496298538117e-12,2.5911878553489626e-12,1.2794312085644887e-12,6.957274460935257e-13,3.7999015836191294e-13,1.9440904472054365e-13,9.183782033084587e-14,4.976633084910146e-14
0.0,36,36.0,0.0,30.0,0.0,0.0,0.0,0.0,-13.0,0.0,2.0,0.0,0.0,0.0,7.149753661023645e-10,6.247131416165427e-10,5.126904128157824e-10,3.9411213963026445e-10,3.115526261931611e-10,2.2920103919220473e-10,1.5719198388808382e-10,9.897277009705324e-11,6.882780271087713e-11,4.1479137601358407e-11,2.4335035637160592e-11,1.3880993501915991e-11,7.838217152945571e-12,4.26667062989241e-12,2.5891427645712926e-12,1.4476891874551085e-12,8.874287370145917e-13,5.475308096076147e-13,3.3945040164111206e-13,1.9820919536555827e-13,1.3511811551329442e-13,8.378890120799233e-14,4.636539158519609e-14,2.860815399697553e-14,2.0678550801784494e-14,9.848240164295247e-15,5.437728901526327e-15,2.031540672654401e-15,2.1430087936700936e-15,1.889895252884129e-16,1.1331560530661076e-08,7.302104158602096e-09,4.469315997428975e-09,2.81907762340291e-09,1.860365081364961e-09,1.0470459614423106e-09,6.068213037468505e-10,3.4230358005833895e-10,1.7887434492812394e-10,9.076467431410416e-11,4.6661882709984537e-11,2.4975621596025985e-11,1.1657007111413046e-11,5.232729102737577e-12,2.727936336920431e-12,1.2925875713592238e-12,6.381879778780127e-13,3.441780609396097e-13,1.8611383591746108e-13,1.1151944906090618e-13,5.3541161832205705e-14
0.0,37,37.0,0.0,30.0,0.0,0.0,0.0,0.0,-13.0,0.0,2.0,0.0,0.0,0.0,7.216310267710028e-10,6.116209768352088e-10,5.010524040527141e-10,3.9910250705258866e-10,2.967018753221473e-10,2.1647992688595783e-10,1.5685705180730703e-10,1.0198421372896779e-10,6.599352846819801e-11,3.951380334065374e-11,2.3655399839121755e-11,1.3286738058583793e-11,7.77974021404836e-12,4.2580803024980274e-12,2.606319901756822e-12,1.4357725954292802e-12,8.374409432322182e-13,5.023938068402604e-13,3.2697780150638e-13,2.0991918147509088e-13,1.3032989059728225e-13,8.254797328668704e-14,4.6512160016800053e-14,3.284902942722753e-14,1.6697583489937354e-14,1.0889182496049369e-14,6.320689965943286e-15,1.80909474441756e-15,1.824028320320015e-15,1.4728757515560841e-15,1.1552385589880367e-08,7.232615436713312e-09,4.74654778892351e-09,2.901079111263406e-09,1.781051787012738e-09,9.981425426805346e-10,5.755490648143873e-10,3.175167949678004e-10,1.7580362107829595e-10,9.619939426428076e-11,4.795980391100087e-11,2.3199053857742562e-11,1.1586990621684314e-11,5.285392018699806e-12,2.759381692774618e-12,1.280817206582729e-12,6.804653913684223e-13,3.428144823018725e-13,1.620805705095943e-13,9.416233397232325e-14,6.714261092141767e-14
0.0,38,38.0,0.0,30.0,0.0,0.0,0.0,0.0,-13.0,0.0,2.0,0.0,0.0,0.0,7.154879091553749e-10,5.981992303069774e-10,5.141018774366353e-10,3.7896193419802864e-10,3.046647573840112e-10,2.1902231108966744e-10,1.5646722128086643e-10,9.893030136588095e-11,6.063887663586638e-11,4.068014536553025e-11,2.2789390570889336e-11,1.3143597253737895e-11,7.953578009047966e-12,4.408629813448703e-12,2.389482102916799e-12,1.350028290725563e-12,8.70020073504832e-13,5.652837375006779e-13,3.02256038279485e-13,2.0014852814073846e-13,1.2577550650931464e-13,8.109115415016772e-14,4.634840359467594e-14,2.7872385342303526e-14,1.544632491381206e-14,9.821250162382467e-15,8.349842527097199e-15,3.0065418775255226e-15,2.502710787828985e-16,2.911387459941435e-16,1.089969660933158e-08,7.118320924305281e-09,4.508907776162491e-09,2.8548642575698895e-09,1.7197668133324274e-09,1.030889421330622e-09,6.076069571224888e-10,3.255848695677731e-10,1.775765137068165e-10,8.975326611211311e-11,4.777751129601998e-11,2.2993453076141752e-11,1.0950441887905679e-11,5.2173842994782e-12,2.3753299266165344e-12,1.1679268136337702e-12,6.473874524859289e-13,3.281769268281764e-13,1.6952929456653814e-13,1.1079260350001285e-13,3.945332250240826e-14
0.0,39,39.0,0.0,30.0,0.0,0.0,0.0,0.0,-13.0,0.0,2.0,0.0,0.0,0.0,6.911424129339035e-10,5.68361758269755e-10,5.094723657543003e-10,3.7486685363646025e-10,2.811269199411625e-10,2.2386150382696083e-10,1.4475489016240987e-10,1.0225520540194232e-10,6.357261720668021e-11,3.7370863599876805e-11,2.308784223372295e-11,1.3441895332760328e-11,7.374014845723504e-12,3.979082343897651e-12,2.4411282309260555e-12,1.4145132840495577e-12,8.134942481651652e-13,5.105320005823645e-13,3.048627141912788e-13,1.868658877707978e-13,1.2096546669370134e-13,7.859159086976417e-14,4.381104637182314e-14,2.927452309320753e-14,1.4850893541986555e-14,1.1179397396209264e-14,5.6203033715356964e-15,4.898111460235611e-15,2.7378367226757674e-15,1.202024446072738e-15,1.0836521835615561e-08,7.0813448333205694e-09,4.805215847911177e-09,2.8350755795575083e-09,1.7380174495592562e-09,1.0386113350443063e-09,5.897039327471477e-10,3.0634674047637444e-10,1.7528714535391452e-10,8.955573548547327e-11,4.6869972633526534e-11,2.3590243231390006e-11,1.070645765555084e-11,5.1154560074614e-12,2.5001438459147126e-12,1.2722818955766188e-12,5.994866223932927e-13,3.351581400233549e-13,1.6487315052797664e-13,1.0404345000032083e-13,3.902389664643425e-14
0.0,40,40.0,0.0,30.0,0.0,0.0,0.0,0.0,-13.0,0.0,2.0,0.0,0.0,0.0,6.919686738621487e-10,5.711755648636196e-10,5.102683413800854e-10,3.9561987093633037e-10,2.910526678590198e-10,2.1661476104727435e-10,1.4540348741713213e-10,9.949797951438221e-11,6.44220972356132e-11,3.9248588387565006e-11,2.387199452915482e-11,1.3647980872924295e-11,7.392833295874405e-12,4.267485783456891e-12,2.2583165543694185e-12,1.2905755072240809e-12,7.519368180905525e-13,4.77157048502955e-13,3.1055152065498503e-13,1.9304423714083771e-13,1.214132059096621e-13,7.431711348057916e-14,4.546129552376592e-14,2.710092577543573e-14,1.4710056302619255e-14,9.142802655311629e-15,5.2897891930316544e-15,3.034423515181552e-15,1.7714419186068577e-15,3.387100005033924e-16,1.0922606134510223e-08,7.3053732999715555e-09,4.653748461472003e-09,2.881339248876142e-09,1.7737417176507125e-09,1.0700320940716374e-09,5.725602841646802e-10,3.214793916341297e-10,1.767916416803571e-10,8.909523326546317e-11,4.7156774605359013e-11,2.2588389323810756e-11,1.1325478785914254e-11,4.8783584285069034e-12,2.420587357527786e-12,1.2064981284942043e-12,5.947989427437483e-13,3.030941827950957e-13,1.6564847978304846e-13,9.562383278513913e-14,5.6174555953107876e-14
0.0,41,41.0,0.0,30.0,0.0,0.0,0.0,0.0,-13.0,0.0,2.0,0.0,0.0,0.0,6.69865747775429e-10,5.737919003388157e-10,4.996447911056154e-10,3.869397996447701e-10,2.950000322460708e-10,2.101056735189235e-10,1.448875205673612e-10,9.200211645923977e-11,5.955553730026995e-11,3.735942493082701e-11,2.1722973586990172e-11,1.2972179274500727e-11,7.315303120655987e-12,4.120721688715576e-12,2.280180769213105e-12,1.337151424215101e-12,8.030114050844817e-13,4.785104520991732e-13,2.8957575332788673e-13,1.8547917364543153e-13,1.1163983913614422e-13,7.05207042343381e-14,4.426566926991335e-14,2.7809236848825655e-14,1.7363098567100848e-14,1.0392297759745532e-14,6.222723204275594e-15,2.0192412115926855e-15,2.354310283556977e-15,1.5291273299747692e-15,1.094180829724221e-08,7.125166280232563e-09,4.581446425379949e-09,2.872063575645194e-09,1.8010928269145787e-09,1.031901794078476e-09,5.693946967381977e-10,3.1902112256807183e-10,1.6312426047418287e-10,8.998299909133675e-11,4.5168445845834626e-11,2.177510441096967e-11,1.045634595754029e-11,5.005228043761013e-12,2.4417266900362267e-12,1.1470451806858976e-12,5.756669490342306e-13,2.8162500188079063e-13,1.5812559326782455e-13,9.459399888009536e-14,5.0774005648702486e-14
0.0,42,42.0,0.0,30.0,0.0,0.0,0.0,0.0,-13.0,0.0,2.0,0.0,0.0,0.0,6.739413283674655e-10,6.037718256606641e-10,4.867127197752702e-10,3.8493171728991503e-10,2.8415827770429294e-10,2.1489127988695774e-10,1.531643071851028e-10,9.1554792311576e-11,5.97409527749039e-11,3.856681211618943e-11,2.225759227331766e-11,1.3323314537256644e-11,6.812680496956766e-12,3.6328891078153444e-12,2.2493821474943543e-12,1.20969286541517e-12,7.449031402875534e-13,4.73918611505517e-13,2.679657353215563e-13,1.7994600083283438e-13,1.0972830655973096e-13,7.251990144375793e-14,4.0853249035358796e-14,2.8237367948949594e-14,1.5727825518754534e-14,9.112982032806338e-15,3.276814269233965e-15,3.135510120852274e-15,1.529306722046051e-15,2.1465271825931514e-15,1.0862291601440428e-08,7.416188937397239e-09,4.716885075297469e-09,2.8476039875085495e-09,1.7998184620792453e-09,9.901718584721247e-10,5.688853523988945e-10,3.221612968432375e-10,1.7176850312962273e-10,9.076367049270216e-11,4.630684204651928e-11,2.2347841153807013e-11,1.0530538232920378e-11,4.74705757479292e-12,2.341324134949834e-12,1.0707443458956484e-12,5.866626638919287e-13,2.870643942833523e-13,1.7650206256646044e-13,8.751014466329579e-14,5.962022724524487e-14
0.0,43,43.0,0.0,30.0,0.0,0.0,0.0,0.0,-13.0,0.0,2.0,0.0,0.0,0.0,6.75856665925021e-10,6.292231808015689e-10,4.875743406938164e-10,3.8390841102182895e-10,2.758599728314309e-10,2.1851219390891608e-10,1.497725440128169e-10,1.0048982321892651e-10,5.8199772136615464e-11,3.600007928536424e-11,2.1846622135557033e-11,1.2527986187546893e-11,7.070483963267177e-12,3.705620515955099e-12,2.1115874947635203e-12,1.251466420911729e-12,7.233176809840341e-13,4.473142112046876e-13,2.7290318039887093e-13,1.8627341141686394e-13,1.0714318973431101e-13,6.746596012067268e-14,4.021460943067929e-14,2.3920037508753213e-14,1.826626269603102e-14,9.752813578923018e-15,4.335468683813849e-15,4.131163633032724e-15,9.884131873366814e-16,2.0282115520533205e-15,1.1331655861124802e-08,7.486149142935043e-09,4.530032298819589e-09,2.81185646756943e-09,1.7468855824841308e-09,1.074165430747267e-09,5.698479033923447e-10,2.961738079645986e-10,1.6758440102165983e-10,8.616345522194323e-11,4.4652747154011626e-11,2.160220421822561e-11,1.0033707634770204e-11,4.615363165967724e-12,2.26901954222791e-12,1.1005366527762015e-12,6.048191205251494e-13,2.7328421123595153e-13,1.5041440347987828e-13,8.337305619057623e-14,4.519676535849624e-14
0.0,44,44.0,0.0,30.0,0.0,0.0,0.0,0.0,-13.0,0.0,2.0,0.0,0.0,0.0,6.530554153286511e-10,5.846560617460331e-10,4.802742329110698e-10,3.8187724483094037e-10,2.7230270576380186e-10,2.0380350900890254e-10,1.337572597016234e-10,9.039457437880404e-11,5.7338442934056404e-11,3.6561582312078976e-11,2.0510990795174864e-11,1.1642500765215203e-11,6.948855500570365e-12,3.471919062053816e-12,2.1629540541333824e-12,1.1898041250822013e-12,6.762927077325088e-13,4.532324502831556e-13,2.7230727566054686e-13,1.6940052406063394e-13,1.1395428189989083e-13,6.667498179427067e-14,3.8941570144201385e-14,2.3612925570496975e-14,1.4066366450069998e-14,9.275131920216942e-15,4.6870487644517824e-15,3.2954393324160702e-15,2.688472352191374e-15,1.4467847368160674e-15,1.0566179594814121e-08,7.070562951295866e-09,4.628654872605054e-09,2.8527713195061735e-09,1.7230592685048434e-09,9.812943219940614e-10,5.815615738317218e-10,3.041575021220331e-10,1.610841340967078e-10,8.24314702441603e-11,4.19616911060687e-11,2.128670516627755e-11,9.801626404422167e-12,4.551703808713562e-12,2.147713369138286e-12,1.0297904117653905e-12,5.601320407351398e-13,2.9478454473984265e-13,1.366286043499315e-13,9.111307022712621e-14,2.438895054240127e-14
0.0,45,45.0,0.0,30.0,0.0,0.0,0.0,0.0,-13.0,0.0,2.0,0.0,0.0,0.0,6.566450564036138e-10,5.629323261497196e-10,4.716722308089232e-10,3.439888755559228e-10,2.836191736835203e-10,2.0575924160507036e-10,1.3757661723662632e-10,9.269436715072143e-11,5.554661981980019e-11,3.393072719292124e-11,2.0872341599285532e-11,1.2356781655081568e-11,6.357725409038714e-12,3.7928749668357324e-12,2.1251187417748935e-12,1.1526977033850489e-12,7.059481006807104e-13,4.2753434707600477e-13,2.6224971200072734e-13,1.70238917435375e-13,1.0463748585880378e-13,6.607789238391992e-14,4.041231759355776e-14,2.6467198806751046e-14,1.4549281284612434e-14,9.47224193217562e-15,4.704447523358669e-15,2.6886915000165503e-15,2.1029578081163648e-15,2.018690963738606e-15,1.1283083367252682e-08,7.4136079448603755e-09,4.523145427019946e-09,2.9035937485391443e-09,1.7146236888769744e-09,1.0107313105458686e-09,5.82686608984507e-10,3.202556993433464e-10,1.6303657808795405e-10,8.05700886056471e-11,4.209711910015386e-11,2.1124034509454438e-11,9.70187001914745e-12,4.7939559591869825e-12,2.2851743645760365e-12,1.1306070824411345e-12,5.589211097157673e-13,2.7240408674339714e-13,1.4149641313088122e-13,8.44909580980421e-14,4.10176976624813e-14
0.0,46,46.0,0.0,30.0,0.0,0.0,0.0,0.0,-13.0,0.0,2.0,0.0,0.0,0.0,6.676975148112814e-10,5.625485747553093e-10,4.4961498801838065e-10,3.59641321215659e-10,2.8055098431669833e-10,1.9966948420536137e-10,1.3846267314986232e-10,8.822426956986067e-11,5.628748257942114e-11,3.453578888154314e-11,2.1180058596987385e-11,1.1862353698078088e-11,6.625113788109714e-12,3.3977182947427438e-12,2.08685132753344e-12,1.1349948217743318e-12,6.557093925482852e-13,4.242825234894627e-13,2.4942730825828617e-13,1.6519999382564112e-13,1.0563842126870378e-13,6.551550269689853e-14,3.667198631523498e-14,2.5499571555335223e-14,1.6643315180003602e-14,8.13686536598763e-15,4.95891896698439e-15,3.7025380866458155e-15,2.6280706859905675e-16,-6.60870414043357e-17,1.118940132890307e-08,7.252710688211581e-09,4.7284366156901625e-09,2.836272063327052e-09,1.7182907889675492e-09,1.1028834202270683e-09,5.520623619592528e-10,2.938762012041433e-10,1.6412716042252626e-10,8.378567495309735e-11,4.209637754927263e-11,1.947173921226869e-11,9.753703746947213e-12,4.6394964450802695e-12,2.079246161390618e-12,1.0422842391730539e-12,5.179386122174794e-13,2.5966216704979373e-13,1.4584524389548245e-13,6.66678086776239e-14,5.0190729279665397e-14
0.0,47,47.0,0.0,30.0,0.0,0.0,0.0,0.0,-13.0,0.0,2.0,0.0,0.0,0.0,6.273236756154429e-10,5.567997571039374e-10,4.916571163328174e-10,3.6295217836783877e-10,2.8073948167825446e-10,1.9881367243170885e-10,1.313715656735609e-10,9.682074103528711e-11,5.620218461325405e-11,3.328206147876386e-11,1.958343007545992e-11,1.1177872734206193e-11,6.681050031740225e-12,3.445606757346648e-12,1.950153838090647e-12,1.1146165445534757e-12,6.460412070602249e-13,4.059428561975725e-13,2.3407823842956556e-13,1.6463723631538264e-13,9.846734780498497e-14,6.402385350369194e-14,3.69546729483249e-14,2.1187709967168456e-14,1.2349706238302119e-14,8.56627948638158e-15,5.0899035088137704e-15,2.8079984331313062e-15,3.557226797870112e-16,9.374869993361725e-16,1.16532464521577e-08,7.488408444687677e-09,4.6116562338345985e-09,2.8473859958207237e-09,1.6862610760158231e-09,1.0341899626135416e-09,5.405890419810148e-10,2.9562011916198986e-10,1.5846093196134852e-10,8.05334293545156e-11,4.02845193316509e-11,2.0198865640069953e-11,9.481233514315975e-12,4.662030252309696e-12,2.126079644294263e-12,1.0093860174354777e-12,4.65211568146328e-13,2.514986801615815e-13,1.2566834541945968e-13,8.3293568614501e-14,3.779646713791896e-14
