Line_number,Fiducial,Easting,Northing,Height,Elevation,tx_pitch,tx_roll,tx_yaw,txrx_dx,txrx_dy,txrx_dz,rx_pitch,rx_roll,rx_yaw,S0Z_time_1.431e-04,S0Z_time_1.801e-04,S0Z_time_2.266e-04,S0Z_time_2.846e-04,S0Z_time_3.581e-04,S0Z_time_4.506e-04,S0Z_time_5.671e-04,S0Z_time_7.136e-04,S0Z_time_8.981e-04,S0Z_time_1.131e-03,S0Z_time_1.423e-03,S0Z_time_1.791e-03,S0Z_time_2.255e-03,S0Z_time_2.838e-03,S0Z_time_3.573e-03,S0Z_time_4.498e-03,S0Z_time_5.662e-03,S1Z_time_1.409e-05,S1Z_time_1.610e-05,S1Z_time_1.909e-05,S1Z_time_2.360e-05,S1Z_time_2.960e-05,S1Z_time_3.709e-05,S1Z_time_4.609e-05,S1Z_time_5.759e-05,S1Z_time_7.209e-05,S1Z_time_9.060e-05,S1Z_time_1.141e-04,S1Z_time_1.431e-04,S1Z_time_1.801e-04,S1Z_time_2.266e-04,S1Z_time_2.846e-04,S1Z_time_3.581e-04,S1Z_time_4.506e-04,S1Z_time_5.671e-04,S1Z_time_7.136e-04,S1Z_time_8.981e-04,S1Z_time_1.131e-03
0.0,0,0.0,0.0,30.0,0.0,0.0,0.0,0.0,-13.0,0.0,2.0,0.0,0.0,0.0,1.081474194007414e-09,8.070983166205762e-10,5.99088466841412e-10,4.409492930344078e-10,3.197487000080104e-10,2.294192957779264e-10,1.6302538544718493e-10,1.1480955706023221e-10,8.027063188212794e-11,5.56102109739051e-11,3.7969952880044695e-11,2.528411073352732e-11,1.6283125017744603e-11,1.0092778019370344e-11,5.998773686596903e-12,3.4142785275804087e-12,1.861448649670198e-12,6.7324833303496625e-09,6.055327843707629e-09,5.2902821073201624e-09,4.459438754242984e-09,3.7121137953479704e-09,3.06422193881642e-09,2.5357326362149254e-09,2.0706971238737045e-09,1.671740915866506e-09,1.3293282836343212e-09,1.0403530865368458e-09,8.050436069126873e-10,6.104797804263435e-10,4.5360690292325716e-10,3.308011807502867e-10,2.3486928628077416e-10,1.625682834189033e-10,1.0974644320539307e-10,7.257790098264692e-11,4.724760055950991e-11,3.0274553291569095e-11
0.0,1,1.0,0.0,30.0,0.0,0.0,0.0,0.0,-13.0,0.0,2.0,0.0,0.0,0.0,1.0814853360083794e-09,8.071099626154795e-10,5.991004172096335e-10,4.409611629052972e-10,3.197686846344273e-10,2.294693110964773e-10,1.631272556206747e-10,1.1496187497697504e-10,8.044234345227668e-11,5.5759734036767614e-11,3.8070309704684684e-11,2.5332511093214544e-11,1.6293397124145056e-11,1.0082675838350336e-11,5.98200854398342e-12,3.398350560772493e-12,1.8491394966340054e-12,6.732292538684489e-09,6.055136971393637e-09,5.290091127090672e-09,4.4592476569939345e-09,3.711922589765133e-09,3.0640306020282084e-09,2.535541229108813e-09,2.070505902914396e-09,1.6715501804489348e-09,1.3291382111662849e-09,1.0401642907807017e-09,8.048578066034275e-10,6.102991106783284e-10,4.534328721640007e-10,3.3063854204629896e-10,2.3473398141242395e-10,1.624868655992291e-10,1.0974002045272687e-10,7.264369662234472e-11,4.735799907138802e-11,3.03840136731851e-11
0.0,2,2.0,0.0,30.0,0.0,0.0,0.0,0.0,-13.0,0.0,2.0,0.0,0.0,0.0,1.0814965707083642e-09,8.071217480495326e-10,5.991124385353616e-10,4.409732628283418e-10,3.197902374444299e-10,2.2952350693305458e-10,1.6323555290851463e-10,1.1512059021476533e-10,8.061799089681297e-11,5.590998009711998e-11,3.8169177482608743e-11,2.5378741269550378e-11,1.6301852365398115e-11,1.0071414357319202e-11,5.9646365976994225e-12,3.3821574327863068e-12,1.8367397291998952e-12,6.73209735817746e-09,6.054941740936112e-09,5.289895836545729e-09,4.459052322813589e-09,3.7117272401685327e-09,3.063835236232096e-09,2.535345941282399e-09,2.0703110014011753e-09,1.671355996648666e-09,1.328944967181477e-09,1.0399727249312703e-09,8.046697789501251e-10,6.101167840202142e-10,4.5325780116801383e-10,3.30476093872697e-10,2.3460138913888884e-10,1.624115156005338e-10,1.0974210624957237e-10,7.271808927167863e-11,4.747455249305744e-11,3.049625394119504e-11
0.0,3,3.0,0.0,30.0,0.0,0.0,0.0,0.0,-13.0,0.0,2.0,0.0,0.0,0.0,1.0815079190351517e-09,8.071336923279418e-10,5.991245448659087e-10,4.409856607637094e-10,3.1981359404775877e-10,2.2958232285875834e-10,1.6335080822733672e-10,1.1528615566096213e-10,8.079785493262868e-11,5.606107029615566e-11,3.8266576772981026e-11,2.5422771078203098e-11,1.6308439707635395e-11,1.0058938770238289e-11,5.946610439828454e-12,3.36566485978039e-12,1.824228038508743e-12,6.731897446197458e-09,6.054741811840923e-09,5.289695898513618e-09,4.45885241931422e-09,3.7115274199196853e-09,3.0636355224303583e-09,2.5351464638732036e-09,2.070112122375908e-09,1.671158079554905e-09,1.3287482835831772e-09,1.039778147716827e-09,8.044793105944823e-10,6.09932607339896e-10,4.530815387843823e-10,3.303138101077037e-10,2.3447170138986835e-10,1.623426382509215e-10,1.0975319434651674e-10,7.280151514828584e-11,4.759753611857141e-11,3.061142975332476e-11
0.0,4,4.0,0.0,30.0,0.0,0.0,0.0,0.0,-13.0,0.0,2.0,0.0,0.0,0.0,1.081519402901743e-09,8.071458146627321e-10,5.991367507470525e-10,4.4099843474508194e-10,3.1983901345441045e-10,2.2964622001623447e-10,1.6347354871429423e-10,1.1545898707039069e-10,8.098216162278625e-11,5.62130785821592e-11,3.836250265463078e-11,2.5464564247514495e-11,1.6313111853656585e-11,1.0045200862905244e-11,5.927889014129922e-12,3.3488433595846726e-12,1.8115859874674282e-12,6.731692514456423e-09,6.0545368980930525e-09,5.289491030495053e-09,4.458647669001369e-09,3.7113228575222718e-09,3.0634311971857558e-09,2.5349425440532554e-09,2.069909025115245e-09,1.6709562005084564e-09,1.3285479490756105e-09,1.0395803753268112e-09,8.042862444139509e-10,6.097464412752746e-10,4.5290398951931454e-10,3.301517289207242e-10,2.3434517936917935e-10,1.6228069333202897e-10,1.0977379867850406e-10,7.289439198634544e-11,4.7727181694201165e-11,3.072965635988164e-11
0.0,5,5.0,0.0,30.0,0.0,0.0,0.0,0.0,-13.0,0.0,2.0,0.0,0.0,0.0,1.0815310413587324e-09,8.071581303829991e-10,5.991490684142558e-10,4.4101167192072543e-10,3.19866779011609e-10,2.297156836305581e-10,1.6360430289664408e-10,1.1563947241778816e-10,8.117109413969827e-11,5.636604028061821e-11,3.845692649884959e-11,2.5504076042538836e-11,1.6315823173878778e-11,1.0030158079988392e-11,5.908436710679211e-12,3.3316673223709544e-12,1.7987976221462532e-12,6.731482321812804e-09,6.054326760958924e-09,5.289280997460626e-09,4.458437842062334e-09,3.7111133294115484e-09,3.063222045423294e-09,2.5347339778259894e-09,2.069701517909712e-09,1.670750179924475e-09,1.3283438021092931e-09,1.039379274414403e-09,8.040904725289982e-10,6.095581936585663e-10,4.5272510825094064e-10,3.2998994917488093e-10,2.3422215147515565e-10,1.6222619516551796e-10,1.0980445545156917e-10,7.299712388962117e-11,4.786368423556522e-11,3.0851014684835036e-11
0.0,6,6.0,0.0,30.0,0.0,0.0,0.0,0.0,-13.0,0.0,2.0,0.0,0.0,0.0,1.0815428523268918e-09,8.071706525210224e-10,5.991615098697435e-10,4.4102547165401744e-10,3.198972019275535e-10,2.2979122612455188e-10,1.6374360356969435e-10,1.1582797504207581e-10,8.136479610328775e-11,5.651995528950195e-11,3.8549798524087204e-11,2.554125430407082e-11,1.6316528969960882e-11,1.0013772060901369e-11,5.888222281735891e-12,3.3141144601648732e-12,1.7858491223042337e-12,6.731266668838109e-09,6.054111203548761e-09,5.289065606403133e-09,4.45822275090117e-09,3.710898654480601e-09,3.0630078949565833e-09,2.5345206045284725e-09,2.0694894525203266e-09,1.6705398817634961e-09,1.3281357254379268e-09,1.039174756639849e-09,8.038919307494854e-10,6.093678143238598e-10,4.525448962768843e-10,3.298286280291213e-10,2.3410301194225747e-10,1.6217971204161904e-10,1.0984572408393808e-10,7.311010438370842e-11,4.8007207004103767e-11,3.097555610239125e-11
0.0,7,7.0,0.0,30.0,0.0,0.0,0.0,0.0,-13.0,0.0,2.0,0.0,0.0,0.0,1.0815548528017827e-09,8.071833919583808e-10,5.99174087744698e-10,4.4103994777132784e-10,3.1993062418654887e-10,2.2987338955334866e-10,1.638919899622732e-10,1.1602483660213007e-10,8.156337541957983e-11,5.6674791595680175e-11,3.8641049802838225e-11,2.557603977476013e-11,1.631518477317382e-11,9.996007674006557e-12,5.867218050585533e-12,3.2961652962340165e-12,1.772728511870137e-12,6.7310453937680995e-09,6.053890066761611e-09,5.2888447022688484e-09,4.458002246047259e-09,3.7106786899742792e-09,3.0627886123734675e-09,2.5343023026780813e-09,2.069272719959761e-09,1.670325209309337e-09,1.327923641956902e-09,1.0389667744385216e-09,8.036905941725113e-10,6.091752910364977e-10,4.523633984986537e-10,3.296679795881734e-10,2.3398822014611387e-10,1.6214186561539602e-10,1.0989818734254468e-10,7.323371813854363e-11,4.815788508952879e-11,3.1103306180239156e-11
0.0,8,8.0,0.0,30.0,0.0,0.0,0.0,0.0,-13.0,0.0,2.0,0.0,0.0,0.0,1.0815670590117722e-09,8.071963575424805e-10,5.991868162457707e-10,4.4105523100532153e-10,3.199674215519335e-10,2.2996274774526113e-10,1.6405000914090879e-10,1.1623037898304006e-10,8.17669071171441e-11,5.6830488122360605e-11,3.873059402061041e-11,2.5608366494696896e-11,1.6311745851672337e-11,9.976832261101909e-12,5.8453992704180686e-12,3.277802741517688e-12,1.7594254142138151e-12,6.730818369547631e-09,6.05366322632238e-09,5.288618164977867e-09,4.457776213148574e-09,3.710453328463958e-09,3.062564099996533e-09,2.5340789868823164e-09,2.069051247322425e-09,1.6701061019862146e-09,1.3277075115631553e-09,1.0387553177618307e-09,8.034864737006632e-10,6.089806463505667e-10,4.5218070158526533e-10,3.2950827447096697e-10,2.338783005015335e-10,1.6211333032940828e-10,1.0996245089923618e-10,7.336834169840924e-11,4.831582793648088e-11,3.12342676055321e-11
0.0,9,9.0,0.0,30.0,0.0,0.0,0.0,0.0,-13.0,0.0,2.0,0.0,0.0,0.0,1.081579486533811e-09,8.072095561870132e-10,5.991997122144371e-10,4.410714716583007e-10,3.2000800667307626e-10,2.300599082053416e-10,1.642182168017765e-10,1.1644490537644353e-10,8.197543539470337e-11,5.6986957034222694e-11,3.8818329013098767e-11,2.5638162229013793e-11,1.630616687146186e-11,9.956215046510325e-12,5.822743604591518e-12,3.2590117430348327e-12,1.7459308450348095e-12,6.730585501743415e-09,6.0534305906854744e-09,5.288385907308673e-09,4.457544570826304e-09,3.710222495681448e-09,3.0623342936979266e-09,2.533850605592198e-09,2.068824995447452e-09,1.669882533005199e-09,1.3274873288309097e-09,1.0385404115900777e-09,8.032796132959192e-10,6.087839352415793e-10,4.5199693299218774e-10,3.293498401897564e-10,2.3377384288036785e-10,1.6209483288078657e-10,1.1003914245266321e-10,7.351434346170035e-11,4.848112107175776e-11,3.13684224649287e-11
0.0,10,10.0,0.0,30.0,0.0,0.0,0.0,0.0,-13.0,0.0,2.0,0.0,0.0,0.0,1.081592150370303e-09,8.072229929698765e-10,5.992127963285041e-10,4.410888425100899e-10,3.2005283230601917e-10,2.3016551381440445e-10,1.6439717755375876e-10,1.1666870070134082e-10,8.218897504599764e-11,5.714408560442718e-11,3.890413810865274e-11,2.5665348903061674e-11,1.629840166998976e-11,9.934126675244992e-12,5.799230705338362e-12,3.23977899194195e-12,1.7322370369091368e-12,6.7303467271497885e-09,6.053192099630318e-09,5.2881478734721754e-09,4.457307269216278e-09,3.7099861490385055e-09,3.062099161395662e-09,2.5336171395274063e-09,2.0685939572455325e-09,1.6696545076749874e-09,1.3272631213404922e-09,1.038322114056608e-09,8.030700878222423e-10,6.085852433954667e-10,4.5181226074035994e-10,3.2919306225179704e-10,2.3367550347856313e-10,1.6208715172621388e-10,1.1012891050913448e-10,7.367208308520069e-11,4.8653827226990736e-11,3.150573401419897e-11
0.0,11,11.0,0.0,30.0,0.0,0.0,0.0,0.0,-13.0,0.0,2.0,0.0,0.0,0.0,1.081605064989569e-09,8.072366712425839e-10,5.992260944763464e-10,4.411075419949148e-10,3.201023946522457e-10,2.3028024433980656e-10,1.6458746476383086e-10,1.1690203149017037e-10,8.240751239186557e-11,5.7301737728858377e-11,3.89878913020544e-11,2.568984302960192e-11,1.628840311181859e-11,9.910538852592884e-12,5.774841872513845e-12,3.2200926811304094e-12,1.7183372905343214e-12,6.730102012950261e-09,6.052947723411351e-09,5.2879040382380235e-09,4.457064289060643e-09,3.709744276695891e-09,3.061858702095598e-09,2.5333786006374975e-09,2.0683581565561362e-09,1.6694220622470737e-09,1.3270349485308826e-09,1.0381005150544457e-09,8.028580013603528e-10,6.083846860635772e-10,4.516268938841714e-10,3.290383859120773e-10,2.335840060660084e-10,1.6209111660367598e-10,1.1023242288028268e-10,7.384191043964009e-11,4.883398700542945e-11,3.164614804445206e-11
0.0,12,12.0,0.0,30.0,0.0,0.0,0.0,0.0,-13.0,0.0,2.0,0.0,0.0,0.0,1.0816182443319265e-09,8.072505927663776e-10,5.992396393362481e-10,4.4112779767157997e-10,3.201572368157547e-10,2.3040481776232873e-10,1.6478966001322335e-10,1.17145145334566e-10,8.2631005821882e-11,5.7459755157393e-11,3.9069446283508436e-11,2.5711556118490085e-11,1.6276123003689224e-11,9.885424063567078e-12,5.749559777604559e-12,3.1999423040532144e-12,1.7042258485335806e-12,6.729851356326799e-09,6.052697462354667e-09,5.287654406505462e-09,4.456815641242417e-09,3.709496897075269e-09,3.0616129453718048e-09,2.5331350314915173e-09,2.0681176474292783e-09,1.669185263192172e-09,1.3268029009722715e-09,1.0378757352212057e-09,8.026434859028724e-10,6.08182407417172e-10,4.5144108361756217e-10,3.288863185195387e-10,2.335001435574756e-10,1.621076080412165e-10,1.1035036493148806e-10,7.402416420914152e-11,4.902161920683936e-11,3.1789593929539843e-11
0.0,13,13.0,0.0,30.0,0.0,0.0,0.0,0.0,-13.0,0.0,2.0,0.0,0.0,0.0,1.081631701783157e-09,8.072647578919844e-10,5.992534721953239e-10,4.411498700108835e-10,3.202179523747211e-10,2.3053999141468142e-10,1.6500435219656423e-10,1.173982699629576e-10,8.285938602674755e-11,5.7617958499267627e-11,3.9148649344192345e-11,2.5730395063372122e-11,1.6261512052133505e-11,9.858755355419457e-12,5.7233682411036506e-12,3.17931848793862e-12,1.6898977883596834e-12,6.729594784431205e-09,6.052441346815287e-09,5.287399013232337e-09,4.456561366676598e-09,3.7092440587277807e-09,3.0613619511992457e-09,2.5328865050101433e-09,2.0678725137478127e-09,1.6689442068258532e-09,1.3265670999747884e-09,1.0376479252177168e-09,8.024267003582578e-10,6.079785803549667e-10,4.5125512498421693e-10,3.2873743241047014e-10,2.334247798472246e-10,1.6213755681797255e-10,1.1048343759896358e-10,7.42191702028775e-11,4.9216720898459457e-11,3.193598542150713e-11
0.0,14,14.0,0.0,30.0,0.0,0.0,0.0,0.0,-13.0,0.0,2.0,0.0,0.0,0.0,1.081645450117071e-09,8.07279165802151e-10,5.992676450450949e-10,4.411740565238722e-10,3.2028518906025863e-10,2.3068656292019537e-10,1.6523213628450781e-10,1.1766161200588992e-10,8.309255598641711e-11,5.777614804922918e-11,3.92253361770437e-11,2.5746262502598022e-11,1.6244519851177893e-11,9.830506170100438e-12,5.696252053666867e-12,3.158212855743893e-12,1.6753489314013124e-12,6.729332354649145e-09,6.052179437425666e-09,5.287137923653185e-09,4.456301536489418e-09,3.7089858404913545e-09,3.0611058100697612e-09,2.5326331244706465e-09,2.0676228691224926e-09,1.6686990192177117e-09,1.3263276974651253e-09,1.0374172652308953e-09,8.022078298085341e-10,6.077734067344348e-10,4.51069359171988e-10,3.285923683115011e-10,2.3335885185320464e-10,1.6218194333991516e-10,1.1063235518274269e-10,7.44272394300448e-11,4.941926730026299e-11,3.208522124705033e-11
0.0,15,15.0,0.0,30.0,0.0,0.0,0.0,0.0,-13.0,0.0,2.0,0.0,0.0,0.0,1.0816595014092079e-09,8.072938148388945e-10,5.992822229935367e-10,4.4120069625374905e-10,3.2035965253097287e-10,2.3084537091478988e-10,1.6547361176197792e-10,1.179353554929669e-10,8.333039076650886e-11,5.793410447272166e-11,3.929933258889461e-11,2.5759057153300538e-11,1.622509489095008e-11,9.800650216426944e-12,5.6681968333104625e-12,3.1366179121824673e-12,1.6605757658607378e-12,6.729064155101268e-09,6.051911825579782e-09,5.286871233730427e-09,4.456036252429717e-09,3.7087223518807113e-09,3.060844643334822e-09,2.53237502372812e-09,2.0673688570052827e-09,1.6684498563308009e-09,1.3260848760742776e-09,1.0371839646436218e-09,8.019870849799803e-10,6.075671180124086e-10,4.508841763834001e-10,3.2845183922136203e-10,2.3330337171924706e-10,1.6224179689118328e-10,1.1079784291580557e-10,7.46486659770896e-11,4.9629211537926937e-11,3.2237185547008316e-11
0.0,16,16.0,0.0,30.0,0.0,0.0,0.0,0.0,-13.0,0.0,2.0,0.0,0.0,0.0,1.0816738669241511e-09,8.073087029406708e-10,5.992972870365559e-10,4.4123017465337326e-10,3.204421102280312e-10,2.3101729553066644e-10,1.6572938074811518e-10,1.1821966011661286e-10,8.357273716594935e-11,5.8091589381485426e-11,3.9370455137677124e-11,2.5768674118690814e-11,1.6203184580463124e-11,9.769161373967834e-12,5.639188912391454e-12,3.1145269499577685e-12,1.6455753813608706e-12,6.72879030533477e-09,6.051638634105932e-09,5.286599070792013e-09,4.455765647466552e-09,3.7084537336643677e-09,3.060578603728302e-09,2.5321123676060904e-09,2.0671106509765687e-09,1.6681969043482026e-09,1.3258388493889485e-09,1.036948261823994e-09,8.017647018980267e-10,6.073599762936288e-10,4.5070001928393403e-10,3.283166347452721e-10,2.3325942912505195e-10,1.6231819472099546e-10,1.1098063430511767e-10,7.488372471765905e-11,4.9846484305564e-11,3.2391748192347686e-11
0.0,17,17.0,0.0,30.0,0.0,0.0,0.0,0.0,-13.0,0.0,2.0,0.0,0.0,0.0,1.0816885569799694e-09,8.073238282186704e-10,5.993129372351197e-10,4.4126292886891024e-10,3.2053339529122e-10,2.3120325861624632e-10,1.6600004579977854e-10,1.1851465929151891e-10,8.381941325141181e-11,5.824834582535519e-11,3.9438511706270034e-11,2.5775005169295404e-11,1.6178735279694787e-11,9.73601362241348e-12,5.609215249299585e-12,3.091933972994903e-12,1.6303454135621746e-12,6.7285109571672825e-09,6.0513600180899955e-09,5.286321594317079e-09,4.455489886534788e-09,3.7081801585906135e-09,3.0603078760302844e-09,2.5318453524174886e-09,2.066848455169674e-09,1.6679403801509412e-09,1.3255898623258145e-09,1.0367104239942e-09,8.015409417084994e-10,6.07152275797829e-10,4.5051738703803323e-10,3.2818762585887026e-10,2.3322819365414116e-10,1.6241226092567864e-10,1.111814682377344e-10,7.51326688799323e-11,5.0070993471591726e-11,3.2548765003368245e-11
0.0,18,18.0,0.0,30.0,0.0,0.0,0.0,0.0,-13.0,0.0,2.0,0.0,0.0,0.0,1.0817035807943683e-09,8.07339189705889e-10,5.993292963477331e-10,4.4129945344847254e-10,3.2063441051197233e-10,2.3140422366340613e-10,1.6628620739751851e-10,1.188204580341215e-10,8.407020780836367e-11,5.840409872145052e-11,3.9503302022642963e-11,2.5777938999239924e-11,1.6151692337477048e-11,9.701180991574987e-12,5.5782633607440664e-12,3.068833634002626e-12,1.6148839973404027e-12,6.728226295650093e-09,6.051076165816168e-09,5.286038996836965e-09,4.455209167396771e-09,3.7079018322302932e-09,3.060032677838553e-09,2.5315742065829323e-09,2.0665825048029147e-09,1.6676805319176409e-09,1.325338191593157e-09,1.0364707471458481e-09,8.01316090657292e-10,6.069443447667998e-10,4.503368399495138e-10,3.280657700801222e-10,2.3321091716955093e-10,1.6252516508503076e-10,1.114010858437367e-10,7.539572749211323e-11,5.030262365442337e-11,3.2708077893565615e-11
0.0,19,19.0,0.0,30.0,0.0,0.0,0.0,0.0,-13.0,0.0,2.0,0.0,0.0,0.0,1.0817189463189875e-09,8.073547883178237e-10,5.993465139715082e-10,4.4134030649235254e-10,3.2074613229448733e-10,2.3162119540997286e-10,1.6658846111106415e-10,1.191371306833042e-10,8.432487973407894e-11,5.855855523818612e-11,3.9564618134278646e-11,2.577736145888379e-11,1.612200013276153e-11,9.664637528240234e-12,5.546321271287415e-12,3.045221184142746e-12,1.5991897273022133e-12,6.727936540122758e-09,6.050787299796946e-09,5.28575150492333e-09,4.454923721592293e-09,3.7076189939087137e-09,3.0597532604188424e-09,2.5312991913180623e-09,2.0663130667941e-09,1.6674176398206741e-09,1.325084146208152e-09,1.0362295559742858e-09,8.010904602301935e-10,6.067365478432648e-10,4.501590047286779e-10,3.2795211702770806e-10,2.3320893614564605e-10,1.6265812061207357e-10,1.1164022710733301e-10,7.567310272443863e-11,5.0541235789400304e-11,3.286951495540718e-11
0.0,20,20.0,0.0,30.0,0.0,0.0,0.0,0.0,-13.0,0.0,2.0,0.0,0.0,0.0,1.081734660070427e-09,8.07370628069586e-10,5.993647712486307e-10,4.4138611625851904e-10,3.2086961459080046e-10,2.318552190826716e-10,1.6690739444032652e-10,1.194647184814273e-10,8.458315739446924e-11,5.871140514839646e-11,3.9622244843382474e-11,2.577315576518426e-11,1.6089602117628766e-11,9.626357276963751e-12,5.513377477397309e-12,3.021092432950771e-12,1.583261624604415e-12,6.727641945334248e-09,6.05049367786751e-09,5.285459380238863e-09,4.454633815453197e-09,3.7073319177027442e-09,3.0594699096086085e-09,2.5310206013655743e-09,2.066040440436965e-09,1.667152016797208e-09,1.3248280680409472e-09,1.0359872038096105e-09,8.008643874639537e-10,6.065292889632867e-10,4.4998458041281303e-10,3.278478143431694e-10,2.3322367390240296e-10,1.6281238277513505e-10,1.1189962721778199e-10,7.596496714468046e-11,5.0786666704239674e-11,3.303289050204201e-11
0.0,21,21.0,0.0,30.0,0.0,0.0,0.0,0.0,-13.0,0.0,2.0,0.0,0.0,0.0,1.0817507269693743e-09,8.073867176007897e-10,5.993842861986354e-10,4.414375882336034e-10,3.2100599277010207e-10,2.321073792432183e-10,1.6724358332754503e-10,1.1980322703345276e-10,8.484473796382103e-11,5.886232116325122e-11,3.967596010812631e-11,2.576520269117589e-11,1.6054440861021078e-11,9.586314272541595e-12,5.47942092378683e-12,2.9964437169566204e-12,1.5670991092014836e-12,6.72734280260867e-09,6.050195594322406e-09,5.2851629206287484e-09,4.454339751161461e-09,3.7070409134815525e-09,3.0591829467513535e-09,2.5307387657504655e-09,2.065764958122069e-09,1.6668840093759758e-09,1.3245703323587625e-09,1.0357440725271058e-09,8.006382354494442e-10,6.063230148135111e-10,4.4981434497005776e-10,3.2775411395157857e-10,2.332566426858025e-10,1.6298924635116698e-10,1.1218001265258816e-10,7.627146090351823e-11,5.1038728716886555e-11,3.3198005076333866e-11
0.0,22,22.0,0.0,30.0,0.0,0.0,0.0,0.0,-13.0,0.0,2.0,0.0,0.0,0.0,1.0817671502027827e-09,8.074030720669952e-10,5.9940531974022e-10,4.414955126752072e-10,3.2115648737655e-10,2.3237879819803996e-10,1.6759758833645196e-10,1.201526236612752e-10,8.510928676431527e-11,5.901095925642513e-11,3.972553541407509e-11,2.575338073592126e-11,1.6016458092645515e-11,9.544482542446965e-12,5.444440990217685e-12,2.971271875704814e-12,1.5507019767792229e-12,6.727039441036054e-09,6.049893381074929e-09,5.284862461233654e-09,4.454041867832301e-09,3.706746327971954e-09,3.0588927296410114e-09,2.530454048539958e-09,2.0654869860879685e-09,1.6666139985425869e-09,1.3243113483445398e-09,1.035500572424773e-09,8.004123940577817e-10,6.061182189140894e-10,4.496491626189122e-10,3.2767237863178673e-10,2.333094455346339e-10,1.6319004286927117e-10,1.1248209698676949e-10,7.659268886613422e-11,5.1297209266887574e-11,3.336464543660114e-11
0.0,23,23.0,0.0,30.0,0.0,0.0,0.0,0.0,-13.0,0.0,2.0,0.0,0.0,0.0,1.0817839311282817e-09,8.074197154647772e-10,5.99428182469553e-10,4.4156077262616366e-10,3.213224077234307e-10,2.3267063393018885e-10,1.6796995049507835e-10,1.2051283467013396e-10,8.537643662039539e-11,5.915695898608304e-11,3.977073611900711e-11,2.5737566276239405e-11,1.5975594746860576e-11,9.500836117923147e-12,5.408427487264785e-12,2.945574234082548e-12,1.534070379744485e-12,6.7267322286692e-09,6.049587408820216e-09,5.284558375605887e-09,4.453740542605109e-09,3.7064485458306397e-09,3.0585996534572577e-09,2.5301668495914166e-09,2.0652069251905175e-09,1.6663424006273441e-09,1.3240515595659476e-09,1.0352571420611387e-09,8.001872809310844e-10,6.059154463974426e-10,4.494899918967347e-10,3.2760408886237567e-10,2.333837778702167e-10,1.6341613740361213e-10,1.1280657642365413e-10,7.692871770679355e-11,5.156187058902699e-11,3.353258452682372e-11
0.0,24,24.0,0.0,30.0,0.0,0.0,0.0,0.0,-13.0,0.0,2.0,0.0,0.0,0.0,1.0818010692453835e-09,8.074366834664884e-10,5.994532422647674e-10,4.416343523952224e-10,3.2150515526472254e-10,2.32984077510388e-10,1.68361186800046e-10,1.2088374254414704e-10,8.564578724154898e-11,5.929994382059866e-11,3.981132177353509e-11,2.57176337014764e-11,1.5931791006639653e-11,9.45534905275675e-12,5.3713706598070165e-12,2.919348590037806e-12,1.5172048117351538e-12,6.7264215737105116e-09,6.049278088185917e-09,5.284251076813157e-09,4.453436191727282e-09,3.7061479907069694e-09,3.0583041516739205e-09,2.5298776052738956e-09,2.0649252116806393e-09,1.6660696682002585e-09,1.3237914443710927e-09,1.0350142480523946e-09,7.999633427912238e-10,6.05715299562338e-10,4.4933789451051505e-10,3.275508499032911e-10,2.3348142874133175e-10,1.6366892487529772e-10,1.131541250447352e-10,7.72795729838689e-11,5.1832449435889753e-11,3.370158143779853e-11
0.0,25,25.0,0.0,30.0,0.0,0.0,0.0,0.0,-13.0,0.0,2.0,0.0,0.0,0.0,1.0818185622642863e-09,8.074540268508044e-10,5.994809327885934e-10,4.417173464912638e-10,3.217062266779541e-10,2.33320349942942e-10,1.6877178538187702e-10,1.2126518308843267e-10,8.591690464575956e-11,5.943952147247175e-11,3.9847046419262256e-11,2.5693455532542796e-11,1.5884986347929424e-11,9.407995449014593e-12,5.333261197218761e-12,2.8925932069147975e-12,1.5001060951935866e-12,6.726107925672588e-09,6.0489658708542175e-09,5.28394101851437e-09,4.453129271616345e-09,3.705845126280739e-09,3.0580066969238944e-09,2.5295867891508004e-09,2.064642317982649e-09,1.6657962909581948e-09,1.3235315161881412e-09,1.0347723848348264e-09,7.997410571325028e-10,6.055184442918939e-10,4.4919404500186514e-10,3.275143990658103e-10,2.336042816520745e-10,1.639498258234675e-10,1.1352538977847718e-10,7.764523621368315e-11,5.210865685413623e-11,3.387138136471983e-11
0.0,26,26.0,0.0,30.0,0.0,0.0,0.0,0.0,-13.0,0.0,2.0,0.0,0.0,0.0,1.0818364063107703e-09,8.074718156259312e-10,5.995117629626533e-10,4.418109689897122e-10,3.2192721658475754e-10,2.3368069840136726e-10,1.6920220033292525e-10,1.216569425359116e-10,8.618932063473013e-11,5.957528424361455e-11,3.987765886563345e-11,2.5664902526425986e-11,1.583511958489938e-11,9.358749489230836e-12,5.294090249411566e-12,2.865306809754581e-12,1.4827753716142413e-12,6.725791776497595e-09,6.048651250640408e-09,5.283628695993714e-09,4.452820279887761e-09,3.705540457260605e-09,3.0577078018048286e-09,2.529294912612702e-09,2.0643587534665846e-09,1.6655227965887342e-09,1.3232723237068293e-09,1.034532074406473e-09,7.995209343782177e-10,6.053256174331469e-10,4.490597412553538e-10,3.274966131149261e-10,2.337543148955448e-10,1.642602816067902e-10,1.1392098509063551e-10,7.802564196259107e-11,5.2390178017556197e-11,3.4041715565833196e-11
0.0,27,27.0,0.0,30.0,0.0,0.0,0.0,0.0,-13.0,0.0,2.0,0.0,0.0,0.0,1.0818545963147133e-09,8.074901439540958e-10,5.995463274875946e-10,4.4191656329991297e-10,3.2216981982771064e-10,2.340663918082577e-10,1.696528462020474e-10,1.2205875463766367e-10,8.646253233089095e-11,5.970680938400426e-11,3.9902902946180425e-11,2.563184376738442e-11,1.5782128916717027e-11,9.307585474687574e-12,5.25384944801426e-12,2.837488585011334e-12,1.465214094131166e-12,6.7254736616214635e-09,6.048334764514189e-09,5.283314647140296e-09,4.45250975633623e-09,3.7052345303288665e-09,3.057408019610737e-09,2.529002525451709e-09,2.064075065209963e-09,1.6652497515948437e-09,1.3230144509207684e-09,1.0342938660712776e-09,7.993035205961879e-10,6.051376352444618e-10,4.489364158749889e-10,3.274995157384518e-10,2.3393360131132436e-10,1.6460174899794777e-10,1.1434148740165134e-10,7.842067497782947e-11,5.267667211826604e-11,3.421230132617368e-11
0.0,28,28.0,0.0,30.0,0.0,0.0,0.0,0.0,-13.0,0.0,2.0,0.0,0.0,0.0,1.0818731266403958e-09,8.075091359983768e-10,5.99585318482771e-10,4.420356122910628e-10,3.224358332140888e-10,2.344787157140607e-10,1.7012409216299957e-10,1.2247029775654583e-10,8.673600178514557e-11,5.983365946462461e-11,3.9922517754482844e-11,2.5594146746057493e-11,1.572595197660379e-11,9.254477869559226e-12,5.2125309320909706e-12,2.8091381832181877e-12,1.4474240221599113e-12,6.725154160969435e-09,6.048016993550545e-09,5.282999453361235e-09,4.452198283859232e-09,3.7049279350189982e-09,3.0571079449756204e-09,2.528710216370415e-09,2.063791838745168e-09,1.6649777620633641e-09,1.322758517011095e-09,1.0340583362201675e-09,7.990894008850226e-10,6.049554030253211e-10,4.488256484474784e-10,3.275252850061066e-10,2.3414430737967416e-10,1.6497569413548072e-10,1.1478742923992528e-10,7.883016737877434e-11,5.296777231582914e-11,3.438284192986109e-11
0.0,29,29.0,0.0,30.0,0.0,0.0,0.0,0.0,-13.0,0.0,2.0,0.0,0.0,0.0,1.0818919920293566e-09,8.075289528263321e-10,5.996295383173572e-10,4.421697487214043e-10,3.2272715662894344e-10,2.349189664302007e-10,1.7061625586682305e-10,1.2289119198468084e-10,8.70091556632578e-11,5.995538276462891e-11,3.99362378598877e-11,2.5551677427770877e-11,1.5666525884013294e-11,9.199401350778039e-12,5.170127377890865e-12,2.7802557242111137e-12,1.429407217846237e-12,6.72483389987038e-09,6.047698563797821e-09,5.282683740417291e-09,4.451886489312511e-09,3.7046213045131673e-09,3.0568082144165543e-09,2.528418613420828e-09,2.063509698789905e-09,1.6647074743588006e-09,1.3225051760540013e-09,1.0338260881966045e-09,7.98879203561147e-10,6.047799260505928e-10,4.487291787028083e-10,3.275762607295504e-10,2.3438869156044723e-10,1.6538358579972685e-10,1.1525929314335128e-10,7.925389593132803e-11,5.3263085742438695e-11,3.4553026643982914e-11
0.0,30,30.0,0.0,30.0,0.0,0.0,0.0,0.0,-13.0,0.0,2.0,0.0,0.0,0.0,1.081911188941129e-09,8.075498005187266e-10,5.996799137012648e-10,4.4232076590104947e-10,3.230457934117594e-10,2.353884443734645e-10,1.7112959699208613e-10,1.2332099630626517e-10,8.728138501766501e-11,6.00715136717311e-11,3.994379350281906e-11,2.5504300311388884e-11,1.560378730085386e-11,9.142330863556175e-12,5.126632032194636e-12,2.750841804578106e-12,1.411166044108366e-12,6.7245135498778125e-09,6.047380147051828e-09,5.282368179171596e-09,4.4515750442882386e-09,3.704315316346641e-09,3.0565095067642327e-09,2.5281283843708024e-09,2.06322930995898e-09,1.6644395757224926e-09,1.3222551165380789e-09,1.0335977523096636e-09,7.986736052963391e-10,6.046123219379679e-10,4.4864892057238096e-10,3.276549516208532e-10,2.346691017799513e-10,1.6582688798252498e-10,1.1575750532527384e-10,7.969157942908945e-11,5.356219356070998e-11,3.4722530716729483e-11
0.0,31,31.0,0.0,30.0,0.0,0.0,0.0,0.0,-13.0,0.0,2.0,0.0,0.0,0.0,1.0819307173941382e-09,8.075719396461836e-10,5.997375110987264e-10,4.424906285025986e-10,3.233938498827645e-10,2.3588844658075973e-10,1.7166431051083322e-10,1.2375920582796392e-10,8.755204515034918e-11,6.018157309397217e-11,3.994491076940043e-11,2.5451878480161348e-11,1.553767249273227e-11,9.083241682542262e-12,5.0820387488857806e-12,2.7208975070538905e-12,1.3927031640863936e-12,6.724193829486694e-09,6.047062461525498e-09,5.2820534862425705e-09,4.451264665806825e-09,3.7040106930068316e-09,3.0562125434709337e-09,2.5278402369982646e-09,2.0629513774560777e-09,1.6641747947548985e-09,1.3220090606815025e-09,1.0333739860759756e-09,7.984733373769353e-10,6.044538345826993e-10,4.485869771321703e-10,3.2776404213214444e-10,2.34987971964583e-10,1.6630705172397706e-10,1.1628242912510353e-10,8.014287620578604e-11,5.3864651068989156e-11,3.489101539211473e-11
0.0,32,32.0,0.0,30.0,0.0,0.0,0.0,0.0,-13.0,0.0,2.0,0.0,0.0,0.0,1.0819505834286037e-09,8.075956962914057e-10,5.998035535195719e-10,4.4268148341580164e-10,3.237735338970666e-10,2.364202583564762e-10,1.7222051969234955e-10,1.2420524909980404e-10,8.782045557112869e-11,6.028506888020972e-11,3.993931174506126e-11,2.5394273646125136e-11,1.54681173962445e-11,9.022109478632784e-12,5.0363420284212985e-12,2.6904244116238266e-12,1.374021541836096e-12,6.723875504735609e-09,6.046746272404783e-09,5.281740424553648e-09,4.45095611691487e-09,3.7037082024154874e-09,3.055918088787657e-09,2.5275549193160904e-09,2.06267664774423e-09,1.6639139017567514e-09,1.3217677635455517e-09,1.0331554747933022e-09,7.982791932787497e-10,6.043058497974187e-10,4.48545656402889e-10,3.279063988432936e-10,2.35347817516117e-10,1.6682550619394403e-10,1.1683435826813824e-10,8.06073818040313e-11,5.4169987847436454e-11,3.505812794332476e-11
0.0,33,33.0,0.0,30.0,0.0,0.0,0.0,0.0,-13.0,0.0,2.0,0.0,0.0,0.0,1.081970802335546e-09,8.076214748093228e-10,5.998794387326112e-10,4.428956705227699e-10,3.241871522972147e-10,2.369851440186376e-10,1.7279826887143454e-10,1.2465848555002779e-10,8.808590005438894e-11,6.038149624593461e-11,3.992671464684297e-11,2.5331346189760534e-11,1.5395057693370923e-11,8.95891039147538e-12,4.989537059919422e-12,2.6594246081383015e-12,1.355124444121674e-12,6.723559389685383e-09,6.046432392283005e-09,5.281429803774194e-09,4.450650207182151e-09,3.7034086582821758e-09,3.0556269498036418e-09,2.527273219733599e-09,2.0624059091936196e-09,1.6636577089024448e-09,1.3215320119487864e-09,1.0329429325733667e-09,7.980920377761207e-10,6.041699127964896e-10,4.4852748796070085e-10,3.2808507624754117e-10,2.357512296202889e-10,1.6738364900111595e-10,1.174135099635818e-10,8.10846268257667e-11,5.4477707936499164e-11,3.522350172646849e-11
0.0,34,34.0,0.0,30.0,0.0,0.0,0.0,0.0,-13.0,0.0,2.0,0.0,0.0,0.0,1.0819914028215688e-09,8.07649772532282e-10,5.999667589317886e-10,4.43135733248565e-10,3.2463710712781026e-10,2.375843367151299e-10,1.733975160126663e-10,1.2511820305762063e-10,8.834762679578556e-11,6.047033820035024e-11,3.990683393423352e-11,2.5262955196747915e-11,1.531842889405306e-11,8.893621107716111e-12,4.941619765615338e-12,2.6279007102713765e-12,1.336015443178994e-12,6.723246346766394e-09,6.0461216814674244e-09,5.281122480647173e-09,4.450347793091675e-09,3.703112920318828e-09,3.05533997634471e-09,2.5269959671636557e-09,2.0621399927040363e-09,1.6634070702166526e-09,1.3213026231974072e-09,1.0327371039906448e-09,7.979128178291213e-10,6.040477476633467e-10,4.4853524029033727e-10,3.2830332176703356e-10,2.362008682778799e-10,1.679828357185871e-10,1.1802001787442788e-10,8.157407498974909e-11,5.4787290037700215e-11,3.538675625623304e-11
0.0,35,35.0,0.0,30.0,0.0,0.0,0.0,0.0,-13.0,0.0,2.0,0.0,0.0,0.0,1.0820124323077881e-09,8.076811966411061e-10,6.000673218683396e-10,4.434044287185435e-10,3.2512589046958814e-10,2.382190272874029e-10,1.7401812510714934e-10,1.255836156862859e-10,8.860484866887538e-11,6.055106597004218e-11,3.987938039855389e-11,2.5188958493844234e-11,1.5238166428041244e-11,8.826218945043437e-12,4.8925868474625985e-12,2.595855870683649e-12,1.3166984203315089e-12,6.72293728698725e-09,6.04581504815258e-09,5.280819359200834e-09,4.450049778317706e-09,3.7028218943054327e-09,3.0550580607295113e-09,2.5267240310877426e-09,2.061879772298068e-09,1.6631628813232386e-09,1.3210804436611629e-09,1.0325387665368733e-09,7.977425755194408e-10,6.039412789350195e-10,4.485719387872305e-10,3.285645798114842e-10,2.366994539462309e-10,1.6862436862184737e-10,1.1865392499759035e-10,8.207512142101048e-11,5.5098187725059365e-11,3.554749730468289e-11
0.0,36,36.0,0.0,30.0,0.0,0.0,0.0,0.0,-13.0,0.0,2.0,0.0,0.0,0.0,1.0820339635936943e-09,8.077164834356078e-10,6.001831734406768e-10,4.437047373285352e-10,3.256560777452293e-10,2.3889035216638866e-10,1.746598584433546e-10,1.260538616033231e-10,8.885674357991113e-11,6.06231394140538e-11,3.984406123119366e-11,2.5109212686069182e-11,1.5154205747092574e-11,8.756681942080125e-12,4.84243583568689e-12,2.563293797274679e-12,1.297177570351821e-12,6.722633170001424e-09,6.045513448458988e-09,5.280521390844308e-09,4.449757113887561e-09,3.7025365319979927e-09,3.054782137386351e-09,2.5264583215947008e-09,2.061626165678511e-09,1.6629260789337967e-09,1.3208663472424601e-09,1.0323487341093925e-09,7.975824633327666e-10,6.038526554299088e-10,4.486408842863065e-10,3.2887249467376304e-10,2.3724975767901867e-10,1.6930948464310118e-10,1.1931517649746545e-10,8.258709119633937e-11,5.540982965380755e-11,3.570531702417613e-11
0.0,37,37.0,0.0,30.0,0.0,0.0,0.0,0.0,-13.0,0.0,2.0,0.0,0.0,0.0,1.0820561031527423e-09,8.077565202488879e-10,6.003166217075591e-10,4.440398715069996e-10,3.2623031934531927e-10,2.395993802939576e-10,1.7532236879884191e-10,1.2652800120620936e-10,8.910245491721094e-11,6.06860074247577e-11,3.980058007134353e-11,2.5023573197580548e-11,1.5066482438590413e-11,8.684988954163097e-12,4.791165139116428e-12,2.5302187704268825e-12,1.277457406468267e-12,6.722335004027924e-09,6.045217886335821e-09,5.280229574348195e-09,4.4494707982239045e-09,3.7022578308713777e-09,3.05451318233749e-09,2.526199789411852e-09,2.06138013474012e-09,1.6626976400426717e-09,1.320661233809256e-09,1.0321678618045073e-09,7.974337621125193e-10,6.037842764319908e-10,4.487456719620586e-10,3.292309120364905e-10,2.378545896537132e-10,1.7003934255482324e-10,1.2000361254084299e-10,8.310923816841398e-11,5.5721619751559477e-11,3.5859794095080156e-11
0.0,38,38.0,0.0,30.0,0.0,0.0,0.0,0.0,-13.0,0.0,2.0,0.0,0.0,0.0,1.0820790013665426e-09,8.078023702580198e-10,6.004702622587565e-10,4.444132834197543e-10,3.268513304206465e-10,2.4034709907313876e-10,1.7600519160478007e-10,1.270050154785806e-10,8.934109208958172e-11,6.073910830860624e-11,3.974863703430176e-11,2.4931894318802413e-11,1.4974932351620175e-11,8.611119755039007e-12,4.738774097137293e-12,2.4966356611630387e-12,1.2575427659220376e-12,6.722043845626016e-09,6.0449294133304775e-09,5.279944955714197e-09,4.4491918770653684e-09,3.7019868336914383e-09,3.054252212562875e-09,2.5259494259505382e-09,2.0611426860214664e-09,1.662478580795777e-09,1.3204660276909543e-09,1.0319970523360427e-09,7.972979020365476e-10,6.037388203262934e-10,4.488902104073822e-10,3.296438788438733e-10,2.3851678597941097e-10,1.7081500940549248e-10,1.207189611856819e-10,8.364074408919192e-11,5.6032937375658455e-11,3.601049389866747e-11
0.0,39,39.0,0.0,30.0,0.0,0.0,0.0,0.0,-13.0,0.0,2.0,0.0,0.0,0.0,1.082102865048294e-09,8.078553004483284e-10,6.006470048403664e-10,4.4482867133812643e-10,3.2752187868679326e-10,2.411343993615684e-10,1.7670773714015747e-10,1.2748380459572876e-10,8.957173114624739e-11,6.078187014066156e-11,3.9687928721935276e-11,2.4834029262559414e-11,1.4879491736500917e-11,8.535055144488367e-12,4.685263033138724e-12,2.4625499501493592e-12,1.2374388159839696e-12,6.721760799326055e-09,6.044649128230163e-09,5.2796686279399056e-09,4.448921443263852e-09,3.701724627912278e-09,3.054000285260143e-09,2.5257082633902424e-09,2.060914871077198e-09,1.6622699550036596e-09,1.3202816763723582e-09,1.0318372644538275e-09,7.971764869933636e-10,6.037192757555489e-10,4.4907874065708435e-10,3.3011564127350924e-10,2.392391936831922e-10,1.7163744624150768e-10,1.214608313806386e-10,8.418071805045339e-11,5.6343137419138146e-11,3.615696871526362e-11
0.0,40,40.0,0.0,30.0,0.0,0.0,0.0,0.0,-13.0,0.0,2.0,0.0,0.0,0.0,1.0821279726538888e-09,8.079168129886652e-10,6.008501010886797e-10,4.4528998436060356e-10,3.2824477008901125e-10,2.419620595352286e-10,1.774292828172827e-10,1.27963186797639e-10,8.97934154686517e-11,6.081371108677458e-11,3.961814821745619e-11,2.4729830232148982e-11,1.4780097398712918e-11,8.456777061871424e-12,4.630633309333287e-12,2.4279677474898147e-12,1.2171510603422242e-12,6.721487017121912e-09,6.044378176584263e-09,5.279401730687291e-09,4.448660636457767e-09,3.7014723448978623e-09,3.053758497024772e-09,2.525477374827559e-09,2.0606977867438904e-09,1.6620728522744486e-09,1.3201091495642473e-09,1.0316895237975547e-09,7.970713227571566e-10,6.037289753355923e-10,4.493158548760505e-10,3.306506405241428e-10,2.4002465378091214e-10,1.7250749316135673e-10,1.2222870613621014e-10,8.472819625595834e-11,5.665155034670261e-11,3.6298757947347466e-11
0.0,41,41.0,0.0,30.0,0.0,0.0,0.0,0.0,-13.0,0.0,2.0,0.0,0.0,0.0,1.0821546926304768e-09,8.079886802693397e-10,6.010831731764348e-10,4.4580142514673806e-10,3.290228321802078e-10,2.4283072866350575e-10,1.781689656244327e-10,1.284418975448932e-10,9.000515652237265e-11,6.083403968741225e-11,3.9538985067318765e-11,2.4619148504456646e-11,1.467668686809966e-11,8.37626870557428e-12,4.57488738285418e-12,2.3928958132635285e-12,1.1966853457736854e-12,6.7212236978327856e-09,6.044117750119156e-09,5.279145449866009e-09,4.448410642621602e-09,3.7012311589698605e-09,3.053527982980277e-09,2.5252578745165487e-09,2.060492575264937e-09,1.6618883957523904e-09,1.3199494388826694e-09,1.0315549366881534e-09,7.969844493794839e-10,6.037716319261158e-10,4.496065143817122e-10,3.3125350611791533e-10,2.4087598234880864e-10,1.734258537610924e-10,1.23021935931821e-10,8.528214213540455e-11,5.695748214134977e-11,3.643538836695566e-11
0.0,42,42.0,0.0,30.0,0.0,0.0,0.0,0.0,-13.0,0.0,2.0,0.0,0.0,0.0,1.0821835054068503e-09,8.080729838414901e-10,6.01350243118054e-10,4.4636745029071345e-10,3.298588950727545e-10,2.4374090885186695e-10,1.7892577479520292e-10,1.289185889694766e-10,9.020593465527533e-11,6.084225509746025e-11,3.945012525375678e-11,2.4501834531371085e-11,1.4569198584138835e-11,8.293514658313633e-12,4.5180288630504354e-12,2.35734157876325e-12,1.1760478690127918e-12,6.720972086347394e-09,6.043869086061759e-09,5.278901017144475e-09,4.448172693491582e-09,3.7010022862873988e-09,3.053309915896202e-09,2.5250509182267196e-09,2.0603004242307367e-09,1.6617177394622737e-09,1.3198035584329517e-09,1.0314347074313371e-09,7.969181782288277e-10,6.038513774027057e-10,4.4995606661583825e-10,3.31929046400151e-10,2.4179594952570113e-10,1.7439307904401922e-10,1.2383973242591712e-10,8.5841446805239e-11,5.726021414187152e-11,3.656637438629703e-11
0.0,43,43.0,0.0,30.0,0.0,0.0,0.0,0.0,-13.0,0.0,2.0,0.0,0.0,0.0,1.082215029587343e-09,8.081721574749653e-10,6.016557624156095e-10,4.4699276793121173e-10,3.307557698363169e-10,2.446929368249292e-10,1.7969854477702115e-10,1.2939182962858077e-10,9.039469992595737e-11,6.083774727685405e-11,3.935125116224512e-11,2.437773806289377e-11,1.4457572097990562e-11,8.2085010182447e-12,4.4600625699192165e-12,2.321313168396388e-12,1.1552451837300355e-12,6.720733472766343e-09,6.043633466391209e-09,5.2786697094040884e-09,4.447948065868861e-09,3.7007869835696493e-09,3.053105505339309e-09,2.524857703741517e-09,2.060122566280199e-09,1.661562065282121e-09,1.3196725466716054e-09,1.0313301597860523e-09,7.968751341151991e-10,6.039728038145988e-10,4.5037026062205754e-10,3.326822359067948e-10,2.427872563921632e-10,1.7540955088198495e-10,1.2468116253804024e-10,8.640492987532598e-11,5.755900275148729e-11,3.6691218350056176e-11
0.0,44,44.0,0.0,30.0,0.0,0.0,0.0,0.0,-13.0,0.0,2.0,0.0,0.0,0.0,1.0822500529697973e-09,8.08289034519382e-10,6.020046416544781e-10,4.476823321648661e-10,3.31716224229351e-10,2.456869648402762e-10,1.8048594857321368e-10,1.298601045648759e-10,9.057037294458959e-11,6.081989712765365e-11,3.9242041548987113e-11,2.4246708295443014e-11,1.4341748291931141e-11,8.12121553580422e-12,4.400994593632247e-12,2.284819422209415e-12,1.134284207532975e-12,6.720509191462917e-09,6.043412217042147e-09,5.278452848153167e-09,4.447738080800787e-09,3.7005865466770555e-09,3.052915996911043e-09,2.524679471515522e-09,2.0599602784996337e-09,1.6614225795974866e-09,1.3195574700101442e-09,1.0312427633332417e-09,7.968583029335023e-10,6.041410067389322e-10,4.508552605232683e-10,3.335181992602233e-10,2.43852509693191e-10,1.7647546513073228e-10,1.255451429725888e-10,8.697134059345602e-11,5.7853078998495985e-11,3.680941084733552e-11
0.0,45,45.0,0.0,30.0,0.0,0.0,0.0,0.0,-13.0,0.0,2.0,0.0,0.0,0.0,1.082289569067625e-09,8.084268997080485e-10,6.024022795768303e-10,4.4844133380348795e-10,3.3274295567176724e-10,2.4672294104184424e-10,1.812864915337731e-10,1.3032181567144302e-10,9.073184570646993e-11,6.078807657418055e-11,3.912217151437746e-11,2.410859404893256e-11,1.4221669616670453e-11,8.031647756208514e-12,4.3408323551308595e-12,2.247869918995021e-12,1.1131722289004557e-12,6.720300620087473e-09,6.043206707086906e-09,5.278251798918051e-09,4.447544102641275e-09,3.700402309074579e-09,3.052742671632525e-09,2.5245175054997948e-09,2.0598148814445568e-09,1.6613005097331768e-09,1.3194594287323474e-09,1.0311741655666323e-09,7.968710852437953e-10,6.043616305554549e-10,4.514176564279666e-10,3.344421912490175e-10,2.449941943946541e-10,1.7759081451700042e-10,1.264304352534693e-10,8.753935931171163e-11,5.814164793105266e-11,3.692043104061468e-11
0.0,46,46.0,0.0,30.0,0.0,0.0,0.0,0.0,-13.0,0.0,2.0,0.0,0.0,0.0,1.0823348198741861e-09,8.085895454846035e-10,6.028545910721826e-10,4.4927518699151676e-10,3.3383856139089945e-10,2.4780058938080243e-10,1.820985056692901e-10,1.30775282353606e-10,9.087798239708725e-11,6.074164858410875e-11,3.8991312489262844e-11,2.3963243976246348e-11,1.409728034694003e-11,7.939789167523635e-12,4.2795846677828295e-12,2.210474999936576e-12,1.0919169139605757e-12,6.7201091785438796e-09,6.043018347926893e-09,5.278067970629317e-09,4.447367537991359e-09,3.7002356402078478e-09,3.052586845544973e-09,2.5243731341331826e-09,2.0596877377017306e-09,1.661197100315173e-09,1.3193795659213413e-09,1.0311262306154899e-09,7.969173561762958e-10,6.046409152646188e-10,4.5206447212718883e-10,3.35459572747505e-10,2.462146440914972e-10,1.787553714302666e-10,1.2733564133669558e-10,8.81075992497739e-11,5.842388783021207e-11,3.7023747008456626e-11
0.0,47,47.0,0.0,30.0,0.0,0.0,0.0,0.0,-13.0,0.0,2.0,0.0,0.0,0.0,1.0823873456624229e-09,8.087813328550824e-10,6.033680334275619e-10,4.501895111810513e-10,3.3500550570276226e-10,2.489193892512652e-10,1.8292014456016713e-10,1.3121874247331e-10,9.100762014629135e-11,6.067996712994314e-11,3.884913224170021e-11,2.381050680873575e-11,1.3968526855620552e-11,7.84563335422104e-12,4.217261800108893e-12,2.1726457927369992e-12,1.070526313020951e-12,6.719936327971584e-09,6.042848592526224e-09,5.2779028150193324e-09,4.447209834520434e-09,3.7000879438328436e-09,3.0524498695997345e-09,2.524247731480992e-09,2.0595802499030488e-09,1.6611136097909169e-09,1.3193190802376533e-09,1.0311010855969951e-09,7.970015320001057e-10,6.04985744355484e-10,4.5280316887554017e-10,3.365757821375522e-10,2.4751600931730416e-10,1.799686707667754e-10,1.2825919986408059e-10,8.867460852041122e-11,5.869894922827359e-11,3.7118816097925665e-11
0.0,48,48.0,0.0,30.0,0.0,0.0,0.0,0.0,-13.0,0.0,2.0,0.0,0.0,0.0,1.082449042661331e-09,8.090072566713437e-10,6.039496300758588e-10,4.5119010794866487e-10,3.3624608442583707e-10,2.500785550074762e-10,1.837493789289796e-10,1.316503535545561e-10,9.111956970841275e-11,6.060237709215034e-11,3.869529491277533e-11,2.365023164132644e-11,1.383535790656134e-11,7.749176156138068e-12,4.153875539602575e-12,2.1343942361690464e-12,1.0490088667595152e-12,6.7197835697702325e-09,6.042698934722615e-09,5.277757826046049e-09,4.447072479669451e-09,3.6999606563508317e-09,3.0523331299156963e-09,2.5241427184815785e-09,2.0594938581026434e-09,1.661051307433218e-09,1.319279243554881e-09,1.031101175680463e-09,7.971286436243146e-10,6.05403693097615e-10,4.536416444819005e-10,3.3779630190923353e-10,2.489002238404119e-10,1.812299929872872e-10,1.2919938311516832e-10,8.923887237176344e-11,5.89659537233474e-11,3.7205085281822056e-11
0.0,49,49.0,0.0,30.0,0.0,0.0,0.0,0.0,-13.0,0.0,2.0,0.0,0.0,0.0,1.0825222294897387e-09,8.092730151324396e-10,6.046069909705305e-10,4.522829321326694e-10,3.375623864656265e-10,2.5127701554778694e-10,1.8458399293742076e-10,1.320681942207443e-10,9.121261604493715e-11,6.050821410732478e-11,3.852946109087619e-11,2.348226826074101e-11,1.3697724966129224e-11,7.650415832768232e-12,4.089439257677808e-12,2.095733104972152e-12,1.0273734119838018e-12,6.7196524447068034e-09,6.042570908650727e-09,5.27763453935375e-09,4.4469569992376145e-09,3.6998552452123975e-09,3.0522380484825086e-09,2.5240595642351686e-09,2.059430036436743e-09,1.661011471277824e-09,1.3192614246474402e-09,1.0311293290227498e-09,7.973044172034818e-10,6.059030764821771e-10,4.5458822686976514e-10,3.3912662013996117e-10,2.503689690712713e-10,1.8253834756235562e-10,1.3015429470621992e-10,8.979881558969331e-11,5.922399258603414e-11,3.728199151481431e-11
0.0,50,50.0,0.0,30.0,0.0,0.0,0.0,0.0,-13.0,0.0,2.0,0.0,0.0,0.0,1.0826097232529389e-09,8.095850831462444e-10,6.053483285993456e-10,4.5347405677316096e-10,3.3895625265494813e-10,2.525133941682514e-10,1.8542158126048374e-10,1.3247026582680008e-10,9.128551878674491e-11,6.039680436716836e-11,3.835128793459082e-11,2.330646752021436e-11,1.3555582533420597e-11,7.54935323282304e-12,4.023967975789162e-12,2.0566760350059703e-12,1.0056291868659733e-12,6.71954453214877e-09,6.042466088312899e-09,5.277534531776644e-09,4.446864955855767e-09,3.699773207469336e-09,3.0521660843848846e-09,2.523999787237965e-09,2.0593902890060653e-09,1.6609953876015727e-09,1.3192671203352664e-09,1.0311888327992038e-09,7.975353618928087e-10,6.064929958720054e-10,4.5565166120584795e-10,3.405721865845978e-10,2.5192363674881337e-10,1.8389245698915883e-10,1.3112186807417132e-10,9.035280499169975e-11,5.947212516027731e-11,3.7348962081400467e-11
0.0,51,51.0,0.0,30.0,0.0,0.0,0.0,0.0,-13.0,0.0,2.0,0.0,0.0,0.0,1.0827149262137267e-09,8.099507890214198e-10,6.061824685309931e-10,4.5476963135215904e-10,3.4042923198749055e-10,2.5378598890418807e-10,1.862595469790772e-10,1.3285449424074568e-10,9.133701255407557e-11,6.026746437673604e-11,3.816042935509059e-11,2.3122681763908188e-11,1.3408888488973662e-11,7.44599196902149e-12,3.957478432772074e-12,2.017237548553127e-12,9.837858355620162e-13,6.7194614494669685e-09,6.0423860873286546e-09,5.277459420884411e-09,4.446797947352698e-09,3.6997160685678763e-09,3.052118735613486e-09,2.5239649564283042e-09,2.0593761449585215e-09,1.6610043527439315e-09,1.3192979957234388e-09,1.0312835216014156e-09,7.978288646365376e-10,6.071833832386968e-10,4.5684108964106053e-10,3.421383631531917e-10,2.535652901198922e-10,1.8529074157136285e-10,1.3209986576982185e-10,9.089915193186631e-11,5.970937706778926e-11,3.740541492727473e-11
0.0,52,52.0,0.0,30.0,0.0,0.0,0.0,0.0,-13.0,0.0,2.0,0.0,0.0,0.0,1.0828419239303566e-09,8.103783937574666e-10,6.071188532685338e-10,4.5617583285909375e-10,3.419825354401243e-10,2.550927535909113e-10,1.8709510031810892e-10,1.3321873172120707e-10,9.136580711437503e-11,6.011950068331475e-11,3.795653626945621e-11,2.2930765304018228e-11,1.3257604461742249e-11,7.340338598086147e-12,3.889989153450833e-12,1.977433079645335e-12,9.618534121248424e-13,6.719404851652909e-09,6.042332558889782e-09,5.277410864560443e-09,4.446757605025388e-09,3.699685381493974e-09,3.0520975415112148e-09,2.5239566918711967e-09,2.0593891528119045e-09,1.6610396783162136e-09,1.3193559354293343e-09,1.0314178794941793e-09,7.981932916714479e-10,6.079850416677383e-10,4.581660226633182e-10,3.4383036860949836e-10,2.5529462387472364e-10,1.867313051572954e-10,1.3308587956789403e-10,9.143611472446688e-11,5.993473823409122e-11,3.745075896419526e-11
0.0,53,53.0,0.0,30.0,0.0,0.0,0.0,0.0,-13.0,0.0,2.0,0.0,0.0,0.0,1.0829955957024974e-09,8.108771719656032e-10,6.081675380658487e-10,4.576988092502541e-10,3.4361698764254547e-10,2.564312798839969e-10,1.8792525823992545e-10,1.3356075882941344e-10,9.137058736114531e-11,5.995220959043966e-11,3.7739256936860794e-11,2.2730574953314276e-11,1.3101696214031905e-11,7.232402805946359e-12,3.821520518553988e-12,1.937278999265933e-12,9.398423836224884e-13,6.719376431193707e-09,6.042307195940145e-09,5.277390560593968e-09,4.446745591831798e-09,3.699682726397499e-09,3.052104085877145e-09,2.5239766648655945e-09,2.0594308741509976e-09,1.6611027011366394e-09,1.3194431079628592e-09,1.031597157010913e-09,7.986380961812122e-10,6.089096806023894e-10,4.5963630103014296e-10,3.45653217393407e-10,2.571119231518206e-10,1.88211922031052e-10,1.3407733138194957e-10,9.196190088254911e-11,6.014716076396456e-11,3.7484394336767244e-11
0.0,54,54.0,0.0,30.0,0.0,0.0,0.0,0.0,-13.0,0.0,2.0,0.0,0.0,0.0,1.0831817380744524e-09,8.114574931840745e-10,6.093391772510952e-10,4.593446149313701e-10,3.4533297672014096e-10,2.577987804839746e-10,1.887468448829383e-10,1.3387828630688655e-10,9.135001310093054e-11,5.976487687485802e-11,3.750823738983757e-11,2.252197061557298e-11,1.294113404407073e-11,7.122197598172913e-12,3.7520948359618096e-12,1.896792640259089e-12,9.177636323757783e-13,6.719377918243679e-09,6.042311731588282e-09,5.277400246256267e-09,4.446763600536388e-09,3.6997097108389402e-09,3.0521400007122726e-09,2.524026597217425e-09,2.0595028769711047e-09,1.6611947995844e-09,1.3195620457133203e-09,1.0318275043085946e-09,7.991739312413085e-10,6.099699440756346e-10,4.61262047234608e-10,3.476116525546878e-10,2.590170219770406e-10,1.8973002514505365e-10,1.3507147494941546e-10,9.247466905757017e-11,6.034555670497185e-11,3.750571263782867e-11
0.0,55,55.0,0.0,30.0,0.0,0.0,0.0,0.0,-13.0,0.0,2.0,0.0,0.0,0.0,1.083407202002746e-09,8.121309020468102e-10,6.106449994993432e-10,4.611191379725673e-10,3.4713040270648936e-10,2.5919207380908197e-10,1.895564928122416e-10,1.341689568435662e-10,9.130271864072855e-11,5.955677752767537e-11,3.726312197299474e-11,2.2304815936059454e-11,1.2775893205878938e-11,7.00973949568861e-12,3.68173641328618e-12,1.855992321753066e-12,8.956284572325673e-13,6.719411081126295e-09,6.042347939747113e-09,5.277441697819775e-09,4.446813351853543e-09,3.6997679708149948e-09,3.052206970538881e-09,2.5241082593865595e-09,2.059606729133461e-09,1.6613174184881462e-09,1.3197157432913274e-09,1.0321161215882877e-09,7.998127668447714e-10,6.111794299514334e-10,4.6305360546506167e-10,3.4971007288467283e-10,2.6100926155161327e-10,1.912826958701384e-10,1.360653982262747e-10,9.297253055765972e-11,6.052879574939931e-11,3.7514097057313213e-11
0.0,56,56.0,0.0,30.0,0.0,0.0,0.0,0.0,-13.0,0.0,2.0,0.0,0.0,0.0,1.0836800440925465e-09,8.129101954242243e-10,6.120967704103203e-10,4.6302801886626984e-10,3.4900862499413823e-10,2.6060757035151875e-10,1.903506450232397e-10,1.3443034665597775e-10,9.122731217447198e-11,5.932717554439905e-11,3.7003554001488665e-11,2.207897901389432e-11,1.2605954346133339e-11,6.895048735816772e-12,3.61047163175065e-12,1.8148973728810841e-12,8.734485738002879e-13,6.719477727189829e-09,6.042417635976813e-09,5.277516729967975e-09,4.446896592655913e-09,3.6998591727287976e-09,3.0523067371573927e-09,2.524223467194692e-09,2.059743992662797e-09,1.6614721051624947e-09,1.3199077772674286e-09,1.03247142770108e-09,8.00568009391329e-10,6.125526979662868e-10,4.650214690519757e-10,3.519524544468996e-10,2.6308744885156274e-10,1.9286665541941393e-10,1.3705602640251964e-10,9.345355031589567e-11,6.069570293716718e-11,3.750892244782573e-11
0.0,57,57.0,0.0,30.0,0.0,0.0,0.0,0.0,-13.0,0.0,2.0,0.0,0.0,0.0,1.0840096920320653e-09,8.138094942803826e-10,6.137067406830277e-10,4.65076560763023e-10,3.5096640936427247e-10,2.6204126093628665e-10,1.9112555761103075e-10,1.3465996679167127e-10,9.112237497482076e-11,5.907532379203885e-11,3.672917655130863e-11,2.1844333177833117e-11,1.2431303957780261e-11,6.778149478735667e-12,3.538329021292261e-12,1.7735281555597664e-12,8.512361135613478e-13,6.719579704027997e-09,6.042522678485662e-09,5.277627195034154e-09,4.447015094341183e-09,3.6999850164711175e-09,3.052441104619101e-09,2.524374076784057e-09,2.059916219971697e-09,1.6616605597851825e-09,1.3201424506266763e-09,1.0329032475867527e-09,8.014546215548377e-10,6.141052641367737e-10,4.671761944590874e-10,3.543422668370682e-10,2.65249816043657e-10,1.9447825807397882e-10,1.3804012541867466e-10,9.391574717700965e-11,6.084505643452961e-11,3.748955528879773e-11
0.0,58,58.0,0.0,30.0,0.0,0.0,0.0,0.0,-13.0,0.0,2.0,0.0,0.0,0.0,1.0844071239933786e-09,8.148443075842679e-10,6.154875781439524e-10,4.67269631268882e-10,3.53001875205229e-10,2.6348870707597116e-10,1.9187730298798506e-10,1.3485526407502093e-10,9.098646040533785e-11,5.880046398475886e-11,3.64396333929606e-11,2.160075782667978e-11,1.2251934850251718e-11,6.659070019407263e-12,3.465339336752724e-12,1.7319060860612548e-12,8.290036218020454e-13,6.719718901057549e-09,6.042664969216998e-09,5.2777749820003054e-09,4.447170651484895e-09,3.7001472397674853e-09,3.052611944089331e-09,2.524561977558705e-09,2.0601249535619105e-09,1.6618847039726816e-09,1.3204249655032827e-09,1.0334230188159668e-09,8.024892399141579e-10,6.158535788862191e-10,4.695283009760015e-10,3.568823846460109e-10,2.674939812583426e-10,1.9611348630133403e-10,1.3901430583113264e-10,9.435709337192905e-11,6.097558547513766e-11,3.7455353530331804e-11
0.0,59,59.0,0.0,30.0,0.0,0.0,0.0,0.0,-13.0,0.0,2.0,0.0,0.0,0.0,1.084885061308737e-09,8.160315851795449e-10,6.17452281888082e-10,4.696115560616271e-10,3.5511244359344576e-10,2.6494503357855635e-10,1.9260177350032096e-10,1.3501362161110237e-10,9.081809277815828e-11,5.850182680269176e-11,3.6134570079471976e-11,2.1348139335296434e-11,1.2067846636262253e-11,6.5378430050266236e-12,3.3915356349574134e-12,1.690053655095095e-12,8.067640542881075e-13,6.719897251421421e-09,6.042846454921061e-09,5.277962015185789e-09,4.4473650809474445e-09,3.7003476239182273e-09,3.0528211981560235e-09,2.5247890829407284e-09,2.060371731354004e-09,1.6621467721639512e-09,1.3207616279486195e-09,1.03404401700777e-09,8.036902871421927e-10,6.17814986054294e-10,4.720881554107266e-10,3.5957499475511054e-10,2.698169112850803e-10,1.9776794781010227e-10,1.3997502684058e-10,9.47755130554887e-11,6.108596856050118e-11,3.740566629802831e-11
0.0,60,60.0,0.0,30.0,0.0,0.0,0.0,0.0,-13.0,0.0,2.0,0.0,0.0,0.0,1.0854581731588458e-09,8.173897560637816e-10,6.196140768408565e-10,4.721060047816413e-10,3.5729478696493314e-10,2.6640492351752784e-10,1.932946852623279e-10,1.3513235876925523e-10,9.06157660934012e-11,5.817863219133789e-11,3.5813635198771025e-11,2.1086372026944673e-11,1.1879046235327686e-11,6.41450565800328e-12,3.3169533524018783e-12,1.6479944460954053e-12,7.845307726251785e-13,6.720116734155771e-09,6.043069128077948e-09,5.278190252561533e-09,4.447600221649719e-09,3.7005880010056363e-09,3.0530708840055446e-09,2.5250573189592364e-09,2.060658100561115e-09,1.662449431258148e-09,1.3211600885911727e-09,1.0347815992531716e-09,8.050780748998885e-10,6.200076597992207e-10,4.74865841268316e-10,3.6242150025898145e-10,2.7221488676692337e-10,1.99436874527159e-10,1.409186002644517e-10,9.516887979432182e-11,6.117483202525033e-11,3.7339833441671154e-11
0.0,61,61.0,0.0,30.0,0.0,0.0,0.0,0.0,-13.0,0.0,2.0,0.0,0.0,0.0,1.0861432913107892e-09,8.189387480651616e-10,6.219862871543245e-10,4.747558698753937e-10,3.5954478114633887e-10,2.6786261561328076e-10,1.9395158199545618e-10,1.3520873057667136e-10,9.037794270867554e-11,5.783008988134571e-11,3.54764817994725e-11,2.081535921254831e-11,1.1685548394325665e-11,6.289100004422551e-12,3.2416303831737824e-12,1.6057531513918274e-12,7.623175382449821e-13,6.720379376520101e-09,6.043335027502318e-09,5.2784616836414174e-09,4.447877935281999e-09,3.7008702625597445e-09,3.0533630947515e-09,2.5253686109948408e-09,2.0609856439803993e-09,1.6627959348631e-09,1.321629623032912e-09,1.0356534638721825e-09,8.066748928835401e-10,6.224505162976319e-10,4.7787101214044e-10,3.654224219815487e-10,2.7468347046515967e-10,2.0111512341518838e-10,1.4184119420256123e-10,9.553501291031364e-11,6.12407490777655e-11,3.7257184914199514e-11
0.0,62,62.0,0.0,30.0,0.0,0.0,0.0,0.0,-13.0,0.0,2.0,0.0,0.0,0.0,1.0869596321044934e-09,8.206999844455557e-10,6.245821870224223e-10,4.775631393129394e-10,3.618574605376391e-10,2.6931190400169255e-10,1.945678386300672e-10,1.3523992646534944e-10,9.010305199988347e-11,5.7455400170349584e-11,3.512276899794284e-11,2.0535014297388056e-11,1.1487376225614815e-11,6.1616731078461976e-12,3.1656071566351423e-12,1.5633555859307144e-12,7.401385049598868e-13,6.7206872563434205e-09,6.043646238426858e-09,5.278778326934145e-09,4.448200108262254e-09,3.701196369551987e-09,3.0536999980758483e-09,2.5257248694691244e-09,2.0613560237578923e-09,1.663190319479824e-09,1.3221814556510359e-09,1.0366799238469176e-09,8.085050787361277e-10,6.251630971082526e-10,4.811127293239082e-10,3.6857729872374246e-10,2.772174791378378e-10,2.0279717897033908e-10,1.4273883611639007e-10,9.587167261077937e-11,6.12822394277425e-11,3.715703997350437e-11
0.0,63,63.0,0.0,30.0,0.0,0.0,0.0,0.0,-13.0,0.0,2.0,0.0,0.0,0.0,1.0879290218974712e-09,8.226963525215565e-10,6.274148277488031e-10,4.805287643611329e-10,3.6422697723789637e-10,2.7074614027959784e-10,1.951386644020038e-10,1.3522306833351277e-10,8.978948908784538e-11,5.705375500979661e-11,3.47521637732874e-11,2.024526195576003e-11,1.128456176342605e-11,6.032277308189424e-12,3.088926714280024e-12,1.5208286982023111e-12,7.180082100292049e-13,6.721042504184854e-09,6.04400489183097e-09,5.279142226987547e-09,4.448568655304594e-09,3.7015683634162537e-09,3.0540838312499768e-09,2.5261279759533174e-09,2.0617710491210825e-09,1.6636376509457976e-09,1.3228291300855496e-09,1.0378841900891074e-09,8.105950627731492e-10,6.28165421111063e-10,4.845992840364417e-10,3.718845875470411e-10,2.7981095952360195e-10,2.0447715715187469e-10,1.4360741501901543e-10,9.617655387038212e-11,6.129776960782199e-11,3.7038706208976795e-11
