Line_number,Fiducial,Easting,Northing,Height,Elevation,tx_pitch,tx_roll,tx_yaw,txrx_dx,txrx_dy,txrx_dz,rx_pitch,rx_roll,rx_yaw,S0Z_time_1.431e-04,S0Z_time_1.801e-04,S0Z_time_2.266e-04,S0Z_time_2.846e-04,S0Z_time_3.581e-04,S0Z_time_4.506e-04,S0Z_time_5.671e-04,S0Z_time_7.136e-04,S0Z_time_8.981e-04,S0Z_time_1.131e-03,S0Z_time_1.423e-03,S0Z_time_1.791e-03,S0Z_time_2.255e-03,S0Z_time_2.838e-03,S0Z_time_3.573e-03,S0Z_time_4.498e-03,S0Z_time_5.662e-03,S1Z_time_1.409e-05,S1Z_time_1.610e-05,S1Z_time_1.909e-05,S1Z_time_2.360e-05,S1Z_time_2.960e-05,S1Z_time_3.709e-05,S1Z_time_4.609e-05,S1Z_time_5.759e-05,S1Z_time_7.209e-05,S1Z_time_9.060e-05,S1Z_time_1.141e-04,S1Z_time_1.431e-04,S1Z_time_1.801e-04,S1Z_time_2.266e-04,S1Z_time_2.846e-04,S1Z_time_3.581e-04,S1Z_time_4.506e-04,S1Z_time_5.671e-04,S1Z_time_7.136e-04,S1Z_time_8.981e-04,S1Z_time_1.131e-03
0.0,0,0.0,0.0,30.0,0.0,0.0,0.0,0.0,-13.0,0.0,2.0,0.0,0.0,0.0,8.357281839888347e-11,4.6708477489997334e-11,2.5098387568966725e-11,1.4462363747821226e-11,9.254597710511123e-12,5.407969608560565e-12,3.403743142819502e-12,1.8291794789132943e-12,1.0390828665652188e-12,6.472581674704046e-13,3.767927042289647e-13,2.0771127461249515e-13,1.1576673011554184e-13,6.372711822528285e-14,2.709556662587014e-14,3.3644213384545225e-14,1.2302273012803818e-14,7.361351751465161e-09,6.083839251445769e-09,4.235060674847224e-09,2.776340307511274e-09,1.804431855706882e-09,1.0431022208674962e-09,6.312170385933319e-10,4.0007578922155076e-10,2.3232400265050903e-10,1.3976173981481899e-10,8.938527302381737e-11,5.3970039783760996e-11,3.20258610525125e-11,1.97510376275995e-11,1.138085441795876e-11,6.732730784753478e-12,4.051312062578529e-12,2.4707708451225033e-12,1.4836022368934716e-12,8.285658090908934e-13,3.5349474298930853e-13
0.0,1,1.0,0.0,30.0,0.0,0.0,0.0,0.0,-13.0,0.0,2.0,0.0,0.0,0.0,7.929490236723776e-11,4.679599210554863e-11,2.5136086502705723e-11,1.5050561189815733e-11,8.461279995326964e-12,5.069693123910731e-12,2.9472303183883675e-12,1.778012648193668e-12,1.0413535801157668e-12,5.84343543736169e-13,3.7851313415276116e-13,2.2093214823092772e-13,1.2746171291877758e-13,8.350700406955484e-14,4.9946584456886414e-14,6.0541136436198786e-15,8.863063041812113e-15,7.234327293968398e-09,6.05397800035407e-09,4.34444719880932e-09,2.8999215136105958e-09,1.855683086304672e-09,1.1447557971578897e-09,6.853519167695937e-10,3.922792924182741e-10,2.476130842391059e-10,1.387566228665746e-10,8.766084008962983e-11,5.018821068847198e-11,3.1544863655891216e-11,1.8695619249379363e-11,1.1949018309097037e-11,6.681589880852469e-12,4.14516229795781e-12,2.1624554592967607e-12,1.3576102499484832e-12,6.658172524357545e-13,2.815722758469668e-13
0.0,2,2.0,0.0,30.0,0.0,0.0,0.0,0.0,-13.0,0.0,2.0,0.0,0.0,0.0,8.714109593743615e-11,4.666820827677366e-11,2.5431861165769426e-11,1.4374043640042034e-11,8.368000152539734e-12,4.826225879327707e-12,3.191191324163819e-12,1.7369215607816102e-12,1.005890793701899e-12,5.834464486276166e-13,3.67477734436596e-13,2.150940088140791e-13,1.3166377655194522e-13,6.906485615528469e-14,2.9730043074885255e-14,1.1850174127196988e-14,1.0071237524629698e-14,7.969613384249467e-09,5.532204132362041e-09,4.561187877760253e-09,2.9149831720292528e-09,1.9797946853157004e-09,1.1969414361555077e-09,7.578117133866947e-10,4.5137411361651576e-10,2.650672149085559e-10,1.5360337314446086e-10,8.920593248503803e-11,5.3366709143690106e-11,3.2010950243742474e-11,1.8218101796326593e-11,1.1266224278566754e-11,6.471069968668386e-12,3.6998468216031445e-12,2.3274029584660773e-12,1.1723847531870702e-12,9.84985534819399e-13,3.176745692392906e-13
0.0,3,3.0,0.0,30.0,0.0,0.0,0.0,0.0,-13.0,0.0,2.0,0.0,0.0,0.0,8.981926716287308e-11,4.569945755720249e-11,2.3515211441342637e-11,1.3465251707617615e-11,8.286344776857304e-12,4.866761385478618e-12,2.9573606805497218e-12,1.6930188855341467e-12,9.718017803903053e-13,6.038283253940865e-13,3.785002332214624e-13,1.729015325536868e-13,1.2940929509776446e-13,4.024609334732946e-14,4.12954868367524e-14,1.0108108652870201e-14,1.7497169947906143e-14,7.111999862290541e-09,5.952036728672058e-09,4.526552185629104e-09,2.885598597765858e-09,2.004089748385352e-09,1.236262289397617e-09,7.877545241951613e-10,4.84211477704638e-10,2.94651815187716e-10,1.6527907064224253e-10,9.547557343704146e-11,5.34649133482519e-11,3.2939456704188175e-11,1.8195699222784924e-11,1.0185496302830613e-11,6.225733621316384e-12,4.155088041528628e-12,2.1304169239371557e-12,1.5914706950872102e-12,7.293580729592359e-13,3.26420441896712e-13
0.0,4,4.0,0.0,30.0,0.0,0.0,0.0,0.0,-13.0,0.0,2.0,0.0,0.0,0.0,9.699132502924654e-11,4.8065608449737524e-11,2.5148223792474244e-11,1.4579567645150654e-11,8.158575418574351e-12,4.76448126990455e-12,2.5883006821213794e-12,1.5481335574083833e-12,9.369305477424832e-13,5.399107072878106e-13,3.687985418800396e-13,1.8846944949918148e-13,1.1827937578372018e-13,7.578946807571428e-14,2.271565952569306e-14,2.0498271114264347e-14,2.6896258213865463e-14,6.794527060426398e-09,5.745815419488744e-09,4.381908852909827e-09,2.8605457708013056e-09,2.011466803186196e-09,1.2822204633487366e-09,8.45956040347681e-10,5.062171925250883e-10,3.0769177538257093e-10,1.7688786945109165e-10,9.668049588569121e-11,5.5944220428166246e-11,3.2874154245903696e-11,1.837678282374934e-11,1.098159475395851e-11,6.498110706979259e-12,3.9086878150020735e-12,2.10183620654171e-12,1.037977683602357e-12,5.817993834993247e-13,6.072057371992754e-13
0.0,5,5.0,0.0,30.0,0.0,0.0,0.0,0.0,-13.0,0.0,2.0,0.0,0.0,0.0,9.65102445117823e-11,4.9791696771995924e-11,2.5962828187869413e-11,1.3335165868360722e-11,8.008332896021855e-12,4.4408161843503405e-12,2.7857424242898586e-12,1.527004566378743e-12,9.651352850268321e-13,5.347350936281075e-13,3.4954999579656894e-13,2.0403967667203766e-13,1.0715160810555324e-13,6.082140708987102e-14,5.429587519806474e-14,1.3397994314833488e-14,5.515653752115109e-15,6.826466516910719e-09,5.5960284451901376e-09,4.075140942908576e-09,3.0022790053922016e-09,2.0659297655607526e-09,1.2510830614031409e-09,8.041668131138664e-10,5.194846777049777e-10,3.1793189180974157e-10,1.7980657472585323e-10,1.015991176354314e-10,5.875513743257696e-11,3.2590303796357706e-11,1.935640345204401e-11,1.0845238917301363e-11,6.171820297762568e-12,3.880187902387904e-12,2.1658173810949203e-12,1.1168810300253397e-12,7.145395147807412e-13,3.5315765507472553e-13
0.0,6,6.0,0.0,30.0,0.0,0.0,0.0,0.0,-13.0,0.0,2.0,0.0,0.0,0.0,1.0398421895863073e-10,5.0921717018708557e-11,2.777379778108484e-11,1.4419761165057125e-11,8.324442071651981e-12,4.609039184158963e-12,2.6491933680528233e-12,1.595668294881132e-12,9.440273891955858e-13,5.393573593294081e-13,3.42702405316848e-13,1.8886143344819911e-13,1.2451539783774557e-13,5.933734757137563e-14,3.204657146093751e-14,2.644303986953323e-15,2.382560898997576e-14,6.787768123224218e-09,5.192149441718289e-09,4.347455450464035e-09,2.8268338469958006e-09,2.020283857328834e-09,1.2776650436641192e-09,8.493526581145463e-10,5.429154280403561e-10,3.421200562162634e-10,1.9219052152628883e-10,1.0562589810342532e-10,6.367832868768804e-11,3.6373577859866425e-11,1.9268623732353527e-11,1.100912064438361e-11,5.940348811762207e-12,3.437446373581749e-12,2.195865043202668e-12,1.1055718370990383e-12,5.118002074199352e-13,2.759109135485683e-13
0.0,7,7.0,0.0,30.0,0.0,0.0,0.0,0.0,-13.0,0.0,2.0,0.0,0.0,0.0,1.094222459522956e-10,5.560109214641963e-11,2.78645576324609e-11,1.5530961984530853e-11,9.013558719294394e-12,4.807989739274589e-12,2.649339525059523e-12,1.4965664911406314e-12,8.730473597990719e-13,5.122843636882566e-13,3.368479359841432e-13,1.7144330501426953e-13,1.1398419552454489e-13,6.210045274164694e-14,4.0354571937996565e-14,1.3715049328344664e-14,6.060059554735182e-15,6.6583447516558235e-09,5.5772936853406856e-09,4.139701463402139e-09,3.073979806714218e-09,2.0554096949502947e-09,1.3509535012616372e-09,8.857880513662825e-10,5.615573577415061e-10,3.3990445399560347e-10,2.0504067766305008e-10,1.2142972921666722e-10,6.744235700098834e-11,3.648015733397748e-11,2.040359342010247e-11,1.1274840864131243e-11,6.172415095323889e-12,3.294682684008564e-12,2.1306569089414593e-12,1.0837974362516104e-12,7.486666694185921e-13,3.9062191096271775e-13
0.0,8,8.0,0.0,30.0,0.0,0.0,0.0,0.0,-13.0,0.0,2.0,0.0,0.0,0.0,1.126983209586726e-10,5.849963492125866e-11,2.82478830526733e-11,1.557267537657386e-11,8.274536571292459e-12,4.543144903898637e-12,2.8291456073871645e-12,1.4474458132919364e-12,8.634124810798133e-13,4.807138788349183e-13,3.207117095519389e-13,1.6306046032875e-13,1.1870963915473493e-13,7.741639510659945e-14,3.43124770069907e-14,2.0748261864649837e-14,7.867381514584143e-15,6.788413481581322e-09,5.303271744646602e-09,4.179912867048173e-09,2.9097837457881107e-09,2.0636171935099065e-09,1.2348156194068766e-09,8.828910770807656e-10,5.729890180670957e-10,3.520593166096582e-10,2.046128800198102e-10,1.2366111870664566e-10,7.033761641731195e-11,3.8471897941523456e-11,1.9760859338908424e-11,1.2050982076694706e-11,6.587730817367221e-12,3.4016639036057297e-12,1.886475173781917e-12,1.0415623172252248e-12,5.950743047658023e-13,3.660615328464502e-13
0.0,9,9.0,0.0,30.0,0.0,0.0,0.0,0.0,-13.0,0.0,2.0,0.0,0.0,0.0,1.2104716437772725e-10,6.125031305268836e-11,2.877128842346547e-11,1.6694195606625518e-11,8.509003600190894e-12,4.6005422167221946e-12,2.534018656129103e-12,1.4949727003375056e-12,8.448888312484445e-13,4.564567257912984e-13,3.339078365556672e-13,1.7314216539922048e-13,1.0996958530051303e-13,5.702265799686698e-14,2.707018719276981e-14,1.697458592011805e-14,6.211266014517447e-15,7.011094246314951e-09,5.492367654466147e-09,4.1339261870092654e-09,2.777859273783305e-09,1.890620197155475e-09,1.2973841605540758e-09,8.137806109251308e-10,5.705659881224628e-10,3.4710082595966095e-10,2.1565760970334107e-10,1.2775295562987527e-10,7.235774421846976e-11,4.259544959508601e-11,2.237289995094552e-11,1.2108644894458e-11,6.451178599257082e-12,3.5694012294694196e-12,2.1741908158047264e-12,1.0992623244430296e-12,4.4144978656940624e-13,3.574023708654691e-13
0.0,10,10.0,0.0,30.0,0.0,0.0,0.0,0.0,-13.0,0.0,2.0,0.0,0.0,0.0,1.1964608267079772e-10,6.325454305500294e-11,2.985262045218622e-11,1.7182374730524057e-11,8.567437189748277e-12,4.6050034978445e-12,2.695612681859191e-12,1.505023516911476e-12,9.169790402418562e-13,5.000340297385125e-13,2.8077931861993514e-13,1.539833902509537e-13,1.25861470193294e-13,6.025089057618255e-14,1.6926319105725748e-14,2.6474796148195985e-14,1.1362908055720618e-14,6.720171873994072e-09,5.4291595726708465e-09,4.183844930689526e-09,2.796778887392507e-09,1.913806294789392e-09,1.260421364547043e-09,8.412208575356284e-10,5.868710395671696e-10,3.720638364370331e-10,2.1910536135889533e-10,1.3043062786315518e-10,7.329915856281278e-11,4.374933822270049e-11,2.2121120247058845e-11,1.243266145887912e-11,6.601854487885298e-12,3.8691978534159474e-12,1.955730966714021e-12,1.0317323477846508e-12,4.973054086711433e-13,3.1692944441749444e-13
0.0,11,11.0,0.0,30.0,0.0,0.0,0.0,0.0,-13.0,0.0,2.0,0.0,0.0,0.0,1.2639413214833256e-10,6.298918027288621e-11,3.290587753521965e-11,1.714345791868613e-11,8.887816762725753e-12,5.025434781103476e-12,2.7048578996091518e-12,1.4352116027324876e-12,8.516396105068358e-13,4.762056947208459e-13,3.069671163852305e-13,1.6222683858776914e-13,1.0183836121448195e-13,4.8543823985468185e-14,4.050977755902515e-14,3.002964073484135e-14,1.2712261233970077e-14,7.067258538132477e-09,5.253242999881103e-09,3.928733046137129e-09,2.7847063015461673e-09,2.0348106957978767e-09,1.2531112851211895e-09,8.453510087320867e-10,5.449610641077652e-10,3.5386772399601955e-10,2.2621652063828966e-10,1.374617175794439e-10,7.332122424708921e-11,4.3339033230939676e-11,2.3905263441218197e-11,1.3813224475945228e-11,7.149432995768354e-12,4.0644992538439465e-12,1.887531033252665e-12,1.1237893993130948e-12,7.122063741940801e-13,1.5879210998166713e-13
0.0,12,12.0,0.0,30.0,0.0,0.0,0.0,0.0,-13.0,0.0,2.0,0.0,0.0,0.0,1.271697531422269e-10,6.907186268276316e-11,3.392347269195931e-11,1.761327224642248e-11,9.321003285337927e-12,4.831358641765488e-12,2.5822988155314414e-12,1.498822542978293e-12,8.641060767869067e-13,4.597777360435129e-13,2.9794302782843214e-13,1.6495340738794927e-13,8.985379183943607e-14,6.096955166230356e-14,2.84338017553928e-14,3.393398203932865e-15,-1.4652161569352692e-14,6.7888897490743154e-09,5.3085780034593645e-09,3.93913732525629e-09,2.7135082719108356e-09,1.840782993194892e-09,1.230895750416336e-09,8.077840715250193e-10,5.583080864449388e-10,3.649910718139917e-10,2.260074194282616e-10,1.340296568107697e-10,8.082992989851581e-11,4.565634822493226e-11,2.5926578042971984e-11,1.3044409936715457e-11,7.551068153471007e-12,3.927407240651197e-12,2.03250061160595e-12,1.2719793595395697e-12,7.235765456244232e-13,2.5126972372262547e-13
0.0,13,13.0,0.0,30.0,0.0,0.0,0.0,0.0,-13.0,0.0,2.0,0.0,0.0,0.0,1.2753854090521581e-10,6.784718980622584e-11,3.378235981511758e-11,1.8201288975137852e-11,9.704693393177629e-12,5.122655214541314e-12,2.726452684210129e-12,1.5506289733946503e-12,8.385379237921431e-13,4.623038477184184e-13,3.1921978796462287e-13,1.6669052117986356e-13,1.2343835188367734e-13,7.074676304183166e-14,4.9839953897011414e-15,1.45348514264631e-14,2.0151555819485557e-14,7.085277421914295e-09,5.5115747287671464e-09,4.142727774176912e-09,2.7579787875676843e-09,1.8961570488058367e-09,1.1472688446630825e-09,8.618030263504376e-10,5.514406275501442e-10,3.6158984588324415e-10,2.2818139051867463e-10,1.3085785592101715e-10,7.955088019273448e-11,4.692666739181585e-11,2.6046121924489852e-11,1.3949600180355509e-11,7.48040808443451e-12,3.923111820786773e-12,2.1898570348525544e-12,1.0606784213212117e-12,6.917895259039015e-13,3.753776058748321e-13
0.0,14,14.0,0.0,30.0,0.0,0.0,0.0,0.0,-13.0,0.0,2.0,0.0,0.0,0.0,1.2948918139111053e-10,7.249910785487205e-11,3.566908137167381e-11,2.033687051684734e-11,1.0588782268083106e-11,5.3083877186923016e-12,2.8925409852286774e-12,1.3959151052766574e-12,8.5446765048129e-13,4.761166052212114e-13,2.5780893676740013e-13,1.6530582301946775e-13,1.0222967643057516e-13,3.90212194682731e-14,2.748050501373553e-14,1.7807668649541915e-14,1.6216352205454367e-16,6.7229539166850984e-09,5.570980719967544e-09,4.156824459622267e-09,2.7768021849536906e-09,1.8914890633427924e-09,1.1675519755639138e-09,8.318499441748329e-10,5.31569524326914e-10,3.5562334056915315e-10,2.2175970241920023e-10,1.354056013599867e-10,8.24203290185628e-11,4.9250874712445535e-11,2.4342898528322447e-11,1.4956948477718296e-11,8.06069213982066e-12,4.287705533318175e-12,2.1598761040761866e-12,1.0152679069662758e-12,7.968111327083475e-13,4.991357465754792e-13
0.0,15,15.0,0.0,30.0,0.0,0.0,0.0,0.0,-13.0,0.0,2.0,0.0,0.0,0.0,1.2892400704321385e-10,6.818335281094933e-11,3.646441561325186e-11,1.9915355216968704e-11,1.0573524701622433e-11,5.3575074856797075e-12,2.8842674443580877e-12,1.5647965148506251e-12,8.076210538854124e-13,4.545408330764892e-13,2.855589088309534e-13,1.501966821555011e-13,8.971958452374588e-14,7.602945984777143e-14,3.932111432199647e-14,4.108934947741177e-14,1.2170523716155064e-14,6.876924892643226e-09,5.437091419388337e-09,3.935721776454337e-09,2.892333409525236e-09,1.8377764339873376e-09,1.2313342958791773e-09,8.290387787666034e-10,5.37068776098033e-10,3.6164415704654803e-10,2.114178709044468e-10,1.3873410935607353e-10,8.457934307519008e-11,4.70044817592415e-11,2.851798013718192e-11,1.526051687563132e-11,7.935956482299824e-12,4.430921250454131e-12,2.378767471567195e-12,1.1335593590436362e-12,6.493625688208155e-13,2.5496290181423803e-13
0.0,16,16.0,0.0,30.0,0.0,0.0,0.0,0.0,-13.0,0.0,2.0,0.0,0.0,0.0,1.343177488683877e-10,6.742893251270479e-11,3.759671858443828e-11,2.1361424543155472e-11,1.060489671264276e-11,5.706527303528503e-12,2.9905066186487324e-12,1.5456269706389615e-12,9.032051072988192e-13,4.674350244026714e-13,3.0240616483774007e-13,1.477836510115237e-13,1.069544191173261e-13,4.9668739649465735e-14,2.5006118892635435e-14,1.1133407130121798e-14,-2.1677469158923672e-14,7.020365388132436e-09,5.3876924370416685e-09,4.1130568309426315e-09,2.7909669610516332e-09,1.883977633587179e-09,1.1850287857688955e-09,8.118524967800967e-10,5.367431811364932e-10,3.478149024660642e-10,2.1920887637992262e-10,1.300292552187513e-10,7.893923594673213e-11,4.9411772782156644e-11,2.8216398433948606e-11,1.63172712301314e-11,8.456249641209307e-12,4.506470132556227e-12,2.37976167984995e-12,1.1051114172373085e-12,4.951721531933424e-13,2.887238320985524e-13
0.0,17,17.0,0.0,30.0,0.0,0.0,0.0,0.0,-13.0,0.0,2.0,0.0,0.0,0.0,1.3666358348337235e-10,7.456501734442293e-11,3.720514307393286e-11,2.065888937937523e-11,1.106720695000107e-11,5.895016619953016e-12,3.0295174799948287e-12,1.5637627513673998e-12,8.848348557835274e-13,4.810896302995277e-13,2.990879287889322e-13,1.8255283736915212e-13,1.0702878400184274e-13,5.6733181080001417e-14,2.467785605159194e-14,2.2229280306771052e-14,1.6575629909096398e-14,7.068133808868211e-09,5.488347719160934e-09,3.994795301836778e-09,2.9268051406388026e-09,1.9920088123368534e-09,1.2513236250458739e-09,8.082073546763072e-10,5.239862203837992e-10,3.475682856690914e-10,2.21066606634278e-10,1.3894768356944919e-10,8.534788047309441e-11,4.965756297748463e-11,2.877778323088325e-11,1.630848415132445e-11,9.387549180721972e-12,4.593331507304761e-12,2.172537472793754e-12,1.1393044090905426e-12,1.0352295713538058e-12,2.370931003156925e-13
0.0,18,18.0,0.0,30.0,0.0,0.0,0.0,0.0,-13.0,0.0,2.0,0.0,0.0,0.0,1.280059782171592e-10,6.847171912038845e-11,4.003125342332659e-11,2.1311999425470548e-11,1.1627456583287292e-11,5.91249151477766e-12,3.085790189481996e-12,1.62331995312453e-12,9.149447534914676e-13,4.795347374011566e-13,2.9413235690987407e-13,1.2841010792949342e-13,7.62117383981573e-14,4.066160489602714e-14,3.0359575111638715e-14,1.661498559354607e-14,-2.574716110327841e-16,6.689669863007197e-09,5.6090974406890065e-09,4.080045779055479e-09,2.825147203031186e-09,1.884665875992141e-09,1.3060046668353263e-09,8.397747145326786e-10,5.313607135673037e-10,3.4315971408989185e-10,2.207846254397242e-10,1.3267049768615432e-10,8.739685914067956e-11,5.089406020187158e-11,2.9467010103313096e-11,1.696259980499387e-11,8.718514350198467e-12,4.5419906245778e-12,2.3872677453487207e-12,1.3111131542155277e-12,7.605120314585461e-13,4.1812914461790065e-13
0.0,19,19.0,0.0,30.0,0.0,0.0,0.0,0.0,-13.0,0.0,2.0,0.0,0.0,0.0,1.3494411254312283e-10,7.115767033199346e-11,4.037599018063722e-11,2.1923341928006665e-11,1.2079915070945113e-11,5.9740437836717476e-12,3.2701194242854523e-12,1.6905689434151014e-12,8.979835665028122e-13,4.842824670320432e-13,3.0173439440350866e-13,1.521322554671664e-13,1.0380692830563369e-13,4.985260261524577e-14,2.569954630624533e-14,3.0327083973863514e-14,1.0382005526253252e-14,6.537028075446988e-09,5.798401085855864e-09,4.094701987219229e-09,2.7619555103262643e-09,1.9688746462428512e-09,1.2196594871132175e-09,7.844822520956476e-10,5.147201460956647e-10,3.5192451154457977e-10,2.12637579591002e-10,1.4351753874792187e-10,8.818092607839998e-11,5.249178112301868e-11,2.9504984541200277e-11,1.6653523969068515e-11,8.751543278376086e-12,5.051123309654565e-12,2.5778978677782243e-12,1.2373918594465467e-12,6.871469592558491e-13,2.1158314365610386e-13
0.0,20,20.0,0.0,30.0,0.0,0.0,0.0,0.0,-13.0,0.0,2.0,0.0,0.0,0.0,1.2527833000858405e-10,7.05794256597771e-11,3.9235127024380143e-11,2.1796340552830613e-11,1.1389673205764994e-11,6.246305859735271e-12,3.1758698030057237e-12,1.663447856007166e-12,9.33240694615179e-13,4.921182909825531e-13,2.9457559544679333e-13,1.239274206583586e-13,1.2805058927603284e-13,6.093046562084798e-14,4.592857118956548e-14,1.8918697810817672e-14,2.5409767079938933e-14,6.815754646894326e-09,5.712531270171677e-09,4.002133871320571e-09,2.8757149132329795e-09,1.7597319297621492e-09,1.2358724401185994e-09,8.382065006778324e-10,5.348629633558502e-10,3.4934485029002596e-10,2.1449095912525437e-10,1.3658518546685655e-10,8.904963083414601e-11,5.1857616131382256e-11,3.0676666843958283e-11,1.651553336320198e-11,9.403740254682949e-12,4.8167514793604266e-12,2.6934406918628485e-12,1.5677342741808748e-12,7.89087579845261e-13,1.7917212516829515e-13
0.0,21,21.0,0.0,30.0,0.0,0.0,0.0,0.0,-13.0,0.0,2.0,0.0,0.0,0.0,1.2749377045884777e-10,7.237650605070626e-11,3.7748377705837474e-11,2.3253234983756315e-11,1.1795445764553668e-11,6.2660220608074766e-12,3.3112693377737264e-12,1.7480423502979545e-12,9.636814489581477e-13,4.852486649324495e-13,2.862145782978302e-13,1.5151259873388987e-13,7.64424884186417e-14,4.873079081780319e-14,2.6055780562947614e-14,2.4230918164504885e-14,-2.8209458756471596e-15,6.958943954150848e-09,5.3950491605417134e-09,4.178853708575279e-09,2.8989698584713162e-09,1.88789667282052e-09,1.2209860850401362e-09,8.198769993878771e-10,5.012839154099425e-10,3.333349214264726e-10,2.1231267762728068e-10,1.3384108309886472e-10,8.752903522049596e-11,5.209679907724767e-11,2.958024073195306e-11,1.7177636421461267e-11,9.959489656149075e-12,5.090237743882303e-12,2.5785375492840976e-12,1.5222527251985612e-12,8.949723975453676e-13,3.9541752068082486e-13
0.0,22,22.0,0.0,30.0,0.0,0.0,0.0,0.0,-13.0,0.0,2.0,0.0,0.0,0.0,1.2771284048905855e-10,7.581203855965142e-11,3.965154425360306e-11,2.2376853188745727e-11,1.2310928951297419e-11,6.471042777254139e-12,3.511111265121512e-12,1.810525353753873e-12,9.943003812475596e-13,5.012504335375461e-13,3.051086179515985e-13,1.42999426418521e-13,1.0501111207947025e-13,4.8999585682878394e-14,2.68531339064697e-14,8.411887294977502e-15,1.67839269730826e-14,6.540885536959088e-09,5.573505902997486e-09,4.094135022328076e-09,2.8576466267081533e-09,1.8605175961132588e-09,1.2601130347099852e-09,8.209958920136169e-10,5.232732873065214e-10,3.246370392208292e-10,2.1129529680093043e-10,1.3877828267380338e-10,8.567608528295448e-11,5.043949538936421e-11,3.184623824272213e-11,1.7234240241730684e-11,9.856135914139217e-12,5.218354238475805e-12,2.838883181377227e-12,1.4157535738397992e-12,7.056956001074642e-13,2.7396975520988445e-13
0.0,23,23.0,0.0,30.0,0.0,0.0,0.0,0.0,-13.0,0.0,2.0,0.0,0.0,0.0,1.2921212538068637e-10,7.42247123603278e-11,4.1815313416106415e-11,2.330221161486054e-11,1.2710859973277343e-11,6.685673737550849e-12,3.778588975427265e-12,1.82621342652368e-12,9.688329286096527e-13,5.142947386930063e-13,2.9459102151580373e-13,1.499638467070901e-13,1.0525706123255838e-13,5.237175182813654e-14,4.240663742075682e-14,1.9252953311260417e-14,1.440780775083343e-14,6.806971476773909e-09,5.567898297682107e-09,3.846706259029045e-09,2.885386913641786e-09,1.8215844682606725e-09,1.2360605404742858e-09,8.25549339523244e-10,5.274481667993116e-10,3.3853743204250045e-10,2.04002895852449e-10,1.3768389355850025e-10,8.865420002952913e-11,5.11224244906488e-11,3.072314957371488e-11,1.8136334292959212e-11,1.0556853970834922e-11,5.440243750072894e-12,3.037177268370315e-12,1.4686785293641511e-12,8.120568844860064e-13,2.50797093821411e-13
0.0,24,24.0,0.0,30.0,0.0,0.0,0.0,0.0,-13.0,0.0,2.0,0.0,0.0,0.0,1.1991194513502928e-10,7.371052130764181e-11,4.023418424669394e-11,2.2657827944228193e-11,1.2441421340110722e-11,6.809575481712386e-12,3.57738927910795e-12,1.802259463081585e-12,1.0129931244414197e-12,5.385347325393695e-13,2.860063063733829e-13,1.683983093461263e-13,1.0777901483420061e-13,5.760123305228825e-14,1.5662250086060845e-14,2.592704434128729e-14,4.5081816123164036e-15,7.0014871661366045e-09,5.290656578552421e-09,4.162882586862256e-09,2.8033087472748207e-09,1.8285590207391063e-09,1.2036389826802143e-09,7.828660002295375e-10,5.221035212736998e-10,3.6059139493845694e-10,1.9916940308206766e-10,1.3999302657565533e-10,8.097757468590389e-11,5.128225526378709e-11,2.9772155747740734e-11,1.791061297602674e-11,9.732075675114797e-12,5.521513200561746e-12,3.1677307511190626e-12,1.5388686478579788e-12,7.812423960332228e-13,4.089664516843806e-13
0.0,25,25.0,0.0,30.0,0.0,0.0,0.0,0.0,-13.0,0.0,2.0,0.0,0.0,0.0,1.2784957830580746e-10,7.163403275410864e-11,3.998882738323495e-11,2.3466380782618818e-11,1.3258140213335774e-11,7.147800892333961e-12,3.773541674851681e-12,2.0414127293963e-12,9.915373947736703e-13,5.262005153717927e-13,3.016316342921235e-13,1.605648320107905e-13,1.0424777056738155e-13,3.2454683276380674e-14,3.8035800165762124e-14,1.152098524293885e-14,7.619260104800588e-15,6.8091202095329946e-09,5.3317464203442594e-09,4.108402669730183e-09,2.768631999730488e-09,1.9046382758245965e-09,1.1947414663966016e-09,7.784229922561732e-10,5.305445499297409e-10,3.265821230725894e-10,2.1545038585560504e-10,1.342057983737085e-10,8.005299138172823e-11,5.129211972252511e-11,3.065032703591646e-11,1.8890893614723237e-11,1.0741538292543554e-11,5.5866619615813354e-12,2.8749689119686936e-12,1.5371976987250708e-12,5.610730275304865e-13,3.4315961416998295e-13
0.0,26,26.0,0.0,30.0,0.0,0.0,0.0,0.0,-13.0,0.0,2.0,0.0,0.0,0.0,1.318398633881584e-10,7.152915739083206e-11,4.2547256045392444e-11,2.200190277939941e-11,1.2950712584168827e-11,6.495825031129311e-12,3.791277173790934e-12,2.0233925444857432e-12,1.135484444532711e-12,5.22085822753886e-13,2.9847352341402643e-13,1.6601083957501058e-13,1.0161005225524338e-13,5.639527398132064e-14,2.0670406265277714e-14,1.061995310627808e-14,-2.4789605149627416e-16,6.93656319676368e-09,5.50967114310527e-09,4.087419831211639e-09,2.8148921109002923e-09,1.73108161044937e-09,1.2052820922132398e-09,7.583334144598863e-10,5.385110692351169e-10,3.191895070441323e-10,2.089443443712246e-10,1.3431133621437476e-10,8.57822486048875e-11,5.0386476764759025e-11,3.120904846185832e-11,1.881479071100492e-11,1.0749323161274848e-11,5.819205687181374e-12,3.1080912115173032e-12,1.5952773676978666e-12,1.0706827243093858e-12,3.5627838004996454e-13
0.0,27,27.0,0.0,30.0,0.0,0.0,0.0,0.0,-13.0,0.0,2.0,0.0,0.0,0.0,1.2294839461767943e-10,7.392035605180795e-11,4.086423191402952e-11,2.4424995760259497e-11,1.2401811512677607e-11,7.087795458615515e-12,3.917930034984903e-12,2.0235807032214268e-12,1.0834081710339968e-12,4.833912878025883e-13,3.106858753471817e-13,1.5644023824130986e-13,9.743127231987325e-14,3.831664366496781e-14,1.0448608105628567e-14,2.2871813965465174e-14,1.507555361478958e-14,6.6423762151843394e-09,5.709860241165922e-09,4.053534318767362e-09,2.796078749777575e-09,1.7832823134019755e-09,1.218170080724339e-09,7.466317463191454e-10,5.120784922354724e-10,3.394764673089915e-10,2.137027101004891e-10,1.337999362587198e-10,8.599385033735423e-11,5.084478276933623e-11,3.157843540714847e-11,1.8225697548711638e-11,1.115315636567417e-11,5.890035755063808e-12,3.074034179175305e-12,1.599816063873264e-12,7.950416823424719e-13,2.923785583370226e-13
0.0,28,28.0,0.0,30.0,0.0,0.0,0.0,0.0,-13.0,0.0,2.0,0.0,0.0,0.0,1.17396815573881e-10,6.996129400531468e-11,4.2355242740570437e-11,2.4004613369155955e-11,1.2758854822773007e-11,7.55019747266474e-12,4.1640347865645346e-12,2.0552915884430573e-12,1.0742704618295268e-12,5.300899694303356e-13,3.1139463297251037e-13,1.7199409543852084e-13,7.549039844575239e-14,6.023298363464685e-14,2.097612069695254e-14,7.525891030221577e-15,3.904438348996355e-15,6.988011453795838e-09,5.482618512136328e-09,3.918313699892734e-09,2.7398323709727483e-09,1.8782087532602673e-09,1.2524026055759173e-09,8.574591082061743e-10,5.287300845246166e-10,3.4098058783499665e-10,2.1548711742313978e-10,1.3082106768004818e-10,7.831419202469826e-11,5.158647206674635e-11,3.2027514696225105e-11,1.8896471675850652e-11,1.0243943342118539e-11,6.0076197165354604e-12,3.494576158763312e-12,1.6941246589003167e-12,7.711139432880202e-13,4.619739279100715e-13
0.0,29,29.0,0.0,30.0,0.0,0.0,0.0,0.0,-13.0,0.0,2.0,0.0,0.0,0.0,1.2772189730162666e-10,7.45035398929196e-11,4.029108823864829e-11,2.3007176902597608e-11,1.3162194215432293e-11,6.898201254342132e-12,3.982486850225349e-12,2.106825286737308e-12,1.0939520495134863e-12,5.923990808224402e-13,3.250179678780521e-13,1.6097733769124964e-13,1.0262522311627004e-13,4.7773797425655056e-14,3.102426242394252e-14,2.033920006046506e-14,-5.378302376551705e-15,7.114066514529332e-09,5.28879763335579e-09,4.225083400897069e-09,2.8603595427425705e-09,1.863384568797656e-09,1.1406909700670896e-09,7.986214124239935e-10,4.986399722015851e-10,3.4091671224638377e-10,2.1737102514132304e-10,1.2865170047196877e-10,8.112072305944388e-11,5.140208970648292e-11,3.162068750599103e-11,1.8157030676195206e-11,1.034046401417777e-11,5.982146011896948e-12,3.4079061663295627e-12,1.586959472362996e-12,8.311996766838381e-13,3.822884125238624e-13
0.0,30,30.0,0.0,30.0,0.0,0.0,0.0,0.0,-13.0,0.0,2.0,0.0,0.0,0.0,1.2141522608714227e-10,7.060330591021012e-11,4.062090738473151e-11,2.3296475038466148e-11,1.3377164317776525e-11,7.718972827280622e-12,4.2649176351184265e-12,2.0622193765193936e-12,1.1682897789638448e-12,6.005881376538924e-13,3.357152237285586e-13,1.728619486938802e-13,9.817754566948864e-14,5.968793644053005e-14,3.300138231914945e-14,3.913939443593121e-15,1.2664541673381106e-14,6.788793673815882e-09,5.681976685059624e-09,4.2542783959438634e-09,2.753891049439866e-09,1.893117705033418e-09,1.2776454367254018e-09,8.032924389915646e-10,4.988808561400271e-10,3.247437376526419e-10,2.110712935039457e-10,1.2853672022459365e-10,7.888028876108486e-11,4.8269427469670784e-11,3.237818029035634e-11,1.8384041415933488e-11,1.0622204666122853e-11,6.1294859241423426e-12,3.6097227828362068e-12,1.602560970113927e-12,1.0159981859272442e-12,3.7271485185984675e-13
0.0,31,31.0,0.0,30.0,0.0,0.0,0.0,0.0,-13.0,0.0,2.0,0.0,0.0,0.0,1.2506159294224078e-10,7.231902097524286e-11,4.009785192511052e-11,2.413351291987873e-11,1.3789374103905002e-11,7.48323622398045e-12,4.228828320296493e-12,2.2762562667644934e-12,1.1716697452253599e-12,6.303573036744167e-13,3.443483571023722e-13,1.6061498853428382e-13,1.0443347105267668e-13,4.838938171075062e-14,3.198667408857271e-14,-2.939087905119352e-15,-6.067230653060616e-15,6.722604547883565e-09,5.097519586111506e-09,3.930419177869588e-09,2.885910910611974e-09,1.875265278564317e-09,1.19202903351376e-09,7.557270455887551e-10,5.152981584126682e-10,3.381793289035127e-10,2.1103096070983238e-10,1.2666529908126917e-10,8.065148614070724e-11,5.207538199509306e-11,3.091731518320456e-11,1.8946716131827197e-11,1.0691830071348697e-11,6.064533680302803e-12,3.4023386800172824e-12,1.6091347659637463e-12,1.0177420057430742e-12,5.390718758378779e-13
0.0,32,32.0,0.0,30.0,0.0,0.0,0.0,0.0,-13.0,0.0,2.0,0.0,0.0,0.0,1.2496029901062012e-10,7.250850445943784e-11,3.904264875604845e-11,2.2847585947875032e-11,1.3655874411479079e-11,7.859221140080271e-12,4.051785794701094e-12,2.2296336028967596e-12,1.152525861322419e-12,5.766883989165808e-13,3.333554470500208e-13,1.563712776867324e-13,1.0773364287297695e-13,5.596399346236072e-14,3.5435330464401e-14,1.7211011547157872e-14,4.723931680658609e-15,7.253314479952634e-09,5.26860815739841e-09,4.3333111391827355e-09,2.7973975564559936e-09,1.892949621424566e-09,1.189431538252201e-09,8.013883988531852e-10,5.228763950247926e-10,3.2288823082185366e-10,2.152409978531543e-10,1.291601294162502e-10,8.2519341545461e-11,5.1488705814711114e-11,3.1152189894021615e-11,1.7640242082546367e-11,1.055755416399002e-11,5.979837244725021e-12,3.2268168919970203e-12,1.86698374505684e-12,7.801737902777202e-13,5.102397360320686e-13
0.0,33,33.0,0.0,30.0,0.0,0.0,0.0,0.0,-13.0,0.0,2.0,0.0,0.0,0.0,1.1993548728785822e-10,6.712192003668416e-11,3.717802434913015e-11,2.3211769972951676e-11,1.272649948885237e-11,7.597553236489087e-12,4.17319936567007e-12,2.173384964590586e-12,1.2103122085338356e-12,6.440123516738726e-13,3.559023367455277e-13,1.7652256274323288e-13,9.869915181780393e-14,4.748216347336086e-14,1.925678298246943e-14,2.243274060500859e-14,1.2128645097780387e-14,6.659511267158059e-09,5.636054669034136e-09,4.0175631275344434e-09,2.802224099767901e-09,1.8439459814334015e-09,1.2085327248923824e-09,8.052593925148965e-10,4.975462321654894e-10,3.363314815837248e-10,2.1003895542401028e-10,1.297997479180788e-10,8.400321446342224e-11,4.908957325281927e-11,2.893254616677224e-11,1.7477870202321423e-11,1.098125527308453e-11,5.8914705593594905e-12,3.323088649127054e-12,1.835161188421049e-12,5.818818292192075e-13,5.00795047402154e-13
0.0,34,34.0,0.0,30.0,0.0,0.0,0.0,0.0,-13.0,0.0,2.0,0.0,0.0,0.0,1.2010481797950102e-10,6.759096436636183e-11,3.902074069697606e-11,2.1666140842072984e-11,1.3492764223257061e-11,7.1914806717526205e-12,4.1869584567857334e-12,2.3837099720649533e-12,1.2467057842264368e-12,6.139297381169695e-13,3.417233545645024e-13,1.8233337725061122e-13,9.398050119229434e-14,5.661616025555206e-14,1.626593217142643e-14,2.2090758391515135e-14,2.2514965448390532e-14,6.800707198696976e-09,5.6151859082630536e-09,3.970346372461016e-09,2.7595352719317376e-09,1.840870489128862e-09,1.2772269389664998e-09,7.906091137005398e-10,5.236501579831807e-10,3.366925293212806e-10,2.1973999216331203e-10,1.3114840849420445e-10,8.495212182899702e-11,5.1230361642639224e-11,2.8832170432821837e-11,1.8639971077056355e-11,1.074766175862914e-11,6.545344303722353e-12,3.52552640418714e-12,1.8013276947874562e-12,1.0465910474274579e-12,6.096383062750495e-13
0.0,35,35.0,0.0,30.0,0.0,0.0,0.0,0.0,-13.0,0.0,2.0,0.0,0.0,0.0,1.2742406778365808e-10,7.401020734709789e-11,4.094950150373424e-11,2.380533184701971e-11,1.4284904024778388e-11,7.71044611924663e-12,4.291813175427731e-12,2.29226682799217e-12,1.3087185503400135e-12,6.347804866191653e-13,3.730493417272367e-13,1.6720983629983334e-13,1.2222976322491671e-13,4.977547955619582e-14,4.731726261586171e-14,2.7120798059179825e-14,1.245343882842966e-14,6.800119548038552e-09,5.594834749985486e-09,4.0137667527849935e-09,2.823606928709453e-09,1.8430253564940558e-09,1.1781296335027124e-09,8.024361821470247e-10,5.218473892360771e-10,3.2362422769117155e-10,2.1669891387938527e-10,1.3198716199220098e-10,7.948420534850618e-11,4.9828341366306455e-11,3.0337376649353815e-11,1.8642502183801348e-11,1.0653445822961177e-11,5.954050861304474e-12,3.575239685944414e-12,1.6202561697791926e-12,9.394053431854832e-13,3.6822340462451766e-13
0.0,36,36.0,0.0,30.0,0.0,0.0,0.0,0.0,-13.0,0.0,2.0,0.0,0.0,0.0,1.186932599006183e-10,6.732277635173437e-11,3.8584228297260286e-11,2.4407830294230355e-11,1.3557701191098587e-11,7.626630088201363e-12,4.37865429325283e-12,2.3080467659991567e-12,1.2363351225183026e-12,6.441498997271795e-13,3.3892674942797597e-13,1.771798675244743e-13,8.614256271334574e-14,5.650208949926338e-14,1.7181451454623603e-14,1.462334824432945e-14,8.623610789487238e-15,6.4040023244078215e-09,5.6765789729985335e-09,4.186599002034424e-09,2.8260820166307115e-09,1.8093511857451185e-09,1.228674307649023e-09,7.974488051091099e-10,5.597149402701657e-10,3.2733952576681244e-10,2.0898133819419789e-10,1.3147276580333576e-10,7.705625455870171e-11,5.023337158409621e-11,2.880854540619498e-11,1.8269313909828583e-11,1.1295056477171552e-11,6.44007978277754e-12,3.4794719144127104e-12,1.829349741663558e-12,9.164171175145256e-13,3.1484070107482977e-13
0.0,37,37.0,0.0,30.0,0.0,0.0,0.0,0.0,-13.0,0.0,2.0,0.0,0.0,0.0,1.2679295959338736e-10,7.003292825262737e-11,3.948647629001604e-11,2.2864497207751817e-11,1.3946486690489344e-11,7.574889572307385e-12,4.292481482749084e-12,2.4196881596928248e-12,1.3076073613124328e-12,6.551990571883687e-13,3.755121173316619e-13,1.882413104493411e-13,9.778311185535014e-14,5.439338969057901e-14,8.715615586944125e-15,2.957665964330448e-14,8.954679995001778e-15,6.620963351232283e-09,5.526406581513288e-09,4.076228042021957e-09,2.8079658668575477e-09,1.832066019757667e-09,1.2194144576322204e-09,7.904780838068994e-10,5.062138998863844e-10,3.241775630575614e-10,2.2080342341993268e-10,1.281316082771499e-10,8.526225282401404e-11,5.1509924812683684e-11,3.097076161577257e-11,1.7790116512941377e-11,1.0588220862156606e-11,6.00699683012613e-12,3.4557627125388417e-12,1.6528401350207676e-12,1.0188801844297042e-12,6.2703611292721e-13
0.0,38,38.0,0.0,30.0,0.0,0.0,0.0,0.0,-13.0,0.0,2.0,0.0,0.0,0.0,1.2273240797614043e-10,6.725491041707736e-11,3.906102713983998e-11,2.2544664304749776e-11,1.380611279858387e-11,7.730494514945226e-12,4.233070769527853e-12,2.4328605782722967e-12,1.321311331429828e-12,6.830590292335135e-13,3.727768211584585e-13,1.8064395600242625e-13,1.1740597513443687e-13,6.084412695065138e-14,2.4187943873246057e-14,9.614506669166656e-15,1.8779504159674965e-14,6.914319592343446e-09,5.6586051289139886e-09,3.929605989595704e-09,2.986174059047403e-09,1.8625155895502215e-09,1.212680433912774e-09,7.966658054073522e-10,4.980833571299796e-10,3.3155778709554353e-10,2.0145619342487066e-10,1.3158261892506772e-10,7.69547535394048e-11,4.916414523652084e-11,2.999499465110828e-11,1.8163119199017764e-11,1.0204989548012289e-11,6.084584151733375e-12,3.509623701013857e-12,1.7315869395981337e-12,8.589176818988582e-13,5.336668617524429e-13
0.0,39,39.0,0.0,30.0,0.0,0.0,0.0,0.0,-13.0,0.0,2.0,0.0,0.0,0.0,1.2257282096595854e-10,6.812778263763051e-11,3.7173143626346877e-11,2.1464812825483702e-11,1.2740729754941232e-11,7.578158175760464e-12,4.132353506493429e-12,2.4356379693949046e-12,1.3307995774129885e-12,6.723654362768122e-13,4.0353831181244257e-13,1.9064581631838582e-13,1.0701304436901034e-13,4.2109563906236554e-14,4.0087554312906457e-14,7.900305215575764e-15,9.033349818448307e-15,7.05402271503586e-09,5.440693346888094e-09,3.969895335964165e-09,2.8545923911876418e-09,1.8096258361977309e-09,1.2017066883281132e-09,7.846298983502202e-10,5.261824052508434e-10,3.338528250010817e-10,2.0103285275287947e-10,1.303889520143166e-10,8.378640959119801e-11,4.9630411327560504e-11,2.932456535793643e-11,1.7743022887908922e-11,1.0857739553208536e-11,6.1928697910540675e-12,3.673885038567607e-12,1.9567546150703753e-12,1.041018119478728e-12,4.267983990392111e-13
0.0,40,40.0,0.0,30.0,0.0,0.0,0.0,0.0,-13.0,0.0,2.0,0.0,0.0,0.0,1.1830546932899343e-10,6.743952672513681e-11,3.7013614329891075e-11,2.1567376757338267e-11,1.3298183191433097e-11,7.562891969687343e-12,4.550567613755935e-12,2.5935900463561463e-12,1.3459422393197108e-12,6.739081539954623e-13,3.8293714694479513e-13,1.8295052494393574e-13,1.1229948823183968e-13,6.032238932980253e-14,4.411184791600417e-14,-8.815373546233554e-15,1.4720908216152056e-14,6.949259528266254e-09,5.430277384331534e-09,3.978747028901325e-09,2.5645486933957153e-09,1.8164278827184389e-09,1.2086866282107746e-09,8.11499338729535e-10,5.166313157780732e-10,3.152279751583999e-10,2.1856439826042278e-10,1.261462561766617e-10,8.072675098297071e-11,4.914742242221509e-11,3.0546393191603224e-11,1.8985688071447754e-11,1.0885277019658902e-11,6.184725049983756e-12,3.4376974582182554e-12,1.8050308350032158e-12,1.1662641417411891e-12,4.695182250341651e-13
0.0,41,41.0,0.0,30.0,0.0,0.0,0.0,0.0,-13.0,0.0,2.0,0.0,0.0,0.0,1.2032949550215637e-10,6.795539229296901e-11,3.799818721150943e-11,2.2866977531634593e-11,1.4141070171606473e-11,7.620777713907035e-12,4.433540798998783e-12,2.4051049435416254e-12,1.355014081027839e-12,7.210784676316421e-13,3.9152477327751377e-13,1.928493134757621e-13,9.918940321800554e-14,4.104055097406043e-14,1.7288473425024317e-14,4.488042268314989e-15,-3.914034297517245e-15,6.8948472959108715e-09,5.704710870592977e-09,4.092051517516985e-09,2.631535032611706e-09,1.7723969433818752e-09,1.1924705434379473e-09,7.607431983414701e-10,4.962352162993997e-10,3.339452348400729e-10,2.01326242126372e-10,1.3080095866369328e-10,8.306829427043317e-11,4.893127221268641e-11,2.6948199283288107e-11,1.7230635404606743e-11,1.1066557714124512e-11,6.3580275256152446e-12,3.6063432114263236e-12,2.1168741274215725e-12,9.69066582670119e-13,5.680104639346693e-13
0.0,42,42.0,0.0,30.0,0.0,0.0,0.0,0.0,-13.0,0.0,2.0,0.0,0.0,0.0,1.213485946094263e-10,6.908172149197456e-11,3.7626186067010017e-11,2.2972651711667417e-11,1.3837039397419324e-11,7.447446329537578e-12,4.078170290827951e-12,2.4713092677567714e-12,1.2885905229706604e-12,7.557367807874609e-13,4.1277772708100394e-13,1.9032433294374913e-13,1.0790180303939744e-13,4.871370112681568e-14,3.122696022452815e-14,8.661406103448026e-16,-3.453572290715165e-15,7.171657800246443e-09,5.449356310799891e-09,4.321227505351453e-09,2.798355459459334e-09,1.894730453490629e-09,1.198904920619606e-09,8.04590545967842e-10,5.088325678757566e-10,3.394013655354748e-10,2.204880338391539e-10,1.3178261247149806e-10,7.866837811699865e-11,4.920887931464302e-11,2.996371574355819e-11,1.8009850846575867e-11,1.0428814224604205e-11,6.230481948946928e-12,3.5217516075096227e-12,2.0712352177621014e-12,1.0362562437267522e-12,4.92684237977568e-13
0.0,43,43.0,0.0,30.0,0.0,0.0,0.0,0.0,-13.0,0.0,2.0,0.0,0.0,0.0,1.195723346343229e-10,6.732174853927318e-11,3.7672995775191285e-11,2.2241974102426154e-11,1.3095133889569733e-11,7.91095307877332e-12,4.71298351222033e-12,2.558122476891652e-12,1.3659816900306989e-12,7.039108479901457e-13,3.978437490219007e-13,2.0326345343420203e-13,1.1227156742264977e-13,5.829300871129402e-14,2.3882215592648782e-14,1.1015066821112928e-14,1.6117820332646368e-14,7.099371550685475e-09,5.386518019104184e-09,4.013010053120949e-09,3.017154808872961e-09,1.8643464327155757e-09,1.2191990156101761e-09,7.971418999272049e-10,5.086501926287923e-10,3.3468871821150523e-10,2.131862067221371e-10,1.2719664352282464e-10,8.087231327148727e-11,4.683972405772519e-11,2.9499853139593786e-11,1.795849816879354e-11,1.0806488988031495e-11,6.03692092586346e-12,3.528961120567716e-12,1.9236473216077564e-12,8.426183337109165e-13,6.527557167111439e-13
0.0,44,44.0,0.0,30.0,0.0,0.0,0.0,0.0,-13.0,0.0,2.0,0.0,0.0,0.0,1.2259997743549894e-10,7.2143763639805e-11,3.817028625572155e-11,2.2740917236878665e-11,1.2856476591209603e-11,7.833680245631779e-12,4.421369008539786e-12,2.485890233953241e-12,1.4280778335821968e-12,7.159474221343142e-13,4.090588045704892e-13,2.0381695253197925e-13,1.0860352128196773e-13,4.195105309199867e-14,3.1914348548222634e-14,-2.615880482823853e-15,3.531176563574524e-15,7.026806930097688e-09,5.545216643879815e-09,4.068902540068748e-09,2.883729253513916e-09,1.8260493385593257e-09,1.2045540411501334e-09,8.424720221658837e-10,5.105673601112726e-10,3.2034079945109385e-10,2.1150888401192467e-10,1.289930967284416e-10,8.22894081595784e-11,4.846089865013334e-11,3.0156424398751506e-11,1.8597181385678813e-11,1.0821974171230484e-11,6.009925728917135e-12,3.4542246366992157e-12,2.0024549528575248e-12,1.0152508378854733e-12,3.880332222209712e-13
0.0,45,45.0,0.0,30.0,0.0,0.0,0.0,0.0,-13.0,0.0,2.0,0.0,0.0,0.0,1.244678898752548e-10,6.555634178366593e-11,3.671303510434315e-11,2.2256119167026553e-11,1.3742796885694672e-11,7.39777836268412e-12,4.542630262159401e-12,2.5563793107557694e-12,1.4330448175198096e-12,7.43385539403377e-13,4.1636806468409e-13,1.9958992777468623e-13,1.180544509030079e-13,5.624966497361851e-14,2.3146317832913418e-14,2.4132103291030516e-14,-4.446980184431504e-15,6.868955921898367e-09,5.548134378144445e-09,4.148886920323574e-09,2.6407346123672804e-09,1.756581871328029e-09,1.2284207607095293e-09,7.722919028446645e-10,5.139834096074395e-10,3.298995495224401e-10,2.0824298561955836e-10,1.3633468559486e-10,8.059552067685712e-11,4.9574489414645236e-11,2.9405018015410244e-11,1.8724982470358126e-11,1.0513470242806648e-11,5.918462944494299e-12,3.6983867193650705e-12,1.8676312341789483e-12,9.88993419627168e-13,5.176307721996696e-13
0.0,46,46.0,0.0,30.0,0.0,0.0,0.0,0.0,-13.0,0.0,2.0,0.0,0.0,0.0,1.2121829351299042e-10,6.668327746701027e-11,3.977064906803151e-11,2.2020267168992024e-11,1.335328750509621e-11,7.543350427145362e-12,4.457702966716375e-12,2.5386571591986818e-12,1.4066350992664606e-12,7.247410602210233e-13,4.3379179237828104e-13,2.0999007136027617e-13,1.37811888048896e-13,6.827273482426699e-14,3.5760218600030654e-14,-2.968527516423733e-16,9.666751524291106e-15,7.215911609906666e-09,5.457957779985885e-09,4.024324280254333e-09,2.992335874852368e-09,1.931795794195494e-09,1.2425425620683721e-09,8.111135047683517e-10,5.13752998295324e-10,3.421453462497079e-10,2.1075632683723253e-10,1.2957469056264914e-10,8.224728199896563e-11,4.822701908850104e-11,3.068200918101133e-11,1.7484784761674557e-11,1.0343053696690304e-11,6.329037389523888e-12,3.5508317640819106e-12,1.939201747276874e-12,1.1213415235809327e-12,3.99723647057395e-13
0.0,47,47.0,0.0,30.0,0.0,0.0,0.0,0.0,-13.0,0.0,2.0,0.0,0.0,0.0,1.198283943234658e-10,7.114939619024671e-11,3.848012016761814e-11,2.20590486883926e-11,1.345385173639067e-11,7.439645125499797e-12,4.367804998533346e-12,2.5164572418126047e-12,1.4610984306549358e-12,7.55997268439322e-13,4.286328981507395e-13,2.2699996214879586e-13,1.273801457386083e-13,6.728302080411625e-14,3.3163722946839824e-14,1.7566341877342748e-14,1.1529018362300573e-14,6.7328017027967335e-09,5.355323071145725e-09,4.024202131551169e-09,2.7171147435191286e-09,1.8443292456931081e-09,1.114379643726141e-09,8.012334261446064e-10,5.194536150211991e-10,3.463878439694866e-10,2.0669518404253562e-10,1.3105097437714988e-10,7.348973186464237e-11,4.904997333895667e-11,2.9465394723907804e-11,1.7703211778808767e-11,1.0776306754998545e-11,6.431016444248582e-12,3.388123272690614e-12,1.9793023364499956e-12,9.543908617642738e-13,4.171142488064954e-13
0.0,48,48.0,0.0,30.0,0.0,0.0,0.0,0.0,-13.0,0.0,2.0,0.0,0.0,0.0,1.2903605915459022e-10,6.785202666663848e-11,3.6893554571875256e-11,2.250800057532006e-11,1.31489275145675e-11,7.393077421338834e-12,4.583348195473281e-12,2.526965795388253e-12,1.39843068800879e-12,7.915151047080845e-13,4.3799602952502473e-13,2.1588171935704971e-13,1.0880506686604477e-13,4.8683803274691475e-14,2.5473147068823427e-14,5.199166081053203e-15,3.803696902859287e-15,6.238406252327624e-09,5.416633336296714e-09,4.149416518905634e-09,2.8138570623445733e-09,1.9225086312813695e-09,1.2042069626827174e-09,8.240549824564474e-10,5.096526119051539e-10,3.2492475473390663e-10,2.1378527239117033e-10,1.2429207479747812e-10,7.806316198732071e-11,4.883211100817796e-11,2.999178323029301e-11,1.7551400964171994e-11,1.0328103255482243e-11,6.0749590976039006e-12,3.555025270250315e-12,1.9660033430260037e-12,9.069537513243274e-13,5.552567552849347e-13
0.0,49,49.0,0.0,30.0,0.0,0.0,0.0,0.0,-13.0,0.0,2.0,0.0,0.0,0.0,1.2520048655839595e-10,7.075977048770665e-11,3.8066862983222195e-11,2.2563871010357978e-11,1.2923171815063225e-11,7.557882245218804e-12,4.4755194240754265e-12,2.3765575804012207e-12,1.414555056985372e-12,7.508263483400206e-13,4.204943338322429e-13,2.1664613038843349e-13,1.409303679215771e-13,4.916676604304469e-14,2.414805324214712e-14,1.9761528351854098e-14,1.4214712482517656e-14,7.09079209580071e-09,5.323573584139311e-09,3.958402042061774e-09,2.8396447446359655e-09,1.9018175752437528e-09,1.213906168469117e-09,8.082120396624272e-10,5.295323328881112e-10,3.390568849762734e-10,2.127620434206081e-10,1.2914621834626071e-10,8.364544105300042e-11,4.8025469445041545e-11,2.8660668853187684e-11,1.794879013658986e-11,1.0545521250411278e-11,6.130524999276479e-12,3.4755708321142844e-12,1.877505251643743e-12,1.0287954961580872e-12,5.412046961780377e-13
0.0,50,50.0,0.0,30.0,0.0,0.0,0.0,0.0,-13.0,0.0,2.0,0.0,0.0,0.0,1.2602804280728304e-10,6.71168208492404e-11,3.904924418896988e-11,2.2308442285148842e-11,1.297593085987454e-11,7.48555903393959e-12,4.58104251221841e-12,2.581830206525727e-12,1.3991009697278714e-12,7.495699956055834e-13,4.3936477534816543e-13,2.3898289978064226e-13,1.1399739879730492e-13,6.013152705371059e-14,1.8527512973288038e-14,2.6535820992299248e-14,1.3070815396063325e-14,6.802797956162778e-09,5.295658238827543e-09,4.114446860202503e-09,2.6491669251240983e-09,1.8472536829970963e-09,1.202966424472243e-09,8.099719227460114e-10,5.056236815372791e-10,3.4540981651021565e-10,2.0537461827593533e-10,1.2862061080260763e-10,8.363024997835155e-11,4.680611461209345e-11,2.97442311329196e-11,1.6975267689530912e-11,1.0054343991568684e-11,6.205976198641723e-12,3.685052543700382e-12,1.8393309431510747e-12,9.752621207519344e-13,5.777293102696627e-13
0.0,51,51.0,0.0,30.0,0.0,0.0,0.0,0.0,-13.0,0.0,2.0,0.0,0.0,0.0,1.1881275039824954e-10,7.031686938814837e-11,3.8752617914163126e-11,2.1902162183399817e-11,1.2932903601582847e-11,7.675591637784946e-12,4.5165202024235685e-12,2.4992871389741654e-12,1.4471047305980802e-12,7.63932484196399e-13,4.390881420590835e-13,2.3912133238142657e-13,1.2264652644091255e-13,6.860439106206343e-14,3.6963110520338714e-14,1.6522099663434125e-14,-7.447842213886772e-15,7.15044486421649e-09,5.562955937029527e-09,4.039400381281678e-09,2.7869441578823405e-09,1.834904886435105e-09,1.1733427453449924e-09,7.791666207564434e-10,4.972436423008718e-10,3.0521126930211386e-10,2.1728106908322017e-10,1.3423703242728272e-10,7.931938051521674e-11,4.610327822401634e-11,2.9003477938937955e-11,1.690807765596788e-11,1.0749996638266795e-11,6.308265908661875e-12,3.554609646855976e-12,1.976821157035791e-12,9.855580349444103e-13,8.845334953419776e-13
0.0,52,52.0,0.0,30.0,0.0,0.0,0.0,0.0,-13.0,0.0,2.0,0.0,0.0,0.0,1.123648593505483e-10,6.88942858954435e-11,3.7803300108371226e-11,2.1945030243708178e-11,1.3633489377345989e-11,7.709223797766667e-12,4.604368964260728e-12,2.6674535751500892e-12,1.4059691616382737e-12,7.933488525752573e-13,4.672848059663539e-13,2.366873049760282e-13,1.4742277610631946e-13,7.179742061737793e-14,3.7035857897054094e-14,2.2509502716235822e-14,9.22616119112385e-15,6.7063746441399e-09,5.6650222911917485e-09,3.862787531454248e-09,2.8120391474034067e-09,1.8147646075850837e-09,1.1654608588600294e-09,8.359761169379686e-10,5.55349700852503e-10,3.2675450274185715e-10,2.0246458151399622e-10,1.2733779512684664e-10,7.92231242098631e-11,4.902664429849105e-11,2.835966052310877e-11,1.801473652980753e-11,1.0177798296964573e-11,5.9323332740107254e-12,3.3574996219869708e-12,1.8016551368469787e-12,1.0898937920510252e-12,5.646622104681895e-13
0.0,53,53.0,0.0,30.0,0.0,0.0,0.0,0.0,-13.0,0.0,2.0,0.0,0.0,0.0,1.259033896657574e-10,7.289875966745862e-11,3.7767751772115584e-11,2.201519155130652e-11,1.2966639258973394e-11,7.696148329493063e-12,4.408801521591584e-12,2.605766080824537e-12,1.4657579487432399e-12,7.856838112535054e-13,4.4106976842968443e-13,2.4253510118834703e-13,1.3602031513550655e-13,5.76472619463985e-14,3.269791455386951e-14,2.410005419043334e-14,1.7729126597585562e-14,7.107483852141595e-09,5.234380478279466e-09,4.1829544225351375e-09,2.8932899230589533e-09,1.920661772272197e-09,1.2135991290857806e-09,8.150248413578991e-10,5.283675368816639e-10,3.3153643102404566e-10,2.1707199754555132e-10,1.306951900500143e-10,7.659552342638223e-11,4.774470461221045e-11,2.973264703295799e-11,1.7317216993764862e-11,9.999650908621308e-12,6.035057355160306e-12,3.572453886018172e-12,1.81528040151197e-12,1.0843453061533498e-12,7.324077245337949e-13
0.0,54,54.0,0.0,30.0,0.0,0.0,0.0,0.0,-13.0,0.0,2.0,0.0,0.0,0.0,1.251845250280275e-10,6.874267435592155e-11,4.0261902681751654e-11,2.404787313577312e-11,1.3018356765237826e-11,8.097870697563397e-12,4.542337775001751e-12,2.569909009042447e-12,1.5175628949017364e-12,7.597742609406459e-13,4.764143336015129e-13,2.1963193988432e-13,1.2727987025404254e-13,4.76526113037971e-14,4.30643578672401e-14,2.4012235320764868e-14,1.6893450306282947e-14,6.964306691802735e-09,5.828138934132519e-09,4.0087457844502665e-09,2.88455805044932e-09,1.9840985071992483e-09,1.1947767106210924e-09,8.472891643721251e-10,5.088965942385977e-10,3.380236503611364e-10,2.0807586066490536e-10,1.2671967743015805e-10,8.335839468410171e-11,4.8561543059528625e-11,2.953192578541073e-11,1.71837394570743e-11,1.0462165824559369e-11,6.0111618884959266e-12,3.560375013266502e-12,1.8136687062096644e-12,9.46019844531489e-13,6.416315487208561e-13
0.0,55,55.0,0.0,30.0,0.0,0.0,0.0,0.0,-13.0,0.0,2.0,0.0,0.0,0.0,1.1995533171994088e-10,6.749104237290253e-11,3.88879193011436e-11,2.306839179342077e-11,1.2821294710170384e-11,7.668390751802609e-12,4.403048689123872e-12,2.3993827797466247e-12,1.4174885004778105e-12,8.036354371394265e-13,4.568966756131595e-13,2.3225192943967337e-13,1.3647972337095794e-13,6.637096829070087e-14,4.516363339035737e-14,-1.0352738600076962e-15,8.753191902161757e-15,7.022723546104172e-09,5.2641107606187456e-09,3.957232831863923e-09,2.9477165635392186e-09,1.883202458620333e-09,1.2559713897036846e-09,8.021319396366422e-10,5.374407751072572e-10,3.294370422474584e-10,2.1013250889989946e-10,1.3081032194092928e-10,7.969103552703212e-11,4.6341813912897544e-11,2.9070493212848806e-11,1.7064603541772762e-11,1.0189110706688039e-11,6.371483501461065e-12,3.380911056583886e-12,1.931131595839338e-12,8.878540857791485e-13,6.211095435235742e-13
0.0,56,56.0,0.0,30.0,0.0,0.0,0.0,0.0,-13.0,0.0,2.0,0.0,0.0,0.0,1.2007637578108126e-10,6.786485157882942e-11,3.6927670447367504e-11,2.2032638298988163e-11,1.260680335121114e-11,7.506278600505673e-12,4.3310407776558905e-12,2.5643124270507465e-12,1.4453490699747828e-12,7.644706708531881e-13,4.709862705066601e-13,2.3368539544910284e-13,1.1077514168813807e-13,6.682352706328412e-14,2.9619356978813695e-14,9.316346120643721e-15,1.2194923142646234e-14,6.986018697822259e-09,5.5590579314213065e-09,3.991106419001236e-09,2.754613516252419e-09,1.8925657549230466e-09,1.228708738344786e-09,7.843103532126358e-10,5.114282567464543e-10,3.175162712457941e-10,2.1217836351146268e-10,1.2717166429463107e-10,8.326319956859807e-11,4.9919708732400145e-11,2.885306165479259e-11,1.582993069481444e-11,1.041015129904377e-11,6.066633408710147e-12,3.3943177479760303e-12,1.8642971061858687e-12,1.0506881511111144e-12,7.110889280057172e-13
0.0,57,57.0,0.0,30.0,0.0,0.0,0.0,0.0,-13.0,0.0,2.0,0.0,0.0,0.0,1.2792609925318266e-10,6.867105253138284e-11,3.7172742687393576e-11,2.333707032989144e-11,1.2548019692640513e-11,7.49407872795693e-12,4.258145781735891e-12,2.5758733137528162e-12,1.4394323014012766e-12,8.382392147821282e-13,4.67577969069132e-13,2.5029502125042013e-13,1.4163973230968406e-13,7.524017153306933e-14,3.77920242390819e-14,1.6567618501179314e-14,9.404118239288597e-15,6.72444711530836e-09,5.59501882841435e-09,3.8664954925795386e-09,2.714225747949891e-09,1.831094093485406e-09,1.1776486840785682e-09,8.162294305875189e-10,5.29442059749536e-10,3.093889313934604e-10,2.1143437148799265e-10,1.334342936842366e-10,7.725303444214764e-11,5.003686511151719e-11,3.1033831682331545e-11,1.7219821869233803e-11,1.03478072444713e-11,5.984504586424434e-12,3.4617965789434532e-12,1.9986080493756222e-12,1.2779166588841956e-12,5.691098638706853e-13
0.0,58,58.0,0.0,30.0,0.0,0.0,0.0,0.0,-13.0,0.0,2.0,0.0,0.0,0.0,1.2292840481170194e-10,6.456929256352307e-11,3.8988499930835745e-11,2.3163561374643513e-11,1.3319582166576236e-11,7.551684166052555e-12,4.132518197654278e-12,2.3395849106683487e-12,1.494099776455416e-12,8.125191026911376e-13,4.947426659849793e-13,2.3229353632162193e-13,1.3229786344991334e-13,7.334965941681602e-14,2.0289868551056494e-14,2.2275650192072312e-14,-1.4677281636935778e-14,6.6356191398253484e-09,5.496967997155045e-09,4.110129912779552e-09,2.783638261023573e-09,1.8235606801131258e-09,1.2168647748542571e-09,8.190368452304225e-10,5.158255234959852e-10,3.1103035530450797e-10,2.0556179065019893e-10,1.3289278986551864e-10,7.802030270380651e-11,4.8786090775129037e-11,2.9449530944767994e-11,1.692358980310479e-11,1.0240338978603592e-11,6.3732741858383734e-12,3.2058534289828553e-12,1.9733107364187423e-12,1.1203524572829226e-12,6.758577358195252e-13
0.0,59,59.0,0.0,30.0,0.0,0.0,0.0,0.0,-13.0,0.0,2.0,0.0,0.0,0.0,1.1947856833262712e-10,6.659065634321452e-11,3.635027648345741e-11,2.204473055811607e-11,1.2777652131526522e-11,7.60945706640389e-12,4.365004384722625e-12,2.3507429943096564e-12,1.482319828330041e-12,7.9921023839981e-13,4.941212679483475e-13,2.3755317405032996e-13,1.2480193458958237e-13,5.439751904902307e-14,5.774297576289167e-14,1.4108312875315569e-14,1.240786246882228e-14,6.904028592787025e-09,5.702462430345938e-09,4.074848240124226e-09,2.7520779950914876e-09,1.8506104988547894e-09,1.1900033992600227e-09,7.820789053473607e-10,5.227295868472575e-10,3.340887296426853e-10,2.0704291400760603e-10,1.2529507499127358e-10,7.916640169627927e-11,4.967062852099373e-11,2.983042754260847e-11,1.79153482864728e-11,1.0056696484438551e-11,5.7583309976401344e-12,3.367189338393906e-12,1.8942321495566875e-12,1.0358680143935604e-12,5.471761197086088e-13
0.0,60,60.0,0.0,30.0,0.0,0.0,0.0,0.0,-13.0,0.0,2.0,0.0,0.0,0.0,1.1887031617463618e-10,6.723055458831799e-11,3.685137367898401e-11,2.2850867046704514e-11,1.3181541002822857e-11,6.979645806036584e-12,4.343866370543051e-12,2.502939339556375e-12,1.4119622870394447e-12,8.335371860070779e-13,4.479220394690551e-13,2.494328812582714e-13,1.3835095706797864e-13,5.3679521423849615e-14,3.996232651349858e-14,1.308146219739065e-14,-7.960048203062845e-15,6.727032916418533e-09,5.3353083944390676e-09,4.289571127940371e-09,2.868939859322883e-09,1.799226909791799e-09,1.2405679094601306e-09,8.191321417033554e-10,5.182354357207632e-10,3.503943278586541e-10,2.066603632480507e-10,1.2563305269424963e-10,7.991732766334446e-11,4.7248958494880774e-11,2.8824885033492045e-11,1.7967771743901438e-11,9.952799785343961e-12,6.208620027075034e-12,3.358218414427238e-12,1.890396661493191e-12,1.0645587561552902e-12,6.982937041028273e-13
0.0,61,61.0,0.0,30.0,0.0,0.0,0.0,0.0,-13.0,0.0,2.0,0.0,0.0,0.0,1.1853111059187405e-10,6.611719913277095e-11,3.8619488594716126e-11,2.199291592959627e-11,1.1869360496778477e-11,7.322817075194588e-12,4.3625966933569235e-12,2.4666157947670154e-12,1.4192972786667467e-12,7.933692239951852e-13,4.854237716269712e-13,2.686460423906689e-13,1.3927309650438902e-13,6.210036051588319e-14,2.4930987417809614e-14,1.7808014683225737e-14,1.773828462108198e-14,6.7733340823678225e-09,5.569003839711805e-09,3.984136324318817e-09,2.7425403050541894e-09,1.9373867414031895e-09,1.2234320082411568e-09,8.020040816294184e-10,5.081217388638853e-10,3.314993019749e-10,2.1440772603253677e-10,1.312044863417635e-10,7.976013450423854e-11,4.638521564310716e-11,2.8906537711299024e-11,1.7054587607111767e-11,1.0435749177985344e-11,6.010017595373923e-12,3.454906863144271e-12,2.0031827700589767e-12,1.1267650015331243e-12,4.692759797868267e-13
0.0,62,62.0,0.0,30.0,0.0,0.0,0.0,0.0,-13.0,0.0,2.0,0.0,0.0,0.0,1.1953416590918944e-10,6.947706512568258e-11,3.700299813437373e-11,2.170660230237548e-11,1.2784852164710434e-11,7.593246944270721e-12,4.411763693957235e-12,2.3927137345604218e-12,1.4949307966511943e-12,8.289394256947992e-13,4.825898553762462e-13,2.364561047351754e-13,1.3222990958699722e-13,6.768157238230451e-14,3.061314190405351e-14,-1.892487694680713e-15,1.8299626257615428e-14,6.750738743568933e-09,5.67584057155476e-09,3.9950592608881695e-09,2.8374209747401116e-09,1.740061174059422e-09,1.282221089303851e-09,8.093489298162629e-10,5.147717554079024e-10,3.3782876710513515e-10,2.052685334351663e-10,1.3131528465519858e-10,7.710984332563804e-11,4.930260395562702e-11,2.7747323352402267e-11,1.6370908671174105e-11,1.0704665763966159e-11,5.8737804869788996e-12,3.3259745583898926e-12,1.92987271990333e-12,9.404166866859653e-13,5.04034525555621e-13
0.0,63,63.0,0.0,30.0,0.0,0.0,0.0,0.0,-13.0,0.0,2.0,0.0,0.0,0.0,1.2392339495661882e-10,7.035421189715461e-11,3.952863844431186e-11,2.247925115830823e-11,1.3150067869347262e-11,7.010361914555678e-12,4.190017180240506e-12,2.515073881209589e-12,1.3843664217034523e-12,7.991485796116247e-13,5.000302032676011e-13,2.4263215628214405e-13,1.5151601090750727e-13,7.023245672222145e-14,3.32379253054407e-14,1.7846925830147562e-14,3.061918937542527e-14,6.9040418648870865e-09,5.254807750133826e-09,4.276120695619422e-09,2.8004527042730478e-09,1.8569575502784013e-09,1.188180955862508e-09,7.855265166700769e-10,5.091840791905685e-10,3.2230556780800024e-10,2.1129064700599212e-10,1.29069958327561e-10,7.63651021566648e-11,4.617211119046104e-11,2.8138564134259828e-11,1.7505410443081337e-11,9.954090186616592e-12,6.033152929423029e-12,3.2694454534149188e-12,1.9214172812639667e-12,8.649787976733318e-13,6.869885668116215e-13
