Line_number,Fiducial,Easting,Northing,Height,Elevation,tx_pitch,tx_roll,tx_yaw,txrx_dx,txrx_dy,txrx_dz,rx_pitch,rx_roll,rx_yaw,S0Z_time_1.431e-04,S0Z_time_1.801e-04,S0Z_time_2.266e-04,S0Z_time_2.846e-04,S0Z_time_3.581e-04,S0Z_time_4.506e-04,S0Z_time_5.671e-04,S0Z_time_7.136e-04,S0Z_time_8.981e-04,S0Z_time_1.131e-03,S0Z_time_1.423e-03,S0Z_time_1.791e-03,S0Z_time_2.255e-03,S0Z_time_2.838e-03,S0Z_time_3.573e-03,S0Z_time_4.498e-03,S0Z_time_5.662e-03,S1Z_time_1.409e-05,S1Z_time_1.610e-05,S1Z_time_1.909e-05,S1Z_time_2.360e-05,S1Z_time_2.960e-05,S1Z_time_3.709e-05,S1Z_time_4.609e-05,S1Z_time_5.759e-05,S1Z_time_7.209e-05,S1Z_time_9.060e-05,S1Z_time_1.141e-04,S1Z_time_1.431e-04,S1Z_time_1.801e-04,S1Z_time_2.266e-04,S1Z_time_2.846e-04,S1Z_time_3.581e-04,S1Z_time_4.506e-04,S1Z_time_5.671e-04,S1Z_time_7.136e-04,S1Z_time_8.981e-04,S1Z_time_1.131e-03
0.0,0,0.0,0.0,30.0,0.0,0.0,0.0,0.0,-13.0,0.0,2.0,0.0,0.0,0.0,1.9897872988348906e-11,1.6253467105158147e-11,1.331006909670067e-11,1.0899973542457265e-11,8.873930785907263e-12,7.185660559129285e-12,5.777408178768735e-12,4.597073670843437e-12,3.6133458931098543e-12,2.8012072191277596e-12,2.1405095931931848e-12,1.6067536876191795e-12,1.1826461060760693e-12,8.522544258837242e-13,5.997070316979571e-13,4.1142862649376243e-13,2.746613453224804e-13,1.575440729449513e-10,1.16774041796929e-10,8.657047639960146e-11,6.533677111576448e-11,5.201537893504567e-11,4.248031398231109e-11,3.544062598653744e-11,2.9501643776732366e-11,2.4566920076826643e-11,2.0315766289429294e-11,1.6701390091190193e-11,1.3676354021196933e-11,1.1072736105448212e-11,8.865512666174803e-12,7.024006811035046e-12,5.473644065455221e-12,4.1944424803937025e-12,3.153942431824586e-12,2.324761056375115e-12,1.6781995168384532e-12,1.1850227178608417e-12
0.0,1,1.0,0.0,30.0,0.0,0.0,0.0,0.0,-13.0,0.0,2.0,0.0,0.0,0.0,1.7810841660326336e-11,1.452853300299728e-11,1.1892288949794029e-11,9.741373433013996e-12,7.937517639277357e-12,6.435255309089101e-12,5.182394369880345e-12,4.131703036277808e-12,3.254830861215136e-12,2.5297166226715527e-12,1.93854263959385e-12,1.4596357624306546e-12,1.0779048013942176e-12,7.794937884038474e-13,5.505067151979501e-13,3.7911072585725684e-13,2.540720095468104e-13,2.1608136175231932e-10,1.5107763585478833e-10,1.0136301349455202e-10,6.790536918436639e-11,5.0053504368082245e-11,3.944311084285859e-11,3.2379426413907556e-11,2.67146071051739e-11,2.211535111731698e-11,1.8207429350056712e-11,1.493123256305008e-11,1.22001121584798e-11,9.86636114370309e-12,7.893361923523467e-12,6.2521910032613534e-12,4.872910686889936e-12,3.735841392548099e-12,2.811546877719406e-12,2.074937160556698e-12,1.5002996137217019e-12,1.0616318412886359e-12
0.0,2,2.0,0.0,30.0,0.0,0.0,0.0,0.0,-13.0,0.0,2.0,0.0,0.0,0.0,1.6023711391442862e-11,1.3045124269531937e-11,1.0669108931048043e-11,8.738695199245308e-12,7.124934572983412e-12,5.782071480691314e-12,4.6628603325095575e-12,3.723994418223013e-12,2.939590691667121e-12,2.290072481399949e-12,1.7595268531272012e-12,1.3286682577730088e-12,9.84232588690528e-13,7.141133873231207e-13,5.060792103568799e-13,3.497821101567085e-13,2.352921974460922e-13,2.913404837349157e-10,2.019367293249965e-10,1.2897291990827803e-10,7.774942968522947e-11,5.137313489257961e-11,3.776954618613555e-11,3.004577732495133e-11,2.4439524506853503e-11,2.0060897087993684e-11,1.642514440529925e-11,1.342473222753541e-11,1.093873590480992e-11,8.833946556796223e-12,7.058803605445665e-12,5.588603513750054e-12,4.35520521356684e-12,3.3398110099255973e-12,2.5151212661336726e-12,1.8581177519070605e-12,1.3454588145590833e-12,9.538468280757812e-13
0.0,3,3.0,0.0,30.0,0.0,0.0,0.0,0.0,-13.0,0.0,2.0,0.0,0.0,0.0,1.4488601524727217e-11,1.1764241710687265e-11,9.609383739766937e-12,7.867485391775865e-12,6.417111912150274e-12,5.21140890104297e-12,4.2076751733456046e-12,3.3656503133318893e-12,2.661575769312771e-12,2.0779590014848203e-12,1.6004568632674605e-12,1.2118143095535836e-12,9.002893921758312e-13,6.552584500220922e-13,4.658975219940559e-13,3.2312913116286493e-13,2.1814208593105392e-13,3.718355348606828e-10,2.621740603325296e-10,1.667467692974293e-10,9.526970774599297e-11,5.6968698164244035e-11,3.801541300882909e-11,2.859310545068233e-11,2.2649955208288237e-11,1.8349659483679365e-11,1.491882899278398e-11,1.2138013067432913e-11,9.856930721225827e-12,7.946413849188542e-12,6.339199064932058e-12,5.015702674524907e-12,3.907152974391964e-12,2.996463915434905e-12,2.257499825912087e-12,1.6692701844956163e-12,1.2102289758464006e-12,8.592626717650406e-13
0.0,4,4.0,0.0,30.0,0.0,0.0,0.0,0.0,-13.0,0.0,2.0,0.0,0.0,0.0,1.3167505250362923e-11,1.0654502639753208e-11,8.687660322146184e-12,7.107692292780056e-12,5.798324806322105e-12,4.711095719270129e-12,3.807569913315781e-12,3.0497219415325123e-12,2.4156920441636634e-12,1.8897186336027755e-12,1.4587695263988266e-12,1.10732491028192e-12,8.249165285429818e-13,6.021845801998246e-13,4.2949933927057925e-13,2.9887461674453494e-13,2.0246159648559795e-13,4.485874288588095e-10,3.244354017256735e-10,2.102494767786923e-10,1.1911973986079794e-10,6.70714124558161e-11,4.0679971290719145e-11,2.8291425920881353e-11,2.140063175503905e-11,1.695681380860106e-11,1.3649056571924068e-11,1.1036978056287542e-11,8.926732110103377e-12,7.180151920047774e-12,5.716219412765686e-12,4.5191529816814414e-12,3.5178376476197992e-12,2.6976859895835356e-12,2.0327736619549083e-12,1.5042233105313987e-12,1.0917391344627496e-12,7.760289175396012e-13
0.0,5,5.0,0.0,30.0,0.0,0.0,0.0,0.0,-13.0,0.0,2.0,0.0,0.0,0.0,1.2030511650728842e-11,9.690509408144284e-12,7.883164418670546e-12,6.442766113546518e-12,5.25551553110341e-12,4.271011139017044e-12,3.454792858156946e-12,2.7703657740010813e-12,2.197633297264173e-12,1.7222410340623748e-12,1.3322722274156984e-12,1.013694085865599e-12,7.571097355218041e-13,5.542421501402221e-13,3.964783635008515e-13,2.767732481666934e-13,1.881080378080473e-13,5.163893427523892e-10,3.8328809494684017e-10,2.551590875948048e-10,1.4703840265130372e-10,8.11109646909609e-11,4.594883581492675e-11,2.939408874346666e-11,2.0808161169406288e-11,1.5895226583866387e-11,1.259044003523731e-11,1.0094981004161443e-11,8.125534989613873e-12,6.516171374285447e-12,5.174969491134748e-12,4.087128795530694e-12,3.1783014163605084e-12,2.436784807885066e-12,1.8360515900889846e-12,1.3595020874746246e-12,9.875893557553707e-13,7.026188518821225e-13
0.0,6,6.0,0.0,30.0,0.0,0.0,0.0,0.0,-13.0,0.0,2.0,0.0,0.0,0.0,1.1055779883503261e-11,8.851519686513856e-12,7.1789128303651716e-12,5.859002500958761e-12,4.777781104021353e-12,3.882699306914421e-12,3.1428331036965506e-12,2.5226495463635037e-12,2.0037457449131395e-12,1.572872414394169e-12,1.2190837839009243e-12,9.296216804855003e-13,6.95996538467823e-13,5.108630551901899e-13,3.66476889484502e-13,2.5660756824742367e-13,1.749540552101645e-13,5.73216182605301e-10,4.355891570969921e-10,2.98198443896515e-10,1.7667604059490883e-10,9.802265816069746e-11,5.3641545041141154e-11,3.202573923650508e-11,2.0997293535014513e-11,1.5209367127755456e-11,1.1735777977000137e-11,9.292760730662967e-12,7.434776020542132e-12,5.939188515416316e-12,4.703311113591138e-12,3.709844986898561e-12,2.8811494090821876e-12,2.208204820006707e-12,1.6632711342296668e-12,1.2321999777786622e-12,8.957586893000948e-13,6.377175963910911e-13
0.0,7,7.0,0.0,30.0,0.0,0.0,0.0,0.0,-13.0,0.0,2.0,0.0,0.0,0.0,1.0229985411938906e-11,8.12077111216796e-12,6.560910019950248e-12,5.3450210295166e-12,4.355994104824009e-12,3.539060379631644e-12,2.86619590205877e-12,2.302395952949885e-12,1.830918583091423e-12,1.4393412922117257e-12,1.117585514227642e-12,8.539823508865191e-13,6.40817230309536e-13,4.715494703748112e-13,3.391794435638734e-13,2.3818452758299e-13,1.628858387996374e-13,6.191761074646577e-10,4.800787201273224e-10,3.373212695611869e-10,2.0607459031911446e-10,1.1659593748896835e-10,6.330647150169113e-11,3.614447187325867e-11,2.204993931417974e-11,1.4955780699554715e-11,1.1095101568084744e-11,8.619472766199343e-12,6.8396639629001206e-12,5.436782060364619e-12,4.291274968455955e-12,3.379219505368598e-12,2.620247958487249e-12,2.0073027070921675e-12,1.511044570370132e-12,1.1198773591681488e-12,8.145342070697383e-13,5.802019259342489e-13
0.0,8,8.0,0.0,30.0,0.0,0.0,0.0,0.0,-13.0,0.0,2.0,0.0,0.0,0.0,9.547781555804607e-12,7.48534430909946e-12,6.017546939489217e-12,4.891320712973566e-12,3.982506029491035e-12,3.2341077976193336e-12,2.6202218555454998e-12,2.1060549918470982e-12,1.6764947452189403e-12,1.3196975693591835e-12,1.0263806505978847e-12,7.857996317287561e-13,5.90908837437598e-13,4.358642944167784e-13,3.1430731955831956e-13,2.213324907010834e-13,1.5180155505965308e-13,6.555690842471354e-10,5.167909619899864e-10,3.7154078826197183e-10,2.338354474433922e-10,1.3571760423079715e-10,7.436006159532887e-11,4.156641056106726e-11,2.3979044533793584e-11,1.518129990544635e-11,1.0689148111562554e-11,8.072756244222912e-12,6.329529242124591e-12,4.998876869140404e-12,3.93057461058211e-12,3.0885830361474554e-12,2.3904927926895904e-12,1.8301778077180306e-12,1.376533356778305e-12,1.0204777448254903e-12,7.424625671848982e-13,5.291272084936673e-13
0.0,9,9.0,0.0,30.0,0.0,0.0,0.0,0.0,-13.0,0.0,2.0,0.0,0.0,0.0,9.009858231336555e-12,6.936132545765141e-12,5.5392552208769635e-12,4.48991590681132e-12,3.650895963794601e-12,2.9627768139207794e-12,2.4009437183457922e-12,1.9305990978895563e-12,1.538197380735782e-12,1.212262356222637e-12,9.442606404530273e-13,7.242241765935791e-13,5.456915541735937e-13,4.0342300914366093e-13,2.916138798231819e-13,2.0589863707046724e-13,1.4160997278359992e-13,6.841955010654491e-10,5.465234411959977e-10,4.006511156225308e-10,2.5910446549871236e-10,1.54492821346232e-10,8.620508194223036e-11,4.801863363214188e-11,2.6728234961457506e-11,1.590800086078762e-11,1.054048035797547e-11,7.656976812101598e-12,5.898050603810802e-12,4.6175655595009775e-12,3.6142746931147247e-12,2.832412520125916e-12,2.1876217232419788e-12,1.6735451564834825e-12,1.2573477553784943e-12,9.322588091539815e-13,6.783163317440771e-13,4.836970544492923e-13
0.0,10,10.0,0.0,30.0,0.0,0.0,0.0,0.0,-13.0,0.0,2.0,0.0,0.0,0.0,8.620118220453563e-12,6.467555160203277e-12,5.1183461515164605e-12,4.1340697120665455e-12,3.3557523010274696e-12,2.720769380198976e-12,2.204973363760944e-12,1.7734371717542202e-12,1.4140689447035277e-12,1.1155863923261766e-12,8.701770943011323e-13,6.685154647866632e-13,5.04657233617939e-13,3.738867250499295e-13,2.708805076509253e-13,1.9174670228402677e-13,1.322292581570527e-13,7.06909343181736e-10,5.704324368774792e-10,4.2495630053335283e-10,2.8147768163529187e-10,1.7227825107706648e-10,9.830658976866262e-11,5.519308863004298e-11,3.018756653096715e-11,1.7127684496736098e-11,1.066570387424604e-11,7.38014473794438e-12,5.542896796639047e-12,4.28707837528701e-12,3.3366180325727307e-12,2.6061053670950435e-12,2.0080574737749887e-12,1.5346359972502385e-12,1.1514678193274893e-12,8.537374385480883e-13,6.210653036384802e-13,4.432263385335942e-13
0.0,11,11.0,0.0,30.0,0.0,0.0,0.0,0.0,-13.0,0.0,2.0,0.0,0.0,0.0,8.382796307458792e-12,6.076903812188569e-12,4.748908196785678e-12,3.8181208015397615e-12,3.0924903661720027e-12,2.5044251512021076e-12,2.029411049318503e-12,1.6323443496890281e-12,1.302420769939968e-12,1.028415369845157e-12,8.032183252836328e-13,6.180263927042041e-13,4.67359605248794e-13,3.469562239837372e-13,2.5191311353325775e-13,1.7875501264841042e-13,1.2358591701794014e-13,7.25368419927435e-10,5.897564406352844e-10,4.450477171373734e-10,3.008865284785167e-10,1.886658860415372e-10,1.1022919338383813e-10,6.278808775332932e-11,3.421492495015641e-11,1.8804152431292558e-11,1.1070664963838439e-11,7.250553087897261e-12,5.264760952952799e-12,4.003694549904443e-12,3.0929583892265037e-12,2.4058125299904175e-12,1.8487775572606513e-12,1.411114477239153e-12,1.0571807987237365e-12,7.836474322983818e-13,5.698473193042892e-13,4.0711116479802566e-13
0.0,12,12.0,0.0,30.0,0.0,0.0,0.0,0.0,-13.0,0.0,2.0,0.0,0.0,0.0,8.300165099414739e-12,5.7634236529789215e-12,4.426660644303458e-12,3.5373758851104397e-12,2.8572101358144965e-12,2.310613645676518e-12,1.8717704669395657e-12,1.5054045775574143e-12,1.2017914734925422e-12,9.496608821194934e-13,7.425896226087795e-13,5.721902625925208e-13,4.3340594815731796e-13,3.2236684435248896e-13,2.34539112888222e-13,1.6681477274031738e-13,1.1561386530825973e-13,7.409263632798132e-10,6.056482732636922e-10,4.6163836128807955e-10,3.1748988728530023e-10,2.0344489593815854e-10,1.2164722915231532e-10,7.053447247391266e-11,3.865606308674973e-11,2.0879938541550726e-11,1.1748872601360387e-11,7.274015631879901e-12,5.066049107668944e-12,3.765487191591205e-12,2.879724599549408e-12,2.228330488724382e-12,1.7072124895065346e-12,1.3010052540761924e-12,9.730302338730358e-13,7.209071749447038e-13,5.239380636634444e-13,3.7481141360871273e-13
0.0,13,13.0,0.0,30.0,0.0,0.0,0.0,0.0,-13.0,0.0,2.0,0.0,0.0,0.0,8.37112153171016e-12,5.527320796038239e-12,4.14872013320133e-12,3.288031387228405e-12,2.6465922086469168e-12,2.1366457045475447e-12,1.7299153093022616e-12,1.3909633151303972e-12,1.1109127280600215e-12,8.783760321873922e-13,6.875965893455246e-13,5.305097599853686e-13,4.0244999106160067e-13,2.9988408166813734e-13,2.1860480638202078e-13,1.5582857095390497e-13,1.0825361133401076e-13,7.546156431799512e-10,6.190901442603595e-10,4.754500305775307e-10,3.315836081096166e-10,2.1655725967546426e-10,1.323389964396538e-10,7.820875479899002e-11,4.3360046072039005e-11,2.3284471412570465e-11,1.2682417336710215e-11,7.452139644460034e-12,4.949549580716773e-12,3.5719052240741393e-12,2.6943572561775947e-12,2.071035629959933e-12,1.5811719183167966e-12,1.2026311393324257e-12,8.977733584571912e-13,6.645940485426804e-13,4.827223540824316e-13,3.4584425814896374e-13
0.0,14,14.0,0.0,30.0,0.0,0.0,0.0,0.0,-13.0,0.0,2.0,0.0,0.0,0.0,8.590646830001721e-12,5.368872596003194e-12,3.9132903109283285e-12,3.0670943619119353e-12,2.457823932506621e-12,1.980203008169959e-12,1.602005099871209e-12,1.2875881571873345e-12,1.028681030917435e-12,8.137349411306736e-13,6.376310300973453e-13,4.925475817150084e-13,3.741858442127852e-13,2.7929979840110947e-13,2.0397310538693125e-13,1.4570907299066062e-13,1.0145153562985635e-13,7.671808397335321e-10,6.308661449657115e-10,4.87144590712428e-10,3.43530275762366e-10,2.2805516826515503e-10,1.4217305796974246e-10,8.563704518026086e-11,4.8189479233061026e-11,2.5941679588880486e-11,1.3844363039663141e-11,7.781663617644241e-12,4.917332561235146e-12,3.423263983127299e-12,2.5351909971688354e-12,1.9318384813968154e-12,1.4687943993536888e-12,1.114561518015606e-12,8.30344999596457e-13,6.139228022285175e-13,4.456696245611738e-13,3.1978362756548966e-13
0.0,15,15.0,0.0,30.0,0.0,0.0,0.0,0.0,-13.0,0.0,2.0,0.0,0.0,0.0,8.94995743595062e-12,5.28775161090674e-12,3.719314438780982e-12,2.8722864189812105e-12,2.2885447219927285e-12,1.8392836256340936e-12,1.48644926123896e-12,1.194035718565256e-12,9.54134248275564e-13,7.550155239394207e-13,5.921589861644946e-13,4.579184393139648e-13,3.483427983785315e-13,2.604289535703615e-13,1.9052155430581072e-13,1.3637787766059916e-13,9.515925604862658e-14,7.791331596705772e-10,6.415701257473579e-10,4.972890480740053e-10,3.5370843318242603e-10,2.380638017449215e-10,1.510915712316611e-10,9.269325218186772e-11,5.3026217618753804e-11,2.8776072829327535e-11,1.520170300142865e-11,8.254646927382736e-12,4.9700046056535495e-12,3.3202333834447097e-12,2.4012848434914477e-12,1.8091387385510713e-12,1.3685137318270404e-12,1.0355718534816002e-12,7.698272611924135e-13,5.682261073428317e-13,4.1231513401542485e-13,2.9626062155137825e-13
0.0,16,16.0,0.0,30.0,0.0,0.0,0.0,0.0,-13.0,0.0,2.0,0.0,0.0,0.0,9.437105654461455e-12,5.282602244734497e-12,3.5661367526958726e-12,2.7019279582816127e-12,2.1368003449539585e-12,1.712160562621529e-12,1.3818688368886984e-12,1.109223640968679e-12,8.864319192843584e-13,7.015849890244928e-13,5.507105904595054e-13,4.2628221585489355e-13,3.246808534201387e-13,2.4310677580659457e-13,1.781406087774598e-13,1.2776451321865207e-13,8.933306726960212e-14,7.90808051819312e-10,6.516319344454787e-10,5.06344423976724e-10,3.62478815003581e-10,2.467508102993658e-10,1.5909345577511978e-10,9.929413666314892e-11,5.7773689487502734e-11,3.171705430539724e-11,1.671824802892933e-11,8.859212589809141e-12,5.10633315805898e-12,3.263395900881398e-12,2.2922208741021146e-12,1.7017701150666853e-12,1.2790341658204335e-12,9.64613360476884e-13,7.154247288643769e-13,5.269365631675433e-13,3.8224693032961607e-13,2.7496176584229913e-13
0.0,17,17.0,0.0,30.0,0.0,0.0,0.0,0.0,-13.0,0.0,2.0,0.0,0.0,0.0,1.0037805576129414e-11,5.350854466752258e-12,3.453209252839441e-12,2.554809225834995e-12,2.000998909340135e-12,1.5973497553723354e-12,1.2870652215227384e-12,1.0322069484512022e-12,8.248385359524677e-13,6.528875922345304e-13,5.128714639357046e-13,3.9733809683272474e-13,3.02986863177438e-13,2.2718631485995702e-13,1.667321346317238e-13,1.1980555572061895e-13,8.393344531317277e-14,8.0241631140381e-10,6.613502478768015e-10,5.146697549087374e-10,3.701644211720593e-10,2.543026569971266e-10,1.6621887235603722e-10,1.0539292533927487e-10,6.235692758125639e-11,3.4701620514643865e-11,1.8357093732344417e-11,9.58056171939539e-12,5.323185955946542e-12,3.2529162824671966e-12,2.2078971875011744e-12,1.608932289491158e-12,1.1993080913581652e-12,9.007908526288642e-13,6.664448969170982e-13,4.895701496282143e-13,3.5509753766805016e-13,2.556241974272944e-13
0.0,18,18.0,0.0,30.0,0.0,0.0,0.0,0.0,-13.0,0.0,2.0,0.0,0.0,0.0,1.073631179990445e-11,5.488727943894197e-12,3.3798654400159955e-12,2.430058788308158e-12,1.879864829377457e-12,1.4935841003228667e-12,1.2009950121417207e-12,9.621581910506544e-13,7.687092302260609e-13,6.084342484129339e-13,4.782754114496107e-13,3.7081952832240936e-13,2.8307120384312945e-13,2.1253631626876552e-13,1.5620809732475743e-13,1.1244385358444263e-13,7.892460889627369e-14,8.140848993667167e-10,6.709248090378199e-10,5.225343926453525e-10,3.770411022144551e-10,2.609073475511265e-10,1.725357260478496e-10,1.1097253048226834e-10,6.672118151203871e-11,3.767577006102309e-11,2.0082528714046298e-11,1.0402044248121277e-11,5.61569906455976e-12,3.2883353396441594e-12,2.1483381156669456e-12,1.530113134224759e-12,1.1285120899787687e-12,8.433462698737276e-13,6.222832566444498e-13,4.557114617069856e-13,3.305388928676768e-13,2.380284496458097e-13
0.0,19,19.0,0.0,30.0,0.0,0.0,0.0,0.0,-13.0,0.0,2.0,0.0,0.0,0.0,1.1516237642656543e-11,5.691369089767221e-12,3.34516773066276e-12,2.3270200243459113e-12,1.7723900711948798e-12,1.399790754395011e-12,1.1227498865711034e-12,8.983509074749142e-13,7.174774694976149e-13,5.677936740228744e-13,4.465982057812088e-13,3.4648988025441715e-13,2.647648895706883e-13,1.9903937241216648e-13,1.4648941575577098e-13,1.0562784476321188e-13,7.42741305684475e-14,8.258871712331492e-10,6.804843709764733e-10,5.301337146008319e-10,3.8333554849726317e-10,2.6674272663337394e-10,1.7812846961111835e-10,1.1603898809695546e-10,7.082973942500249e-11,4.059496531282614e-11,2.186138183901173e-11,1.1306146535690003e-11,5.977584514185049e-12,3.3684784306253917e-12,2.113537404293058e-12,1.4650073625674018e-12,1.0660195858930608e-12,7.916454828523542e-13,5.824122226977966e-13,4.2500107919425234e-13,3.0827911821295003e-13,2.2199020339879394e-13
0.0,20,20.0,0.0,30.0,0.0,0.0,0.0,0.0,-13.0,0.0,2.0,0.0,0.0,0.0,1.236125088681176e-11,5.953066265975172e-12,3.3478240845934886e-12,2.2451438156399413e-12,1.67778397396273e-12,1.3150698195631537e-12,1.0515403476685722e-12,8.40145960187976e-13,6.706444785123543e-13,5.305847995703501e-13,4.1755227778029795e-13,3.2413871146702714e-13,2.47917072037156e-13,1.8659031052645767e-13,1.3750495802007892e-13,9.931095477445196e-14,6.995259153369247e-14,8.378639277560666e-10,6.901090040203271e-10,5.376050822255271e-10,3.8922803040934053e-10,2.71969355381848e-10,1.8308922507725257e-10,1.206154579049335e-10,7.466138250951113e-11,4.342394643710812e-11,2.3663878183564382e-11,1.2275322233672971e-11,6.401501779506266e-12,3.4914568371737564e-12,2.103341999792101e-12,1.4134381942757097e-12,1.0113702120772355e-12,7.451664653478091e-13,5.46372931733721e-13,3.971252590952495e-13,2.880600573582977e-13,2.073523482975676e-13
0.0,21,21.0,0.0,30.0,0.0,0.0,0.0,0.0,-13.0,0.0,2.0,0.0,0.0,0.0,1.3255623164443066e-11,6.267498221233502e-12,3.3861626059606858e-12,2.183902287621536e-12,1.5954238842333177e-12,1.2386733959680668e-12,9.866822480499923e-13,7.869802955839569e-13,6.277701750183896e-13,4.964702465931121e-13,3.90882159084064e-13,3.0357854815811286e-13,2.3239287070821573e-13,1.7509478452381155e-13,1.291906598691036e-13,9.345106537234344e-14,6.593327489017759e-14,8.500372920329683e-10,6.998468230950462e-10,5.4504225520589e-10,3.948577967528357e-10,2.7672695074465383e-10,1.8751108153781162e-10,1.2473696427256765e-10,7.820774652834864e-11,4.61361316461193e-11,2.5464099932360097e-11,1.3292640757941222e-11,6.879436872743767e-12,3.654735756984992e-12,2.117377233277965e-12,1.3752875108876625e-12,9.642371878123747e-13,7.034875887308594e-13,5.137689548646959e-13,3.7180791250490287e-13,2.696549166819254e-13,1.939782818133125e-13
0.0,22,22.0,0.0,30.0,0.0,0.0,0.0,0.0,-13.0,0.0,2.0,0.0,0.0,0.0,1.4184633790390702e-11,6.627983029376069e-12,3.458150004148946e-12,2.1427252331088424e-12,1.5248089534583784e-12,1.1699846967646019e-12,9.275851909703172e-13,7.383576878059767e-13,5.88465441581716e-13,4.65150708718714e-13,3.6636055081631446e-13,2.846420998619834e-13,2.1807148835357777e-13,1.6446804268366093e-13,1.2148874946148627e-13,8.801004497044198e-14,6.219189272199743e-14,8.624193846522442e-10,7.097258910878291e-10,5.525074508347137e-10,4.003296034662022e-10,2.811334280904192e-10,1.914833288269136e-10,1.2844595409583007e-10,8.147076303098865e-11,4.871277444813546e-11,2.7240148925747563e-11,1.434225810784923e-11,7.403052392649196e-12,3.85524358522094e-12,2.1550094000536894e-12,1.3504381145811781e-12,9.243945161202368e-13,6.662754367185183e-13,4.842610945739739e-13,3.4880462928792495e-13,2.528657170842294e-13,1.8174685992119678e-13
0.0,23,23.0,0.0,30.0,0.0,0.0,0.0,0.0,-13.0,0.0,2.0,0.0,0.0,0.0,1.5134842716701737e-11,7.027706350250452e-12,3.5614397582330988e-12,2.120958303444408e-12,1.4655190360296994e-12,1.108497401536008e-12,8.737421330196896e-13,6.938410502542941e-13,5.523855707682048e-13,4.363601096775275e-13,3.437849159864982e-13,2.671798479531731e-13,2.0484457259493511e-13,1.5463384760149928e-13,1.1434706441820153e-13,8.295333306791783e-14,5.870634306774898e-14,8.750174519390836e-10,7.197622977152211e-10,5.600408731895866e-10,4.057203474245308e-10,2.852857105155949e-10,1.9508833328215726e-10,1.3178867956465107e-10,8.446028608102687e-11,5.114199752834102e-11,2.8974095308719285e-11,1.5409731032491275e-11,7.963988294825107e-12,4.089501137248754e-12,2.2153390362272715e-12,1.3387297590729222e-12,8.916858085074e-13,6.33272052839026e-13,4.575626363309936e-13,3.278983847311674e-13,2.3752051525813735e-13,1.7054898448762218e-13
0.0,24,24.0,0.0,30.0,0.0,0.0,0.0,0.0,-13.0,0.0,2.0,0.0,0.0,0.0,1.6094253405977814e-11,7.459917350904861e-12,3.6934375039640274e-12,2.117840352237893e-12,1.4171799660488318e-12,1.053795686721288e-12,8.247197454615102e-13,6.530459448023087e-13,5.192247268706998e-13,4.0986143469697284e-13,3.229745140750385e-13,2.5105795133970727e-13,1.9261478944422728e-13,1.455235283108622e-13,1.077184492626566e-13,7.824957193767364e-14,5.545649328994887e-14,8.878367076102031e-10,7.299653961897191e-10,5.676679002758955e-10,4.110851870110537e-10,2.8926162094355357e-10,1.9839974329583644e-10,1.3481236716893437e-10,8.719196616069107e-11,5.341778497678988e-11,3.065178033028149e-11,1.6482201964715256e-11,8.55410534956872e-12,4.3537546101956836e-12,2.297217215712855e-12,1.3399289678679677e-12,8.659962222549652e-13,6.042818745619377e-13,4.3343464425000666e-13,3.088965105298847e-13,2.234704943369604e-13,1.6028554494867737e-13
0.0,25,25.0,0.0,30.0,0.0,0.0,0.0,0.0,-13.0,0.0,2.0,0.0,0.0,0.0,1.7052387633583478e-11,7.918087664775858e-12,3.85137364313186e-12,2.1324964181431816e-12,1.3794357918042689e-12,1.0055354521836197e-12,7.801492908634513e-13,6.156349792401972e-13,4.887112722137483e-13,3.8544314769261575e-13,3.037678131420101e-13,2.36156422602531e-13,1.8129457925222654e-13,1.3707514738326816e-13,1.0156022306454766e-13,7.38702797190124e-14,5.242398679412981e-14,9.008817807252398e-10,7.403410383268001e-10,5.75404288451741e-10,4.16462834709737e-10,2.93122331687323e-10,2.014817207590477e-10,1.3756310288598748e-10,8.968540282386792e-11,5.553898788563079e-11,3.226252539921613e-11,1.754848252425198e-11,9.165671382290497e-12,4.644101180053807e-12,2.3992774185407465e-12,1.3537114574181122e-12,8.472285238866558e-13,5.791587834199376e-13,4.1168109063365787e-13,2.9162852555946894e-13,2.105870743109706e-13,1.5086632175624527e-13
0.0,26,26.0,0.0,30.0,0.0,0.0,0.0,0.0,-13.0,0.0,2.0,0.0,0.0,0.0,1.8000292698893772e-11,8.396033490471733e-12,4.032375820528586e-12,2.1639425736349335e-12,1.351927934942792e-12,9.634272178695905e-13,7.397179239832789e-13,5.81312850191581e-13,4.606038138443941e-13,3.6291611751778504e-13,2.8602022783940293e-13,2.2236753538680143e-13,1.7080506944022862e-13,1.2923276819282442e-13,9.583370855458711e-14,6.978955983324254e-14,4.959207041156284e-14,9.141573652605285e-10,7.508934673390232e-10,5.832598013081007e-10,4.218799158310375e-10,2.9691499330842974e-10,2.043889217751799e-10,1.4008434407910312e-10,9.196258633383795e-11,5.7508379909751777e-11,3.379878601595728e-11,1.859906059752767e-11,9.79149517214702e-12,4.956600523215852e-12,2.5199764673980926e-12,1.3796552567606664e-12,8.352837989815207e-13,5.577937423962821e-13,3.9214376896769975e-13,2.7594447872468337e-13,1.9875918402627697e-13,1.4220946541854523e-13
0.0,27,27.0,0.0,30.0,0.0,0.0,0.0,0.0,-13.0,0.0,2.0,0.0,0.0,0.0,1.8930498742807033e-11,8.88800376163037e-12,4.233536335645302e-12,2.2110990529111794e-12,1.3342807773854676e-12,9.27221046723486e-13,7.031604274487519e-13,5.498218539557009e-13,4.346878383552747e-13,3.4211098431182096e-13,2.6960214141015905e-13,2.095944303573608e-13,1.6107512193571148e-13,1.2194580951875464e-13,9.050381517879817e-14,6.598384231815413e-14,4.6945440077078014e-14,9.27668446278457e-10,7.616263528066844e-10,5.912406476777423e-10,4.273544185363815e-10,3.0067529031985957e-10,2.071669886304483e-10,1.4241595922047314e-10,9.404662299126298e-11,5.933178656346027e-11,3.525577864756913e-11,1.962605194483344e-11,1.0425015199811569e-11,5.28736897573795e-12,2.657639304483164e-12,1.4172422948723613e-12,8.300468929922685e-13,5.401034422011494e-13,3.7469705086251363e-13,2.617135352173303e-13,1.878907976852004e-13,1.3424123776539136e-13
0.0,28,28.0,0.0,30.0,0.0,0.0,0.0,0.0,-13.0,0.0,2.0,0.0,0.0,0.0,1.983694075177358e-11,9.388738745278818e-12,4.451971563960177e-12,2.272808524846095e-12,1.3260928767415414e-12,8.966937028999757e-13,6.70251448840455e-13,5.209377457272683e-13,4.1077281817949755e-13,3.228759032459763e-13,2.5439717675853483e-13,1.977498925100008e-13,1.5204049641623938e-13,1.1516847634255834e-13,8.553866956081696e-14,6.243165326514312e-14,4.447010271290059e-14,9.41420325276184e-10,7.725433051175025e-10,5.993510573505128e-10,4.32898332695227e-10,3.0442977152896324e-10,2.09853358468103e-10,1.445936952765648e-10,9.596072760813167e-11,6.101730283502559e-11,3.663110072036516e-11,2.0623113096433497e-11,1.1060351103911604e-11,5.6326554907886344e-12,2.8105037124508784e-12,1.4658662122925587e-12,8.313763297105218e-13,5.260202765652439e-13,3.5924261158777133e-13,2.48822621137437e-13,1.7789879094475944e-13,1.2689579914152942e-13
0.0,29,29.0,0.0,30.0,0.0,0.0,0.0,0.0,-13.0,0.0,2.0,0.0,0.0,0.0,2.0714856878887596e-11,9.893503898430807e-12,4.684872000515902e-12,2.3478569532250943e-12,1.3269328552608401e-12,8.716381085434973e-13,6.407983258479712e-13,4.944658751190603e-13,3.886896905503319e-13,3.050746086998375e-13,2.403006866638162e-13,1.8675527714828418e-13,1.4364311329833782e-13,1.0885925714315713e-13,8.090928767686258e-14,5.911340904863991e-14,4.215325247579524e-14,9.554185679862414e-10,7.836480928130249e-10,6.075942565892967e-10,4.385196065518132e-10,3.0819787782713094e-10,2.1247823741412524e-10,1.4664897753297504e-10,9.772745881356377e-11,6.257460685096545e-11,3.7924358125510284e-11,2.1585328549870924e-11,1.1692325386257176e-11,5.988900149522482e-12,2.9767623042074094e-12,1.524844341630014e-12,8.390982237180815e-13,5.154838453876712e-13,3.457042740842682e-13,2.371750176221983e-13,1.6871112818577532e-13,1.201149182726305e-13
0.0,30,30.0,0.0,30.0,0.0,0.0,0.0,0.0,-13.0,0.0,2.0,0.0,0.0,0.0,2.1560672154912887e-11,1.0398103695674981e-11,4.9295426322626235e-12,2.4349950842281853e-12,1.33633896915464e-12,8.518550366606562e-13,6.146345809124825e-13,4.70237561729684e-13,3.6828862884552107e-13,2.8858474763221865e-13,2.2721843680181508e-13,1.7653956548800457e-13,1.358304028907012e-13,1.0298047925210643e-13,7.658928375597472e-14,5.601123247126759e-14,3.998315974394848e-14,9.696689368147935e-10,7.949447036518269e-10,6.159730417828682e-10,4.44223555361992e-10,3.119936428016272e-10,2.1506562863685152e-10,1.4860895585791698e-10,9.936816807558591e-11,6.401437205374475e-11,3.9136810402882305e-11,2.250908218475732e-11,1.2316462077510708e-11,6.352776901401828e-12,3.154600131619897e-12,1.593432103294659e-12,8.530035725195133e-13,5.084340660891394e-13,3.340231178469198e-13,2.2668885768345398e-13,1.602653597330945e-13,1.138475557820681e-13
0.0,31,31.0,0.0,30.0,0.0,0.0,0.0,0.0,-13.0,0.0,2.0,0.0,0.0,0.0,2.2371874555859396e-11,1.0898879703107411e-11,5.183434062323875e-12,2.5329591554804856e-12,1.3538214114812281e-12,8.371468809740569e-13,5.916141460904416e-13,4.481066990994399e-13,3.494370438036635e-13,2.7329643680414695e-13,2.1506545794587473e-13,1.6703853376557075e-13,1.2855472927283452e-13,9.749791493379987e-14,7.255461152424823e-14,5.3108788318132063e-14,3.794907141403639e-14,9.841773348259953e-10,8.064373333650243e-10,6.244900947993966e-10,4.5001384618415123e-10,3.158270756694172e-10,2.1763433703427637e-10,1.5049672312987415e-10,1.0090263104600835e-10,6.534777626045429e-11,4.027104061956391e-11,2.339192037830024e-11,1.2928968055537744e-11,6.721222639307399e-12,3.342227065367872e-12,1.6708384094991625e-12,8.728482654556843e-13,5.048058715768995e-13,3.2415297703411673e-13,2.1729552449065103e-13,1.525073873710034e-13,1.0804932312824091e-13
0.0,32,32.0,0.0,30.0,0.0,0.0,0.0,0.0,-13.0,0.0,2.0,0.0,0.0,0.0,2.314688871117317e-11,1.1392696599097457e-11,5.444165230122638e-12,2.640489896989434e-12,1.3788665019459597e-12,8.273132781946411e-13,5.716063508745509e-13,4.279465902586238e-13,3.3201776807273205e-13,2.5911100452262355e-13,2.037650459175056e-13,1.5819402203207635e-13,1.21772879274572e-13,9.238043182517809e-14,6.87833339379409e-14,5.039113612946055e-14,3.604112125130596e-14,9.989497693463666e-10,8.181303488891929e-10,6.331481398295392e-10,4.558931656613401e-10,3.1970525596329254e-10,2.2019890113949564e-10,1.5233164428753413e-10,1.0234882962826911e-10,6.658610283476759e-11,4.133065454998848e-11,2.4232412446410438e-11,1.3526701689540136e-11,7.091454813138597e-12,3.537904685706278e-12,1.7562410135515741e-12,8.983551591737911e-13,5.045253944212768e-13,3.1605642032121803e-13,2.0893797940096294e-13,1.4539044723347435e-13,1.0268184772876351e-13
0.0,33,33.0,0.0,30.0,0.0,0.0,0.0,0.0,-13.0,0.0,2.0,0.0,0.0,0.0,2.388495121314391e-11,1.1876919244192988e-11,5.709538775196749e-12,2.7563492785492673e-12,1.410942045366123e-12,8.221483215856083e-13,5.544916763685368e-13,4.0964702514804425e-13,3.1592739109297875e-13,2.4593988353446433e-13,1.93247889800446e-13,1.499532906432766e-13,1.1544560844620226e-13,8.759968222161229e-14,6.525541801153122e-14,4.7844598269350744e-14,3.425024918663325e-14,1.0139923343046878e-09,8.300282497398598e-10,6.419500083748537e-10,4.6186365797628507e-10,3.236331790599808e-10,2.2277042446074902e-10,1.541297470484846e-10,1.0372285455801763e-10,6.774042691175727e-11,4.232001186824559e-11,2.5030012631040486e-11,1.4107132564357932e-11,7.46097968110716e-12,3.7399678247487696e-12,1.8488010531835098e-12,9.292176232613195e-13,5.075074825969686e-13,3.097012701340149e-13,2.0156906390252505e-13,1.388742585032171e-13,9.77120868893216e-14
0.0,34,34.0,0.0,30.0,0.0,0.0,0.0,0.0,-13.0,0.0,2.0,0.0,0.0,0.0,2.4585990451357636e-11,1.2349383344666091e-11,5.977550148022475e-12,2.8793347515435125e-12,1.4495032778274812e-12,8.214390923040965e-13,5.401582524790179e-13,3.9311161154239e-13,3.0107472217420315e-13,2.3370362740886175e-13,1.8345131076914793e-13,1.4226845392249844e-13,1.0953723715439505e-13,8.312982644116761e-14,6.195255175509985e-14,4.5456641599582025e-14,3.256812858867892e-14,1.0293112070083035e-09,8.421356376269489e-10,6.508986550693758e-10,4.679272011985877e-10,3.276143943347799e-10,2.2535729439868698e-10,1.5590413699050327e-10,1.0503890080839766e-10,6.882137807743986e-11,4.3243990540674704e-11,2.5784926787938897e-11,1.4668295260987074e-11,7.827593085044316e-12,3.946841150805913e-12,1.947676300909564e-12,9.65104037440415e-13,5.136543606135603e-13,3.05057685667246e-13,1.9514982483763486e-13,1.3292429150350333e-13,9.311163325527416e-14
0.0,35,35.0,0.0,30.0,0.0,0.0,0.0,0.0,-13.0,0.0,2.0,0.0,0.0,0.0,2.525051308033935e-11,1.2808361766184535e-11,6.2463915329461406e-12,3.0082909446229706e-12,1.493998952308829e-12,8.249652412074167e-13,5.284990529100679e-13,3.782553686386639e-13,2.8737936784557486e-13,2.2233102803003072e-13,1.743185956854149e-13,1.350959816733551e-13,1.0401529095238685e-13,7.894728614845411e-14,5.885798059750972e-14,4.321577126489166e-14,3.09871006552702e-14,1.0449126544865959e-09,8.544571970340146e-10,6.599971503813919e-10,4.740855735269431e-10,3.3165147605756736e-10,2.279657879570241e-10,1.5766540991700947e-10,1.063093313602773e-10,6.983897003448794e-11,4.410778437888215e-11,2.6497986103879425e-11,1.5208739535425074e-11,8.189375379589906e-12,4.157051320643655e-12,2.052032846180667e-12,1.0056628098965173e-12,5.22855237403175e-13,3.0209580537190643e-13,1.8964790992191478e-13,1.275111171280172e-13,8.885604773655137e-14
0.0,36,36.0,0.0,30.0,0.0,0.0,0.0,0.0,-13.0,0.0,2.0,0.0,0.0,0.0,2.587949858094178e-11,1.3252528143869013e-11,6.514451557299389e-12,3.1421189155799954e-12,1.5438772354388094e-12,8.324993730430019e-13,5.194097266591991e-13,3.650025877946876e-13,2.747704153720686e-13,2.1175831653521297e-13,1.6579841140278332e-13,1.2839626023122092e-13,9.885018019229111e-14,7.503052408038222e-14,5.595636099484655e-14,4.111143526841474e-14,2.950011517045791e-14,1.0608030452241148e-09,8.669976858988738e-10,6.692486651443496e-10,4.803405470638079e-10,3.3574636303617287e-10,2.3060057062241393e-10,1.594220430160214e-10,1.0754478844749127e-10,7.080248748468379e-11,4.491673273514823e-11,2.7170529516879202e-11,1.5727478733567944e-11,8.544681885957432e-12,4.369235278938581e-12,2.1610550950544645e-12,1.0505275750821112e-12,5.349866646266147e-13,3.007839217840734e-13,1.8503607347815008e-13,1.2260980909702885e-13,8.492424601825562e-14
0.0,37,37.0,0.0,30.0,0.0,0.0,0.0,0.0,-13.0,0.0,2.0,0.0,0.0,0.0,2.6474302856680263e-11,1.3680919098427556e-11,6.78031164559753e-12,3.2797831500226063e-12,1.5985911897468379e-12,8.438080122950381e-13,5.127869944472556e-13,3.5328495927853543e-13,2.6318521810608814e-13,2.0192843410010816e-13,1.5784428747221787e-13,1.2213320562117256e-13,9.401491450925878e-14,7.135984709848963e-14,5.3233629210135115e-14,3.913393866494619e-14,2.8100676961780168e-14,1.0769888631955256e-09,8.797619341406851e-10,6.786564547738956e-10,4.866939357789151e-10,3.3990059780910065e-10,2.332650989439829e-10,1.6118075324192783e-10,1.0875433500833056e-10,7.172042062091177e-11,4.56761805669574e-11,2.780429597771323e-11,1.6223937882621086e-11,8.892130002156241e-12,4.582145282886793e-12,2.2739540888152603e-12,1.0993223121827243e-12,5.499134618211147e-13,3.0108714502119086e-13,1.81290822757423e-13,1.1819937982298545e-13,8.129795448594862e-14
0.0,38,38.0,0.0,30.0,0.0,0.0,0.0,0.0,-13.0,0.0,2.0,0.0,0.0,0.0,2.7036571386693268e-11,1.4092896095420288e-11,7.042739757186375e-12,3.4203165445776333e-12,1.6576036998354751e-12,8.586529613913839e-13,5.085275335089639e-13,3.4303995822963515e-13,2.525682804807307e-13,1.9279036236507004e-13,1.50414156636178e-13,1.1627392217538153e-13,8.948484834287811e-14,6.79172299035628e-14,5.06768835047185e-14,3.727436633146263e-14,2.6782797469529094e-14,1.0934767221787852e-09,8.927548475530502e-10,6.882238467155165e-10,4.93147615947094e-10,3.4411549076937027e-10,2.3596193930079373e-10,1.6294681670366317e-10,1.0994561253324373e-10,7.2600438137717e-11,4.639136654480212e-11,2.8401327244871696e-11,1.6697902586064972e-11,9.230583893764612e-12,4.794651195069585e-12,2.389974220798362e-12,1.1516661985544909e-12,5.674900442158151e-13,3.0296650060774295e-13,1.7839122493218513e-13,1.1426223881177601e-13,7.796124224377074e-14
0.0,39,39.0,0.0,30.0,0.0,0.0,0.0,0.0,-13.0,0.0,2.0,0.0,0.0,0.0,2.7568162117623132e-11,1.448810776443775e-11,7.300682131000126e-12,3.5628236300192484e-12,1.7203917668614882e-12,8.767928944028643e-13,5.065272735721849e-13,3.3420947794525927e-13,2.4287024135222973e-13,1.8429850602346599e-13,1.4346994409643145e-13,1.1078840068117201e-13,8.523745410141144e-14,6.468615709819308e-14,4.827427820584963e-14,3.5524513389719474e-14,2.5540950906140496e-14,1.1102733791881074e-09,9.059814149012656e-10,6.979542322067522e-10,4.997035311767234e-10,3.4839222949357044e-10,2.3869301578209e-10,1.6472434681035004e-10,1.1112500465178058e-10,7.34493904350939e-11,4.7067336508007557e-11,2.89638815295764e-11,1.714946959903206e-11,9.559137515291826e-12,5.005740534913431e-12,2.5083984783995265e-12,1.2071780741083126e-12,5.875620119465678e-13,3.0637840175820065e-13,1.7631788503077986e-13,1.1078366907879134e-13,7.490012867363756e-14
0.0,40,40.0,0.0,30.0,0.0,0.0,0.0,0.0,-13.0,0.0,2.0,0.0,0.0,0.0,2.8071078003948503e-11,1.4866453316165837e-11,7.553253558088187e-12,3.7064822875327494e-12,1.7864501452666246e-12,8.979850605870835e-13,5.066810296742416e-13,3.267386944419581e-13,2.340469544340072e-13,1.7641212221061623e-13,1.3697719801507439e-13,1.0564925079550615e-13,8.125211993997125e-14,6.165148157817157e-14,4.6014928311952035e-14,3.387682245907743e-14,2.4370034542173935e-14,1.1273857464952195e-09,9.194467165706209e-10,7.078510621602814e-10,5.063636897413628e-10,3.527319490339158e-10,2.414597995567867e-10,1.665165317212646e-10,1.1229779856664152e-10,7.427333561089891e-11,4.770887936568165e-11,2.949435799221938e-11,1.757899975745576e-11,9.877096569912845e-12,5.214516719261503e-12,2.6285523622043814e-12,1.2654804425156751e-12,6.099678833787287e-13,3.1127443487511745e-13,1.7505209646023922e-13,1.0775132187856185e-13,7.210226088728464e-14
0.0,41,41.0,0.0,30.0,0.0,0.0,0.0,0.0,-13.0,0.0,2.0,0.0,0.0,0.0,2.8547408890602632e-11,1.522804754861542e-11,7.799726613473024e-12,3.850544196778589e-12,1.8552943311628865e-12,9.21987000711993e-13,5.088824027401003e-13,3.2057514315325624e-13,2.2605866404209815e-13,1.6909479290537688e-13,1.309047550351821e-13,1.0083146308116973e-13,7.750996943604468e-14,5.879929748435899e-14,4.388882346869143e-14,3.2324327008467644e-14,2.3265332705483504e-14,1.144820902118578e-09,9.331559336263157e-10,7.179178464148553e-10,5.131301588823435e-10,3.5713577511691543e-10,2.4426345098169687e-10,1.6832583349270816e-10,1.1346833878477723e-10,7.5077581832828e-11,4.832048247056104e-11,2.999523183103992e-11,1.7987073765284372e-11,1.0183959900627175e-11,5.420195862716931e-12,2.749806642769793e-12,1.3262029739311902e-12,6.345408785464399e-13,3.176013988145839e-13,1.7457515871930576e-13,1.0515473322277433e-13,6.955665233481286e-14
0.0,42,42.0,0.0,30.0,0.0,0.0,0.0,0.0,-13.0,0.0,2.0,0.0,0.0,0.0,2.8999282265852213e-11,1.5573187811850547e-11,8.039520203682332e-12,3.994334233067788e-12,1.926462935665564e-12,9.485582042375174e-13,5.130238857143089e-13,3.1566798663153897e-13,2.1886927354632988e-13,1.6231393766810093e-13,1.2522443577400362e-13,9.631219659602902e-14,7.399370071586397e-14,5.611682615726834e-14,4.188675029809774e-14,3.0860600158779285e-14,2.2222484124762836e-14,1.1625860989011921e-09,9.471143565810314e-10,7.281581554506849e-10,5.200050587156212e-10,3.616048490852201e-10,2.471049242863336e-10,1.7015415241919944e-10,1.1464016951610247e-10,7.58667406868845e-11,4.89063035376453e-11,3.046899949437317e-11,1.8374451200848078e-11,1.0479400713684308e-11,5.622102452667464e-12,2.871579113112156e-12,1.3889855028701561e-12,6.611106802017517e-13,3.2530154252151413e-13,1.748678515656202e-13,1.0298486740269583e-13,6.725347242527289e-14
0.0,43,43.0,0.0,30.0,0.0,0.0,0.0,0.0,-13.0,0.0,2.0,0.0,0.0,0.0,2.942882229045127e-11,1.5902323197918973e-11,8.272187723723807e-12,4.137249006734375e-12,1.9995194912086615e-12,9.774616567788105e-13,5.189971207497309e-13,3.119674511397726e-13,2.1244570298559118e-13,1.560403647743001e-13,1.1991076624425364e-13,9.207058850073824e-14,7.068744282688205e-14,5.359231371668581e-14,4.0000222191610165e-14,2.947970835913673e-14,2.1237452286934082e-14,1.1806887724172063e-09,9.613273934982028e-10,7.385756237270733e-10,5.269905570690128e-10,3.6614034096362644e-10,2.4998504317772084e-10,1.7200296061589558e-10,1.1581616363536611e-10,7.664478706713785e-11,4.9470156312236717e-11,3.091813338641385e-11,1.874203298054712e-11,1.0763247960540285e-11,5.819664164333005e-12,2.9933354855652715e-12,1.4534805354365663e-12,6.895051189469524e-13,3.343129511086177e-13,1.75910051185303e-13,1.0123369330491556e-13,6.518387690061236e-14
0.0,44,44.0,0.0,30.0,0.0,0.0,0.0,0.0,-13.0,0.0,2.0,0.0,0.0,0.0,2.983811642562322e-11,1.6216026135455178e-11,8.497405065484045e-12,4.278754713283537e-12,2.0740537466974214e-12,1.0084652448491085e-12,5.266932609384508e-13,3.0942440991363365e-13,2.067573313934682e-13,1.502478592409593e-13,1.1494072199907477e-13,8.808758263951746e-14,6.757662736951683e-14,5.121493904136965e-14,3.822141578862408e-14,2.8176169425863797e-14,2.030649851229859e-14,1.1991365479864414e-09,9.758005772907258e-10,7.491739539523811e-10,5.340888657758661e-10,3.707434551408385e-10,2.5290455426168723e-10,1.7387340904025918e-10,1.1699863727287349e-10,7.741512206747295e-11,5.001550738957053e-11,3.1345045319757454e-11,1.9090827411963754e-11,1.1035468143441785e-11,6.01240603844492e-12,3.1145895684679434e-12,1.519355293805479e-12,7.195517451182345e-13,3.4457003671049567e-13,1.7768047167829252e-13,9.989379900801548e-14,6.33398694691057e-14
0.0,45,45.0,0.0,30.0,0.0,0.0,0.0,0.0,-13.0,0.0,2.0,0.0,0.0,0.0,3.022918893238469e-11,1.6514966493978064e-11,8.71495867662622e-12,4.418384439714266e-12,2.149682510129719e-12,1.0413429988833714e-12,5.360033978711654e-13,3.0799009148592017e-13,2.017755185870943e-13,1.4491280645989715e-13,1.1029349248570644e-13,8.434577449317951e-14,6.464787360163283e-14,4.89747310553334e-14,3.6543113456729704e-14,2.6944914490739933e-14,1.9426157481515645e-14,1.2179372470677278e-09,9.905395722233373e-10,7.5995692177162e-10,5.413022384932271e-10,3.7541543174061067e-10,2.5586416385423804e-10,1.7576641203125474e-10,1.181894499635658e-10,7.818063613888183e-11,5.0545481829094636e-11,3.175205789200419e-11,1.9421919877243708e-11,1.129614775856819e-11,6.199944208110934e-12,3.2349028433621182e-12,1.5862933341827364e-12,7.510792634473056e-13,3.5600409693828087e-13,1.801565141609954e-13,9.895804923066171e-14,6.171418651789343e-14
0.0,46,46.0,0.0,30.0,0.0,0.0,0.0,0.0,-13.0,0.0,2.0,0.0,0.0,0.0,3.0603980493086576e-11,1.679988823944186e-11,8.924733833212423e-12,4.555735051410821e-12,2.226050096628063e-12,1.075876166362562e-12,5.468190236313028e-13,3.0761589262419397e-13,1.9747320054706544e-13,1.4001385021146233e-13,1.0595026364257168e-13,8.082927030131971e-14,6.188888541474832e-14,4.686249434157389e-14,3.4958651171160444e-14,2.5781253456637054e-14,1.8593214975401258e-14,1.2370988932682973e-09,1.005550179711559e-09,7.709283805194334e-10,5.486329698769673e-10,3.8015754571749505e-10,2.5886456259621587e-10,1.7768271315342126e-10,1.1939009089176494e-10,7.894377047492152e-11,5.106287547187466e-11,3.2141382923790715e-11,1.9736446109998043e-11,1.1545476546944735e-11,6.381979331330245e-12,3.3538835485017383e-12,1.6539957787053798e-12,7.839188172109134e-13,3.6854391013601727e-13,1.8331420577557515e-13,9.841928891922686e-14,6.030019827373116e-14
0.0,47,47.0,0.0,30.0,0.0,0.0,0.0,0.0,-13.0,0.0,2.0,0.0,0.0,0.0,3.0964333208006374e-11,1.707158862896333e-11,9.126703258978735e-12,4.690463765525773e-12,2.3028284368855543e-12,1.1118541149055823e-12,5.590325024648256e-13,3.082532769811113e-13,1.9382455208213735e-13,1.35531583786198e-13,1.0189401720309642e-13,7.752355850376179e-14,5.928835875346817e-14,4.486974220391052e-14,3.3461871259993415e-14,2.468084360424749e-14,1.780468761248922e-14,1.2566297181636465e-09,1.0208383435501548e-09,7.820922658207731e-10,5.560833958485918e-10,3.849711049704405e-10,2.619064412988017e-10,1.7962293574638786e-10,1.206017521695738e-10,7.970657518077339e-11,5.157017214401292e-11,3.251510608659221e-11,2.0035568964244776e-11,1.1783731685239698e-11,6.558289860637865e-12,3.4711853604304123e-12,1.7221822030214316e-12,8.17905116836558e-13,3.8211634261139654e-13,1.8712821162232695e-13,9.827009480021542e-14,5.90918213672544e-14
0.0,48,48.0,0.0,30.0,0.0,0.0,0.0,0.0,-13.0,0.0,2.0,0.0,0.0,0.0,3.131198024072268e-11,1.733089988794618e-11,9.320916198183471e-12,4.8222845008373246e-12,2.3797168967907716e-12,1.1490750709351042e-12,5.725375332143514e-13,3.0985374235415365e-13,1.9080471023531327e-13,1.3144827283734878e-13,9.810934549221151e-14,7.44153919581787e-14,5.683589820931044e-14,4.298863638598915e-14,3.204707954107034e-14,2.3639661034127052e-14,1.7057804391013173e-14,1.2765381670785132e-09,1.0364101547143583e-09,7.934525999242606e-10,5.6365589467138e-10,3.8985744825161093e-10,2.649905006322545e-10,1.8158762115217986e-10,1.2182539032483953e-10,8.047076327122234e-11,5.206956420005862e-11,3.2875176865163364e-11,2.032045852142778e-11,1.2011263014890916e-11,6.728725260541312e-12,3.5865057526748317e-12,1.7905912205144803e-12,8.52877414085282e-13,3.9664694842067526e-13,1.9157190388365546e-13,9.850257524172974e-14,5.808343922592091e-14
0.0,49,49.0,0.0,30.0,0.0,0.0,0.0,0.0,-13.0,0.0,2.0,0.0,0.0,0.0,3.1648539421528434e-11,1.7578673276423106e-11,9.507488026349104e-12,4.95096408048931e-12,2.4564418541332578e-12,1.1873467033762935e-12,5.87229588623333e-13,3.123688413739732e-13,1.883895518288089e-13,1.277476084538963e-13,9.458228073771104e-14,7.149267965638263e-14,5.452194166892903e-14,4.121193273588478e-14,3.070900642738928e-14,2.2653974663671782e-14,1.6349989861098738e-14,1.2968329049405098e-09,1.052271855870037e-09,8.050134957264374e-10,5.713528885792206e-10,3.94817943299742e-10,2.681174566114541e-10,1.8357725716082272e-10,1.2306177728890777e-10,8.12377599371984e-11,5.2562975118854515e-11,3.3223403036240924e-11,2.0592275340649324e-11,1.2228479377998261e-11,6.89319926589885e-12,3.699584099442679e-12,1.8589808020448687e-12,8.886803273169295e-13,4.12060547049651e-13,1.9661747399977694e-13,9.910821738129177e-14,5.726982797906368e-14
0.0,50,50.0,0.0,30.0,0.0,0.0,0.0,0.0,-13.0,0.0,2.0,0.0,0.0,0.0,3.197551016432971e-11,1.781576542268484e-11,9.686590463317245e-12,5.076318352510527e-12,2.5327560732885487e-12,1.2264865642237573e-12,6.030063218223315e-13,3.15750242394568e-13,1.8655551864864072e-13,1.2441448880935912e-13,9.130013808316408e-14,6.874438688584435e-14,5.233769203241998e-14,3.9532932175564546e-14,2.944277162165871e-14,2.1720322530435304e-14,1.5678848770738837e-14,1.3175228222854994e-09,1.0684298457124478e-09,8.167791604932983e-10,5.791768457460328e-10,3.9985398540109465e-10,2.7128804331033737e-10,1.8559229880387958e-10,1.2431154219818995e-10,8.200874682918513e-11,5.305208310367704e-11,3.356144889701649e-11,2.0852156627114837e-11,1.2435836101663504e-11,7.051683259470429e-12,3.810199582607208e-12,1.927128367209973e-12,9.251645262805976e-13,4.2828176840440585e-13,2.0223607552006061e-13,1.0007777925680327e-13,5.66460865734651e-14
0.0,51,51.0,0.0,30.0,0.0,0.0,0.0,0.0,-13.0,0.0,2.0,0.0,0.0,0.0,3.2294273105864646e-11,1.804302678057508e-11,9.858442435410622e-12,5.198208283255338e-12,2.6084379139396018e-12,1.266322399048499e-12,6.197679337476948e-13,3.199498192651727e-13,1.852794840021568e-13,1.2143482761965402e-13,8.825137159837334e-14,6.61604429719456e-14,5.027505514286175e-14,3.794543639923305e-14,2.8243852058375337e-14,2.0835490180110454e-14,1.504215204429078e-14,1.3386170414680052e-09,1.0848906832330279e-09,8.287538993146187e-10,5.871302824331488e-10,4.049669964408871e-10,2.7450301383251477e-10,1.8763318325032968e-10,1.2557520528404623e-10,8.278470133976589e-11,5.3538344854753015e-11,3.389083653932179e-11,2.110120507351595e-11,1.2633823648713338e-11,7.204199833916113e-12,3.918168952101755e-12,1.9948306798968477e-12,9.621872866700143e-13,4.45235557929288e-13,2.0839798707072338e-13,1.0140122367666787e-13,5.620757055677993e-14
0.0,52,52.0,0.0,30.0,0.0,0.0,0.0,0.0,-13.0,0.0,2.0,0.0,0.0,0.0,3.2606091933617176e-11,1.8261292051534654e-11,1.0023301617819657e-11,5.316536070585429e-12,2.683290405407749e-12,1.306692340922578e-12,6.374174979869314e-13,3.249197604692511e-13,1.845386547216452e-13,1.1879538754945425e-13,8.542544264998701e-14,6.373165589039875e-14,4.8326583180917995e-14,3.644370778372172e-14,2.7108052785479555e-14,1.9996490942339453e-14,1.4437823967157316e-14,1.3601249231111616e-09,1.1016610919934211e-09,8.40942118341389e-10,5.952157651982294e-10,4.1015842442710523e-10,2.7776314025709705e-10,1.8970034022700304e-10,1.2685320504424392e-10,8.356643103817774e-11,5.4023018873183405e-11,3.421294953435338e-11,2.1340480117592406e-11,1.282295743192685e-11,7.350816592121486e-12,4.0233441829624205e-12,2.061903577582961e-12,9.996129256051017e-13,4.628476374481085e-13,2.1507278665986092e-13,1.0306768979823468e-13,5.594982951131043e-14
0.0,53,53.0,0.0,30.0,0.0,0.0,0.0,0.0,-13.0,0.0,2.0,0.0,0.0,0.0,3.2912116928008584e-11,1.8471372402912858e-11,1.0181456674437917e-11,5.431241316448992e-12,2.7571402141219055e-12,1.347445001051799e-12,6.558612416779626e-13,3.3061268978281576e-13,1.843105030997886e-13,1.1648363664067153e-13,8.281270003096608e-14,6.144963316573895e-14,4.648542288016341e-14,3.5022433047416955e-14,2.6031480506198972e-14,1.9200547917959358e-14,1.3863930462366992e-14,1.3820560728169989e-09,1.118747964467285e-09,8.533483278618062e-10,6.034359130888444e-10,4.1542974342695666e-10,2.810692130484382e-10,1.9179419909907162e-10,1.2814591978328123e-10,8.435460352788972e-11,5.450718782039375e-11,3.45290384646201e-11,2.1570991355268027e-11,1.300376877091224e-11,7.491640229523787e-12,4.125610066444781e-12,2.128181560635453e-12,1.0373131294732636e-12,4.810449195275743e-13,2.2222953021057149e-13,1.0506549785853219e-13,5.586854844297578e-14
0.0,54,54.0,0.0,30.0,0.0,0.0,0.0,0.0,-13.0,0.0,2.0,0.0,0.0,0.0,3.3213389803285464e-11,1.867404930950621e-11,1.033322020012928e-11,5.5422972922750176e-12,2.829836528190385e-12,1.3884394688211395e-12,6.750087826917919e-13,3.3698179210851876e-13,1.8457272370873178e-13,1.1448762580686616e-13,8.040427126281519e-14,5.930670857177609e-14,4.474526800929751e-14,3.3676690243792267e-14,2.5010519528056293e-14,1.8445077520355993e-14,1.3318668356788428e-14,1.4044203481490594e-09,1.1361583664947445e-09,8.65977145270166e-10,6.117933997752868e-10,4.2078245383969974e-10,2.84422040249862e-10,1.9391519350372024e-10,1.2945368449056369e-10,8.514977207396294e-11,5.4991779597077444e-11,3.484022781184396e-11,2.179369385139228e-11,1.3176796955612891e-11,7.62681093289637e-12,4.224881767702648e-12,2.1935172648672606e-12,1.0751671853812642e-12,4.997558748696425e-13,2.2983692873456057e-13,1.0738218220050005e-13,5.5959493586877285e-14
0.0,55,55.0,0.0,30.0,0.0,0.0,0.0,0.0,-13.0,0.0,2.0,0.0,0.0,0.0,3.351084948837856e-11,1.8870069845006623e-11,1.047892235974382e-11,5.649707325086646e-12,2.9012498799344324e-12,1.429545233135488e-12,6.947733244943811e-13,3.4398093947378083e-13,1.8530321054627458e-13,1.1279588543843234e-13,7.819196448566675e-14,5.729587422869404e-14,4.3100315647562665e-14,3.240191872066594e-14,2.4041809888742908e-14,1.7727674429145352e-14,1.2800355544723474e-14,1.4272278658936882e-09,1.153899541881429e-09,8.788332979780826e-10,6.202909556008393e-10,4.26218082928253e-10,2.878224466607119e-10,1.960637642291006e-10,1.3077680390411315e-10,8.595239738934825e-11,5.547758692167461e-11,3.514752377950797e-11,2.2009485098027475e-11,1.3342582367973073e-11,7.756497121679526e-12,4.321102378276152e-12,2.2577808378960694e-12,1.1130621269756612e-12,5.189108535147983e-13,2.37863519906568e-13,1.1000454764010656e-13,5.621846312976562e-14
0.0,56,56.0,0.0,30.0,0.0,0.0,0.0,0.0,-13.0,0.0,2.0,0.0,0.0,0.0,3.380533854276236e-11,1.9060143253359507e-11,1.0618905209063094e-11,5.753501327315296e-12,2.971270924560324e-12,1.4706420359804985e-12,7.150718108838601e-13,3.515648133388018e-13,1.864800504550205e-13,1.1139733919553897e-13,7.616818034571682e-14,5.5410717751513344e-14,4.1545225848989895e-14,3.1193891717325336e-14,2.3122227449976452e-14,1.704609782940375e-14,1.2307421966446707e-14,1.4504890096033691e-09,1.1719789171642558e-09,8.919216263110278e-10,6.289313695445875e-10,4.3173818553896564e-10,2.912712731116145e-10,1.9824036086663416e-10,1.321155624894276e-10,8.676286598612515e-11,5.596528528268563e-11,3.5451822694986936e-11,2.2219203382295916e-11,1.350166060346033e-11,7.880890550329586e-12,4.4142404879435585e-12,2.3208592374353477e-12,1.1508928047102594e-12,5.384423615546826e-13,2.4627783095960654e-13,1.1291874429855721e-13,5.6641243298756445e-14
0.0,57,57.0,0.0,30.0,0.0,0.0,0.0,0.0,-13.0,0.0,2.0,0.0,0.0,0.0,3.4097609952141553e-11,1.9244938636208685e-11,1.0753517675169284e-11,5.853732488855701e-12,3.0398091908397087e-12,1.511619668129461e-12,7.358250433136396e-13,3.596890203491869e-13,1.8808152925447793e-13,1.1028123312331216e-13,7.432583328136569e-14,5.364536415112097e-14,4.0075084352207247e-14,3.0048691309209655e-14,2.2248865768705773e-14,1.6398258821159016e-14,1.1838401326909e-14,1.4742144374243537e-09,1.1904041065587294e-09,9.052470864258242e-10,6.377174911028716e-10,4.3734434494994733e-10,2.947693758958204e-10,2.0044544263305415e-10,1.3347023195241153e-10,8.758150549562778e-11,5.645544921393288e-11,3.575391969756444e-11,2.2423627340972894e-11,1.3654557526747906e-11,8.000201783251573e-12,4.504287797203955e-12,2.3826554675209876e-12,1.1885618898601145e-12,5.58285295676583e-13,2.550485308002598e-13,1.1611035624329668e-13,5.722357016201672e-14
0.0,58,58.0,0.0,30.0,0.0,0.0,0.0,0.0,-13.0,0.0,2.0,0.0,0.0,0.0,3.4388334094135847e-11,1.942508360104868e-11,1.0883111167454957e-11,5.950474145861563e-12,3.1067918176731114e-12,1.5523777159350783e-12,7.569577637981294e-13,3.6831019949526886e-13,1.9008614750234467e-13,1.0943707830504531e-13,7.265828160165899e-14,5.1994422221709257e-14,3.868536804363908e-14,2.8962685443846997e-14,2.1419019572912702e-14,1.578220889558605e-14,1.1391923487988042e-14,1.49841509021071e-09,1.2091829170974358e-09,9.188147532780084e-10,6.46652232102345e-10,4.43038173800424e-10,2.983176263771318e-10,2.026794786543712e-10,1.3484107680446848e-10,8.840859734591776e-11,5.694856689962287e-11,3.605451747437191e-11,2.262347649633163e-11,1.3801785190752224e-11,8.114656047677958e-12,4.5912567887100054e-12,2.443087766818671e-12,1.2259798207703574e-12,5.78377138253156e-13,2.641445700469143e-13,1.1956449961520397e-13,5.796109735868107e-14
0.0,59,59.0,0.0,30.0,0.0,0.0,0.0,0.0,-13.0,0.0,2.0,0.0,0.0,0.0,3.467810570479514e-11,1.9601163724781822e-11,1.100803578552947e-11,6.043816837110394e-12,3.1721622886810433e-12,1.5928252672030227e-12,7.78398706516875e-13,3.773861193277134e-13,1.9247264325030435e-13,1.0885460536560959e-13,7.11592657459694e-14,5.0452935173343277e-14,3.7371912926438297e-14,2.7932506842641337e-14,2.0630169684826977e-14,1.5196129383533706e-14,1.0966707473966529e-14,1.5231021999277728e-09,1.2283233539659557e-09,9.326298236615852e-10,6.557385684609164e-10,4.488213150652495e-10,3.0191691077199584e-10,2.049429479227768e-10,1.3622835840804191e-10,8.924438716058556e-11,5.744505315922403e-11,3.63542348560286e-11,2.2819412586380208e-11,1.3943838545138306e-11,8.224489464322696e-12,4.675178473257776e-12,2.502088761538646e-12,1.2630646990256398e-12,5.98658115897051e-13,2.735353083321734e-13,1.2326592633048817e-13,5.88493698334707e-14
0.0,60,60.0,0.0,30.0,0.0,0.0,0.0,0.0,-13.0,0.0,2.0,0.0,0.0,0.0,3.496745071265246e-11,1.9773722698578726e-11,1.1128637086549881e-11,6.13386555541428e-12,3.23587917544924e-12,1.6328805832775598e-12,8.000806212225332e-13,3.8687576442902426e-13,1.9522001957317556e-13,1.0852372924817519e-13,6.98228541138352e-14,4.9016335285127324e-14,3.6130884383921606e-14,2.6955033570266224e-14,1.987996924890555e-14,1.463832179094203e-14,1.0561555036111378e-14,1.5482872983491568e-09,1.2478336260404823e-09,9.466976193385415e-10,6.649795419140691e-10,4.5469544304898205e-10,3.0556813009028155e-10,2.0723633907520957e-10,1.376323378524162e-10,9.008909321286955e-11,5.79452608930425e-11,3.665361512741752e-11,2.301204152186289e-11,1.408119285914899e-11,8.329945650795995e-12,4.756100223441094e-12,2.5596045940680975e-12,1.2997421424658381e-12,6.190713244724585e-13,2.83190628710686e-13,1.2719912990987401e-13,5.988380352032105e-14
0.0,61,61.0,0.0,30.0,0.0,0.0,0.0,0.0,-13.0,0.0,2.0,0.0,0.0,0.0,3.525683283827714e-11,1.9943263031814443e-11,1.124525337190807e-11,6.2207371985146466e-12,3.2979148987063118e-12,1.6724707436835651e-12,8.219402714644463e-13,3.967394107810682e-13,1.983075750286518e-13,1.0843452280686191e-13,6.864339585863698e-14,4.7680402365970417e-14,3.4958749557425374e-14,2.602737109895525e-14,1.9166231135559835e-14,1.4107198942921936e-14,1.0175344727399617e-14,1.573982226052618e-09,1.2677221516301105e-09,9.61023590270946e-10,6.74378261723616e-10,4.606622643825741e-10,3.09272200212966e-10,2.095601500952372e-10,1.390532779421403e-10,9.094291323629294e-11,5.844949109014807e-11,3.69531339467203e-11,2.3201915821631454e-11,1.4214301783914202e-11,8.431272688587447e-12,4.834083705746849e-12,2.615594037186782e-12,1.3359451012719943e-12,6.395628235267415e-13,2.930810393842471e-13,1.3134845048017656e-13,6.105967080051113e-14
0.0,62,62.0,0.0,30.0,0.0,0.0,0.0,0.0,-13.0,0.0,2.0,0.0,0.0,0.0,3.554665988407808e-11,2.0110247204976043e-11,1.135821345163213e-11,6.304558221170101e-12,3.3582545154994445e-12,1.7115312689617558e-12,8.439184104849469e-13,4.0693869000928125e-13,2.0171493554230003e-13,1.0857719788079589e-13,6.761548004899288e-14,4.644122581790337e-14,3.385225168327843e-14,2.5146835716092063e-14,1.84869164038779e-14,1.3601276865736244e-14,9.807026443482862e-15,1.600199141721791e-09,1.2879975644267997e-09,9.75613317965264e-10,6.839379063845992e-10,4.667235190124744e-10,3.1303005208298447e-10,2.119148880050107e-10,1.404914445233243e-10,9.180602985940826e-11,5.895800151286748e-11,3.725320679785086e-11,2.338953739676087e-11,1.4343595981005097e-11,8.528720440901383e-12,4.909202919689313e-12,2.6700276026262535e-12,1.3716136427089855e-12,6.600817030075929e-13,3.0317776322047184e-13,1.3569817648693523e-13,6.237209145677663e-14
0.0,63,63.0,0.0,30.0,0.0,0.0,0.0,0.0,-13.0,0.0,2.0,0.0,0.0,0.0,3.5837289661786064e-11,2.0275099173528655e-11,1.146783484418676e-11,6.385462487700752e-12,3.416894539330809e-12,1.750005726715104e-12,8.659597374583466e-13,4.1743664273858537e-13,2.0542208651107916e-13,1.0894209264119593e-13,6.673390061707651e-14,4.529517010215199e-14,3.2808386254694845e-14,2.4310939143729022e-14,1.784012371789991e-14,1.3119167341304855e-14,9.455616389804748e-15,1.6269505317618065e-09,1.3086687196657713e-09,9.904725189356746e-10,6.936617253441935e-10,4.728809811772871e-10,3.168426319863628e-10,2.14301068588635e-10,1.4194710732529697e-10,9.267861489926477e-11,5.947101417819308e-11,3.7554195928175036e-11,2.3575360571713795e-11,1.446948224668133e-11,8.622538205740076e-12,4.98154235055396e-12,2.7228866517442965e-12,1.406694709543584e-12,6.80580124987836e-13,3.1345281572024305e-13,1.4023264114475474e-13,6.381602876835579e-14
