Line_number,Fiducial,Easting,Northing,Height,Elevation,tx_pitch,tx_roll,tx_yaw,txrx_dx,txrx_dy,txrx_dz,rx_pitch,rx_roll,rx_yaw,S0Z_time_1.431e-04,S0Z_time_1.801e-04,S0Z_time_2.266e-04,S0Z_time_2.846e-04,S0Z_time_3.581e-04,S0Z_time_4.506e-04,S0Z_time_5.671e-04,S0Z_time_7.136e-04,S0Z_time_8.981e-04,S0Z_time_1.131e-03,S0Z_time_1.423e-03,S0Z_time_1.791e-03,S0Z_time_2.255e-03,S0Z_time_2.838e-03,S0Z_time_3.573e-03,S0Z_time_4.498e-03,S0Z_time_5.662e-03,S1Z_time_1.409e-05,S1Z_time_1.610e-05,S1Z_time_1.909e-05,S1Z_time_2.360e-05,S1Z_time_2.960e-05,S1Z_time_3.709e-05,S1Z_time_4.609e-05,S1Z_time_5.759e-05,S1Z_time_7.209e-05,S1Z_time_9.060e-05,S1Z_time_1.141e-04,S1Z_time_1.431e-04,S1Z_time_1.801e-04,S1Z_time_2.266e-04,S1Z_time_2.846e-04,S1Z_time_3.581e-04,S1Z_time_4.506e-04,S1Z_time_5.671e-04,S1Z_time_7.136e-04,S1Z_time_8.981e-04,S1Z_time_1.131e-03
0.0,0,0.0,0.0,30.0,0.0,0.0,0.0,0.0,-13.0,0.0,2.0,0.0,0.0,0.0,1.0814741940074142e-09,8.070983166205762e-10,5.990884668414119e-10,4.409492930344078e-10,3.1974870000801037e-10,2.2941929577792638e-10,1.6302538544718493e-10,1.1480955706023223e-10,8.027063188212793e-11,5.5610210973905116e-11,3.796995288004472e-11,2.528411073352732e-11,1.6283125017744587e-11,1.0092778019370344e-11,5.998773686596902e-12,3.4142785275804095e-12,1.8614486496701907e-12,6.732483330349662e-09,6.055327843707629e-09,5.290282107320162e-09,4.459438754242984e-09,3.712113795347969e-09,3.0642219388164207e-09,2.5357326362149246e-09,2.0706971238737045e-09,1.671740915866506e-09,1.3293282836343216e-09,1.040353086536846e-09,8.050436069126874e-10,6.104797804263435e-10,4.536069029232571e-10,3.308011807502867e-10,2.3486928628077426e-10,1.625682834189034e-10,1.0974644320539302e-10,7.257790098264695e-11,4.724760055950993e-11,3.0274553291569114e-11
0.0,1,1.0,0.0,30.0,0.0,0.0,0.0,0.0,-13.0,0.0,2.0,0.0,0.0,0.0,1.0814853360083794e-09,8.071099626154793e-10,5.991004172096335e-10,4.409611629052972e-10,3.197686846344273e-10,2.294693110964773e-10,1.6312725562067477e-10,1.14961874976975e-10,8.044234345227668e-11,5.575973403676763e-11,3.807030970468468e-11,2.5332511093214515e-11,1.629339712414507e-11,1.008267583835035e-11,5.9820085439834164e-12,3.3983505607724857e-12,1.849139496634007e-12,6.732292538684486e-09,6.055136971393637e-09,5.290091127090672e-09,4.459247656993933e-09,3.711922589765132e-09,3.0640306020282084e-09,2.535541229108813e-09,2.070505902914396e-09,1.6715501804489346e-09,1.3291382111662849e-09,1.0401642907807013e-09,8.048578066034274e-10,6.102991106783288e-10,4.5343287216400113e-10,3.306385420462989e-10,2.347339814124239e-10,1.6248686559922917e-10,1.0974002045272687e-10,7.264369662234472e-11,4.735799907138796e-11,3.038401367318506e-11
0.0,2,2.0,0.0,30.0,0.0,0.0,0.0,0.0,-13.0,0.0,2.0,0.0,0.0,0.0,1.0814965707083642e-09,8.071217480495327e-10,5.991124385353616e-10,4.409732628283418e-10,3.1979023744442986e-10,2.2952350693305458e-10,1.6323555290851469e-10,1.1512059021476534e-10,8.061799089681298e-11,5.590998009712e-11,3.816917748260871e-11,2.5378741269550394e-11,1.63018523653981e-11,1.0071414357319199e-11,5.9646365976994225e-12,3.382157432786304e-12,1.8367397291998944e-12,6.73209735817746e-09,6.0549417409361105e-09,5.289895836545728e-09,4.4590523228135906e-09,3.7117272401685323e-09,3.063835236232096e-09,2.535345941282399e-09,2.0703110014011753e-09,1.6713559966486664e-09,1.328944967181477e-09,1.0399727249312703e-09,8.04669778950125e-10,6.10116784020214e-10,4.532578011680141e-10,3.304760938726968e-10,2.346013891388893e-10,1.6241151560053368e-10,1.097421062495723e-10,7.271808927167865e-11,4.74745524930574e-11,3.0496253941195085e-11
0.0,3,3.0,0.0,30.0,0.0,0.0,0.0,0.0,-13.0,0.0,2.0,0.0,0.0,0.0,1.081507919035152e-09,8.071336923279418e-10,5.991245448659088e-10,4.4098566076370954e-10,3.1981359404775877e-10,2.295823228587584e-10,1.633508082273368e-10,1.1528615566096215e-10,8.079785493262868e-11,5.606107029615563e-11,3.826657677298101e-11,2.5422771078203098e-11,1.6308439707635385e-11,1.0058938770238287e-11,5.946610439828457e-12,3.3656648597803865e-12,1.8242280385087373e-12,6.731897446197457e-09,6.0547418118409224e-09,5.289695898513617e-09,4.4588524193142195e-09,3.7115274199196845e-09,3.0636355224303583e-09,2.5351464638732027e-09,2.0701121223759083e-09,1.671158079554905e-09,1.328748283583177e-09,1.0397781477168265e-09,8.044793105944819e-10,6.099326073398958e-10,4.5308153878438234e-10,3.303138101077038e-10,2.3447170138986846e-10,1.6234263825092122e-10,1.097531943465167e-10,7.280151514828568e-11,4.759753611857164e-11,3.061142975332479e-11
0.0,4,4.0,0.0,30.0,0.0,0.0,0.0,0.0,-13.0,0.0,2.0,0.0,0.0,0.0,1.081519402901743e-09,8.071458146627321e-10,5.991367507470525e-10,4.409984347450819e-10,3.198390134544105e-10,2.2964622001623445e-10,1.6347354871429417e-10,1.1545898707039065e-10,8.098216162278625e-11,5.6213078582159206e-11,3.836250265463078e-11,2.5464564247514508e-11,1.6313111853656573e-11,1.004520086290524e-11,5.927889014129914e-12,3.348843359584676e-12,1.811585987467425e-12,6.731692514456423e-09,6.0545368980930525e-09,5.289491030495053e-09,4.458647669001369e-09,3.7113228575222713e-09,3.0634311971857554e-09,2.534942544053255e-09,2.0699090251152445e-09,1.6709562005084568e-09,1.3285479490756109e-09,1.0395803753268107e-09,8.042862444139512e-10,6.097464412752743e-10,4.529039895193145e-10,3.30151728920724e-10,2.3434517936917915e-10,1.6228069333202892e-10,1.0977379867850394e-10,7.28943919863455e-11,4.7727181694201074e-11,3.072965635988175e-11
0.0,5,5.0,0.0,30.0,0.0,0.0,0.0,0.0,-13.0,0.0,2.0,0.0,0.0,0.0,1.0815310413587324e-09,8.071581303829991e-10,5.991490684142557e-10,4.410116719207254e-10,3.19866779011609e-10,2.297156836305581e-10,1.6360430289664414e-10,1.1563947241778814e-10,8.117109413969827e-11,5.636604028061823e-11,3.845692649884956e-11,2.5504076042538858e-11,1.6315823173878778e-11,1.003015807998839e-11,5.908436710679222e-12,3.3316673223709657e-12,1.7987976221462523e-12,6.731482321812805e-09,6.054326760958924e-09,5.289280997460628e-09,4.458437842062335e-09,3.7111133294115484e-09,3.063222045423293e-09,2.5347339778259894e-09,2.069701517909712e-09,1.670750179924475e-09,1.3283438021092931e-09,1.0393792744144032e-09,8.040904725289982e-10,6.095581936585662e-10,4.527251082509407e-10,3.299899491748811e-10,2.3422215147515565e-10,1.6222619516551804e-10,1.0980445545156924e-10,7.299712388962107e-11,4.786368423556521e-11,3.085101468483505e-11
0.0,6,6.0,0.0,30.0,0.0,0.0,0.0,0.0,-13.0,0.0,2.0,0.0,0.0,0.0,1.0815428523268918e-09,8.071706525210224e-10,5.991615098697435e-10,4.4102547165401744e-10,3.198972019275536e-10,2.2979122612455185e-10,1.637436035696943e-10,1.1582797504207586e-10,8.136479610328774e-11,5.651995528950198e-11,3.854979852408718e-11,2.554125430407083e-11,1.631652896996088e-11,1.0013772060901361e-11,5.888222281735884e-12,3.314114460164876e-12,1.785849122304235e-12,6.731266668838109e-09,6.054111203548761e-09,5.2890656064031345e-09,4.45822275090117e-09,3.7108986544806013e-09,3.0630078949565833e-09,2.5345206045284725e-09,2.0694894525203266e-09,1.6705398817634961e-09,1.328135725437927e-09,1.039174756639849e-09,8.038919307494854e-10,6.093678143238603e-10,4.525448962768843e-10,3.2982862802912115e-10,2.341030119422576e-10,1.6217971204161896e-10,1.0984572408393839e-10,7.311010438370846e-11,4.8007207004103734e-11,3.0975556102391324e-11
0.0,7,7.0,0.0,30.0,0.0,0.0,0.0,0.0,-13.0,0.0,2.0,0.0,0.0,0.0,1.0815548528017827e-09,8.071833919583806e-10,5.99174087744698e-10,4.4103994777132784e-10,3.19930624186549e-10,2.2987338955334859e-10,1.6389198996227324e-10,1.1602483660213005e-10,8.156337541957985e-11,5.6674791595680156e-11,3.8641049802838225e-11,2.557603977476014e-11,1.6315184773173816e-11,9.996007674006564e-12,5.867218050585523e-12,3.2961652962340048e-12,1.7727285118701377e-12,6.7310453937680995e-09,6.05389006676161e-09,5.2888447022688484e-09,4.458002246047259e-09,3.7106786899742805e-09,3.0627886123734675e-09,2.5343023026780813e-09,2.0692727199597605e-09,1.670325209309337e-09,1.3279236419569027e-09,1.038966774438522e-09,8.036905941725117e-10,6.091752910364975e-10,4.523633984986536e-10,3.296679795881737e-10,2.3398822014611387e-10,1.6214186561539596e-10,1.0989818734254467e-10,7.323371813854357e-11,4.8157885089528846e-11,3.1103306180239104e-11
0.0,8,8.0,0.0,30.0,0.0,0.0,0.0,0.0,-13.0,0.0,2.0,0.0,0.0,0.0,1.0815670590117724e-09,8.071963575424805e-10,5.991868162457707e-10,4.4105523100532163e-10,3.199674215519334e-10,2.2996274774526113e-10,1.640500091409087e-10,1.162303789830401e-10,8.176690711714409e-11,5.6830488122360624e-11,3.8730594020610425e-11,2.5608366494696903e-11,1.631174585167236e-11,9.976832261101921e-12,5.845399270418068e-12,3.277802741517684e-12,1.7594254142138099e-12,6.730818369547631e-09,6.05366322632238e-09,5.288618164977867e-09,4.457776213148574e-09,3.710453328463958e-09,3.062564099996533e-09,2.5340789868823156e-09,2.0690512473224254e-09,1.6701061019862149e-09,1.327707511563156e-09,1.0387553177618307e-09,8.034864737006636e-10,6.089806463505669e-10,4.521807015852652e-10,3.295082744709667e-10,2.338783005015334e-10,1.621133303294084e-10,1.0996245089923618e-10,7.336834169840924e-11,4.831582793648084e-11,3.123426760553211e-11
0.0,9,9.0,0.0,30.0,0.0,0.0,0.0,0.0,-13.0,0.0,2.0,0.0,0.0,0.0,1.081579486533811e-09,8.072095561870131e-10,5.991997122144372e-10,4.410714716583006e-10,3.200080066730763e-10,2.300599082053415e-10,1.642182168017765e-10,1.1644490537644353e-10,8.197543539470337e-11,5.6986957034222694e-11,3.881832901309876e-11,2.563816222901377e-11,1.6306166871461846e-11,9.956215046510317e-12,5.822743604591524e-12,3.259011743034838e-12,1.7459308450348044e-12,6.730585501743415e-09,6.053430590685474e-09,5.288385907308673e-09,4.457544570826304e-09,3.710222495681449e-09,3.0623342936979266e-09,2.533850605592199e-09,2.0688249954474517e-09,1.6698825330051988e-09,1.3274873288309105e-09,1.0385404115900775e-09,8.032796132959193e-10,6.087839352415795e-10,4.5199693299218764e-10,3.293498401897566e-10,2.33773842880368e-10,1.6209483288078678e-10,1.1003914245266302e-10,7.351434346170036e-11,4.848112107175773e-11,3.1368422464928765e-11
0.0,10,10.0,0.0,30.0,0.0,0.0,0.0,0.0,-13.0,0.0,2.0,0.0,0.0,0.0,1.0815921503703028e-09,8.072229929698763e-10,5.992127963285041e-10,4.410888425100899e-10,3.2005283230601917e-10,2.3016551381440445e-10,1.6439717755375876e-10,1.1666870070134085e-10,8.218897504599764e-11,5.714408560442718e-11,3.8904138108652765e-11,2.5665348903061683e-11,1.629840166998975e-11,9.934126675245004e-12,5.799230705338361e-12,3.2397789919419562e-12,1.7322370369091438e-12,6.7303467271497885e-09,6.0531920996303194e-09,5.288147873472174e-09,4.457307269216278e-09,3.7099861490385055e-09,3.062099161395662e-09,2.5336171395274063e-09,2.068593957245533e-09,1.6696545076749872e-09,1.3272631213404922e-09,1.0383221140566084e-09,8.030700878222423e-10,6.085852433954669e-10,4.5181226074035963e-10,3.2919306225179693e-10,2.3367550347856334e-10,1.6208715172621368e-10,1.1012891050913441e-10,7.367208308520072e-11,4.865382722699085e-11,3.150573401419898e-11
0.0,11,11.0,0.0,30.0,0.0,0.0,0.0,0.0,-13.0,0.0,2.0,0.0,0.0,0.0,1.0816050649895688e-09,8.072366712425839e-10,5.992260944763464e-10,4.411075419949148e-10,3.201023946522457e-10,2.3028024433980654e-10,1.6458746476383086e-10,1.1690203149017037e-10,8.240751239186558e-11,5.730173772885839e-11,3.8987891302054394e-11,2.568984302960191e-11,1.62884031118186e-11,9.91053885259289e-12,5.774841872513841e-12,3.220092681130411e-12,1.7183372905343226e-12,6.730102012950261e-09,6.052947723411351e-09,5.2879040382380235e-09,4.457064289060643e-09,3.7097442766958912e-09,3.061858702095598e-09,2.5333786006374975e-09,2.0683581565561367e-09,1.6694220622470737e-09,1.327034948530882e-09,1.0381005150544453e-09,8.028580013603529e-10,6.083846860635774e-10,4.516268938841715e-10,3.290383859120771e-10,2.335840060660084e-10,1.6209111660367585e-10,1.1023242288028263e-10,7.384191043964017e-11,4.883398700542945e-11,3.1646148044452054e-11
0.0,12,12.0,0.0,30.0,0.0,0.0,0.0,0.0,-13.0,0.0,2.0,0.0,0.0,0.0,1.0816182443319265e-09,8.072505927663773e-10,5.992396393362481e-10,4.411277976715799e-10,3.201572368157548e-10,2.3040481776232873e-10,1.6478966001322335e-10,1.1714514533456595e-10,8.2631005821882e-11,5.7459755157393034e-11,3.9069446283508404e-11,2.5711556118490073e-11,1.6276123003689237e-11,9.885424063567083e-12,5.749559777604555e-12,3.1999423040531986e-12,1.7042258485335828e-12,6.729851356326799e-09,6.052697462354668e-09,5.287654406505463e-09,4.456815641242417e-09,3.709496897075269e-09,3.0616129453718056e-09,2.533135031491517e-09,2.0681176474292787e-09,1.669185263192172e-09,1.326802900972271e-09,1.0378757352212055e-09,8.026434859028724e-10,6.081824074171721e-10,4.514410836175624e-10,3.2888631851953875e-10,2.335001435574757e-10,1.6210760804121664e-10,1.103503649314882e-10,7.40241642091417e-11,4.902161920683932e-11,3.1789593929539876e-11
0.0,13,13.0,0.0,30.0,0.0,0.0,0.0,0.0,-13.0,0.0,2.0,0.0,0.0,0.0,1.0816317017831572e-09,8.072647578919845e-10,5.99253472195324e-10,4.411498700108835e-10,3.202179523747211e-10,2.305399914146814e-10,1.6500435219656423e-10,1.173982699629576e-10,8.285938602674754e-11,5.761795849926762e-11,3.914864934419237e-11,2.5730395063372113e-11,1.6261512052133518e-11,9.858755355419464e-12,5.72336824110365e-12,3.1793184879386333e-12,1.689897788359688e-12,6.729594784431205e-09,6.052441346815287e-09,5.287399013232337e-09,4.456561366676597e-09,3.7092440587277807e-09,3.0613619511992453e-09,2.5328865050101433e-09,2.0678725137478123e-09,1.6689442068258538e-09,1.3265670999747884e-09,1.0376479252177168e-09,8.024267003582581e-10,6.079785803549668e-10,4.5125512498421713e-10,3.2873743241047e-10,2.3342477984722486e-10,1.6213755681797252e-10,1.1048343759896368e-10,7.421917020287756e-11,4.921672089845943e-11,3.193598542150712e-11
0.0,14,14.0,0.0,30.0,0.0,0.0,0.0,0.0,-13.0,0.0,2.0,0.0,0.0,0.0,1.0816454501170712e-09,8.07279165802151e-10,5.992676450450949e-10,4.4117405652387225e-10,3.202851890602586e-10,2.306865629201954e-10,1.6523213628450781e-10,1.1766161200588992e-10,8.309255598641711e-11,5.77761480492292e-11,3.922533617704372e-11,2.574626250259802e-11,1.62445198511779e-11,9.830506170100442e-12,5.696252053666863e-12,3.1582128557438923e-12,1.6753489314013073e-12,6.729332354649145e-09,6.052179437425667e-09,5.287137923653185e-09,4.456301536489418e-09,3.708985840491354e-09,3.0611058100697612e-09,2.5326331244706465e-09,2.067622869122492e-09,1.6686990192177117e-09,1.326327697465125e-09,1.0374172652308961e-09,8.022078298085343e-10,6.077734067344349e-10,4.5106935917198804e-10,3.2859236831150115e-10,2.3335885185320464e-10,1.6218194333991536e-10,1.1063235518274289e-10,7.442723943004471e-11,4.941926730026291e-11,3.208522124705036e-11
0.0,15,15.0,0.0,30.0,0.0,0.0,0.0,0.0,-13.0,0.0,2.0,0.0,0.0,0.0,1.0816595014092079e-09,8.072938148388945e-10,5.992822229935367e-10,4.4120069625374895e-10,3.203596525309728e-10,2.308453709147898e-10,1.6547361176197792e-10,1.1793535549296686e-10,8.333039076650886e-11,5.7934104472721614e-11,3.9299332588894595e-11,2.575905715330054e-11,1.6225094890950076e-11,9.800650216426965e-12,5.668196833310459e-12,3.1366179121824725e-12,1.6605757658607378e-12,6.729064155101268e-09,6.051911825579782e-09,5.2868712337304285e-09,4.456036252429717e-09,3.7087223518807113e-09,3.060844643334822e-09,2.5323750237281196e-09,2.067368857005283e-09,1.668449856330801e-09,1.3260848760742772e-09,1.0371839646436216e-09,8.019870849799802e-10,6.075671180124085e-10,4.508841763834002e-10,3.284518392213618e-10,2.3330337171924716e-10,1.6224179689118312e-10,1.1079784291580547e-10,7.464866597708973e-11,4.9629211537926975e-11,3.223718554700827e-11
0.0,16,16.0,0.0,30.0,0.0,0.0,0.0,0.0,-13.0,0.0,2.0,0.0,0.0,0.0,1.0816738669241511e-09,8.073087029406709e-10,5.99297287036556e-10,4.4123017465337306e-10,3.204421102280311e-10,2.310172955306664e-10,1.6572938074811518e-10,1.182196601166129e-10,8.357273716594935e-11,5.809158938148541e-11,3.937045513767714e-11,2.576867411869082e-11,1.620318458046311e-11,9.769161373967837e-12,5.6391889123914545e-12,3.1145269499577794e-12,1.645575381360868e-12,6.72879030533477e-09,6.051638634105932e-09,5.2865990707920136e-09,4.455765647466552e-09,3.7084537336643677e-09,3.0605786037283017e-09,2.5321123676060908e-09,2.0671106509765695e-09,1.668196904348202e-09,1.3258388493889483e-09,1.0369482618239938e-09,8.017647018980267e-10,6.073599762936285e-10,4.50700019283934e-10,3.283166347452722e-10,2.332594291250521e-10,1.623181947209954e-10,1.1098063430511768e-10,7.488372471765905e-11,4.984648430556406e-11,3.239174819234759e-11
0.0,17,17.0,0.0,30.0,0.0,0.0,0.0,0.0,-13.0,0.0,2.0,0.0,0.0,0.0,1.0816885569799696e-09,8.073238282186706e-10,5.993129372351197e-10,4.412629288689103e-10,3.2053339529122e-10,2.3120325861624635e-10,1.6600004579977849e-10,1.1851465929151897e-10,8.381941325141181e-11,5.824834582535519e-11,3.943851170627e-11,2.5775005169295433e-11,1.617873527969478e-11,9.736013622413478e-12,5.609215249299586e-12,3.0919339729949025e-12,1.6303454135621714e-12,6.7285109571672825e-09,6.0513600180899955e-09,5.286321594317079e-09,4.455489886534788e-09,3.7081801585906135e-09,3.060307876030284e-09,2.531845352417489e-09,2.066848455169674e-09,1.667940380150941e-09,1.3255898623258143e-09,1.0367104239942004e-09,8.015409417084994e-10,6.071522757978292e-10,4.505173870380331e-10,3.2818762585887037e-10,2.3322819365414096e-10,1.624122609256788e-10,1.1118146823773439e-10,7.513266887993214e-11,5.007099347159169e-11,3.2548765003368265e-11
0.0,18,18.0,0.0,30.0,0.0,0.0,0.0,0.0,-13.0,0.0,2.0,0.0,0.0,0.0,1.0817035807943686e-09,8.07339189705889e-10,5.993292963477332e-10,4.4129945344847254e-10,3.2063441051197233e-10,2.3140422366340613e-10,1.6628620739751851e-10,1.1882045803412146e-10,8.407020780836366e-11,5.840409872145052e-11,3.950330202264299e-11,2.5777938999239918e-11,1.615169233747703e-11,9.701180991574973e-12,5.578263360744075e-12,3.06883363400263e-12,1.6148839973403952e-12,6.728226295650093e-09,6.05107616581617e-09,5.286038996836966e-09,4.455209167396771e-09,3.7079018322302932e-09,3.060032677838552e-09,2.5315742065829323e-09,2.0665825048029143e-09,1.6676805319176409e-09,1.3253381915931568e-09,1.0364707471458481e-09,8.013160906572925e-10,6.069443447668e-10,4.503368399495139e-10,3.2806577008012233e-10,2.332109171695509e-10,1.6252516508503076e-10,1.1140108584373657e-10,7.53957274921132e-11,5.030262365442324e-11,3.270807789356558e-11
0.0,19,19.0,0.0,30.0,0.0,0.0,0.0,0.0,-13.0,0.0,2.0,0.0,0.0,0.0,1.0817189463189875e-09,8.073547883178237e-10,5.993465139715082e-10,4.4134030649235254e-10,3.2074613229448733e-10,2.316211954099729e-10,1.6658846111106412e-10,1.1913713068330415e-10,8.432487973407896e-11,5.855855523818612e-11,3.956461813427865e-11,2.5777361458883814e-11,1.6122000132761518e-11,9.664637528240221e-12,5.546321271287423e-12,3.0452211841427507e-12,1.5991897273022188e-12,6.727936540122758e-09,6.050787299796947e-09,5.285751504923332e-09,4.454923721592294e-09,3.7076189939087137e-09,3.0597532604188416e-09,2.5312991913180623e-09,2.0663130667941e-09,1.6674176398206743e-09,1.325084146208152e-09,1.0362295559742862e-09,8.010904602301935e-10,6.067365478432645e-10,4.5015900472867797e-10,3.279521170277081e-10,2.3320893614564616e-10,1.6265812061207357e-10,1.1164022710733322e-10,7.567310272443859e-11,5.054123578940021e-11,3.286951495540713e-11
0.0,20,20.0,0.0,30.0,0.0,0.0,0.0,0.0,-13.0,0.0,2.0,0.0,0.0,0.0,1.0817346600704272e-09,8.07370628069586e-10,5.993647712486306e-10,4.4138611625851914e-10,3.2086961459080046e-10,2.318552190826716e-10,1.6690739444032647e-10,1.1946471848142733e-10,8.458315739446926e-11,5.871140514839646e-11,3.9622244843382493e-11,2.5773155765184273e-11,1.6089602117628785e-11,9.626357276963754e-12,5.513377477397308e-12,3.0210924329507807e-12,1.5832616246044144e-12,6.727641945334248e-09,6.05049367786751e-09,5.285459380238861e-09,4.454633815453197e-09,3.7073319177027442e-09,3.0594699096086094e-09,2.531020601365575e-09,2.0660404404369647e-09,1.6671520167972078e-09,1.3248280680409472e-09,1.0359872038096105e-09,8.008643874639537e-10,6.065292889632869e-10,4.4998458041281277e-10,3.278478143431694e-10,2.3322367390240275e-10,1.62812382775135e-10,1.1189962721778198e-10,7.596496714468049e-11,5.0786666704239616e-11,3.303289050204196e-11
0.0,21,21.0,0.0,30.0,0.0,0.0,0.0,0.0,-13.0,0.0,2.0,0.0,0.0,0.0,1.0817507269693743e-09,8.073867176007897e-10,5.993842861986354e-10,4.414375882336035e-10,3.21005992770102e-10,2.3210737924321827e-10,1.6724358332754503e-10,1.1980322703345276e-10,8.484473796382111e-11,5.886232116325118e-11,3.967596010812631e-11,2.576520269117591e-11,1.6054440861021062e-11,9.586314272541594e-12,5.4794209237868365e-12,2.996443716956607e-12,1.5670991092014803e-12,6.72734280260867e-09,6.050195594322404e-09,5.28516292062875e-09,4.454339751161461e-09,3.707040913481553e-09,3.0591829467513535e-09,2.530738765750466e-09,2.06576495812207e-09,1.6668840093759758e-09,1.3245703323587625e-09,1.0357440725271058e-09,8.006382354494442e-10,6.06323014813511e-10,4.498143449700579e-10,3.277541139515786e-10,2.3325664268580246e-10,1.62989246351167e-10,1.1218001265258834e-10,7.627146090351832e-11,5.103872871688642e-11,3.319800507633385e-11
0.0,22,22.0,0.0,30.0,0.0,0.0,0.0,0.0,-13.0,0.0,2.0,0.0,0.0,0.0,1.081767150202783e-09,8.074030720669951e-10,5.9940531974022e-10,4.414955126752072e-10,3.2115648737655e-10,2.3237879819804e-10,1.675975883364519e-10,1.2015262366127529e-10,8.510928676431529e-11,5.90109592564251e-11,3.9725535414075095e-11,2.575338073592129e-11,1.601645809264549e-11,9.544482542446958e-12,5.444440990217685e-12,2.971271875704822e-12,1.5507019767792192e-12,6.727039441036053e-09,6.049893381074929e-09,5.284862461233654e-09,4.4540418678323016e-09,3.706746327971954e-09,3.0588927296410114e-09,2.5304540485399577e-09,2.065486986087969e-09,1.6666139985425875e-09,1.3243113483445398e-09,1.035500572424773e-09,8.004123940577813e-10,6.061182189140892e-10,4.4964916261891263e-10,3.2767237863178673e-10,2.333094455346338e-10,1.6319004286927128e-10,1.1248209698676953e-10,7.659268886613406e-11,5.1297209266887574e-11,3.336464543660117e-11
0.0,23,23.0,0.0,30.0,0.0,0.0,0.0,0.0,-13.0,0.0,2.0,0.0,0.0,0.0,1.0817839311282817e-09,8.074197154647772e-10,5.99428182469553e-10,4.4156077262616366e-10,3.213224077234308e-10,2.3267063393018885e-10,1.6796995049507832e-10,1.20512834670134e-10,8.537643662039543e-11,5.915695898608305e-11,3.977073611900713e-11,2.5737566276239415e-11,1.5975594746860563e-11,9.500836117923145e-12,5.408427487264788e-12,2.9455742340825525e-12,1.5340703797444874e-12,6.7267322286692e-09,6.049587408820216e-09,5.284558375605886e-09,4.4537405426051084e-09,3.7064485458306392e-09,3.058599653457257e-09,2.5301668495914166e-09,2.0652069251905175e-09,1.6663424006273437e-09,1.3240515595659474e-09,1.0352571420611385e-09,8.001872809310842e-10,6.059154463974427e-10,4.4948999189673473e-10,3.2760408886237567e-10,2.333837778702167e-10,1.634161374036121e-10,1.12806576423654e-10,7.692871770679356e-11,5.1561870589026985e-11,3.35325845268236e-11
0.0,24,24.0,0.0,30.0,0.0,0.0,0.0,0.0,-13.0,0.0,2.0,0.0,0.0,0.0,1.0818010692453835e-09,8.074366834664882e-10,5.994532422647674e-10,4.416343523952224e-10,3.215051552647226e-10,2.329840775103879e-10,1.6836118680004594e-10,1.2088374254414704e-10,8.5645787241549e-11,5.929994382059869e-11,3.98113217735351e-11,2.571763370147639e-11,1.5931791006639643e-11,9.455349052756742e-12,5.371370659807019e-12,2.9193485900377857e-12,1.5172048117351532e-12,6.7264215737105116e-09,6.049278088185917e-09,5.284251076813157e-09,4.453436191727283e-09,3.70614799070697e-09,3.05830415167392e-09,2.5298776052738956e-09,2.0649252116806393e-09,1.6660696682002587e-09,1.3237914443710929e-09,1.0350142480523948e-09,7.999633427912239e-10,6.057152995623382e-10,4.493378945105147e-10,3.275508499032909e-10,2.3348142874133175e-10,1.6366892487529777e-10,1.1315412504473516e-10,7.727957298386886e-11,5.183244943588965e-11,3.3701581437798566e-11
0.0,25,25.0,0.0,30.0,0.0,0.0,0.0,0.0,-13.0,0.0,2.0,0.0,0.0,0.0,1.081818562264286e-09,8.074540268508044e-10,5.994809327885933e-10,4.417173464912638e-10,3.2170622667795397e-10,2.33320349942942e-10,1.6877178538187705e-10,1.212651830884327e-10,8.591690464575956e-11,5.943952147247175e-11,3.9847046419262236e-11,2.5693455532542793e-11,1.5884986347929407e-11,9.4079954490146e-12,5.333261197218765e-12,2.8925932069147805e-12,1.5001060951935854e-12,6.726107925672588e-09,6.048965870854218e-09,5.28394101851437e-09,4.453129271616346e-09,3.7058451262807395e-09,3.0580066969238944e-09,2.5295867891508004e-09,2.0646423179826488e-09,1.6657962909581948e-09,1.3235315161881406e-09,1.034772384834826e-09,7.997410571325028e-10,6.055184442918938e-10,4.491940450018649e-10,3.275143990658102e-10,2.3360428165207473e-10,1.6394982582346746e-10,1.1352538977847703e-10,7.76452362136832e-11,5.210865685413631e-11,3.3871381364719775e-11
0.0,26,26.0,0.0,30.0,0.0,0.0,0.0,0.0,-13.0,0.0,2.0,0.0,0.0,0.0,1.0818364063107703e-09,8.07471815625931e-10,5.995117629626533e-10,4.4181096898971213e-10,3.219272165847576e-10,2.3368069840136726e-10,1.6920220033292528e-10,1.2165694253591163e-10,8.618932063473013e-11,5.957528424361457e-11,3.987765886563344e-11,2.5664902526425992e-11,1.5835119584899382e-11,9.358749489230827e-12,5.294090249411558e-12,2.865306809754576e-12,1.4827753716142322e-12,6.725791776497595e-09,6.048651250640406e-09,5.283628695993712e-09,4.452820279887761e-09,3.7055404572606053e-09,3.057707801804829e-09,2.5292949126127023e-09,2.0643587534665846e-09,1.6655227965887346e-09,1.3232723237068293e-09,1.0345320744064727e-09,7.99520934378218e-10,6.053256174331469e-10,4.490597412553537e-10,3.2749661311492613e-10,2.337543148955446e-10,1.6426028160679021e-10,1.1392098509063545e-10,7.802564196259102e-11,5.2390178017556255e-11,3.4041715565833054e-11
0.0,27,27.0,0.0,30.0,0.0,0.0,0.0,0.0,-13.0,0.0,2.0,0.0,0.0,0.0,1.0818545963147133e-09,8.074901439540958e-10,5.995463274875946e-10,4.4191656329991297e-10,3.2216981982771054e-10,2.340663918082577e-10,1.696528462020474e-10,1.2205875463766367e-10,8.646253233089089e-11,5.970680938400421e-11,3.990290294618043e-11,2.5631843767384424e-11,1.5782128916717023e-11,9.307585474687588e-12,5.2538494480142556e-12,2.8374885850113276e-12,1.46521409413116e-12,6.725473661621465e-09,6.048334764514189e-09,5.283314647140296e-09,4.45250975633623e-09,3.705234530328865e-09,3.057408019610737e-09,2.529002525451709e-09,2.0640750652099624e-09,1.665249751594844e-09,1.3230144509207684e-09,1.0342938660712778e-09,7.993035205961882e-10,6.05137635244462e-10,4.489364158749889e-10,3.274995157384515e-10,2.339336013113243e-10,1.6460174899794777e-10,1.143414874016512e-10,7.842067497782949e-11,5.267667211826597e-11,3.42123013261737e-11
0.0,28,28.0,0.0,30.0,0.0,0.0,0.0,0.0,-13.0,0.0,2.0,0.0,0.0,0.0,1.081873126640396e-09,8.075091359983769e-10,5.99585318482771e-10,4.4203561229106287e-10,3.2243583321408886e-10,2.344787157140607e-10,1.7012409216299962e-10,1.2247029775654583e-10,8.67360017851456e-11,5.983365946462461e-11,3.992251775448286e-11,2.559414674605749e-11,1.572595197660379e-11,9.254477869559219e-12,5.212530932090976e-12,2.8091381832181824e-12,1.4474240221599143e-12,6.725154160969435e-09,6.048016993550545e-09,5.282999453361235e-09,4.452198283859231e-09,3.7049279350189974e-09,3.0571079449756208e-09,2.5287102163704152e-09,2.0637918387451677e-09,1.6649777620633641e-09,1.3227585170110959e-09,1.0340583362201673e-09,7.99089400885023e-10,6.049554030253212e-10,4.4882564844747815e-10,3.275252850061064e-10,2.3414430737967416e-10,1.6497569413548062e-10,1.1478742923992532e-10,7.883016737877429e-11,5.296777231582914e-11,3.438284192986112e-11
0.0,29,29.0,0.0,30.0,0.0,0.0,0.0,0.0,-13.0,0.0,2.0,0.0,0.0,0.0,1.0818919920293566e-09,8.075289528263321e-10,5.996295383173573e-10,4.421697487214043e-10,3.2272715662894344e-10,2.349189664302007e-10,1.7061625586682305e-10,1.2289119198468084e-10,8.70091556632578e-11,5.99553827646289e-11,3.993623785988773e-11,2.5551677427770854e-11,1.5666525884013278e-11,9.199401350778054e-12,5.170127377890864e-12,2.7802557242111145e-12,1.4294072178462338e-12,6.72483389987038e-09,6.04769856379782e-09,5.282683740417289e-09,4.451886489312512e-09,3.7046213045131673e-09,3.0568082144165547e-09,2.5284186134208274e-09,2.063509698789905e-09,1.6647074743587997e-09,1.3225051760540015e-09,1.0338260881966047e-09,7.988792035611477e-10,6.04779926050593e-10,4.487291787028085e-10,3.275762607295506e-10,2.343886915604471e-10,1.6538358579972674e-10,1.152592931433512e-10,7.925389593132784e-11,5.3263085742438624e-11,3.4553026643982837e-11
0.0,30,30.0,0.0,30.0,0.0,0.0,0.0,0.0,-13.0,0.0,2.0,0.0,0.0,0.0,1.081911188941129e-09,8.075498005187266e-10,5.996799137012649e-10,4.423207659010493e-10,3.230457934117594e-10,2.3538844437346445e-10,1.7112959699208616e-10,1.233209963062652e-10,8.7281385017665e-11,6.00715136717311e-11,3.9943793502819047e-11,2.5504300311388888e-11,1.5603787300853875e-11,9.142330863556165e-12,5.1266320321946396e-12,2.7508418045781004e-12,1.4111660441083627e-12,6.7245135498778125e-09,6.047380147051826e-09,5.282368179171596e-09,4.451575044288238e-09,3.704315316346641e-09,3.056509506764233e-09,2.5281283843708024e-09,2.06322930995898e-09,1.664439575722493e-09,1.322255116538078e-09,1.033597752309664e-09,7.98673605296339e-10,6.046123219379675e-10,4.486489205723809e-10,3.276549516208533e-10,2.346691017799514e-10,1.65826887982525e-10,1.1575750532527392e-10,7.969157942908934e-11,5.3562193560710136e-11,3.4722530716729496e-11
0.0,31,31.0,0.0,30.0,0.0,0.0,0.0,0.0,-13.0,0.0,2.0,0.0,0.0,0.0,1.0819307173941382e-09,8.075719396461839e-10,5.997375110987264e-10,4.4249062850259863e-10,3.233938498827645e-10,2.3588844658075973e-10,1.7166431051083327e-10,1.2375920582796392e-10,8.755204515034916e-11,6.018157309397218e-11,3.994491076940039e-11,2.5451878480161332e-11,1.5537672492732277e-11,9.083241682542251e-12,5.0820387488857894e-12,2.720897507053898e-12,1.392703164086389e-12,6.724193829486694e-09,6.047062461525498e-09,5.282053486242569e-09,4.451264665806824e-09,3.7040106930068308e-09,3.0562125434709333e-09,2.5278402369982654e-09,2.062951377456078e-09,1.6641747947548981e-09,1.3220090606815025e-09,1.0333739860759756e-09,7.984733373769349e-10,6.044538345826992e-10,4.485869771321703e-10,3.277640421321444e-10,2.349879719645831e-10,1.6630705172397722e-10,1.1628242912510353e-10,8.01428762057861e-11,5.386465106898934e-11,3.489101539211463e-11
0.0,32,32.0,0.0,30.0,0.0,0.0,0.0,0.0,-13.0,0.0,2.0,0.0,0.0,0.0,1.0819505834286037e-09,8.075956962914057e-10,5.99803553519572e-10,4.426814834158016e-10,3.237735338970666e-10,2.3642025835647625e-10,1.722205196923495e-10,1.2420524909980404e-10,8.782045557112873e-11,6.028506888020969e-11,3.9939311745061245e-11,2.539427364612512e-11,1.5468117396244495e-11,9.022109478632797e-12,5.036342028421289e-12,2.6904244116238217e-12,1.3740215418361023e-12,6.723875504735609e-09,6.046746272404782e-09,5.281740424553647e-09,4.45095611691487e-09,3.7037082024154874e-09,3.0559180887876567e-09,2.5275549193160896e-09,2.06267664774423e-09,1.663913901756752e-09,1.3217677635455515e-09,1.0331554747933026e-09,7.982791932787493e-10,6.043058497974193e-10,4.4854565640288896e-10,3.279063988432937e-10,2.353478175161169e-10,1.6682550619394409e-10,1.168343582681383e-10,8.060738180403127e-11,5.416998784743646e-11,3.5058127943324756e-11
0.0,33,33.0,0.0,30.0,0.0,0.0,0.0,0.0,-13.0,0.0,2.0,0.0,0.0,0.0,1.081970802335546e-09,8.07621474809323e-10,5.998794387326112e-10,4.428956705227699e-10,3.241871522972147e-10,2.3698514401863753e-10,1.7279826887143449e-10,1.2465848555002776e-10,8.808590005438899e-11,6.038149624593459e-11,3.992671464684296e-11,2.5331346189760534e-11,1.539505769337089e-11,8.958910391475387e-12,4.989537059919425e-12,2.659424608138308e-12,1.355124444121675e-12,6.723559389685383e-09,6.0464323922830035e-09,5.281429803774194e-09,4.450650207182153e-09,3.7034086582821758e-09,3.0556269498036414e-09,2.527273219733599e-09,2.062405909193619e-09,1.663657708902444e-09,1.3215320119487864e-09,1.0329429325733667e-09,7.980920377761208e-10,6.041699127964894e-10,4.4852748796070065e-10,3.2808507624754117e-10,2.357512296202888e-10,1.673836490011158e-10,1.1741350996358193e-10,8.108462682576678e-11,5.447770793649918e-11,3.5223501726468465e-11
0.0,34,34.0,0.0,30.0,0.0,0.0,0.0,0.0,-13.0,0.0,2.0,0.0,0.0,0.0,1.0819914028215688e-09,8.076497725322818e-10,5.999667589317887e-10,4.43135733248565e-10,3.2463710712781026e-10,2.375843367151299e-10,1.733975160126663e-10,1.2511820305762063e-10,8.83476267957856e-11,6.047033820035027e-11,3.9906833934233495e-11,2.5262955196747925e-11,1.5318428894053075e-11,8.893621107716114e-12,4.9416197656153306e-12,2.6279007102713817e-12,1.336015443178988e-12,6.723246346766394e-09,6.046121681467422e-09,5.281122480647173e-09,4.4503477930916756e-09,3.703112920318828e-09,3.0553399763447098e-09,2.5269959671636557e-09,2.062139992704036e-09,1.6634070702166528e-09,1.3213026231974068e-09,1.0327371039906448e-09,7.979128178291216e-10,6.040477476633466e-10,4.4853524029033706e-10,3.2830332176703366e-10,2.362008682778799e-10,1.6798283571858696e-10,1.1802001787442785e-10,8.157407498974905e-11,5.478729003770033e-11,3.5386756256233026e-11
0.0,35,35.0,0.0,30.0,0.0,0.0,0.0,0.0,-13.0,0.0,2.0,0.0,0.0,0.0,1.0820124323077881e-09,8.076811966411061e-10,6.000673218683396e-10,4.434044287185435e-10,3.2512589046958814e-10,2.382190272874029e-10,1.7401812510714926e-10,1.255836156862859e-10,8.860484866887536e-11,6.055106597004218e-11,3.987938039855388e-11,2.5188958493844244e-11,1.523816642804124e-11,8.82621894504343e-12,4.8925868474625985e-12,2.5958558706836583e-12,1.3166984203315113e-12,6.72293728698725e-09,6.04581504815258e-09,5.280819359200834e-09,4.450049778317706e-09,3.7028218943054335e-09,3.0550580607295113e-09,2.5267240310877418e-09,2.061879772298068e-09,1.6631628813232384e-09,1.321080443661162e-09,1.0325387665368735e-09,7.977425755194408e-10,6.039412789350196e-10,4.485719387872306e-10,3.285645798114844e-10,2.366994539462309e-10,1.6862436862184726e-10,1.1865392499759048e-10,8.207512142101037e-11,5.509818772505939e-11,3.55474973046829e-11
0.0,36,36.0,0.0,30.0,0.0,0.0,0.0,0.0,-13.0,0.0,2.0,0.0,0.0,0.0,1.0820339635936943e-09,8.077164834356079e-10,6.001831734406768e-10,4.4370473732853517e-10,3.256560777452293e-10,2.388903521663886e-10,1.7465985844335452e-10,1.2605386160332307e-10,8.88567435799111e-11,6.062313941405383e-11,3.984406123119366e-11,2.5109212686069176e-11,1.5154205747092596e-11,8.75668194208012e-12,4.842435835686901e-12,2.56329379727467e-12,1.2971775703518186e-12,6.722633170001422e-09,6.045513448458988e-09,5.2805213908443075e-09,4.449757113887561e-09,3.702536531997994e-09,3.054782137386351e-09,2.526458321594701e-09,2.0616261656785113e-09,1.662926078933796e-09,1.3208663472424601e-09,1.0323487341093923e-09,7.975824633327662e-10,6.038526554299092e-10,4.486408842863062e-10,3.2887249467376314e-10,2.3724975767901867e-10,1.6930948464310115e-10,1.1931517649746548e-10,8.258709119633926e-11,5.5409829653807625e-11,3.57053170241761e-11
0.0,37,37.0,0.0,30.0,0.0,0.0,0.0,0.0,-13.0,0.0,2.0,0.0,0.0,0.0,1.0820561031527423e-09,8.07756520248888e-10,6.003166217075591e-10,4.440398715069996e-10,3.2623031934531917e-10,2.395993802939576e-10,1.7532236879884191e-10,1.2652800120620933e-10,8.910245491721095e-11,6.068600742475772e-11,3.980058007134354e-11,2.502357319758055e-11,1.5066482438590416e-11,8.6849889541631e-12,4.791165139116426e-12,2.5302187704268716e-12,1.2774574064682658e-12,6.722335004027924e-09,6.045217886335819e-09,5.280229574348196e-09,4.449470798223904e-09,3.7022578308713777e-09,3.054513182337491e-09,2.5261997894118518e-09,2.06138013474012e-09,1.6626976400426712e-09,1.3206612338092564e-09,1.032167861804507e-09,7.974337621125197e-10,6.037842764319909e-10,4.4874567196205863e-10,3.292309120364901e-10,2.3785458965371276e-10,1.7003934255482326e-10,1.20003612540843e-10,8.310923816841403e-11,5.57216197515594e-11,3.585979409508014e-11
0.0,38,38.0,0.0,30.0,0.0,0.0,0.0,0.0,-13.0,0.0,2.0,0.0,0.0,0.0,1.0820790013665426e-09,8.078023702580198e-10,6.004702622587567e-10,4.444132834197543e-10,3.268513304206465e-10,2.403470990731388e-10,1.7600519160478007e-10,1.2700501547858063e-10,8.934109208958172e-11,6.073910830860624e-11,3.9748637034301784e-11,2.4931894318802406e-11,1.4974932351620163e-11,8.611119755039007e-12,4.738774097137299e-12,2.496635661163027e-12,1.2575427659220447e-12,6.722043845626018e-09,6.044929413330477e-09,5.279944955714196e-09,4.449191877065367e-09,3.7019868336914388e-09,3.0542522125628748e-09,2.525949425950538e-09,2.0611426860214664e-09,1.662478580795777e-09,1.3204660276909549e-09,1.0319970523360427e-09,7.972979020365478e-10,6.037388203262933e-10,4.488902104073818e-10,3.2964387884387357e-10,2.385167859794108e-10,1.708150094054925e-10,1.207189611856821e-10,8.364074408919212e-11,5.603293737565824e-11,3.6010493898667507e-11
0.0,39,39.0,0.0,30.0,0.0,0.0,0.0,0.0,-13.0,0.0,2.0,0.0,0.0,0.0,1.0821028650482942e-09,8.078553004483287e-10,6.006470048403664e-10,4.4482867133812643e-10,3.275218786867934e-10,2.4113439936156833e-10,1.7670773714015747e-10,1.2748380459572876e-10,8.957173114624741e-11,6.078187014066157e-11,3.968792872193528e-11,2.4834029262559414e-11,1.487949173650092e-11,8.53505514448836e-12,4.685263033138736e-12,2.462549950149353e-12,1.2374388159839682e-12,6.721760799326055e-09,6.044649128230164e-09,5.2796686279399056e-09,4.448921443263852e-09,3.7017246279122793e-09,3.0540002852601433e-09,2.525708263390242e-09,2.060914871077198e-09,1.66226995500366e-09,1.3202816763723586e-09,1.0318372644538275e-09,7.971764869933636e-10,6.037192757555487e-10,4.4907874065708424e-10,3.301156412735095e-10,2.392391936831921e-10,1.7163744624150758e-10,1.214608313806385e-10,8.418071805045338e-11,5.634313741913808e-11,3.615696871526342e-11
0.0,40,40.0,0.0,30.0,0.0,0.0,0.0,0.0,-13.0,0.0,2.0,0.0,0.0,0.0,1.0821279726538888e-09,8.079168129886652e-10,6.008501010886798e-10,4.4528998436060345e-10,3.2824477008901125e-10,2.419620595352286e-10,1.7742928281728276e-10,1.2796318679763903e-10,8.979341546865166e-11,6.08137110867746e-11,3.961814821745617e-11,2.472983023214898e-11,1.4780097398712918e-11,8.456777061871423e-12,4.630633309333292e-12,2.427967747489812e-12,1.2171510603422228e-12,6.721487017121911e-09,6.044378176584263e-09,5.279401730687291e-09,4.448660636457768e-09,3.7014723448978623e-09,3.0537584970247727e-09,2.5254773748275583e-09,2.0606977867438916e-09,1.6620728522744486e-09,1.3201091495642477e-09,1.0316895237975543e-09,7.970713227571566e-10,6.037289753355925e-10,4.493158548760507e-10,3.306506405241427e-10,2.4002465378091204e-10,1.725074931613568e-10,1.2222870613620993e-10,8.472819625595832e-11,5.6651550346702513e-11,3.6298757947347505e-11
0.0,41,41.0,0.0,30.0,0.0,0.0,0.0,0.0,-13.0,0.0,2.0,0.0,0.0,0.0,1.0821546926304768e-09,8.079886802693397e-10,6.010831731764349e-10,4.4580142514673806e-10,3.290228321802077e-10,2.428307286635058e-10,1.781689656244327e-10,1.284418975448932e-10,9.000515652237268e-11,6.083403968741228e-11,3.9538985067318765e-11,2.4619148504456637e-11,1.4676686868099684e-11,8.376268705574295e-12,4.574887382854172e-12,2.392895813263533e-12,1.1966853457736854e-12,6.7212236978327856e-09,6.044117750119154e-09,5.279145449866009e-09,4.448410642621601e-09,3.7012311589698597e-09,3.0535279829802776e-09,2.5252578745165483e-09,2.060492575264937e-09,1.6618883957523904e-09,1.3199494388826694e-09,1.0315549366881536e-09,7.96984449379484e-10,6.037716319261159e-10,4.496065143817124e-10,3.312535061179155e-10,2.4087598234880864e-10,1.7342585376109244e-10,1.2302193593182092e-10,8.528214213540455e-11,5.695748214134974e-11,3.64353883669557e-11
0.0,42,42.0,0.0,30.0,0.0,0.0,0.0,0.0,-13.0,0.0,2.0,0.0,0.0,0.0,1.0821835054068503e-09,8.080729838414903e-10,6.01350243118054e-10,4.4636745029071334e-10,3.298588950727545e-10,2.4374090885186695e-10,1.7892577479520292e-10,1.2891858896947658e-10,9.020593465527528e-11,6.084225509746026e-11,3.9450125253756786e-11,2.4501834531371072e-11,1.456919858413884e-11,8.293514658313635e-12,4.518028863050423e-12,2.3573415787632447e-12,1.1760478690128013e-12,6.720972086347393e-09,6.04386908606176e-09,5.278901017144475e-09,4.448172693491582e-09,3.7010022862873988e-09,3.053309915896202e-09,2.5250509182267196e-09,2.0603004242307362e-09,1.661717739462273e-09,1.319803558432952e-09,1.0314347074313371e-09,7.969181782288277e-10,6.038513774027057e-10,4.499560666158387e-10,3.319290464001509e-10,2.417959495257011e-10,1.7439307904401912e-10,1.2383973242591727e-10,8.58414468052391e-11,5.7260214141871516e-11,3.656637438629695e-11
0.0,43,43.0,0.0,30.0,0.0,0.0,0.0,0.0,-13.0,0.0,2.0,0.0,0.0,0.0,1.082215029587343e-09,8.081721574749653e-10,6.016557624156095e-10,4.4699276793121173e-10,3.307557698363169e-10,2.446929368249292e-10,1.796985447770212e-10,1.2939182962858077e-10,9.03946999259574e-11,6.083774727685406e-11,3.935125116224511e-11,2.4377738062893757e-11,1.4457572097990575e-11,8.208501018244698e-12,4.4600625699192165e-12,2.3213131683963895e-12,1.1552451837300325e-12,6.720733472766341e-09,6.043633466391209e-09,5.2786697094040884e-09,4.447948065868859e-09,3.700786983569649e-09,3.0531055053393092e-09,2.5248577037415174e-09,2.0601225662801996e-09,1.6615620652821203e-09,1.3196725466716058e-09,1.0313301597860523e-09,7.968751341151992e-10,6.039728038145989e-10,4.5037026062205733e-10,3.3268223590679485e-10,2.427872563921634e-10,1.7540955088198505e-10,1.246811625380403e-10,8.640492987532594e-11,5.7559002751487284e-11,3.66912183500562e-11
0.0,44,44.0,0.0,30.0,0.0,0.0,0.0,0.0,-13.0,0.0,2.0,0.0,0.0,0.0,1.082250052969797e-09,8.082890345193821e-10,6.020046416544781e-10,4.47682332164866e-10,3.317162242293511e-10,2.456869648402761e-10,1.8048594857321368e-10,1.2986010456487591e-10,9.057037294458959e-11,6.081989712765364e-11,3.9242041548987126e-11,2.424670829544301e-11,1.4341748291931141e-11,8.121215535804215e-12,4.40099459363226e-12,2.284819422209409e-12,1.1342842075329778e-12,6.720509191462917e-09,6.043412217042147e-09,5.2784528481531685e-09,4.447738080800786e-09,3.700586546677055e-09,3.052915996911043e-09,2.5246794715155226e-09,2.0599602784996337e-09,1.6614225795974866e-09,1.319557470010144e-09,1.0312427633332415e-09,7.968583029335025e-10,6.04141006738932e-10,4.5085526052326816e-10,3.3351819926022353e-10,2.438525096931912e-10,1.7647546513073223e-10,1.2554514297258888e-10,8.697134059345597e-11,5.785307899849594e-11,3.680941084733539e-11
0.0,45,45.0,0.0,30.0,0.0,0.0,0.0,0.0,-13.0,0.0,2.0,0.0,0.0,0.0,1.0822895690676251e-09,8.084268997080484e-10,6.024022795768301e-10,4.484413338034879e-10,3.3274295567176724e-10,2.467229410418442e-10,1.8128649153377308e-10,1.3032181567144302e-10,9.073184570646993e-11,6.078807657418056e-11,3.912217151437743e-11,2.4108594048932555e-11,1.4221669616670468e-11,8.031647756208515e-12,4.34083235513087e-12,2.2478699189950134e-12,1.1131722289004616e-12,6.720300620087472e-09,6.043206707086906e-09,5.278251798918051e-09,4.447544102641275e-09,3.700402309074579e-09,3.052742671632524e-09,2.524517505499795e-09,2.0598148814445568e-09,1.6613005097331768e-09,1.3194594287323478e-09,1.0311741655666327e-09,7.968710852437952e-10,6.043616305554548e-10,4.514176564279665e-10,3.344421912490171e-10,2.4499419439465436e-10,1.7759081451700052e-10,1.2643043525346928e-10,8.753935931171163e-11,5.8141647931052655e-11,3.692043104061472e-11
0.0,46,46.0,0.0,30.0,0.0,0.0,0.0,0.0,-13.0,0.0,2.0,0.0,0.0,0.0,1.0823348198741861e-09,8.085895454846034e-10,6.028545910721827e-10,4.4927518699151676e-10,3.3383856139089934e-10,2.4780058938080243e-10,1.820985056692901e-10,1.3077528235360603e-10,9.087798239708728e-11,6.074164858410873e-11,3.8991312489262844e-11,2.3963243976246348e-11,1.4097280346940022e-11,7.939789167523623e-12,4.279584667782836e-12,2.210474999936585e-12,1.091916913960573e-12,6.720109178543879e-09,6.043018347926892e-09,5.278067970629315e-09,4.447367537991359e-09,3.7002356402078466e-09,3.0525868455449727e-09,2.5243731341331826e-09,2.05968773770173e-09,1.6611971003151727e-09,1.3193795659213411e-09,1.0311262306154899e-09,7.969173561762955e-10,6.046409152646186e-10,4.5206447212718893e-10,3.354595727475048e-10,2.462146440914975e-10,1.7875537143026674e-10,1.273356413366955e-10,8.810759924977394e-11,5.842388783021212e-11,3.702374700845666e-11
0.0,47,47.0,0.0,30.0,0.0,0.0,0.0,0.0,-13.0,0.0,2.0,0.0,0.0,0.0,1.0823873456624227e-09,8.087813328550822e-10,6.033680334275619e-10,4.5018951118105123e-10,3.350055057027623e-10,2.489193892512652e-10,1.8292014456016716e-10,1.3121874247331e-10,9.100762014629135e-11,6.067996712994311e-11,3.8849132241700194e-11,2.381050680873575e-11,1.3968526855620544e-11,7.845633354221051e-12,4.2172618001089015e-12,2.172645792737e-12,1.0705263130209462e-12,6.719936327971584e-09,6.042848592526222e-09,5.2779028150193324e-09,4.447209834520434e-09,3.700087943832844e-09,3.0524498695997345e-09,2.5242477314809902e-09,2.0595802499030488e-09,1.6611136097909175e-09,1.3193190802376531e-09,1.0311010855969947e-09,7.97001532000106e-10,6.049857443554845e-10,4.528031688755404e-10,3.3657578213755217e-10,2.4751600931730416e-10,1.7996867076677543e-10,1.2825919986408038e-10,8.86746085204112e-11,5.869894922827346e-11,3.711881609792567e-11
0.0,48,48.0,0.0,30.0,0.0,0.0,0.0,0.0,-13.0,0.0,2.0,0.0,0.0,0.0,1.082449042661331e-09,8.090072566713437e-10,6.03949630075859e-10,4.5119010794866497e-10,3.3624608442583696e-10,2.500785550074762e-10,1.837493789289796e-10,1.3165035355455604e-10,9.111956970841281e-11,6.060237709215032e-11,3.86952949127753e-11,2.3650231641326456e-11,1.3835357906561316e-11,7.749176156138062e-12,4.153875539602579e-12,2.1343942361690427e-12,1.0490088667595019e-12,6.719783569770233e-09,6.042698934722616e-09,5.27775782604605e-09,4.447072479669451e-09,3.699960656350832e-09,3.0523331299156963e-09,2.5241427184815777e-09,2.0594938581026434e-09,1.661051307433218e-09,1.3192792435548808e-09,1.0311011756804634e-09,7.971286436243145e-10,6.054036930976152e-10,4.536416444819003e-10,3.377963019092331e-10,2.4890022384041185e-10,1.8122999298728713e-10,1.2919938311516842e-10,8.923887237176364e-11,5.896595372334738e-11,3.720508528182202e-11
0.0,49,49.0,0.0,30.0,0.0,0.0,0.0,0.0,-13.0,0.0,2.0,0.0,0.0,0.0,1.0825222294897389e-09,8.092730151324396e-10,6.046069909705305e-10,4.5228293213266935e-10,3.375623864656265e-10,2.5127701554778705e-10,1.8458399293742084e-10,1.3206819422074423e-10,9.121261604493718e-11,6.050821410732475e-11,3.852946109087619e-11,2.348226826074101e-11,1.3697724966129232e-11,7.650415832768233e-12,4.089439257677809e-12,2.095733104972161e-12,1.0273734119838099e-12,6.7196524447068034e-09,6.042570908650727e-09,5.27763453935375e-09,4.446956999237614e-09,3.6998552452123975e-09,3.0522380484825086e-09,2.5240595642351686e-09,2.059430036436743e-09,1.6610114712778234e-09,1.3192614246474396e-09,1.0311293290227498e-09,7.973044172034815e-10,6.059030764821771e-10,4.545882268697651e-10,3.3912662013996106e-10,2.5036896907127133e-10,1.825383475623556e-10,1.3015429470621984e-10,8.97988155896933e-11,5.922399258603432e-11,3.728199151481425e-11
0.0,50,50.0,0.0,30.0,0.0,0.0,0.0,0.0,-13.0,0.0,2.0,0.0,0.0,0.0,1.0826097232529387e-09,8.095850831462445e-10,6.053483285993455e-10,4.5347405677316096e-10,3.3895625265494813e-10,2.525133941682514e-10,1.8542158126048372e-10,1.324702658268001e-10,9.128551878674488e-11,6.039680436716836e-11,3.8351287934590805e-11,2.330646752021435e-11,1.3555582533420598e-11,7.549353232823036e-12,4.023967975789162e-12,2.056676035005971e-12,1.0056291868659822e-12,6.71954453214877e-09,6.042466088312899e-09,5.277534531776645e-09,4.446864955855767e-09,3.6997732074693372e-09,3.052166084384884e-09,2.523999787237965e-09,2.0593902890060653e-09,1.6609953876015723e-09,1.3192671203352666e-09,1.0311888327992042e-09,7.975353618928086e-10,6.064929958720057e-10,4.55651661205848e-10,3.4057218658459744e-10,2.5192363674881337e-10,1.838924569891586e-10,1.3112186807417124e-10,9.035280499169972e-11,5.94721251602772e-11,3.734896208140057e-11
0.0,51,51.0,0.0,30.0,0.0,0.0,0.0,0.0,-13.0,0.0,2.0,0.0,0.0,0.0,1.0827149262137269e-09,8.099507890214198e-10,6.061824685309931e-10,4.5476963135215914e-10,3.404292319874905e-10,2.53785988904188e-10,1.8625954697907723e-10,1.3285449424074565e-10,9.133701255407557e-11,6.026746437673604e-11,3.816042935509055e-11,2.3122681763908188e-11,1.3408888488973657e-11,7.445991969021486e-12,3.9574784327720704e-12,2.0172375485531248e-12,9.83785835562026e-13,6.7194614494669685e-09,6.042386087328655e-09,5.277459420884409e-09,4.446797947352699e-09,3.6997160685678763e-09,3.0521187356134854e-09,2.523964956428305e-09,2.0593761449585215e-09,1.661004352743932e-09,1.3192979957234388e-09,1.0312835216014158e-09,7.978288646365376e-10,6.071833832386966e-10,4.568410896410604e-10,3.4213836315319146e-10,2.535652901198923e-10,1.8529074157136288e-10,1.3209986576982172e-10,9.089915193186608e-11,5.970937706778935e-11,3.7405414927274707e-11
0.0,52,52.0,0.0,30.0,0.0,0.0,0.0,0.0,-13.0,0.0,2.0,0.0,0.0,0.0,1.0828419239303564e-09,8.103783937574666e-10,6.071188532685338e-10,4.561758328590938e-10,3.4198253544012426e-10,2.5509275359091133e-10,1.870951003181089e-10,1.332187317212071e-10,9.136580711437505e-11,6.011950068331475e-11,3.7956536269456205e-11,2.2930765304018234e-11,1.325760446174224e-11,7.340338598086139e-12,3.8899891534508295e-12,1.977433079645338e-12,9.618534121248455e-13,6.71940485165291e-09,6.042332558889782e-09,5.27741086456044e-09,4.446757605025388e-09,3.699685381493974e-09,3.052097541511214e-09,2.5239566918711963e-09,2.0593891528119045e-09,1.6610396783162136e-09,1.3193559354293347e-09,1.0314178794941797e-09,7.981932916714473e-10,6.079850416677381e-10,4.5816602266331833e-10,3.4383036860949836e-10,2.5529462387472353e-10,1.8673130515729538e-10,1.3308587956789398e-10,9.143611472446686e-11,5.99347382340913e-11,3.7450758964195244e-11
0.0,53,53.0,0.0,30.0,0.0,0.0,0.0,0.0,-13.0,0.0,2.0,0.0,0.0,0.0,1.0829955957024976e-09,8.108771719656031e-10,6.081675380658487e-10,4.5769880925025415e-10,3.4361698764254547e-10,2.5643127988399684e-10,1.8792525823992545e-10,1.3356075882941347e-10,9.137058736114532e-11,5.995220959043969e-11,3.77392569368608e-11,2.273057495331427e-11,1.3101696214031905e-11,7.2324028059463726e-12,3.821520518553992e-12,1.937278999265937e-12,9.39842383622492e-13,6.7193764311937085e-09,6.042307195940148e-09,5.277390560593968e-09,4.4467455918317974e-09,3.699682726397499e-09,3.0521040858771445e-09,2.5239766648655945e-09,2.059430874150998e-09,1.6611027011366396e-09,1.3194431079628588e-09,1.031597157010913e-09,7.986380961812125e-10,6.089096806023894e-10,4.5963630103014275e-10,3.4565321739340703e-10,2.57111923151821e-10,1.88211922031052e-10,1.3407733138194947e-10,9.196190088254912e-11,6.014716076396473e-11,3.748439433676724e-11
0.0,54,54.0,0.0,30.0,0.0,0.0,0.0,0.0,-13.0,0.0,2.0,0.0,0.0,0.0,1.0831817380744524e-09,8.114574931840746e-10,6.093391772510953e-10,4.5934461493137014e-10,3.4533297672014096e-10,2.577987804839745e-10,1.887468448829384e-10,1.3387828630688658e-10,9.135001310093059e-11,5.976487687485804e-11,3.7508237389837594e-11,2.252197061557301e-11,1.2941134044070713e-11,7.1221975981729155e-12,3.752094835961797e-12,1.8967926402591053e-12,9.177636323757767e-13,6.719377918243679e-09,6.042311731588282e-09,5.277400246256267e-09,4.446763600536388e-09,3.6997097108389402e-09,3.0521400007122726e-09,2.5240265972174254e-09,2.0595028769711047e-09,1.6611947995844003e-09,1.3195620457133207e-09,1.0318275043085946e-09,7.991739312413082e-10,6.099699440756343e-10,4.612620472346079e-10,3.476116525546878e-10,2.590170219770406e-10,1.8973002514505375e-10,1.3507147494941536e-10,9.247466905756998e-11,6.034555670497185e-11,3.7505712637828735e-11
0.0,55,55.0,0.0,30.0,0.0,0.0,0.0,0.0,-13.0,0.0,2.0,0.0,0.0,0.0,1.0834072020027457e-09,8.121309020468102e-10,6.106449994993433e-10,4.6111913797256724e-10,3.4713040270648936e-10,2.5919207380908197e-10,1.895564928122416e-10,1.3416895684356626e-10,9.130271864072857e-11,5.955677752767537e-11,3.7263121972994745e-11,2.230481593605944e-11,1.2775893205878943e-11,7.009739495688602e-12,3.681736413286174e-12,1.8559923217530626e-12,8.956284572325639e-13,6.719411081126295e-09,6.0423479397471125e-09,5.277441697819777e-09,4.446813351853543e-09,3.6997679708149948e-09,3.052206970538881e-09,2.5241082593865595e-09,2.059606729133461e-09,1.6613174184881462e-09,1.3197157432913276e-09,1.0321161215882873e-09,7.998127668447715e-10,6.111794299514338e-10,4.6305360546506183e-10,3.4971007288467273e-10,2.6100926155161337e-10,1.9128269587013848e-10,1.3606539822627484e-10,9.297253055765972e-11,6.052879574939925e-11,3.7514097057313265e-11
0.0,56,56.0,0.0,30.0,0.0,0.0,0.0,0.0,-13.0,0.0,2.0,0.0,0.0,0.0,1.0836800440925467e-09,8.129101954242243e-10,6.120967704103203e-10,4.6302801886626984e-10,3.4900862499413823e-10,2.606075703515187e-10,1.903506450232397e-10,1.3443034665597775e-10,9.122731217447199e-11,5.932717554439907e-11,3.700355400148866e-11,2.207897901389433e-11,1.2605954346133339e-11,6.89504873581678e-12,3.610471631750647e-12,1.81489737288108e-12,8.734485738002895e-13,6.719477727189829e-09,6.042417635976813e-09,5.277516729967977e-09,4.446896592655912e-09,3.6998591727287976e-09,3.052306737157393e-09,2.524223467194692e-09,2.0597439926627965e-09,1.6614721051624947e-09,1.319907777267428e-09,1.03247142770108e-09,8.00568009391329e-10,6.125526979662868e-10,4.6502146905197595e-10,3.519524544468997e-10,2.630874488515627e-10,1.9286665541941398e-10,1.3705602640251974e-10,9.345355031589555e-11,6.069570293716701e-11,3.7508922447825786e-11
0.0,57,57.0,0.0,30.0,0.0,0.0,0.0,0.0,-13.0,0.0,2.0,0.0,0.0,0.0,1.0840096920320655e-09,8.138094942803824e-10,6.137067406830275e-10,4.650765607630229e-10,3.5096640936427247e-10,2.6204126093628665e-10,1.9112555761103077e-10,1.346599667916713e-10,9.112237497482078e-11,5.907532379203886e-11,3.67291765513086e-11,2.184433317783312e-11,1.2431303957780263e-11,6.7781494787356545e-12,3.5383290212922653e-12,1.7735281555597775e-12,8.512361135613458e-13,6.719579704027998e-09,6.0425226784856625e-09,5.277627195034154e-09,4.447015094341183e-09,3.699985016471117e-09,3.052441104619101e-09,2.5243740767840566e-09,2.0599162199716965e-09,1.6616605597851829e-09,1.3201424506266759e-09,1.0329032475867527e-09,8.014546215548377e-10,6.141052641367738e-10,4.671761944590876e-10,3.543422668370679e-10,2.652498160436569e-10,1.9447825807397885e-10,1.3804012541867469e-10,9.391574717700951e-11,6.084505643452959e-11,3.748955528879779e-11
0.0,58,58.0,0.0,30.0,0.0,0.0,0.0,0.0,-13.0,0.0,2.0,0.0,0.0,0.0,1.0844071239933786e-09,8.148443075842679e-10,6.154875781439524e-10,4.67269631268882e-10,3.53001875205229e-10,2.6348870707597116e-10,1.9187730298798503e-10,1.3485526407502088e-10,9.098646040533787e-11,5.880046398475883e-11,3.643963339296058e-11,2.1600757826679783e-11,1.2251934850251718e-11,6.65907001940727e-12,3.465339336752731e-12,1.7319060860612538e-12,8.290036218020482e-13,6.719718901057549e-09,6.042664969216997e-09,5.2777749820003054e-09,4.447170651484895e-09,3.7001472397674853e-09,3.0526119440893314e-09,2.5245619775587054e-09,2.0601249535619105e-09,1.6618847039726822e-09,1.3204249655032825e-09,1.0334230188159668e-09,8.024892399141577e-10,6.158535788862191e-10,4.695283009760019e-10,3.5688238464601094e-10,2.6749398125834263e-10,1.9611348630133385e-10,1.3901430583113254e-10,9.435709337192905e-11,6.097558547513774e-11,3.745535353033184e-11
0.0,59,59.0,0.0,30.0,0.0,0.0,0.0,0.0,-13.0,0.0,2.0,0.0,0.0,0.0,1.084885061308737e-09,8.160315851795449e-10,6.17452281888082e-10,4.69611556061627e-10,3.5511244359344576e-10,2.649450335785564e-10,1.9260177350032096e-10,1.3501362161110232e-10,9.081809277815828e-11,5.850182680269174e-11,3.613457007947199e-11,2.134813933529643e-11,1.2067846636262258e-11,6.5378430050266114e-12,3.3915356349574074e-12,1.6900536550951035e-12,8.067640542881155e-13,6.719897251421421e-09,6.042846454921062e-09,5.2779620151857875e-09,4.4473650809474445e-09,3.7003476239182273e-09,3.0528211981560227e-09,2.5247890829407284e-09,2.060371731354004e-09,1.6621467721639512e-09,1.3207616279486193e-09,1.0340440170077703e-09,8.036902871421931e-10,6.178149860542938e-10,4.720881554107267e-10,3.5957499475511065e-10,2.6981691128508024e-10,1.977679478101023e-10,1.3997502684058022e-10,9.477551305548876e-11,6.108596856050121e-11,3.7405666298028337e-11
0.0,60,60.0,0.0,30.0,0.0,0.0,0.0,0.0,-13.0,0.0,2.0,0.0,0.0,0.0,1.0854581731588458e-09,8.173897560637816e-10,6.196140768408564e-10,4.721060047816411e-10,3.5729478696493314e-10,2.6640492351752784e-10,1.932946852623279e-10,1.3513235876925525e-10,9.061576609340122e-11,5.8178632191337886e-11,3.581363519877104e-11,2.108637202694465e-11,1.1879046235327676e-11,6.414505658003276e-12,3.31695335240189e-12,1.6479944460953988e-12,7.845307726251798e-13,6.720116734155773e-09,6.0430691280779465e-09,5.278190252561533e-09,4.447600221649718e-09,3.700588001005636e-09,3.053070884005544e-09,2.5250573189592364e-09,2.060658100561115e-09,1.662449431258148e-09,1.3211600885911727e-09,1.034781599253172e-09,8.050780748998883e-10,6.200076597992203e-10,4.748658412683157e-10,3.624215002589814e-10,2.722148867669236e-10,1.994368745271589e-10,1.4091860026445167e-10,9.516887979432183e-11,6.117483202525038e-11,3.733983344167103e-11
0.0,61,61.0,0.0,30.0,0.0,0.0,0.0,0.0,-13.0,0.0,2.0,0.0,0.0,0.0,1.0861432913107892e-09,8.189387480651616e-10,6.219862871543244e-10,4.747558698753937e-10,3.595447811463389e-10,2.678626156132807e-10,1.9395158199545615e-10,1.352087305766714e-10,9.037794270867554e-11,5.7830089881345726e-11,3.54764817994725e-11,2.0815359212548316e-11,1.168554839432566e-11,6.2891000044225485e-12,3.2416303831737856e-12,1.6057531513918205e-12,7.623175382449795e-13,6.720379376520102e-09,6.043335027502318e-09,5.278461683641419e-09,4.447877935281999e-09,3.7008702625597445e-09,3.053363094751501e-09,2.5253686109948408e-09,2.0609856439803997e-09,1.6627959348631e-09,1.3216296230329114e-09,1.0356534638721823e-09,8.066748928835395e-10,6.224505162976317e-10,4.778710121404397e-10,3.654224219815489e-10,2.746834704651598e-10,2.0111512341518827e-10,1.4184119420256108e-10,9.553501291031371e-11,6.124074907776546e-11,3.7257184914199475e-11
0.0,62,62.0,0.0,30.0,0.0,0.0,0.0,0.0,-13.0,0.0,2.0,0.0,0.0,0.0,1.0869596321044934e-09,8.206999844455557e-10,6.245821870224223e-10,4.775631393129395e-10,3.618574605376391e-10,2.6931190400169255e-10,1.945678386300672e-10,1.352399264653495e-10,9.010305199988343e-11,5.745540017034958e-11,3.512276899794284e-11,2.053501429738806e-11,1.148737622561483e-11,6.1616731078461935e-12,3.1656071566351415e-12,1.5633555859307174e-12,7.401385049598891e-13,6.7206872563434205e-09,6.043646238426858e-09,5.278778326934145e-09,4.448200108262254e-09,3.701196369551987e-09,3.053699998075848e-09,2.5257248694691244e-09,2.0613560237578923e-09,1.6631903194798243e-09,1.3221814556510363e-09,1.0366799238469176e-09,8.085050787361275e-10,6.251630971082525e-10,4.81112729323908e-10,3.6857729872374226e-10,2.7721747913783776e-10,2.0279717897033918e-10,1.4273883611639e-10,9.587167261077942e-11,6.128223942774255e-11,3.7157039973504385e-11
0.0,63,63.0,0.0,30.0,0.0,0.0,0.0,0.0,-13.0,0.0,2.0,0.0,0.0,0.0,1.0879290218974712e-09,8.226963525215562e-10,6.274148277488031e-10,4.805287643611329e-10,3.6422697723789637e-10,2.707461402795979e-10,1.9513866440200377e-10,1.352230683335128e-10,8.978948908784542e-11,5.7053755009796587e-11,3.475216377328741e-11,2.0245261955760006e-11,1.128456176342603e-11,6.032277308189413e-12,3.0889267142800337e-12,1.5208286982023256e-12,7.180082100292022e-13,6.7210425041848545e-09,6.044004891830972e-09,5.2791422269875495e-09,4.448568655304594e-09,3.7015683634162537e-09,3.0540838312499768e-09,2.526127975953317e-09,2.0617710491210825e-09,1.6636376509457978e-09,1.3228291300855488e-09,1.0378841900891074e-09,8.105950627731489e-10,6.28165421111063e-10,4.845992840364412e-10,3.718845875470409e-10,2.798109595236021e-10,2.0447715715187463e-10,1.4360741501901538e-10,9.617655387038201e-11,6.129776960782203e-11,3.703870620897671e-11
