Line_number,Fiducial,Easting,Northing,Height,Elevation,tx_pitch,tx_roll,tx_yaw,txrx_dx,txrx_dy,txrx_dz,rx_pitch,rx_roll,rx_yaw,S0Z_time_7.292e-05,S0Z_time_7.642e-05,S0Z_time_8.092e-05,S0Z_time_8.642e-05,S0Z_time_9.341e-05,S0Z_time_1.024e-04,S0Z_time_1.139e-04,S0Z_time_1.284e-04,S0Z_time_1.464e-04,S0Z_time_1.689e-04,S0Z_time_1.969e-04,S0Z_time_2.324e-04,S0Z_time_2.779e-04,S0Z_time_3.349e-04,S0Z_time_4.069e-04,S0Z_time_4.979e-04,S0Z_time_6.119e-04,S0Z_time_7.559e-04,S0Z_time_9.373e-04,S0Z_time_1.166e-03,S0Z_time_1.454e-03,S0Z_time_1.818e-03,S0Z_time_2.276e-03,S0Z_time_2.855e-03,S0Z_time_3.574e-03,S0Z_time_4.454e-03,S0Z_time_5.530e-03,S0Z_time_6.849e-03,S0Z_time_8.463e-03,S0Z_time_1.044e-02,S1Z_time_1.273e-05,S1Z_time_1.623e-05,S1Z_time_2.073e-05,S1Z_time_2.623e-05,S1Z_time_3.323e-05,S1Z_time_4.222e-05,S1Z_time_5.373e-05,S1Z_time_6.822e-05,S1Z_time_8.622e-05,S1Z_time_1.087e-04,S1Z_time_1.367e-04,S1Z_time_1.722e-04,S1Z_time_2.177e-04,S1Z_time_2.747e-04,S1Z_time_3.467e-04,S1Z_time_4.377e-04,S1Z_time_5.517e-04,S1Z_time_6.957e-04,S1Z_time_8.772e-04,S1Z_time_1.106e-03,S1Z_time_1.394e-03
0.0,0,0.0,0.0,30.0,0.0,0.0,0.0,0.0,-13.0,0.0,2.0,0.0,0.0,0.0,2.949680716520436e-10,2.744881755780241e-10,2.422789477349667e-10,2.1081947675445294e-10,1.8513666656275322e-10,1.5776922705652377e-10,1.3327451133224433e-10,1.1044770714659688e-10,9.04246129806431e-11,7.292148399901252e-11,5.674838271450061e-11,4.320908205486163e-11,3.1583010197302604e-11,2.2383125791984332e-11,1.5478835658948116e-11,1.0317313584196023e-11,6.694172884363358e-12,4.228271233803334e-12,2.5988524492385025e-12,1.5756088418217434e-12,9.29961884156615e-13,5.387267821028206e-13,3.051080477250809e-13,1.710030402134744e-13,9.44809646100401e-14,5.1310316903519406e-14,2.7981198530808928e-14,1.5184450412502077e-14,8.141785517461811e-15,4.473498451662277e-15,7.273808820524023e-09,3.8887043538039614e-09,2.044604440441952e-09,1.1146018224127577e-09,6.35288209684729e-10,3.8208504223102083e-10,2.5011404446805535e-10,1.7480811568212701e-10,1.2736860503029064e-10,9.339545417879967e-11,6.781523628098829e-11,4.786500128957831e-11,3.254677157746435e-11,2.1416891426547067e-11,1.3598831036780365e-11,8.318838488974695e-12,4.916530611327346e-12,2.810459533669539e-12,1.5500386533860745e-12,8.311181433302514e-13,4.3380764196702027e-13
0.0,1,1.0,0.0,30.0,0.0,0.0,0.0,0.0,-13.0,0.0,2.0,0.0,0.0,0.0,2.9243233619159534e-10,2.718196385420895e-10,2.3943486304113113e-10,2.0780331201261323e-10,1.820788497360211e-10,1.5486672430643932e-10,1.30817416143915e-10,1.086518090864726e-10,8.940915747898015e-11,7.263485539442186e-11,5.7044034218491836e-11,4.387129368485526e-11,3.241099267956544e-11,2.3208126557754074e-11,1.6201204074002767e-11,1.088932368369534e-11,7.113856171634401e-12,4.515405796729834e-12,2.7847668991703103e-12,1.6903563720947404e-12,9.97575009912955e-13,5.7712172450081e-13,3.2606117632303323e-13,1.8215891385091638e-13,1.0025608544400823e-13,5.4270317137996705e-14,2.946588500485164e-14,1.5945257797627737e-14,8.515388807866993e-15,4.63403793255389e-15,7.2556438171954235e-09,3.8715574816822394e-09,2.0333613066151144e-09,1.1091658473972203e-09,6.33041969694196e-10,3.802385792583161e-10,2.472619563716859e-10,1.7126430626693762e-10,1.2414604869755332e-10,9.118110743858592e-11,6.671555686462658e-11,4.762797633778872e-11,3.281131599623373e-11,2.1877536636775393e-11,1.4065406817901354e-11,8.700061195951658e-12,5.191212205312266e-12,2.9893998124542814e-12,1.657724070115025e-12,8.921943759791814e-13,4.657566141708947e-13
0.0,2,2.0,0.0,30.0,0.0,0.0,0.0,0.0,-13.0,0.0,2.0,0.0,0.0,0.0,2.916518477534893e-10,2.7091505745679066e-10,2.38317068768988e-10,2.0637805267485132e-10,1.8037018767727168e-10,1.5298259801299223e-10,1.2894793472349524e-10,1.0704275387826457e-10,8.826870755987134e-11,7.204295323572955e-11,5.697006032494606e-11,4.4184683316438116e-11,3.29553586590231e-11,2.3827149694894372e-11,1.6788087926327675e-11,1.1380798892900339e-11,7.49064758268341e-12,4.782183502437185e-12,2.9625160908922495e-12,1.8024976483597934e-12,1.064889250353086e-12,6.158715274582337e-13,3.474373480579475e-13,1.9362310337882337e-13,1.0622007249733273e-13,5.734328314349273e-14,3.100635802761873e-14,1.6735030283973188e-14,8.898970224321604e-15,4.8021323254034276e-15,7.236732076916882e-09,3.854021455440219e-09,2.022053860513997e-09,1.1039989651895606e-09,6.317023314249292e-10,3.8009803055946637e-10,2.464769116097747e-10,1.6943745430139375e-10,1.2188992188948425e-10,8.924179915810666e-11,6.548473604416e-11,4.711197781251475e-11,3.2802202732213606e-11,2.2129245569548664e-11,1.4393636861261827e-11,9.000642575979965e-12,5.423669225805021e-12,3.148501269499255e-12,1.7572906414681904e-12,9.503922785758134e-13,4.969087392479862e-13
0.0,3,3.0,0.0,30.0,0.0,0.0,0.0,0.0,-13.0,0.0,2.0,0.0,0.0,0.0,2.9199329955580826e-10,2.711844036895961e-10,2.3841530053187206e-10,2.0617022254679547e-10,1.7980459265150594e-10,1.5208176531967368e-10,1.2779182575551073e-10,1.0583861774033138e-10,8.724154848660028e-11,7.13525827284608e-11,5.667990002201251e-11,4.425052641232692e-11,3.327541443207672e-11,2.427094870610514e-11,1.7252010572839824e-11,1.179463919220459e-11,7.823146484964738e-12,5.0262934127508925e-12,3.1301174567901574e-12,1.9107237180697563e-12,1.1311580548116635e-12,6.545921971378225e-13,3.6906313371571154e-13,2.0531846653591836e-13,1.1234305101509765e-13,6.051629392795582e-14,3.2599314794065656e-14,1.755152949671698e-14,9.292871349550699e-15,4.979491815417299e-15,7.217047762659398e-09,3.836093340658564e-09,2.010690124434829e-09,1.0989458211574182e-09,6.307232291540361e-10,3.8079419952095425e-10,2.469775186993805e-10,1.6895730933654086e-10,1.206204700271407e-10,8.777998418953618e-11,6.433260262864956e-11,4.6467068012156184e-11,3.260862727855656e-11,2.2218634589504104e-11,1.460479992787951e-11,9.228061908805634e-12,5.615058490309013e-12,3.2869925990812437e-12,1.847715647757271e-12,1.0049608838671994e-12,5.26894488707919e-13
0.0,4,4.0,0.0,30.0,0.0,0.0,0.0,0.0,-13.0,0.0,2.0,0.0,0.0,0.0,2.9301189380742597e-10,2.7218397798740343e-10,2.393043251311693e-10,2.0680882047013544e-10,1.801014063663841e-10,1.519998496193456e-10,1.2732277541691708e-10,1.0512215875233926e-10,8.647017602465745e-11,7.071423525149027e-11,5.62991015168845e-11,4.415775213698511e-11,3.342659487826147e-11,2.4570540723746702e-11,1.7607901675667353e-11,1.2136354541398624e-11,8.11196786898811e-12,5.246649548408431e-12,3.2862056480195522e-12,2.014003344900281e-12,1.19573441741069e-12,6.929297774628082e-13,3.9076811208335995e-13,2.1716692204957074e-13,1.185932557022795e-13,6.377528696605603e-14,3.424069884562749e-14,1.8392441292610712e-14,9.697352560741876e-15,5.167051495694156e-15,7.1965709961921076e-09,3.817769210222035e-09,1.9992830098133472e-09,1.0939930071774826e-09,6.299213800732654e-10,3.8188108136801397e-10,2.4820565664393233e-10,1.6941847864525664e-10,1.202052612934249e-10,8.686414200591063e-11,6.339498219356936e-11,4.581183481580684e-11,3.230773509846008e-11,2.2188699515670845e-11,1.4720482332092684e-11,9.391389067212822e-12,5.768109391838415e-12,3.4050986117539276e-12,1.928479970337488e-12,1.0553776714120188e-12,5.554109768939657e-13
0.0,5,5.0,0.0,30.0,0.0,0.0,0.0,0.0,-13.0,0.0,2.0,0.0,0.0,0.0,2.944287638741458e-10,2.736205481962253e-10,2.4068123542304794e-10,2.07997482411284e-10,1.8099785324464755e-10,1.5253602637203243e-10,1.2743456799642774e-10,1.0488261238925684e-10,8.601708634839616e-11,7.022453926185115e-11,5.592406770107922e-11,4.3982021642600975e-11,3.34593626881263e-11,2.4755700413305336e-11,1.7871468350770006e-11,1.2412880278981018e-11,8.359131575492597e-12,5.443131226167447e-12,3.429958613431058e-12,2.111572660205864e-12,1.2580798653301738e-12,7.305690570864592e-13,4.123903458943114e-13,2.290915862977425e-13,1.2493789937821226e-13,6.710546150500605e-14,3.59257858326425e-14,1.9255396653314054e-14,1.0112513549502476e-14,5.365187548095173e-15,7.175283575689907e-09,3.799049625762444e-09,1.987840314114123e-09,1.089151705590476e-09,6.292533281712356e-10,3.8316326570085283e-10,2.4982056696582053e-10,1.7048239040073332e-10,1.204521403491811e-10,8.646939531040011e-11,6.27413715298773e-11,4.523280731537445e-11,3.196433660457969e-11,2.2078244382121374e-11,1.4761316653399362e-11,9.500173645699232e-12,5.886475305732461e-12,3.5037506620938582e-12,1.999474549431459e-12,1.1013216099352699e-12,5.822323994108092e-13
0.0,6,6.0,0.0,30.0,0.0,0.0,0.0,0.0,-13.0,0.0,2.0,0.0,0.0,0.0,2.9608397504493757e-10,2.7531807137554446e-10,2.4235241077589033e-10,2.0952874866945712e-10,1.8228785937542242e-10,1.5350684268979547e-10,1.279958206575102e-10,1.0505681956564207e-10,8.588646334564553e-11,6.99331206129219e-11,5.562193011013085e-11,4.378454496010897e-11,3.3418416377276906e-11,2.4854334448273784e-11,1.8058333823938634e-11,1.2631800456046569e-11,8.567559836919088e-12,5.616334796735536e-12,3.561011813498355e-12,2.2029110128300904e-12,1.3177643751995007e-12,7.672382425463987e-13,4.337804398116003e-13,2.410186054509105e-13,1.3134399267185608e-13,7.049163397920244e-14,3.764930064600182e-14,2.0137979967117088e-14,1.0538268717015521e-14,5.5739681643538855e-15,7.1531673580543875e-09,3.779938718878994e-09,1.9763697949149558e-09,1.0844318322817852e-09,6.287175381542497e-10,3.8456934440441613e-10,2.516391461601331e-10,1.7190766178677182e-10,1.2117138335395677e-10,8.65190665793063e-11,6.23884861071188e-11,4.478525222225137e-11,3.163016864186282e-11,2.1921592083553157e-11,1.474651437243781e-11,9.563850022811227e-12,5.9742560672739475e-12,3.5843377039784386e-12,2.0609068617179514e-12,1.1426438588234355e-12,6.07210252104429e-13
0.0,7,7.0,0.0,30.0,0.0,0.0,0.0,0.0,-13.0,0.0,2.0,0.0,0.0,0.0,2.9789283693771014e-10,2.7717913401228254e-10,2.442043286329688e-10,2.1127078738116297e-10,1.8382740850178247e-10,1.5476839977963803e-10,1.2888320715500917e-10,1.0556178192547978e-10,8.60467446191854e-11,6.985321245480841e-11,5.5432857691742096e-11,4.361135330159007e-11,3.334182584107164e-11,2.489205094342271e-11,1.818359930488798e-11,1.2800898710203372e-11,8.74070249680589e-12,5.767358025437835e-12,3.679370374636148e-12,2.2877099702000362e-12,1.374460878595128e-12,8.027103477901598e-13,4.548041412536433e-13,2.528786350103451e-13,1.3777908817612435e-13,7.391854856510384e-14,3.9405547083501665e-14,2.1037734280964697e-14,1.0974351321087805e-14,5.793334477615883e-15,7.130204304414742e-09,3.760442470131725e-09,1.9648813858689423e-09,1.0798409284304048e-09,6.283203265577846e-10,3.86079890082193e-10,2.535743423790089e-10,1.7354106345616147e-10,1.2220664122331961e-10,8.691820167141146e-11,6.231699270202597e-11,4.4496686757537124e-11,3.1343362686017634e-11,2.1748109373299634e-11,1.4693668545746504e-11,9.591473935843378e-12,6.0356886009718525e-12,3.6485119723118275e-12,2.1132147477480545e-12,1.1793391464272034e-12,6.30262896380508e-13
0.0,8,8.0,0.0,30.0,0.0,0.0,0.0,0.0,-13.0,0.0,2.0,0.0,0.0,0.0,2.99814061631731e-10,2.7915392210014013e-10,2.4617541622728334e-10,2.1314631280567299e-10,1.8552433324502763e-10,1.5621890920175637e-10,1.2999659935341798e-10,1.0631579406330545e-10,8.644964824126741e-11,6.997353859477684e-11,5.5374636439638385e-11,4.349369513363099e-11,3.326032424177081e-11,2.4891686567747984e-11,1.8261562236434088e-11,1.2927914950468584e-11,8.88228345859133e-12,5.89762882244824e-12,3.78532535086255e-12,2.3658397260845887e-12,1.4279368364289401e-12,8.368022421889365e-13,4.753436816729431e-13,2.6460793045622603e-13,1.4421192040107163e-13,7.737114889989613e-14,4.1188538706014913e-14,2.1952169359705706e-14,1.1420326739257473e-14,6.023149559739822e-15,7.106376893204543e-09,3.74056789180943e-09,1.9533870045384363e-09,1.0753863374577013e-09,6.280674050776669e-10,3.876933291992846e-10,2.5559024312376903e-10,1.752944683063679e-10,1.2344339871421462e-10,8.757543345974855e-11,6.248756162276835e-11,4.4372655899027665e-11,3.1128812056318843e-11,2.1581675941723274e-11,1.461855432160515e-11,9.591609010813339e-12,6.074972277320803e-12,3.6980526037957116e-12,2.1569924923863295e-12,1.2115177685103598e-12,6.513595781444072e-13
0.0,9,9.0,0.0,30.0,0.0,0.0,0.0,0.0,-13.0,0.0,2.0,0.0,0.0,0.0,3.0182950018193515e-10,2.8121914601946314e-10,2.4823485633010596e-10,2.151133156391534e-10,1.8732394689705297e-10,1.577919700573372e-10,1.3126230685765906e-10,1.0724934479314368e-10,8.704363611974176e-11,7.02691171637309e-11,5.5448449004777837e-11,4.34496505437653e-11,3.319705665123347e-11,2.4872836599047114e-11,1.8305457029588054e-11,1.3020397130575352e-11,8.996141206782196e-12,6.008780433811244e-12,3.879379157412274e-12,2.437315717634903e-12,1.4780442184313259e-12,8.693721864978771e-13,4.952981771632748e-13,2.7614905228334125e-13,1.5061291725573235e-13,8.083481398873649e-14,4.299212461310356e-14,2.2878774735673936e-14,1.1875606565931544e-14,6.263124222938828e-15,7.0816684229923e-09,3.7203229060684872e-09,1.941899840991982e-09,1.0710762602183997e-09,6.279633001994219e-10,3.894124251863634e-10,2.5767491957941345e-10,1.7712183776408519e-10,1.2480505656639923e-10,8.841411101510683e-11,6.285360688915591e-11,4.440343485100317e-11,3.099961044456614e-11,2.144037871641013e-11,1.4534877869153839e-11,9.572241890388343e-12,6.0961795181217615e-12,3.734780133814669e-12,2.1929322330085402e-12,1.2393784018124454e-12,6.70504802242137e-13
0.0,10,10.0,0.0,30.0,0.0,0.0,0.0,0.0,-13.0,0.0,2.0,0.0,0.0,0.0,3.039324370544826e-10,2.8336522017134977e-10,2.503686759263559e-10,2.1715074361885165e-10,1.891960855429767e-10,1.5944723105849662e-10,1.3263009125072795e-10,1.0830873496591912e-10,8.778187443477987e-11,7.070963704522744e-11,5.5644671744161906e-11,4.34866056375599e-11,3.316790874436578e-11,2.4851519435047256e-11,1.8327194631775577e-11,1.3085577710185201e-11,9.086128532547246e-12,6.102566876051826e-12,3.962183730633182e-12,2.5022675686353644e-12,1.5247086117294006e-12,9.003164519889796e-13,5.145833975280035e-13,2.8745122988845365e-13,1.5695457389420638e-13,8.429555722704195e-14,4.481010615810677e-14,2.3815037248584454e-14,1.2339463312713929e-14,6.5126833477194845e-15,7.056063169789572e-09,3.699716477776191e-09,1.9304338787072526e-09,1.0669198231060019e-09,6.280121867693275e-10,3.9124009065636076e-10,2.598261666055698e-10,1.790016223586271e-10,1.2624425787011376e-10,8.93757122502584e-11,6.336982567556825e-11,4.4570356945863614e-11,3.0959287221397144e-11,2.1336608249486094e-11,1.4454039000982233e-11,9.540676616798781e-12,6.103205548734055e-12,3.76050793872726e-12,2.221781226437372e-12,1.2631829184405805e-12,6.877267367968509e-13
0.0,11,11.0,0.0,30.0,0.0,0.0,0.0,0.0,-13.0,0.0,2.0,0.0,0.0,0.0,3.06121357517937e-10,2.855891098070171e-10,2.525714629960099e-10,2.1924909730413684e-10,1.9112540135408047e-10,1.6116181434228753e-10,1.3406790056373606e-10,1.0945542802050148e-10,8.86258644807153e-11,7.126507322914e-11,5.5947850390087886e-11,4.360406966306609e-11,3.318234472862904e-11,2.484007184688922e-11,1.8337133702908966e-11,1.3130247185472799e-11,9.156041229698393e-12,6.1808076360840975e-12,4.034492627238431e-12,2.560911918141294e-12,1.5679180179277155e-12,9.2956541432105e-13,5.331311305494e-13,2.984704522800001e-13,1.6321169769590526e-13,8.774018587379391e-14,4.6636341487897955e-14,2.475846125800915e-14,1.2811047968422946e-14,6.770850502999871e-15,7.029546470700043e-09,3.6787587658604424e-09,1.9190037068807506e-09,1.0629268096567199e-09,6.282184453894777e-10,3.9317867234120124e-10,2.620449585206479e-10,1.8092520165004617e-10,1.2773388687866642e-10,9.041874716748261e-11,6.399690592259383e-11,4.485094892473291e-11,3.1004384068369774e-11,2.127757027157433e-11,1.4384990478954246e-11,9.503411016488741e-12,6.099726737578605e-12,3.7770151462512696e-12,2.2443129831844665e-12,1.2832346797226413e-12,7.030705572769865e-13
0.0,12,12.0,0.0,30.0,0.0,0.0,0.0,0.0,-13.0,0.0,2.0,0.0,0.0,0.0,3.0839688179793574e-10,2.878906414404591e-10,2.548418200438166e-10,2.2140479350668672e-10,1.9310488091073e-10,1.6292371628472114e-10,1.3555654813664858e-10,1.1066344397633883e-10,8.954620140459503e-11,7.190886623689568e-11,5.6340462958392756e-11,4.379638007581193e-11,3.3244571934802887e-11,2.4847297396575583e-11,1.8343925823592137e-11,1.3160626673241237e-11,9.209556489283189e-12,6.245349999254236e-12,4.097125929752167e-12,2.6135300029916704e-12,1.60771190517118e-12,9.570793933945541e-13,5.508882783958952e-13,3.0916935626225056e-13,1.6936154579255244e-13,9.115641969074432e-14,4.846483549317131e-14,2.57065895280247e-14,1.3289411445917476e-14,7.03620687760559e-15,7.002104791296896e-09,3.6574612261646102e-09,1.9076244971746797e-09,1.059107403850732e-09,6.285868165312243e-10,3.9523017928932086e-10,2.643329009095631e-10,1.8289010777296652e-10,1.292596920380314e-10,9.151564012748393e-11,6.47033551241514e-11,4.5222578277421115e-11,3.1126952065396116e-11,2.1266107623094036e-11,1.4334243381721739e-11,9.466021331140888e-12,6.089154565305303e-12,3.786028340674205e-12,2.261308703607085e-12,1.2998612760481675e-12,7.165957777938642e-13
0.0,13,13.0,0.0,30.0,0.0,0.0,0.0,0.0,-13.0,0.0,2.0,0.0,0.0,0.0,3.1076038504143723e-10,2.902707497755395e-10,2.571800563549126e-10,2.2361704269097135e-10,1.9513187702833057e-10,1.6472725982033738e-10,1.3708531386023833e-10,1.1191625901804265e-10,9.052173292552178e-11,7.261927540896689e-11,5.6805436189101156e-11,4.405500040753985e-11,3.3354826564525404e-11,2.4878828270117003e-11,1.8354461131289008e-11,1.3182254734157077e-11,9.250172971953773e-12,6.298039664581187e-12,4.150945260112281e-12,2.6604501103815805e-12,1.6441710561321614e-12,9.828444555132327e-13,5.678157620537403e-13,3.1951697187704817e-13,1.7538388087831262e-13,9.45329703760763e-14,5.028981379021115e-14,2.6657023225474622e-14,1.3773528741692443e-14,7.306943429104085e-15,6.9737258036382e-09,3.6358366714024826e-09,1.896312036463181e-09,1.0554720369950463e-09,6.291223449973577e-10,3.9739657463193677e-10,2.666914804321206e-10,1.848964415806999e-10,1.3081499809045604e-10,9.264916792359256e-11,6.546548873801703e-11,4.5664692975880165e-11,3.131668571272387e-11,2.1301680806460663e-11,1.430602324858794e-11,9.433082528225161e-12,6.074585356992103e-12,3.7892042146737455e-12,2.2735451170385245e-12,1.3134018373285944e-12,7.283759123417679e-13
0.0,14,14.0,0.0,30.0,0.0,0.0,0.0,0.0,-13.0,0.0,2.0,0.0,0.0,0.0,3.1321344464252256e-10,2.9273072373457864e-10,2.595871135547401e-10,2.2588624818098387e-10,1.9720585650989605e-10,1.665702108210992e-10,1.3864870850531648e-10,1.1320397764897578e-10,9.153803468290379e-11,7.337954096323763e-11,5.7327594075410914e-11,4.437028074577629e-11,3.351060982200495e-11,2.493762777528979e-11,1.8373917915377892e-11,1.3199904363892237e-11,9.281152617391122e-12,6.34069384402269e-12,4.196835677378108e-12,2.702034381551487e-12,1.6774086282216759e-12,1.0068683655759517e-12,5.838872830883614e-13,3.294883697469769e-13,1.812609685399373e-13,9.785958620408791e-14,5.2105780620333843e-14,2.7607440074102478e-14,1.4262323246028108e-14,7.580991776420469e-15,6.944398481836036e-09,3.613899309259417e-09,1.885082761419547e-09,1.0520313211639771e-09,6.298302703510473e-10,3.9967993087275196e-10,2.691219895384627e-10,1.8694517683402863e-10,1.323972658789613e-10,9.380927207557838e-11,6.626644137676326e-11,4.615992984198343e-11,3.156256175230814e-11,2.1381363452762636e-11,1.4302547954140734e-11,9.40814132597031e-12,6.058752535872657e-12,3.788110046158439e-12,2.281785453048364e-12,1.3241983183557256e-12,7.384989115989e-13
0.0,15,15.0,0.0,30.0,0.0,0.0,0.0,0.0,-13.0,0.0,2.0,0.0,0.0,0.0,3.1575765767439166e-10,2.952719261444282e-10,2.620641183370167e-10,2.2821325448286406e-10,1.9932721427882173e-10,1.6845207676472184e-10,1.402442850903791e-10,1.1452107891276653e-10,9.258576854030853e-11,7.417738175314442e-11,5.789430225966532e-11,4.473267607862028e-11,3.370776180671495e-11,2.5024554791219284e-11,1.8405901021307413e-11,1.3217540228298205e-11,9.305468312205248e-12,6.375074422443461e-12,4.2356915589621875e-12,2.7386690556593924e-12,1.7075626471883137e-12,1.0291768458256543e-12,5.990879888143267e-13,3.3906424190801746e-13,1.8697753340306876e-13,1.0112706794852947e-13,5.390756173062295e-14,2.855561019998481e-14,1.4754688568070087e-14,7.856199798496084e-15,6.9141132128657915e-09,3.5916647741672614e-09,1.8739537781440023e-09,1.0487960299960461e-09,6.307159344728997e-10,4.0208246794106036e-10,2.7162562963997615e-10,1.890374681445856e-10,1.3400603113651383e-10,9.499055417375516e-11,6.709480675789306e-11,4.669442346601611e-11,3.185396998899142e-11,2.1500745957734174e-11,1.432438172419753e-11,9.393745871146958e-12,6.043989373206601e-12,3.784202304944844e-12,2.2867713669277245e-12,1.3325897736695932e-12,7.470672897811287e-13
0.0,16,16.0,0.0,30.0,0.0,0.0,0.0,0.0,-13.0,0.0,2.0,0.0,0.0,0.0,3.183946042176377e-10,2.978957156246176e-10,2.646122269754069e-10,2.305990332968432e-10,2.0149669995361503e-10,1.7037317124539836e-10,1.4187125757751506e-10,1.1586477398120771e-10,9.365921841090539e-11,7.500420612132116e-11,5.849557294042859e-11,4.513349320419756e-11,3.394131828252313e-11,2.5138923038840826e-11,1.8452643361522795e-11,1.3238318599152852e-11,9.325762314455651e-12,6.40286121605627e-12,4.2684043601941585e-12,2.7707571190235653e-12,1.734789950268307e-12,1.0498102535817055e-12,6.13413092480688e-13,3.4823043915943596e-13,1.925206851133038e-13,1.0432726251733195e-13,5.569033412823487e-14,2.9499409502412466e-14,1.5249506142092017e-14,8.130513369614274e-15,6.882861918088175e-09,3.5691501599415085e-09,1.862942866908909e-09,1.0457770969297887e-09,6.317847231438026e-10,4.046065316293758e-10,2.7420361243087397e-10,1.9117443474668137e-10,1.3564176462819466e-10,9.619047551932432e-11,6.794327310842297e-11,4.725761912307315e-11,3.2181397492444566e-11,2.1654684973717862e-11,1.4370817957716584e-11,9.391525346997772e-12,6.032208168906227e-12,3.778805512410027e-12,2.2892147616362017e-12,1.3389085758333857e-12,7.541973807754512e-13
0.0,17,17.0,0.0,30.0,0.0,0.0,0.0,0.0,-13.0,0.0,2.0,0.0,0.0,0.0,3.2112585669287646e-10,3.006034420345835e-10,2.6723259051304934e-10,2.3304457580184915e-10,2.0371517025616547e-10,1.7233413821561493e-10,1.4352968331520754e-10,1.1723388945670392e-10,9.475511774274506e-11,7.58542735270186e-11,5.912385209102388e-11,4.556526968835616e-11,3.420614077581335e-11,2.5279007467618074e-11,1.8515242010766522e-11,1.3264625956328501e-11,9.344319104676862e-12,6.425626719256103e-12,4.295851056283425e-12,2.798712416068562e-12,1.7592614306484952e-12,1.0688207370166518e-12,6.26866503690223e-13,3.569774834801891e-13,1.9787982041798326e-13,1.0745304007882773e-13,5.744964498678754e-14,3.043683052224715e-14,1.5745658145192205e-14,8.402132132858788e-15,6.850638182127626e-09,3.5463740551347254e-09,1.852068476854978e-09,1.042985614853268e-09,6.330420356122311e-10,4.0725455473906183e-10,2.768572166791578e-10,1.9335713734983238e-10,1.3730529584568696e-10,9.740815129932509e-11,6.8807438993838e-11,4.7841827364846596e-11,3.253676156845719e-11,2.1837875529233562e-11,1.4440251121027088e-11,9.402306431134551e-12,6.024898512947122e-12,3.773093939501871e-12,2.2897893313806233e-12,1.3434776934807466e-12,7.600175886020545e-13
0.0,18,18.0,0.0,30.0,0.0,0.0,0.0,0.0,-13.0,0.0,2.0,0.0,0.0,0.0,3.2395299631449795e-10,3.0339646081318746e-10,2.6992636089572957e-10,2.355508710760199e-10,2.0598350051644417e-10,1.7433573305589864e-10,1.4522001027738115e-10,1.1862815248708792e-10,9.58717788135966e-11,7.672393596908953e-11,5.977365337592026e-11,4.60218917767859e-11,3.4497340063544816e-11,2.5442470299449863e-11,1.859390302884655e-11,1.3298148045674502e-11,9.363054285980602e-12,6.44481413559693e-12,4.318882852993239e-12,2.8229544975790746e-12,1.7811583358624151e-12,1.0862698748533383e-12,6.394595211673192e-13,3.65300072022009e-13,2.030465049676628e-13,1.1049825930549348e-13,5.918142197158203e-14,3.136599082343194e-14,1.6242036363373717e-14,8.669619118289396e-15,6.817437387536658e-09,3.5233565806941937e-09,1.8413497151983037e-09,1.0404328311036433e-09,6.344932710111188e-10,4.1002902199128823e-10,2.7958780640503835e-10,1.955866131333754e-10,1.3899755405234927e-10,9.864359212459047e-11,6.968487501997349e-11,4.844168546434927e-11,3.291349239893033e-11,2.204525091839032e-11,1.4530509681632962e-11,9.42625130538847e-12,6.023144118272562e-12,3.768078304889275e-12,2.2891222028045707e-12,1.346608409022456e-12,7.646657768013081e-13
0.0,19,19.0,0.0,30.0,0.0,0.0,0.0,0.0,-13.0,0.0,2.0,0.0,0.0,0.0,3.268776249445786e-10,3.062761466767754e-10,2.726947051621517e-10,2.381189136727085e-10,2.0830256549038448e-10,1.763787363849887e-10,1.469428450674407e-10,1.2004775883649596e-10,9.700848386727219e-11,7.76110139465406e-11,6.044114821558055e-11,4.6498545005528275e-11,3.481052854720024e-11,2.5626696378061327e-11,1.8688174785569306e-11,1.3339959385325874e-11,9.383519118178514e-12,6.461720253796713e-12,4.338314295719995e-12,2.843903744961094e-12,1.8006693396077187e-12,1.1022267617549677e-12,6.512096300705066e-13,3.7319658791872774e-13,2.0801433763262177e-13,1.1345772413560646e-13,6.088197696791316e-14,3.228513891963087e-14,1.6737548312609203e-14,8.931956610107586e-15,6.7832568547636565e-09,3.500119428888583e-09,1.8308063338924597e-09,1.0381301370282515e-09,6.361438225639754e-10,4.1293244539853177e-10,2.823968267067602e-10,1.9786391381724305e-10,1.4071947259268986e-10,9.98972555439524e-11,7.057442846380594e-11,4.9053627693374295e-11,3.330645513275832e-11,2.2272232620311695e-11,1.4639134074927947e-11,9.463002762200853e-12,6.027655378556715e-12,3.7645987870785e-12,2.2877862888150958e-12,1.3485981266541719e-12,7.682860840523383e-13
0.0,20,20.0,0.0,30.0,0.0,0.0,0.0,0.0,-13.0,0.0,2.0,0.0,0.0,0.0,3.2990137113993907e-10,3.092439020792786e-10,2.7553881674387825e-10,2.4074971645232447e-10,2.1067324510152625e-10,1.7846393007531407e-10,1.486988459174215e-10,1.2149312748753246e-10,9.816508126993697e-11,7.851431661931936e-11,6.11237767980588e-11,4.6991571179643234e-11,3.514194182047121e-11,2.58290398995742e-11,1.879715612062619e-11,1.3390623302880117e-11,9.406918691935283e-12,6.477484162187463e-12,4.354913197349051e-12,2.861976553862638e-12,1.817988125218431e-12,1.1167664714361053e-12,6.621394317787081e-13,3.806686315332451e-13,2.127788004580701e-13,1.1632713443270055e-13,6.25480047853928e-14,3.319265780404418e-14,1.7231122104638483e-14,9.188550977358869e-15,6.748095987274251e-09,3.4766859024423176e-09,1.8204587151672804e-09,1.0360890533624586e-09,6.379990741113112e-10,4.159673497302174e-10,2.8528579062924e-10,2.0019013025895328e-10,1.4247196783832372e-10,1.0116979813067892e-10,7.147573543767367e-11,4.9675418447095724e-11,3.371178274823841e-11,2.2514860281079144e-11,1.4763593894722994e-11,9.511824593151062e-12,6.038813482606139e-12,3.763324739086763e-12,2.28629397432918e-12,1.3497281448800255e-12,7.710254916010327e-13
0.0,21,21.0,0.0,30.0,0.0,0.0,0.0,0.0,-13.0,0.0,2.0,0.0,0.0,0.0,3.3302589226891747e-10,3.1230116114091625e-10,2.7845992201332255e-10,2.4344432061579233e-10,2.1309643549670713e-10,1.8059209834321383e-10,1.5048868133461914e-10,1.2296477107130424e-10,9.934173091816789e-11,7.943329215491744e-11,6.18199124214944e-11,4.749828459567866e-11,3.548846771913689e-11,2.6046992340765333e-11,1.89196718111086e-11,1.345029389976488e-11,9.434140783252154e-12,6.4930821362951695e-12,4.369391886120753e-12,2.8775805513872997e-12,1.8333112699172723e-12,1.1299688153140402e-12,6.722757186321029e-13,3.877205833572362e-13,2.1733709816154073e-13,1.1910303221572665e-13,6.417657798646471e-14,3.408706618974816e-14,1.7721711340307445e-14,9.43919595550411e-15,6.711956421677388e-09,3.45308095296808e-09,1.8103278563398001e-09,1.0343212130213473e-09,6.400643964079043e-10,4.1913626533234346e-10,2.8825626505298025e-10,2.0256640297489019e-10,1.442559461302971e-10,1.0246194929505254e-10,7.238889500852931e-11,5.0305769593674246e-11,3.4126671313891384e-11,2.2769832928938313e-11,1.490144599699344e-11,9.571728813289174e-12,6.0567215076665326e-12,3.764760702562331e-12,2.2850926129917324e-12,1.3502614228941344e-12,7.730304386631196e-13
0.0,22,22.0,0.0,30.0,0.0,0.0,0.0,0.0,-13.0,0.0,2.0,0.0,0.0,0.0,3.3625287477804437e-10,3.154493909376117e-10,2.814592832372722e-10,2.462038016091972e-10,2.155730582473597e-10,1.8276403612878427e-10,1.5231301999508407e-10,1.2446323400057752e-10,1.0053875208128049e-10,8.036778457316444e-11,6.252859024007239e-11,4.801678218384213e-11,3.584761547232793e-11,2.6278285234859683e-11,1.9054412830405608e-11,1.3518813266037168e-11,9.465792045387116e-12,6.5093284403048386e-12,4.382400210766693e-12,2.8911099460049347e-12,1.846836283278279e-12,1.1419173139067354e-12,6.816486921522227e-13,3.9435920665348667e-13,2.2168799177602449e-13,1.2178274473096172e-13,6.576513862695705e-14,3.4967017635102356e-14,1.820830087859289e-14,9.684007098767148e-15,6.6748421826875204e-09,3.4293312180021874e-09,1.8004353537657943e-09,1.0328383425802946e-09,6.423451424451685e-10,4.2244172548680905e-10,2.913098592270691e-10,2.0499392291231496e-10,1.4607231679042253e-10,1.0377445415983497e-10,7.331426155570368e-11,5.094404351402559e-11,3.454917173350516e-11,2.3034489687022e-11,1.505043997030417e-11,9.641584617614921e-12,6.081258181141778e-12,3.7692577557118024e-12,2.2845621083449915e-12,1.3504404573715682e-12,7.74443717037167e-13
0.0,23,23.0,0.0,30.0,0.0,0.0,0.0,0.0,-13.0,0.0,2.0,0.0,0.0,0.0,3.3958403405551573e-10,3.1869009176089625e-10,2.84538199575068e-10,2.490292718686496e-10,2.181040661337028e-10,1.8498055737222365e-10,1.5417253333562593e-10,1.259890675499593e-10,1.0175653792109793e-10,8.131787191877484e-11,6.324929890744586e-11,4.8545767946496016e-11,3.6217450554010406e-11,2.6520942417723237e-11,1.9200042524219956e-11,1.3595799342109193e-11,9.502238271637646e-12,6.526881333965681e-12,4.394520595814931e-12,2.9029411717495445e-12,1.8587597167062646e-12,1.1526983075310697e-12,6.902913125010986e-13,4.0059329444673013e-13,2.2583163135683427e-13,1.2436432546054463e-13,6.731148743384775e-14,3.583129780095484e-14,1.8689913824106106e-14,9.92334051046026e-15,6.636759842780721e-09,3.4054650561640187e-09,1.790803385629797e-09,1.031652243279368e-09,6.448466419546636e-10,4.2588626623939994e-10,2.944482169284298e-10,2.0747392707312117e-10,1.4792200261733668e-10,1.051080525973718e-10,7.425231882623978e-11,5.1590032736208134e-11,3.49779980995602e-11,2.330675335505537e-11,1.5208579866853845e-11,9.720206842544217e-12,6.11213068541352e-12,3.777028911639535e-12,2.2850146400982155e-12,1.350485417412664e-12,7.754017998516518e-13
0.0,24,24.0,0.0,30.0,0.0,0.0,0.0,0.0,-13.0,0.0,2.0,0.0,0.0,0.0,3.430211146664601e-10,3.220247973510038e-10,2.876980073878226e-10,2.5192188176432004e-10,2.206904460632663e-10,1.8724250089892647e-10,1.5606790171299457e-10,1.275428233752266e-10,1.0299551119955277e-10,8.228376325313629e-11,6.398182723315882e-11,4.9084401762017606e-11,3.6596513918044314e-11,2.677329549210186e-11,1.9355272159335846e-11,1.3680721738169057e-11,9.54364584759811e-12,6.546253295747617e-12,4.40626526747971e-12,2.9134290006561815e-12,1.869275314178554e-12,1.1624001480881989e-12,6.982387600385953e-13,4.0643336205732795e-13,2.2976939250197807e-13,1.2684649411758558e-13,6.881377078399023e-14,3.667882014814734e-14,1.916561962026021e-14,1.0157707434511688e-14,6.597718686419934e-09,3.3815125801188296e-09,1.7814546932868606e-09,1.0307747720361252e-09,6.475741955841471e-10,4.2947242745467715e-10,2.976730119504778e-10,2.100076923631156e-10,1.498059457746116e-10,1.0646347520205357e-10,7.520360768965084e-11,5.224380273024334e-11,3.5412362605534424e-11,2.358505478622432e-11,1.537415178489488e-11,9.806423921161973e-12,6.148923759048191e-12,3.788167179923721e-12,2.2866964122093865e-12,1.3505926764951202e-12,7.760326873511907e-13
0.0,25,25.0,0.0,30.0,0.0,0.0,0.0,0.0,-13.0,0.0,2.0,0.0,0.0,0.0,3.465658912590668e-10,3.2545507558762204e-10,2.9094008061252923e-10,2.5488281982057155e-10,2.2333322017920862e-10,1.8955073383064904e-10,1.5799982021785577e-10,1.2912505503338418e-10,1.0425610401403587e-10,8.326573622123739e-11,6.472615560584675e-11,4.9632175779544305e-11,3.698373827498783e-11,2.7033974366961937e-11,1.9518910531083498e-11,1.377296441196962e-11,9.590022065138792e-12,6.5678243491051455e-12,4.418075606332012e-12,2.9229032749101555e-12,1.8785722137720852e-12,1.1711124311890211e-12,7.055279866801482e-13,4.1189138340409824e-13,2.335037208310954e-13,1.2922857667732594e-13,7.027046577176861e-14,3.7508620426235234e-14,1.963454280079621e-14,1.0387693747781475e-14,6.5577308786806995e-09,3.3575056870884024e-09,1.7724125609392867e-09,1.0302178227242974e-09,6.505330692751351e-10,4.332027544969615e-10,3.009859461865253e-10,2.12596529672174e-10,1.5172510967243594e-10,1.0784144578934841e-10,7.616868749047027e-11,5.290558383012344e-11,3.5851840146402186e-11,2.3868250864247418e-11,1.5545726425733258e-11,9.899126850362749e-12,6.191143252197311e-12,3.802664962964887e-12,2.28979116231345e-12,1.3509338469162143e-12,7.764542932969966e-13
0.0,26,26.0,0.0,30.0,0.0,0.0,0.0,0.0,-13.0,0.0,2.0,0.0,0.0,0.0,3.502201701708827e-10,3.289825297869355e-10,2.942658315487844e-10,2.579133128800542e-10,2.26033446086128e-10,1.9190615318169726e-10,1.5996900289319254e-10,1.3073632206762193e-10,1.0553875060325683e-10,8.426410138307014e-11,6.54823819284375e-11,5.0188817495815263e-11,3.7378369248723264e-11,2.7301882434232075e-11,1.9689892714410315e-11,1.3871875310585766e-11,9.641252580160297e-12,6.5918573815686835e-12,4.430323448331708e-12,2.9316663675010242e-12,1.886833233963152e-12,1.17892524477682e-12,7.121973347165655e-13,4.1698056702179254e-13,2.370379876558857e-13,1.3151044647800707e-13,7.168036363678385e-14,3.831985032038505e-14,2.0095871763846627e-14,1.0613890532896824e-14,6.516811638005831e-09,3.3334780866341863e-09,1.7637007934871679e-09,1.0299933078425229e-09,6.537284892790067e-10,4.3707980034046583e-10,3.043887495618337e-10,2.152417791423306e-10,1.5368047822538465e-10,1.0924268533402394e-10,7.714811733580201e-11,5.357569962058146e-11,3.629626157575411e-11,2.4155544537053336e-11,1.5722144608610497e-11,9.997301603451171e-12,6.2382531155957075e-12,3.8204336246469726e-12,2.294425086136126e-12,1.3516553774382997e-12,7.767733519038402e-13
0.0,27,27.0,0.0,30.0,0.0,0.0,0.0,0.0,-13.0,0.0,2.0,0.0,0.0,0.0,3.539857916438934e-10,3.3260880057610047e-10,2.9767671215045155e-10,2.610146265426497e-10,2.2879221682420447e-10,1.9430968638252454e-10,1.619761853123218e-10,1.3237719413721242e-10,1.0684388659661545e-10,8.527918340527868e-11,6.625067299996756e-11,5.075421642397385e-11,3.7779895656793195e-11,2.7576163649502542e-11,1.9867292873387854e-11,1.3976803910217516e-11,9.697134882809418e-12,6.618514439924375e-12,4.443314060123855e-12,2.9399914293763823e-12,1.8942332899683643e-12,1.185928424927009e-12,7.182862029779526e-13,4.21715166244528e-13,2.403763590085261e-13,1.336924673612656e-13,7.304255184028811e-14,3.9111770614098225e-14,2.0548866883532674e-14,1.0836839213238999e-14,6.474979412686867e-09,3.3094653253687405e-09,1.7553436924172603e-09,1.0301131406241671e-09,6.571656381201863e-10,4.4110612812050153e-10,3.078831812218018e-10,2.1794480691651226e-10,1.556730538075327e-10,1.1066791525086594e-10,7.814244849351767e-11,5.425452131539675e-11,3.674563236848252e-11,2.4446411942079043e-11,1.5902492288191996e-11,1.0100047842749585e-11,6.2897054824258084e-12,3.841322292891531e-12,2.3006727919991696e-12,1.3528787284816721e-12,7.770847967393929e-13
0.0,28,28.0,0.0,30.0,0.0,0.0,0.0,0.0,-13.0,0.0,2.0,0.0,0.0,0.0,3.578646325241316e-10,3.3633556824443727e-10,3.0117421578186183e-10,2.641880659881889e-10,2.316106609456464e-10,1.967622913155185e-10,1.6402212590824917e-10,1.3404825425521991e-10,1.0817195094056738e-10,8.631131233860174e-11,6.703123392900962e-11,5.1328370387723006e-11,3.8187990651878115e-11,2.785616672053877e-11,2.005032552909534e-11,1.4087128088152652e-11,9.75740716349136e-12,6.64787313421656e-12,4.457290458626674e-12,2.9481214310104767e-12,1.9009379862693118e-12,1.1922108207033077e-12,7.238347438227661e-13,4.2611031728213243e-13,2.4352367911768914e-13,1.3577543970139115e-13,7.435639510783452e-14,3.9883744193341854e-14,2.0992867335609136e-14,1.1056992466171498e-14,6.432256060544105e-09,3.2855048081705743e-09,1.7473660296000013e-09,1.0305892176035197e-09,6.608496516958033e-10,4.4528431421580727e-10,3.11471031564736e-10,2.2070700330272883e-10,1.5770385488058202e-10,1.1211785945829335e-10,7.915222249212384e-11,5.494243998078176e-11,3.720007253064639e-11,2.4740539139334436e-11,1.608607013899658e-11,1.0206586843747101e-11,6.344964019179975e-12,3.8651352007058644e-12,2.308563900857487e-12,1.354701097781769e-12,7.774715472994785e-13
0.0,29,29.0,0.0,30.0,0.0,0.0,0.0,0.0,-13.0,0.0,2.0,0.0,0.0,0.0,3.6185860933175893e-10,3.401645554582108e-10,3.0475987934609726e-10,2.674349771691578e-10,2.344899428475387e-10,1.9926495624427784e-10,1.6610760651552813e-10,1.3575010097733874e-10,1.0952338852778757e-10,8.736082055268101e-11,6.782428984753306e-11,5.19113473994294e-11,3.860246383837121e-11,2.8141409887633513e-11,2.0238339000187825e-11,1.4202271998037208e-11,9.821772376557605e-12,6.679942459324744e-12,4.472438724510798e-12,2.956268962624788e-12,1.9071024250475068e-12,1.1978595775881555e-12,7.288835786409122e-13,4.3018189885894365e-13,2.4648536844522943e-13,1.3776055000342643e-13,7.562151577997131e-14,4.063522916910741e-14,2.14272961504565e-14,1.1274690411485802e-14,6.388667031169054e-09,3.261635815408097e-09,1.739793018866123e-09,1.0314334016436927e-09,6.647856176094859e-10,4.4961695195616335e-10,3.1515412485801503e-10,2.2352978213361983e-10,1.5977391389944237e-10,1.135932453542852e-10,8.0177971797427e-11,5.563985056721501e-11,3.765977350672243e-11,2.503776923333562e-11,1.6272361406705067e-11,1.0316261356060384e-11,6.4035210795768424e-12,3.891647104474905e-12,2.318089936324267e-12,1.357196636666102e-12,7.780046329870912e-13
0.0,30,30.0,0.0,30.0,0.0,0.0,0.0,0.0,-13.0,0.0,2.0,0.0,0.0,0.0,3.6596968161344603e-10,3.4409753024092715e-10,3.0843528568595463e-10,2.7075674830549746e-10,2.3743126339280407e-10,2.0181869984570758e-10,1.682334325077068e-10,1.3748334971304353e-10,1.1089865261650725e-10,8.842804256758403e-11,6.863007569410908e-11,5.2503259445852645e-11,3.9023223523264766e-11,2.843154842969757e-11,2.0430803998083606e-11,1.4321716661817982e-11,9.889917619938577e-12,6.714677522956264e-12,4.488893967190162e-12,2.9646167230525802e-12,1.9128702594693147e-12,1.2029594533079747e-12,7.334735237682485e-13,4.339464075450553e-13,2.492673355933953e-13,1.3964932454956154e-13,7.683777382397532e-14,4.136577233712085e-14,2.1851663182635458e-14,1.1490150400898348e-14,6.344241550005261e-09,3.237899515628895e-09,1.7326502852409705e-09,1.032657505439165e-09,6.689785747764078e-10,4.5410665602030695e-10,3.189343222813804e-10,2.2641458106336268e-10,1.6188427580143904e-10,1.150948040652515e-10,8.122022139134775e-11,5.634714345915241e-11,3.812496819740309e-11,2.5338059558889205e-11,1.6461000559851574e-11,1.0428529797549102e-11,6.4649094135382274e-12,3.920616525886607e-12,2.3292111968118967e-12,1.3604180744969866e-12,7.787435849852697e-13
0.0,31,31.0,0.0,30.0,0.0,0.0,0.0,0.0,-13.0,0.0,2.0,0.0,0.0,0.0,3.701998555164085e-10,3.4813630914505693e-10,3.12202066172226e-10,2.7415481160037296e-10,2.4043586078779034e-10,2.0442457143378402e-10,1.7040043279754047e-10,1.3924863342244405e-10,1.1229820671492575e-10,8.951331615274486e-11,6.944883106670627e-11,5.310424506772344e-11,3.9450247781601633e-11,2.8726346026588966e-11,2.0627299660121267e-11,1.4445004901338281e-11,9.961529169058787e-12,6.751992837461408e-12,4.506746627602306e-12,2.973318603430235e-12,1.918373008044697e-12,1.2075921813652735e-12,7.376453225056445e-13,4.374208437259461e-13,2.5187590179854706e-13,1.414435873607757e-13,7.800524685195816e-14,4.207500313107342e-14,2.2265565870245772e-14,1.1703468052558395e-14,6.299012803461988e-09,3.214338973136026e-09,1.7259638317296529e-09,1.0342732755247727e-09,6.734335143027591e-10,4.587560675515914e-10,3.22813525305624e-10,2.293628625638206e-10,1.640359971804094e-10,1.1662327033776165e-10,8.227949044939677e-11,5.7064700608430477e-11,3.8595910773145096e-11,2.5641447972681695e-11,1.6651744335748705e-11,1.0542956783529516e-11,6.528709287233504e-12,3.9517967357338065e-12,2.341863359470602e-12,1.364398656255474e-12,7.797370314979029e-13
0.0,32,32.0,0.0,30.0,0.0,0.0,0.0,0.0,-13.0,0.0,2.0,0.0,0.0,0.0,3.7455118754669655e-10,3.5228276056470585e-10,3.160619034148854e-10,2.7763064510352934e-10,2.435050116606792e-10,2.0708365139073142e-10,1.7260945986154063e-10,1.4104660294571793e-10,1.1372252590147412e-10,9.06169837974153e-11,7.028079809871864e-11,5.3714458228931265e-11,3.988356285516507e-11,2.9025650403008862e-11,2.0827498685306976e-11,1.4571742061530142e-11,1.0036303639776137e-11,6.791773980370477e-12,4.52604884690701e-12,2.982501258143323e-12,1.923729633497283e-12,1.2118358969056454e-12,7.414393820691908e-13,4.4062260417174136e-13,2.5431773634759824e-13,1.4314542253648537e-13,7.912421046592288e-14,4.276262816509911e-14,2.266868782743663e-14,1.1914626889101244e-14,6.253018124174686e-09,3.1909991498492393e-09,1.7197600035677537e-09,1.0362923768473992e-09,6.781553816281653e-10,4.635678599848537e-10,3.2679367934966757e-10,2.3237611542364873e-10,1.662301461236234e-10,1.181793823635714e-10,8.335629380306464e-11,5.779289431988081e-11,3.9072863595480595e-11,2.594802699464061e-11,1.684444605657402e-11,1.0659201587905671e-11,6.594551887861036e-12,3.984944530935862e-12,2.355963626016547e-12,1.3691542945571802e-12,7.810234391034485e-13
0.0,33,33.0,0.0,30.0,0.0,0.0,0.0,0.0,-13.0,0.0,2.0,0.0,0.0,0.0,3.7902578849147423e-10,3.565388081579973e-10,3.20016534053149e-10,2.8118577466483457e-10,2.466400322828742e-10,2.0979705178364217e-10,1.7486138987101436e-10,1.42877927155963e-10,1.1517209767842069e-10,9.173939410972306e-11,7.112622101646411e-11,5.4334061542867146e-11,4.032322743746347e-11,2.9329373214723166e-11,2.1031152719250907e-11,1.4701593765814626e-11,1.0113955823520711e-11,6.833887550276902e-12,4.546820677868458e-12,2.9922660505126434e-12,1.929046378001682e-12,1.215764637345451e-12,7.448955166635203e-13,4.43569378250118e-13,2.5659980107078265e-13,1.4475714085321238e-13,8.019511921083949e-14,4.3428426406673975e-14,2.3060795453684708e-14,1.2123513949525677e-14,6.2062991754368276e-09,3.16792690082947e-09,1.7140654498790063e-09,1.0387263779825563e-09,6.831490799166529e-10,4.685447455524411e-10,3.308767776752136e-10,2.3545585659897453e-10,1.684678026261595e-10,1.1976388172894523e-10,8.445114312469989e-11,5.853208746806575e-11,3.955608915140571e-11,2.6257924467565527e-11,1.7039033571155273e-11,1.0777005752720124e-11,6.662119843967832e-12,4.0198269518118096e-12,2.3714162786380703e-12,1.3746858408673702e-12,7.826319511564644e-13
0.0,34,34.0,0.0,30.0,0.0,0.0,0.0,0.0,-13.0,0.0,2.0,0.0,0.0,0.0,3.8362582749632527e-10,3.6090643436187507e-10,3.2406775159705214e-10,2.8482177593774163e-10,2.498422798842641e-10,2.12565917130064e-10,1.7715712295931278e-10,1.4474329306512744e-10,1.166474224918461e-10,9.288090296564714e-11,7.198534653630688e-11,5.4963222416919e-11,4.076932154081142e-11,2.9637473857261813e-11,2.1238078721352086e-11,1.4834281721984084e-11,1.0194223754365725e-11,6.878189439527404e-12,4.5690559660066795e-12,3.0026912629100893e-12,1.9344168370372453e-12,1.2194479270655262e-12,7.480526994661505e-13,4.46279045874138e-13,2.5872930204814494e-13,1.462812503541652e-13,8.121858836670512e-14,4.4072244974709884e-14,2.3441732847663152e-14,1.2329938962198926e-14,6.158902133730056e-09,3.145170962828839e-09,1.7089070827115238e-09,1.041586737102906e-09,6.884194746847705e-10,4.736894824201583e-10,3.3506486548357484e-10,2.3860363330350395e-10,1.7075005947362045e-10,1.2137751359112408e-10,8.556454788321632e-11,5.928263440785592e-11,4.0045845422505807e-11,2.6571289464501883e-11,1.7235490822369363e-11,1.0896180727420812e-11,6.731145610840669e-12,4.05622614892828e-12,2.388117566519219e-12,1.38098138940379e-12,7.845832823875641e-13
0.0,35,35.0,0.0,30.0,0.0,0.0,0.0,0.0,-13.0,0.0,2.0,0.0,0.0,0.0,3.883535362950465e-10,3.653876839910352e-10,3.2821740930536326e-10,2.885402764073135e-10,2.5311315402570905e-10,2.1539142527501218e-10,1.794975836244471e-10,1.4664340596090921e-10,1.181490140426342e-10,9.404187437205563e-11,7.28584246008664e-11,5.560211107817242e-11,4.1221938832701786e-11,2.994994673032132e-11,2.144814673144962e-11,1.496957838317197e-11,1.0276871547325758e-11,6.924531514469346e-12,4.592727775874235e-12,3.0138344685541745e-12,1.9399222468314695e-12,1.2229504519349388e-12,7.509488272040117e-13,4.4876957621555965e-13,2.607136467805298e-13,1.4772043055155649e-13,8.21953767550262e-14,4.4693995520601336e-14,2.3811415379264453e-14,1.2533655006756103e-14,6.1108778681724145e-09,3.122781935215767e-09,1.7043120334586746e-09,1.0448847888291127e-09,6.939713996608467e-10,4.790048823940926e-10,3.393600441799791e-10,2.418210252569125e-10,1.7307802348355698e-10,1.2302102711851873e-10,8.669701615269929e-11,6.004488215828007e-11,4.0542383534836446e-11,2.6888282308596298e-11,1.7433842814701513e-11,1.1016596138078934e-11,6.801408368611621e-12,4.093942643130418e-12,2.4059598881497216e-12,1.3880185393212273e-12,7.868906365636544e-13
0.0,36,36.0,0.0,30.0,0.0,0.0,0.0,0.0,-13.0,0.0,2.0,0.0,0.0,0.0,3.9321121359211917e-10,3.69984667917718e-10,3.324674230926085e-10,2.9234295742887755e-10,2.564540980043135e-10,2.1827478834740855e-10,1.8188372125121154e-10,1.4857898961430726e-10,1.1967739948757463e-10,9.522268107634414e-11,7.374570917774486e-11,5.625089975677656e-11,4.168118153064859e-11,3.02668114362768e-11,2.1661269222595542e-11,1.510730107547229e-11,1.0361690502532543e-11,6.9727668405733195e-12,4.617793281518354e-12,3.0257349734355954e-12,1.9456319554744053e-12,1.226331825863256e-12,7.536205013042269e-13,4.5105892700063323e-13,2.625604052791618e-13,1.4907750979174806e-13,8.312637067878725e-14,4.529365112406583e-14,2.4169822303741006e-14,1.2734378994342891e-14,6.0622821155895915e-09,3.1008122526171855e-09,1.7003076067102802e-09,1.0486317321155272e-09,6.99809663874536e-10,4.844938191344464e-10,3.4376447576984665e-10,2.4510964703345155e-10,1.754528170074443e-10,1.2469517618725836e-10,8.784905535186815e-11,6.081917163775157e-11,4.104594686950069e-11,2.7209067737276908e-11,1.7634143629260405e-11,1.1138169061228262e-11,6.872729971585972e-12,4.132797234459701e-12,2.424835270697407e-12,1.395766554620625e-12,7.895606209901427e-13
0.0,37,37.0,0.0,30.0,0.0,0.0,0.0,0.0,-13.0,0.0,2.0,0.0,0.0,0.0,3.982012295982625e-10,3.7469956683123476e-10,3.3681977446264813e-10,2.962315562713909e-10,2.5986660027730274e-10,2.212172537718315e-10,1.8431651073182474e-10,1.5055078657211708e-10,1.2123311960107253e-10,9.642370498066102e-11,7.46474589848604e-11,5.6909762538839854e-11,4.214715713495861e-11,3.058810539596058e-11,2.1877392066659028e-11,1.5247306037421772e-11,1.0448498911422066e-11,7.022753617178567e-12,4.644198077880272e-12,3.038416250157743e-12,1.951604045116891e-12,1.2296464482668992e-12,7.561028294361346e-13,4.5316494481967826e-13,2.642772737867763e-13,1.5035544529864995e-13,8.40125690607024e-14,4.587124361790992e-14,2.4516988801499838e-14,1.2931810709149088e-14,6.01317564979228e-09,3.0793161486187607e-09,1.6969212316248125e-09,1.0528386193443397e-09,7.059390599805477e-10,4.901592368115779e-10,3.4828038735111584e-10,2.4847115046925726e-10,1.7787557961133773e-10,1.2640072030140065e-10,8.902117297310177e-11,6.160583884730313e-11,4.1556771067371554e-11,2.753381041439844e-11,1.7836467076678285e-11,1.1260854503363873e-11,6.944970380340556e-12,4.172631811180948e-12,2.4446381753386894e-12,1.4041883754848972e-12,7.925941376674337e-13
0.0,38,38.0,0.0,30.0,0.0,0.0,0.0,0.0,-13.0,0.0,2.0,0.0,0.0,0.0,4.0332603071806596e-10,3.7953463507630524e-10,3.4127651346842207e-10,3.002078681646144e-10,2.6335219589796895e-10,2.2422010531924367e-10,1.8679695316459572e-10,1.5255955853351253e-10,1.2281672894274547e-10,9.764533742124082e-11,7.556393809015808e-11,5.75788755717239e-11,4.2619976446079734e-11,3.09138784049125e-11,2.2096487035445993e-11,1.5389482678814977e-11,1.0537140936607011e-11,7.0743579986999764e-12,4.6718799009241785e-12,3.0518882996906826e-12,1.9578860719356565e-12,1.232943448463513e-12,7.58429250757445e-13,4.551052673193889e-13,2.658720401259788e-13,1.515573054085165e-13,8.485506979677899e-14,4.642686124795368e-14,2.485299780359054e-14,1.3125649546550115e-14,5.963624443514218e-09,3.058349609871587e-09,1.6941804109648636e-09,1.0575163468225424e-09,7.123643738237313e-10,4.960041591409037e-10,3.529100756676228e-10,2.5190722709869133e-10,1.8034746987026352e-10,1.2813842569241037e-10,9.021387733754687e-11,6.240521596476862e-11,4.207508454792157e-11,2.7862672154554367e-11,1.8040899569271787e-11,1.1384637159196984e-11,7.018022909469672e-12,4.213309294111318e-12,2.465267677191996e-12,1.4132424484197895e-12,7.959872360284742e-13
0.0,39,39.0,0.0,30.0,0.0,0.0,0.0,0.0,-13.0,0.0,2.0,0.0,0.0,0.0,4.085881443866413e-10,3.8449220456859427e-10,3.458397616983434e-10,3.042737483522693e-10,2.6691246796261233e-10,2.2728466418703657e-10,1.8932607661331326e-10,1.5460608680198676e-10,1.244287960566004e-10,9.888797936525597e-11,7.64954163797147e-11,5.825841742488526e-11,4.309975245301146e-11,3.124418871140236e-11,2.2318545698497143e-11,1.5533748256328188e-11,1.0627484872423342e-11,7.127455979542431e-12,4.700771768671053e-12,3.0661498911588522e-12,1.9645158914014513e-12,1.2362667106765723e-12,7.606313874555829e-13,4.568972284217777e-13,2.67352549953253e-13,1.5268625353267394e-13,8.565505730069754e-14,4.6960646572748156e-14,2.5177971921396317e-14,1.3315608432478882e-14,5.913699821330249e-09,3.0379703199698126e-09,1.6921126679950788e-09,1.0626756468956114e-09,7.190903952546155e-10,5.020316987362271e-10,3.576559116909325e-10,2.554196105985927e-10,1.828696672268872e-10,1.2990906655105768e-10,9.142767839345873e-11,6.321763234659909e-11,4.260110929539643e-11,2.8195810364931024e-11,1.8247534815081836e-11,1.150952443213164e-11,7.091809536940008e-12,4.254712928119767e-12,2.486629081340793e-12,1.4228843549767776e-12,7.997319164513013e-13
0.0,40,40.0,0.0,30.0,0.0,0.0,0.0,0.0,-13.0,0.0,2.0,0.0,0.0,0.0,4.139901840498377e-10,3.8957468878460004e-10,3.50511715289711e-10,3.0843111415484066e-10,2.705490490708377e-10,2.304122901038403e-10,1.9190493691419134e-10,1.5669117280091893e-10,1.2606990371360844e-10,1.0015204156577655e-10,7.744216991089477e-11,5.89485694912678e-11,4.358659979183838e-11,3.1579100262021686e-11,2.2543574548165437e-11,1.568004307864907e-11,1.0719421032085958e-11,7.1819345119796756e-12,4.730804573440701e-12,3.0811906430991004e-12,1.9715225384544734e-12,1.2396549715796275e-12,7.627389243343421e-13,4.585577678425003e-13,2.6872667346095247e-13,1.5374553342792947e-13,8.641379118231874e-14,4.747279451210319e-14,2.549206574762943e-14,1.3501424702916046e-14,5.863478601731063e-09,3.018237592490117e-09,1.6907454915047724e-09,1.0683270819106284e-09,7.261219302047777e-10,5.082450667246535e-10,3.625203452017138e-10,2.5901007922585745e-10,1.8544337387822245e-10,1.3171342634793549e-10,9.266308856041147e-11,6.404341544849586e-11,4.3135061758143535e-11,2.853337732890007e-11,1.845646997494619e-11,1.1635540641603416e-11,7.166276447359006e-12,4.296745105451707e-12,2.508635043484644e-12,1.4330682295623178e-12,8.038168772286149e-13
0.0,41,41.0,0.0,30.0,0.0,0.0,0.0,0.0,-13.0,0.0,2.0,0.0,0.0,0.0,4.195348542804145e-10,3.947845868219516e-10,3.552946479692549e-10,3.126819470464844e-10,2.742636228036997e-10,2.3360438245818554e-10,1.9453461852117418e-10,1.5881563864084603e-10,1.277406492005167e-10,1.0143794470370041e-10,7.840448117581034e-11,5.964951636795431e-11,4.408063456120715e-11,3.1918680824144826e-11,2.2771591173547795e-11,1.5828326290870548e-11,1.0812859452320848e-11,7.237692012684669e-12,4.761909168158026e-12,3.0969929216619593e-12,1.9789271351167366e-12,1.2431419811246884e-12,7.647795173228585e-13,4.601033461897617e-13,2.7000227230253314e-13,1.5473845541134228e-13,8.713259597952694e-14,4.7963550462256394e-14,2.579545873860482e-14,1.3682867956718886e-14,5.813043226381921e-09,2.9992122926214554e-09,1.690106279284328e-09,1.074481040277453e-09,7.334638140297817e-10,5.146475825702703e-10,3.6750590934654974e-10,2.6268045823888543e-10,1.8806981666482638e-10,1.3355229920476503e-10,9.392062361257037e-11,6.48828916800187e-11,4.367715376934215e-11,2.8875520052177978e-11,1.8667802970362823e-11,1.1762722306925505e-11,7.241389921186224e-12,4.3393258770418686e-12,2.53120626617513e-12,1.4437479657008067e-12,8.082282004909616e-13
0.0,42,42.0,0.0,30.0,0.0,0.0,0.0,0.0,-13.0,0.0,2.0,0.0,0.0,0.0,4.25224956020662e-10,4.001244875252754e-10,3.6019091412064726e-10,3.170282947508575e-10,2.7805792522540054e-10,2.368623814525611e-10,1.9721623538383907e-10,1.6098032772785727e-10,1.2944164465243278e-10,1.0274611953543695e-10,7.938263930108523e-11,6.036144618851347e-11,4.458197434805785e-11,3.2263000752801824e-11,2.3002621309954304e-11,1.5978572243155e-11,1.0907727558453915e-11,7.294638396730407e-12,4.794017997362783e-12,3.113533541708175e-12,1.986743801536425e-12,1.246756716736387e-12,7.66778730939792e-13,4.615498668393271e-13,2.7118716671114137e-13,1.5566838321970882e-13,8.78128518465424e-14,4.843320840655762e-14,2.608834883040168e-14,1.3859745071010946e-14,5.762481874436557e-09,2.9809567468629992e-09,1.6902222804561665e-09,1.081147734890514e-09,7.411209261236536e-10,5.212426840572391e-10,3.7261522515131804e-10,2.6643262229780845e-10,1.9075024894543725e-10,1.3542649128577458e-10,9.520080358900238e-11,6.573638720705035e-11,4.422759343815726e-11,2.922238046876011e-11,1.8881630678372434e-11,1.1891114380044949e-11,7.317132634224347e-12,4.382391280083106e-12,2.554271840475902e-12,1.454878217110745e-12,8.129499748112359e-13
0.0,43,43.0,0.0,30.0,0.0,0.0,0.0,0.0,-13.0,0.0,2.0,0.0,0.0,0.0,4.310633919404177e-10,4.0559707367221477e-10,3.652029518786893e-10,3.214722733608658e-10,2.8193374641482545e-10,2.40187769285868e-10,1.9995093185479396e-10,1.6318610540449667e-10,1.311735174241023e-10,1.0407700705734356e-10,8.037694020683451e-11,6.108455089950647e-11,4.509073836598565e-11,3.2612132220386054e-11,2.32366966042511e-11,1.613076741853924e-11,1.1003967892601844e-11,7.35269475951473e-12,4.827066327430009e-12,3.1307852655501323e-12,1.9949805501888076e-12,1.2505236407509867e-12,7.687600039790593e-13,4.629126056247962e-13,2.722891029353646e-13,1.565387212811516e-13,8.845598609358613e-14,4.8882108963738956e-14,2.6370946886745757e-14,1.403190268945873e-14,5.71188855961671e-09,2.9635346403324e-09,1.6911205371351065e-09,1.0883372041829969e-09,7.490982058029083e-10,5.28033937386434e-10,3.7785100597794175e-10,2.702684978421313e-10,1.9348595244647796e-10,1.3733682218554657e-10,9.650415371706477e-11,6.660422871278803e-11,4.478658598604336e-11,2.957409586272468e-11,1.9098047796091124e-11,1.2020767294988784e-11,7.393500395300311e-12,4.4258915840941e-12,2.5777692992126547e-12,1.46641520518684e-12,8.179648539641936e-13
0.0,44,44.0,0.0,30.0,0.0,0.0,0.0,0.0,-13.0,0.0,2.0,0.0,0.0,0.0,4.370531718982703e-10,4.112051262140302e-10,3.703332862500756e-10,3.260160694875969e-10,2.8589293203352025e-10,2.435820713680977e-10,2.027398836254024e-10,1.6543385961659635e-10,1.3293691049388912e-10,1.0543105869230892e-10,8.138768674319685e-11,6.181902648453536e-11,4.5607047643834194e-11,3.2966148770430965e-11,2.347385295455241e-11,1.628490787598706e-11,1.1101535974605491e-11,7.411792808527728e-12,4.8609931312930435e-12,3.1487181012092117e-12,2.0036401467336308e-12,1.2544629911577276e-12,7.707446420210988e-13,4.642061491805087e-13,2.7331572122803525e-13,1.573529022314217e-13,8.906346547066166e-14,4.931063732942908e-14,2.664347202707391e-14,1.419922756716362e-14,5.661363207603709e-09,2.9470109013065856e-09,1.6928278259705246e-09,1.0960593160910798e-09,7.574006694499674e-10,5.350250473424536e-10,3.8321606191674397e-10,2.7419006544766424e-10,1.9627823908074505e-10,1.3928412629624463e-10,9.783120533518571e-11,6.748674412433845e-11,4.535433451835803e-11,2.993079940638756e-11,1.9317146199639283e-11,1.2151734705703195e-11,7.470499323303279e-12,4.469789534338007e-12,2.60164444259855e-12,1.4783173481229325e-12,8.232545526567736e-13
0.0,45,45.0,0.0,30.0,0.0,0.0,0.0,0.0,-13.0,0.0,2.0,0.0,0.0,0.0,4.4319741849284773e-10,4.169515285653147e-10,3.755845322609983e-10,3.306619424439521e-10,2.899373849367824e-10,2.4704685757137137e-10,2.0558429868996817e-10,1.677245016013318e-10,1.3473248289462417e-10,1.0680873650014292e-10,8.241518881803037e-11,6.256507314434281e-11,4.61310252267416e-11,3.33251250916795e-11,2.371412930255044e-11,1.644099715458815e-11,1.1200398339112319e-11,7.471874129122009e-12,4.895741681418404e-12,3.1673004075826494e-12,2.0127209246764056e-12,1.2585910961843195e-12,7.727518348355137e-13,4.654443425464283e-13,2.742745246983965e-13,1.5811437456817718e-13,8.963678909093592e-14,4.971922107970043e-14,2.6906147840673083e-14,1.436164518955369e-14,5.611011711124989e-09,2.931451572715604e-09,1.6953706002013108e-09,1.104323775206193e-09,7.660334288955925e-10,5.422198674903351e-10,3.8871330411200257e-10,2.78199362167442e-10,1.9912845273320524e-10,1.4126925414273114e-10,9.918249680299458e-11,6.83842633089888e-11,4.5931040730203944e-11,3.029262074800742e-11,1.9539014658960782e-11,1.2284071793265388e-11,7.548143446042345e-12,4.514058651073981e-12,2.6258509906159182e-12,1.4905457292033143e-12,8.288002810641512e-13
0.0,46,46.0,0.0,30.0,0.0,0.0,0.0,0.0,-13.0,0.0,2.0,0.0,0.0,0.0,4.494993726905706e-10,4.228392709378666e-10,3.8095939813252614e-10,3.3541222646891593e-10,2.940690668345752e-10,2.5058374352151134e-10,2.08485418339292e-10,1.700589665933103e-10,1.3656091016617887e-10,1.0821051341114824e-10,8.345976352517952e-11,6.332289544311686e-11,4.6662796368543706e-11,3.3689136936520565e-11,2.395756677638418e-11,1.6599044580780808e-11,1.1300530771956968e-11,7.532889352076231e-12,4.931259901590563e-12,3.1864998179890135e-12,2.0222175443789483e-12,1.2629207039784734e-12,7.74798696328638e-13,4.666402464071555e-13,2.7517284937712917e-13,1.5882659039095496e-13,9.017748189672011e-14,5.0108327818484455e-14,2.7159199457315828e-14,1.4519117083947528e-14,5.5609459599585865e-09,2.9169236704299283e-09,1.6987749329350986e-09,1.1131401333886185e-09,7.75001711007806e-10,5.496224103634219e-10,3.943457490231542e-10,2.8229848386369095e-10,2.0203797101441115e-10,1.4329307367868097e-10,1.0055857438910642e-10,6.929711874198039e-11,4.651690554991338e-11,3.0659686605865144e-11,1.9763738801133568e-11,1.241783403570028e-11,7.62645269116466e-12,4.558681625883795e-12,2.650350109670022e-12,1.5030644229488665e-12,8.345831207579743e-13
0.0,47,47.0,0.0,30.0,0.0,0.0,0.0,0.0,-13.0,0.0,2.0,0.0,0.0,0.0,4.559623995158945e-10,4.288714547144224e-10,3.8646068848545474e-10,3.402693329988109e-10,2.9829000000891004e-10,2.54194391934115e-10,2.1144451818492143e-10,1.7243821454671486e-10,1.384228848255787e-10,1.0963687348104137e-10,8.452173527929164e-11,6.409270243080665e-11,4.72024887053137e-11,3.405826112952577e-11,2.4204208100241208e-11,1.675906392076156e-11,1.1401916753865474e-11,7.594797276122722e-12,4.9675005237809085e-12,3.2062839963545616e-12,2.032121690028545e-12,1.2674613195070525e-12,7.769003244042245e-13,4.678061041052402e-13,2.7601783585445996e-13,1.5949299322052665e-13,9.068708858036586e-14,5.0478462661378354e-14,2.7402851417749244e-14,1.4671637220754556e-14,5.5112838429273866e-09,2.9034950283241277e-09,1.7030664624433322e-09,1.1225178041051875e-09,7.843108784412468e-10,5.572368576059799e-10,4.001165226286376e-10,2.8648958753983343e-10,2.0500820698381316e-10,1.453564715404433e-10,1.0195999312945717e-10,7.022564614622364e-11,4.711212972553999e-11,3.103212134219768e-11,1.999140124045501e-11,1.2553076347154946e-11,7.705451232197523e-12,4.603648842096181e-12,2.6751098541014113e-12,1.515840698071236e-12,8.405843451626169e-13
