Line_number,Fiducial,Easting,Northing,Height,Elevation,tx_pitch,tx_roll,tx_yaw,txrx_dx,txrx_dy,txrx_dz,rx_pitch,rx_roll,rx_yaw,S0Z_time_3.834e-04,S0Z_time_3.924e-04,S0Z_time_4.039e-04,S0Z_time_4.184e-04,S0Z_time_4.364e-04,S0Z_time_4.589e-04,S0Z_time_4.869e-04,S0Z_time_5.224e-04,S0Z_time_5.679e-04,S0Z_time_6.249e-04,S0Z_time_6.969e-04,S0Z_time_7.879e-04,S0Z_time_9.019e-04,S0Z_time_1.046e-03,S0Z_time_1.227e-03,S0Z_time_1.456e-03,S0Z_time_1.744e-03,S0Z_time_2.109e-03,S0Z_time_2.567e-03,S0Z_time_3.145e-03,S0Z_time_3.864e-03,S0Z_time_4.745e-03,S0Z_time_5.821e-03,S0Z_time_7.140e-03,S0Z_time_8.754e-03,S0Z_time_1.073e-02,S1Z_time_2.057e-05,S1Z_time_2.607e-05,S1Z_time_3.307e-05,S1Z_time_4.206e-05,S1Z_time_5.356e-05,S1Z_time_6.807e-05,S1Z_time_8.607e-05,S1Z_time_1.086e-04,S1Z_time_1.366e-04,S1Z_time_1.721e-04,S1Z_time_2.176e-04,S1Z_time_2.746e-04,S1Z_time_3.466e-04,S1Z_time_4.376e-04,S1Z_time_5.516e-04,S1Z_time_6.956e-04,S1Z_time_8.771e-04,S1Z_time_1.106e-03,S1Z_time_1.394e-03
0.0,0,0.0,0.0,30.0,0.0,0.0,0.0,0.0,-13.0,0.0,2.0,0.0,0.0,0.0,6.600852721878634e-10,6.171079984055608e-10,5.703948813212554e-10,5.202742590782052e-10,4.675051027087162e-10,4.1440741131510453e-10,3.6196416456914654e-10,3.0963397447420287e-10,2.589141775822936e-10,2.123953854588869e-10,1.7054447014207933e-10,1.3400889703431589e-10,1.0350870510090131e-10,7.848037417750441e-11,5.833493069112727e-11,4.2383087018155534e-11,2.9985728907256524e-11,2.049702504983819e-11,1.3454141855566825e-11,8.451377330343181e-12,5.094948701999487e-12,2.969532680321924e-12,1.6740971306839484e-12,9.100472942509764e-13,4.822396046422808e-13,2.459297552613894e-13,5.445213800108681e-09,4.2465656066833005e-09,3.3195382955841895e-09,2.5991642898459387e-09,2.023673744662689e-09,1.5676837485436365e-09,1.2092691521893542e-09,9.238949453743958e-10,6.973227809881268e-10,5.168531300704802e-10,3.7352669942930285e-10,2.6473339053662994e-10,1.8292512912745468e-10,1.229040537994227e-10,8.067554490052492e-11,5.172304612787083e-11,3.262421799190498e-11,2.036465202433187e-11,1.2518497244898667e-11
0.0,1,1.0,0.0,30.0,0.0,0.0,0.0,0.0,-13.0,0.0,2.0,0.0,0.0,0.0,6.601099178176313e-10,6.171332130790923e-10,5.704209333927177e-10,5.203015980165642e-10,4.675344505464806e-10,4.1443984281069104e-10,3.6200134236821346e-10,3.0967884627678526e-10,2.5897164817237193e-10,2.1247235435661674e-10,1.706490773078105e-10,1.3414601874414017e-10,1.036734348384033e-10,7.865579782840471e-11,5.84962957896475e-11,4.2508102950710434e-11,3.006452500751261e-11,2.053353752937029e-11,1.3461105158255104e-11,8.442700921974107e-12,5.0812115219793165e-12,2.9564412316516176e-12,1.663677336429998e-12,9.027463239538584e-13,4.775102537261568e-13,2.4329216628910916e-13,5.445139609844409e-09,4.246490440050549e-09,3.319461896613834e-09,2.5990862630480343e-09,2.0235936366662774e-09,1.5676011810767236e-09,1.2091834071457337e-09,9.238049381778964e-10,6.972279344980916e-10,5.167529658702481e-10,3.7341906877223694e-10,2.6461693747750893e-10,1.828078888586492e-10,1.2280868770942813e-10,8.062817166944811e-11,5.1733646505173013e-11,3.267701450745951e-11,2.042968841594985e-11,1.2571647851027318e-11
0.0,2,2.0,0.0,30.0,0.0,0.0,0.0,0.0,-13.0,0.0,2.0,0.0,0.0,0.0,6.601352732576797e-10,6.171592153620454e-10,5.704478815884719e-10,5.20329988632785e-10,4.675650727802134e-10,4.144738593573438e-10,3.6204054000584294e-10,3.0972637593411465e-10,2.5903269098244047e-10,2.125540380656862e-10,1.7075951046666224e-10,1.3428948903668873e-10,1.0384388306015141e-10,7.883507859462093e-11,5.865903112891195e-11,4.2632333613845274e-11,3.014139015308698e-11,2.056798969632108e-11,1.346647538373949e-11,8.43302914899585e-12,5.066942920462021e-12,2.943102436230699e-12,1.653159658273122e-12,8.95428411132112e-13,4.727820658294309e-13,2.4066759436283385e-13,5.4450624319785255e-09,4.246412259602447e-09,3.319382448632334e-09,2.5990051399338495e-09,2.0235103866262658e-09,1.5675154183580643e-09,1.2090943729109086e-09,9.23711547492175e-10,6.971296757606604e-10,5.166493310180817e-10,3.7330779088524735e-10,2.644970296296927e-10,1.826886990912074e-10,1.2271434784972135e-10,8.058486239272356e-11,5.174961985950385e-11,3.273424457583798e-11,2.0497086967348214e-11,1.262549984540594e-11
0.0,3,3.0,0.0,30.0,0.0,0.0,0.0,0.0,-13.0,0.0,2.0,0.0,0.0,0.0,6.601614479239073e-10,6.171861241619037e-10,5.704758575108297e-10,5.203595797953046e-10,4.675971416140795e-10,4.14509664021505e-10,3.6208200176904963e-10,3.097768647122346e-10,2.5909768075189887e-10,2.126408876223002e-10,1.7087627198619348e-10,1.344398029554016e-10,1.0402046673595882e-10,7.901850818298651e-11,5.882329930544828e-11,4.275584213056803e-11,3.021632596204871e-11,2.0600350201829986e-11,1.3470206563896787e-11,8.422314437998365e-12,5.052102237146285e-12,2.929486710168863e-12,1.6425250126349815e-12,8.880823175131309e-13,4.680491727006694e-13,2.3805273822921176e-13,5.4449819932828395e-09,4.246330790569401e-09,3.3192996744816045e-09,2.598920640750979e-09,2.0234237126976823e-09,1.5674261740162129e-09,1.209001756180835e-09,9.236144775653501e-10,6.970277087049063e-10,5.165419169104877e-10,3.731925476815704e-10,2.6437341035780734e-10,1.8256748049430968e-10,1.226211814055337e-10,8.05459083174383e-11,5.177125971040743e-11,3.2796113455089736e-11,2.0566959931017802e-11,1.2680112017983811e-11
0.0,4,4.0,0.0,30.0,0.0,0.0,0.0,0.0,-13.0,0.0,2.0,0.0,0.0,0.0,6.601885562427579e-10,6.172140641393766e-10,5.705049994258732e-10,5.203905281316813e-10,4.67630838271451e-10,4.145474702581051e-10,3.6212598373764894e-10,3.098306267406951e-10,2.5916700437420105e-10,2.1273336102105104e-10,1.7099985881252495e-10,1.3459743113999037e-10,1.0420355914699627e-10,7.920632391838539e-11,5.898921219795597e-11,4.287865671723375e-11,3.028931799906293e-11,2.0630585339353437e-11,1.3472256771689505e-11,8.410515102822075e-12,5.0366543315191974e-12,2.9155686186668418e-12,1.6317569559729666e-12,8.806982899656889e-13,4.6330646352049e-13,2.354446396019209e-13,5.444898027921115e-09,4.246245765872609e-09,3.319213305038058e-09,2.5988324943599945e-09,2.0233333423760183e-09,1.5673331715453145e-09,1.20890527447455e-09,9.23513445475032e-10,6.969217516349398e-10,5.164304297182211e-10,3.7307304036585886e-10,2.6424585669935746e-10,1.8244420510563082e-10,1.2252939027390464e-10,8.051163565826885e-11,5.179886320097706e-11,3.2862806965699e-11,2.063939455211321e-11,1.273552466932154e-11
0.0,5,5.0,0.0,30.0,0.0,0.0,0.0,0.0,-13.0,0.0,2.0,0.0,0.0,0.0,6.60216716498966e-10,6.172431647229884e-10,5.705354514890807e-10,5.204229975264307e-10,4.676663528485303e-10,4.1458750222939717e-10,3.6217275471523643e-10,3.098879907538473e-10,2.592410636552549e-10,2.128319272127822e-10,1.7113076813016115e-10,1.3476282777447304e-10,1.0439350033465164e-10,7.939872039634738e-11,5.915684060322997e-11,4.3000775131923936e-11,3.036033514476542e-11,2.0658656663671713e-11,1.3472586643605535e-11,8.397594586528322e-12,5.020568736298872e-12,2.9013260825779574e-12,1.6208412599217474e-12,8.732678262168818e-13,4.585495586995654e-13,2.328405428616591e-13,5.444810274228279e-09,4.246156922858864e-09,3.319123075897575e-09,2.598740434864899e-09,2.0232390090261794e-09,1.5672361407074165e-09,1.2088046524620736e-09,9.234081773258827e-10,6.968115330937804e-10,5.163145860152245e-10,3.729489854807748e-10,2.6411417629337476e-10,1.823188938563063e-10,1.224392289987427e-10,8.048240476455361e-11,5.183273253026409e-11,3.2934494895971847e-11,2.071445682616547e-11,1.2791762204861765e-11
0.0,6,6.0,0.0,30.0,0.0,0.0,0.0,0.0,-13.0,0.0,2.0,0.0,0.0,0.0,6.60246053768083e-10,6.17273563079754e-10,5.705673667605022e-10,5.204571621889177e-10,4.677038874489595e-10,4.1462999802932904e-10,3.622225995679287e-10,3.099493035390653e-10,2.593202787898105e-10,2.129370694851925e-10,1.712695006127182e-10,1.349364338316854e-10,1.0459060047248308e-10,7.959585294195968e-11,5.932621760397056e-11,4.312216765573199e-11,3.0429331602834115e-11,2.0684521407505704e-11,1.3471158403006337e-11,8.383520129948849e-12,5.003818743139381e-12,2.8867398876224205e-12,1.609765612944637e-12,8.657835311783476e-13,4.5377470271790353e-13,2.302379104757765e-13,5.444718472178357e-09,4.246064000733652e-09,3.319028724772077e-09,2.5986441989728e-09,2.0231404491587456e-09,1.5671348147060523e-09,1.2086996191027977e-09,9.232984052963591e-10,6.966967886017184e-10,5.161941093471406e-10,3.728201120634939e-10,2.639782055959231e-10,1.821916153014793e-10,1.2235100338996819e-10,8.045860916128054e-11,5.187317555845369e-11,3.30113333255375e-11,2.0792194375755165e-11,1.2848835229389361e-11
0.0,7,7.0,0.0,30.0,0.0,0.0,0.0,0.0,-13.0,0.0,2.0,0.0,0.0,0.0,6.602767017229927e-10,6.173054059904897e-10,5.70600909161653e-10,5.204932087079748e-10,4.677436583590475e-10,4.146752120107524e-10,3.6227582173490313e-10,3.100149326272851e-10,2.5940509113688353e-10,2.1304928817979242e-10,1.7141656307880475e-10,1.35118679941415e-10,1.0479514328781501e-10,7.979784153226025e-11,5.949734233819536e-11,4.324277983003392e-11,3.0496248139910754e-11,2.0708132427818685e-11,1.346793511732087e-11,8.368261905207172e-12,4.986380718351133e-12,2.871793237203633e-12,1.5985193547719132e-12,8.582389792875418e-13,4.4897869306983133e-13,2.276344016055623e-13,5.444622361372494e-09,4.245966738521876e-09,3.318929989424681e-09,2.598543523905889e-09,2.0230374002713898e-09,1.5670289279446234e-09,1.208589905401595e-09,9.231838653297889e-10,6.965772580551442e-10,5.160687275276556e-10,3.7268615969896585e-10,2.6383780915204253e-10,1.8206248533691322e-10,1.2226506971379222e-10,8.044067453915381e-11,5.1920505821526795e-11,3.309346614118844e-11,2.087263864340026e-11,1.2906742235230872e-11
0.0,8,8.0,0.0,30.0,0.0,0.0,0.0,0.0,-13.0,0.0,2.0,0.0,0.0,0.0,6.60308804436646e-10,6.173388517202993e-10,5.706362554245235e-10,5.205313380922347e-10,4.677858981972019e-10,4.147234170672128e-10,3.6233274565814533e-10,3.100852688336086e-10,2.5949596571831217e-10,2.131691029380399e-10,1.7157247043555593e-10,1.3530998832166558e-10,1.0500738843030943e-10,8.000477372431711e-11,5.967018301240317e-11,4.336253477994057e-11,3.056101323581287e-11,2.0729438276225493e-11,1.3462880158124086e-11,8.351792334873433e-12,4.9682335482924486e-12,2.8564713820588207e-12,1.5870932527661236e-12,8.506285963050662e-13,4.441588187942012e-13,2.2502785347649395e-13,5.444521679424896e-09,4.245864873432275e-09,3.3188266060172658e-09,2.5984381457361323e-09,2.0229295991218254e-09,1.5669182142331891e-09,1.2084752426415724e-09,9.230642953186039e-10,6.964526836273145e-10,5.159381705085957e-10,3.725468773185793e-10,2.636928797570186e-10,1.8193166773049398e-10,1.2218183434892507e-10,8.042905772510051e-11,5.1975042116032824e-11,3.318102594733315e-11,2.0955806554458057e-11,1.2965470961427634e-11
0.0,9,9.0,0.0,30.0,0.0,0.0,0.0,0.0,-13.0,0.0,2.0,0.0,0.0,0.0,6.603425182090138e-10,6.173740719127112e-10,5.706735970619606e-10,5.205717678268541e-10,4.678308580708194e-10,4.147749069067457e-10,3.6239371917492575e-10,3.1016072870077506e-10,2.595933935092121e-10,2.1329705457367583e-10,1.7173774705077505e-10,1.3551077396387728e-10,1.0522757300866226e-10,8.021670679636317e-11,5.984467930488912e-11,4.3481335186762315e-11,3.062354413628447e-11,2.074838334824315e-11,1.3455956813142385e-11,8.33408555723939e-12,4.949358189837785e-12,2.8407613134038475e-12,1.5754793134118e-12,8.429475577747668e-13,4.393128071152314e-13,2.2241626531485315e-13,5.444416160656681e-09,4.245758139534012e-09,3.3187183077776238e-09,2.598327798047531e-09,2.022816780333901e-09,1.5668024053431985e-09,1.2083553609893342e-09,9.229394336688888e-10,6.963228080527097e-10,5.1580216871228e-10,3.7240202263849194e-10,2.635433393865596e-10,1.8179937533494207e-10,1.221017538143339e-10,8.042424563886229e-11,5.2037107762826173e-11,3.3274134520681206e-11,2.1041701769734566e-11,1.3024999487104795e-11
0.0,10,10.0,0.0,30.0,0.0,0.0,0.0,0.0,-13.0,0.0,2.0,0.0,0.0,0.0,6.603780134422816e-10,6.174112535316052e-10,5.707131423838418e-10,5.206147339717394e-10,4.678788097671999e-10,4.148299983466641e-10,3.6245911590541437e-10,3.1024175688295907e-10,2.596978935672857e-10,2.134337066374799e-10,1.7191292765295716e-10,1.3572144521174632e-10,1.0545591246279284e-10,8.043366926393068e-11,6.002074427811978e-11,4.359906496522226e-11,3.0683747808226437e-11,2.076490807975326e-11,1.3447128011789906e-11,8.31511700680955e-12,4.929737306182766e-12,2.8246515086538086e-12,1.5636706232882106e-12,8.351917017739099e-13,4.344387769668896e-13,2.1979778467606056e-13,5.444305535030882e-09,4.245646266677708e-09,3.318604823917399e-09,2.5982122108550624e-09,2.022698675263263e-09,1.5666812298354352e-09,1.2082299883952579e-09,9.22809018160108e-10,6.961873732061336e-10,5.156604517465996e-10,3.7225136216608683e-10,2.6338914080999273e-10,1.816658718765569e-10,1.2202533508509935e-10,8.042675422652995e-11,5.210702962341531e-11,3.337290292031962e-11,2.1130315620918875e-11,1.3085297110501917e-11
0.0,11,11.0,0.0,30.0,0.0,0.0,0.0,0.0,-13.0,0.0,2.0,0.0,0.0,0.0,6.60415476585357e-10,6.174506008718878e-10,5.707551185799347e-10,5.206604933223439e-10,4.679300480002149e-10,4.1488903365228367e-10,3.6252933765987694e-10,3.103288284963462e-10,2.598100150323289e-10,2.1357964671871717e-10,1.7209855782873452e-10,1.3594240383630245e-10,1.0569260089908362e-10,8.065566189806856e-11,6.019826589664717e-11,4.3715590693877625e-11,3.074152180177376e-11,2.077894916875023e-11,1.343635613531289e-11,8.294863085816293e-12,4.9093549721173975e-12,2.8081317207723395e-12,1.5516612148374656e-12,8.273574539330535e-13,4.29535198375574e-13,2.171706960055548e-13,5.444189527278637e-09,4.245528979610512e-09,3.318485878749555e-09,2.5980911097270468e-09,2.022575011067344e-09,1.566554412105531e-09,1.208098849730678e-09,9.226727850349155e-10,6.960461189096286e-10,5.155127474476353e-10,3.72094671728951e-10,2.632302698262257e-10,1.815314742362359e-10,1.2195313612275193e-10,8.043712735371792e-11,5.218513691864653e-11,3.347743133623071e-11,2.122162780138399e-11,1.3146325055420777e-11
0.0,12,12.0,0.0,30.0,0.0,0.0,0.0,0.0,-13.0,0.0,2.0,0.0,0.0,0.0,6.604551121665146e-10,6.174923376574268e-10,5.70799773887641e-10,5.207093256510552e-10,4.679848927308727e-10,4.1495238293804685e-10,3.6260481688399314e-10,3.104224514547647e-10,2.599303390157792e-10,2.1373548751159765e-10,1.7229519416583474e-10,1.361740446830458e-10,1.0593781098670316e-10,8.088265834598332e-11,6.037710822888375e-11,4.383076284029502e-11,3.0796755025915744e-11,2.079043980735522e-11,1.3423602889771784e-11,8.273300907810695e-12,4.888196435992377e-12,2.791192803896226e-12,1.5394459530241127e-12,8.194417630023046e-13,4.2460085684343854e-13,2.1453341128283094e-13,5.4440678561792335e-09,4.245405997246791e-09,3.3183611909663234e-09,2.5979642150706204e-09,2.0224455099378624e-09,1.5664216716053339e-09,1.2079616661180702e-09,9.225304682684954e-10,6.958987819166239e-10,5.153587812137184e-10,3.7193173750104045e-10,2.6306674808136936e-10,1.813965551548256e-10,1.218857665546448e-10,8.045593563684083e-11,5.227175988320475e-11,3.35878087387843e-11,2.1315606868970353e-11,1.3208037038913154e-11
0.0,13,13.0,0.0,30.0,0.0,0.0,0.0,0.0,-13.0,0.0,2.0,0.0,0.0,0.0,6.604971449312289e-10,6.175367092428484e-10,5.708473798607202e-10,5.207615360448239e-10,4.680436915771469e-10,4.150204466460737e-10,3.626860191562752e-10,3.105231688023523e-10,2.600594803914201e-10,2.1390186766323934e-10,1.7250340407398999e-10,1.3641675494729932e-10,1.0619169349104486e-10,8.111460543389669e-11,6.055711239643957e-11,4.3944416816270445e-11,3.0849328445354586e-11,2.0799309913961317e-11,1.3408829225492131e-11,8.250408098472426e-12,4.866247928078755e-12,2.7738265691868927e-12,1.5270204396289599e-12,8.114420454919395e-13,4.1963482201229765e-13,2.1188446260729821e-13,5.4439402339649514e-09,4.245277032065531e-09,3.3182304730485963e-09,2.5978312415497428e-09,2.0223098884638126e-09,1.5662827222086703e-09,1.2078181544207118e-09,9.223817989777626e-10,6.957450950355868e-10,5.151982756102273e-10,3.717623575166261e-10,2.628986364410627e-10,1.81261546306252e-10,1.218238884434929e-10,8.04837751891026e-11,5.236722827849951e-11,3.370411237672471e-11,2.1412210605066497e-11,1.3270379727597601e-11
0.0,14,14.0,0.0,30.0,0.0,0.0,0.0,0.0,-13.0,0.0,2.0,0.0,0.0,0.0,6.605418221008749e-10,6.17583984934299e-10,5.708982337534307e-10,5.208174573528302e-10,4.681068223262745e-10,4.150936581144581e-10,3.62773445747958e-10,3.1063156105020925e-10,2.601980894914917e-10,2.140794524106275e-10,1.7272376530467318e-10,1.3667091311953154e-10,1.0645437650391058e-10,8.135142321611168e-11,6.073809732296616e-11,4.4056373892846405e-11,3.089911570648023e-11,2.0805486358829562e-11,1.3391995290703167e-11,8.226162641991754e-12,4.843496507001112e-12,2.7560256659202026e-12,1.5143809324547785e-12,8.033561381285781e-13,4.146364200030496e-13,2.0922249659124155e-13,5.443806365829317e-09,4.245141789612365e-09,3.318093430784111e-09,2.5976918976117738e-09,2.0221678571003385e-09,1.5661372716980043e-09,1.207668026866005e-09,9.222265049384904e-10,6.955847863653272e-10,5.150309502370964e-10,3.7158634367549535e-10,2.627260389010684e-10,1.8112694168990354e-10,1.2176821709323484e-10,8.052126625732851e-11,5.247186977919828e-11,3.38264071601898e-11,2.151138626479193e-11,1.3333293104789363e-11
0.0,15,15.0,0.0,30.0,0.0,0.0,0.0,0.0,-13.0,0.0,2.0,0.0,0.0,0.0,6.60589415766842e-10,6.176344604430168e-10,5.709526610331434e-10,5.208774527564285e-10,4.681746955609218e-10,4.151724862453702e-10,3.6286763625266166e-10,3.1074824851976737e-10,2.603468537068742e-10,2.1426893400708567e-10,1.7295686518194702e-10,1.3693688763181936e-10,1.0672596441781698e-10,8.159300482209317e-11,6.091986032500718e-11,4.416644200008211e-11,3.094598370004206e-11,2.0808893178881692e-11,1.3373060410177736e-11,8.200542763881751e-12,4.81992993751796e-12,2.737783483695635e-12,1.501524277164019e-12,7.951822570482783e-13,4.0960520891989867e-13,2.0654627043013224e-13,5.443665949521721e-09,4.244999968089407e-09,3.3179497628774887e-09,2.5975458851042936e-09,2.0220191197245603e-09,1.565985021354521e-09,1.2075109907823726e-09,9.220643101843028e-10,6.954175786222304e-10,5.14856521861994e-10,3.7140352425361577e-10,2.6254910702732345e-10,1.8099330129896634e-10,1.2171952184107908e-10,8.056905172610108e-11,5.258600824393197e-11,3.395474495726041e-11,2.1613070745699363e-11,1.3396710766455928e-11
0.0,16,16.0,0.0,30.0,0.0,0.0,0.0,0.0,-13.0,0.0,2.0,0.0,0.0,0.0,6.606402254336679e-10,6.17688460484528e-10,5.710110180333256e-10,5.209419184723274e-10,4.682477574091153e-10,4.1525743828111475e-10,3.629691712905102e-10,3.1087389369195217e-10,2.605064989853033e-10,2.1447103193321808e-10,1.7320329955025575e-10,1.372150352288468e-10,1.0700653668263587e-10,8.18392161439529e-11,6.110217757974607e-11,4.4274416432395517e-11,3.0989793067525446e-11,2.0809451779135026e-11,1.3351983082037132e-11,8.173526843053243e-12,4.795536594195545e-12,2.7190940723549044e-12,1.4884478498365938e-12,7.869189628023428e-13,4.0454095708993523e-13,2.038546495229875e-13,5.443518675015613e-09,4.2448512580196946e-09,3.3177991606387847e-09,2.5973928989676393e-09,2.0218633732635487e-09,1.5658256656384554e-09,1.2073467484336297e-09,9.218949346658669e-10,6.952431885467842e-10,5.146747048320005e-10,3.7121374694239083e-10,2.623680449219682e-10,1.8086125502451858e-10,1.2167862678820545e-10,8.06277954664634e-11,5.270996187769323e-11,3.408916382665321e-11,2.1717190696686787e-11,1.346056016064459e-11
0.0,17,17.0,0.0,30.0,0.0,0.0,0.0,0.0,-13.0,0.0,2.0,0.0,0.0,0.0,6.606945807239807e-10,6.177463415353573e-10,5.710736947577682e-10,5.210112865988102e-10,4.683264924264946e-10,4.1534906269454826e-10,3.6307867528893387e-10,3.110092035578532e-10,2.6067779121743786e-10,2.1468649288275428e-10,1.734636714401452e-10,1.3750569908119554e-10,1.072961463759893e-10,8.208989539943729e-11,6.128480449840394e-11,4.4380080476775067e-11,3.103039865755074e-11,2.080708111940701e-11,1.3328720987670087e-11,8.14509334753067e-12,4.770305386551412e-12,2.699952076785038e-12,1.4751495086410962e-12,7.785651303810956e-13,3.994436236745116e-13,2.01146606519713e-13,5.443364224240038e-09,4.2446953419763495e-09,3.3176413077404436e-09,2.5972326269915156e-09,2.021700307383155e-09,1.565658891950432e-09,1.207174996937817e-09,9.21718093951708e-10,6.950613263827755e-10,5.144852117856383e-10,3.7101688244734235e-10,2.621831147153363e-10,1.8073150675651094e-10,1.2164641142326379e-10,8.069818050752009e-11,5.2844041291718047e-11,3.4229687204864625e-11,2.182366258432152e-11,1.3524762782335978e-11
0.0,18,18.0,0.0,30.0,0.0,0.0,0.0,0.0,-13.0,0.0,2.0,0.0,0.0,0.0,6.607528442573078e-10,6.178084947582979e-10,5.711411178459891e-10,5.210860281137632e-10,4.684114266182223e-10,4.154479521986504e-10,3.6319681934009774e-10,3.1115493196347975e-10,2.6086153749687924e-10,2.1491609050996804e-10,1.7373858944924602e-10,1.3780920665460316e-10,1.0759481861375459e-10,8.234485259984384e-11,6.146747602905982e-11,4.448320597815112e-11,3.1067649937866635e-11,2.0801697885730045e-11,1.3303231011076003e-11,8.115220789405623e-12,4.744225702068761e-12,2.6803526842577657e-12,1.4616275532679235e-12,7.701199235736613e-13,3.943133413464426e-13,1.9842122167046142e-13,5.443202270866841e-09,4.2445318943686e-09,3.3174758800345797e-09,2.5970647496263497e-09,2.0215296042287156e-09,1.5654843804670112e-09,1.2069954282595396e-09,9.215334989547766e-10,6.948716954285069e-10,5.142877546959323e-10,3.70812828683833e-10,2.619946425858322e-10,1.806048386426065e-10,1.2162381109377705e-10,8.078090701051007e-11,5.298854746578343e-11,3.437632306292363e-11,2.193239273025757e-11,1.3589234333516479e-11
0.0,19,19.0,0.0,30.0,0.0,0.0,0.0,0.0,-13.0,0.0,2.0,0.0,0.0,0.0,6.608154147141078e-10,6.178753491065096e-10,5.71213753708869e-10,5.211666560322947e-10,4.68503130606704e-10,4.1555474687845776e-10,3.633243241326148e-10,3.1131188193810453e-10,2.610585872367711e-10,2.151606249221416e-10,1.7402866583314592e-10,1.3812586734604684e-10,1.0790254882335659e-10,8.260386894787319e-11,6.164990690860151e-11,4.4583553853661306e-11,3.110139136778772e-11,2.079321664648283e-11,1.3275469264981577e-11,8.083887695585733e-12,4.717287364150873e-12,2.6602915823535067e-12,1.447880690984772e-12,7.615827730751999e-13,3.891504007748351e-13,1.956776843529686e-13,5.443032480147206e-09,4.244360581278849e-09,3.317302545424594e-09,2.596888939841733e-09,2.0213509382110427e-09,1.5653018040460151e-09,1.206807729265996e-09,9.213408556705823e-10,6.946739916650769e-10,5.140820462837793e-10,3.7060151561322845e-10,2.6180302531008757e-10,1.8048211546452596e-10,1.216118172809673e-10,8.087669002631358e-11,5.3143769617616474e-11,3.452906304561357e-11,2.204327733063841e-11,1.3653884856527123e-11
0.0,20,20.0,0.0,30.0,0.0,0.0,0.0,0.0,-13.0,0.0,2.0,0.0,0.0,0.0,6.608827300956605e-10,6.17947374615881e-10,5.712921118426674e-10,5.212537287307395e-10,4.686022229501148e-10,4.15670137446961e-10,3.634619629528691e-10,3.1148090799260617e-10,2.6126983312228963e-10,2.1542092189780307e-10,1.7433451429880772e-10,1.3845596989562353e-10,1.0821930089985666e-10,8.286669618695815e-11,6.183179188017699e-11,4.468087456537025e-11,3.113146273523608e-11,2.0781549993619666e-11,1.3245391121873014e-11,8.051072591653188e-12,4.689480602621855e-12,2.6397649258407577e-12,1.4339080083534304e-12,7.529533578349006e-13,3.8395523669998103e-13,1.929152956506468e-13,5.442854508793004e-09,4.244181060346083e-09,3.3171209637859634e-09,2.5967048630254285e-09,2.0211639758325595e-09,1.5651108281988744e-09,1.2066115818379126e-09,9.211398649146744e-10,6.9446790347278e-10,5.138678018496677e-10,3.703829107681404e-10,2.616087373450521e-10,1.803642890891169e-10,1.2161147763346065e-10,8.098625701880956e-11,5.3309982984365153e-11,3.4687881604343904e-11,2.215620246614658e-11,1.3718618847361625e-11
0.0,21,21.0,0.0,30.0,0.0,0.0,0.0,0.0,-13.0,0.0,2.0,0.0,0.0,0.0,6.609552711897663e-10,6.18025085894317e-10,5.713767483287143e-10,5.213478534428966e-10,4.687093736155564e-10,4.157948686249289e-10,3.636105647488736e-10,3.116629183710893e-10,2.6149621187513413e-10,2.1569783180906353e-10,1.7465674749182806e-10,1.3879977958208347e-10,1.0854500526298205e-10,8.31330559208744e-11,6.20128058897386e-11,4.4774908559141376e-11,3.1157699461924236e-11,2.0766608669647267e-11,1.3212951248699875e-11,8.016753996746533e-12,4.6607960348150875e-12,2.6187693111521825e-12,1.419708947794889e-12,7.442315892061142e-13,3.787284154158537e-13,1.9013347185019264e-13,5.44266800489881e-09,4.243992980692111e-09,3.3169307869323205e-09,2.596512176917407e-09,2.020968375550054e-09,1.5649111111285514e-09,1.2064066630265312e-09,9.20930222048566e-10,6.942531114530937e-10,5.136447415807879e-10,3.7015702551985983e-10,2.6141233844171276e-10,1.8025240294809126e-10,1.216238957150396e-10,8.11103451381315e-11,5.3487446521646215e-11,3.485273513362476e-11,2.2271044109559894e-11,1.3783335354456433e-11
0.0,22,22.0,0.0,30.0,0.0,0.0,0.0,0.0,-13.0,0.0,2.0,0.0,0.0,0.0,6.610335652513657e-10,6.181090458156904e-10,5.714682695250757e-10,5.214496899332722e-10,4.68825307609387e-10,4.159297426428229e-10,3.6377101724700067e-10,3.118588772357983e-10,2.6173870480296856e-10,2.1599222822430273e-10,1.7499597416798803e-10,1.3915753520936807e-10,1.0887955683198442e-10,8.340263892026055e-11,6.219260427294826e-11,4.4865386675776893e-11,3.11799328796586e-11,2.0748301681170463e-11,1.3178103644472056e-11,7.98091042785066e-12,4.6312246556433755e-12,2.5973017573191845e-12,1.4052832883151214e-12,7.354175975201634e-13,3.734706235074009e-13,1.873317487222263e-13,5.442472607901451e-09,4.2437959828879436e-09,3.3167316586236603e-09,2.5963105315741075e-09,2.020763787671672e-09,1.564702303832635e-09,1.2061926452478678e-09,9.207116166849268e-10,6.940292883807706e-10,5.134125933998888e-10,3.699239221449428e-10,2.612144817869632e-10,1.8014759649627016e-10,1.2165023042107911e-10,8.12496982295902e-11,5.367640052651506e-11,3.502356112018542e-11,2.238766813619845e-11,1.384792806762875e-11
0.0,23,23.0,0.0,30.0,0.0,0.0,0.0,0.0,-13.0,0.0,2.0,0.0,0.0,0.0,6.611181899063619e-10,6.181998694252867e-10,5.715673359555319e-10,5.215599543510611e-10,4.689508087659712e-10,4.1607562286108576e-10,3.6394427010917883e-10,3.120698067619259e-10,2.6199833810362426e-10,2.1630500616561983e-10,1.7535279603915556e-10,1.3952944589150703e-10,1.0922281293443388e-10,8.367510443091098e-11,6.237082294172103e-11,4.4952030539170656e-11,3.1197990480257143e-11,2.0726536399957894e-11,1.314080168033657e-11,7.943520412255064e-12,4.600757835328168e-12,2.5753596924113464e-12,1.3906311298086163e-12,7.265117207546344e-13,3.681826577145012e-13,1.8450978644189705e-13,5.442267948575109e-09,4.243589698958348e-09,3.3165232146136438e-09,2.596099569358464e-09,2.0205498542869772e-09,1.5644840502718519e-09,1.2059691965047002e-09,9.204837323646262e-10,6.937960993184873e-10,5.131710964320774e-10,3.6968372175101375e-10,2.6101592266586163e-10,1.8005110959341108e-10,1.2169169501773152e-10,8.140506356592713e-11,5.387706419170939e-11,3.520027731310368e-11,2.2505930341412382e-11,1.3912285401082285e-11
0.0,24,24.0,0.0,30.0,0.0,0.0,0.0,0.0,-13.0,0.0,2.0,0.0,0.0,0.0,6.612097772859471e-10,6.182982280625048e-10,5.716746664000877e-10,5.216794232673948e-10,4.690867236946146e-10,4.162334375029679e-10,3.6413133811514535e-10,3.1229678911533423e-10,2.62276182890766e-10,2.1663707999391987e-10,1.7572780428362128e-10,1.3991568764364807e-10,1.0957459116462499e-10,8.395007949725409e-11,6.25470785779735e-11,4.5034552925048367e-11,3.1211696141162234e-11,2.070121865257094e-11,1.3100998141998858e-11,7.904562507233754e-12,4.569387323697455e-12,2.552940944680532e-12,1.3757528804451096e-12,7.175144950107431e-13,3.62865415816505e-13,1.8166737499767375e-13,5.442053649059205e-09,4.243373752422779e-09,3.316305082733631e-09,2.595878924951778e-09,2.020326209229935e-09,1.5642559876048217e-09,1.2057359806261146e-09,9.202462462004796e-10,6.935532019354383e-10,5.129200051759266e-10,3.694366131241663e-10,2.608175276309313e-10,1.7996428674929163e-10,1.2174955575736913e-10,8.157718829264413e-11,5.408963309966929e-11,3.5382780922771886e-11,2.2625676468220757e-11,1.3976290573810737e-11
0.0,25,25.0,0.0,30.0,0.0,0.0,0.0,0.0,-13.0,0.0,2.0,0.0,0.0,0.0,6.6130901839764e-10,6.184048537054401e-10,5.717910421900617e-10,5.218089378971274e-10,4.69233965882875e-10,4.1640418349176577e-10,3.643333043510992e-10,3.125409682824075e-10,2.625733549046099e-10,2.1698938089319857e-10,1.7612157571136126e-10,1.4031639978777748e-10,1.0993466720711509e-10,8.422715831319694e-11,6.272096884063576e-11,4.511265811285869e-11,3.122087032848666e-11,2.067225279967022e-11,1.3058645274571451e-11,7.864015326232546e-12,4.537105260148198e-12,2.530043737734871e-12,1.3606492467192394e-12,7.084266465515597e-13,3.575198884492033e-13,1.7880443992922205e-13,5.4418293229176595e-09,4.243147758371849e-09,3.3160768830111357e-09,2.595648225383658e-09,2.0200924780756934e-09,1.5640177464899092e-09,1.2054926575131524e-09,9.199988284852605e-10,6.93300247081467e-10,5.126590944760885e-10,3.6918286256181706e-10,2.606202841583924e-10,1.7988858116580242e-10,1.2182513002331985e-10,8.17668155784398e-11,5.4314276666083664e-11,3.5570947856092007e-11,2.274674224731177e-11,1.4039821690249637e-11
0.0,26,26.0,0.0,30.0,0.0,0.0,0.0,0.0,-13.0,0.0,2.0,0.0,0.0,0.0,6.614166677380044e-10,6.185205435406748e-10,5.719173117094828e-10,5.219494085050324e-10,4.693935199526663e-10,4.1658893038177694e-10,3.6455132338253905e-10,3.1280355171725e-10,2.628910138681859e-10,2.1736285392455507e-10,1.7653466857549857e-10,1.4073168118277243e-10,1.1030277264095859e-10,8.450590161144086e-11,6.289207259062953e-11,4.5186042222499194e-11,3.1225330278954684e-11,2.063954180618357e-11,1.301369483010065e-11,7.821857571032038e-12,4.503904188521425e-12,2.5066666891764927e-12,1.3453212258055074e-12,6.992490851839746e-13,3.521471517809166e-13,1.759210482244147e-13,5.441594575228033e-09,4.242911323577995e-09,3.315838227820044e-09,2.595407090076559e-09,2.019848278173134e-09,1.5637689514550088e-09,1.2052388833779335e-09,9.197411422652122e-10,6.930368796799671e-10,5.12388165405766e-10,3.6892282475516366e-10,2.60425310763109e-10,1.7982555850343305e-10,1.2191978395672277e-10,8.197468046528961e-11,5.4551135544015593e-11,3.576463199490295e-11,2.2868953450812578e-11,1.4102751823622043e-11
0.0,27,27.0,0.0,30.0,0.0,0.0,0.0,0.0,-13.0,0.0,2.0,0.0,0.0,0.0,6.615335481506436e-10,6.186461647602014e-10,5.720543951031111e-10,5.221018189947582e-10,4.695664460636302e-10,4.16788824369428e-10,3.6478662438517076e-10,3.1308581176718163e-10,2.63230362446574e-10,2.1775845461971964e-10,1.7696761802239224e-10,1.4116158628978598e-10,1.1067859274036992e-10,8.478583610138941e-11,6.305995013729273e-11,4.5254393536812534e-11,3.122489016198884e-11,2.0602987303576665e-11,1.2966098118150447e-11,7.778068069496296e-12,4.469777076261755e-12,2.482808812223451e-12,1.3297700999143547e-12,6.89982898795663e-13,3.46748360987464e-13,1.7301741419657798e-13,5.441349002698909e-09,4.242664046640159e-09,3.315588722060545e-09,2.595155130901631e-09,2.0195932187160634e-09,1.563509221335692e-09,1.2049743109621442e-09,9.194728428848078e-10,6.927627400160024e-10,5.121070521790701e-10,3.686569547846175e-10,2.6023386753457553e-10,1.797769002927717e-10,1.2203492951834106e-10,8.220150541547603e-11,5.480031900101601e-11,3.596366452425348e-11,2.2992125960537933e-11,1.4164949104088124e-11
0.0,28,28.0,0.0,30.0,0.0,0.0,0.0,0.0,-13.0,0.0,2.0,0.0,0.0,0.0,6.616605559314837e-10,6.187826595858138e-10,5.722032891898177e-10,5.222672316771982e-10,4.697538844560501e-10,4.170050923678632e-10,3.6504051420353274e-10,3.133890868330406e-10,2.635926447635494e-10,2.1817714508345605e-10,1.7742093117429504e-10,1.416061210855418e-10,1.1106176428780581e-10,8.506645396483663e-11,6.322414350858697e-11,4.531739281013868e-11,3.1219361223044977e-11,2.0562489645537938e-11,1.2915806059924384e-11,7.732625818626396e-12,4.4347173373335986e-12,2.4584695199118055e-12,1.3139974323892064e-12,6.806293488808766e-13,3.413247444758634e-13,1.7009390515310769e-13,5.441092193814373e-09,4.242405518161286e-09,3.31532796336566e-09,2.594891952242966e-09,2.019326900857182e-09,1.5632381697812926e-09,1.2046985897192995e-09,9.191935775144559e-10,6.9247746551124e-10,5.118156302252369e-10,3.6838582128918947e-10,2.6004736704534246e-10,1.797444069046237e-10,1.2217202093865484e-10,8.244799555590678e-11,5.506190228298078e-11,3.616785331674384e-11,2.311606585075977e-11,1.4226276813520303e-11
0.0,29,29.0,0.0,30.0,0.0,0.0,0.0,0.0,-13.0,0.0,2.0,0.0,0.0,0.0,6.617986661816153e-10,6.189310505195664e-10,5.723650725783509e-10,5.224467922130893e-10,4.699570601231593e-10,4.1723904612473085e-10,3.6531438030231577e-10,3.13714782216053e-10,2.6397914442713505e-10,2.1861988957411863e-10,1.778950818404159e-10,1.4206523883790107e-10,1.114518734157504e-10,8.534721241770217e-11,6.338417674635704e-11,4.537471356266254e-11,3.120855190920523e-11,2.0517947958453902e-11,1.2862769246479471e-11,7.68551003272309e-12,4.398718858447592e-12,2.4336486315360773e-12,1.2980050653227862e-12,6.711898669099956e-13,3.3587759881463913e-13,1.6715104665765804e-13,5.440823729004357e-09,4.242135320958823e-09,3.3150555423318704e-09,2.5946171510674516e-09,2.0190489178697888e-09,1.5629554058274813e-09,1.204411365943799e-09,9.18902984680263e-10,6.921806930942862e-10,5.115138255688651e-10,3.68110120866953e-10,2.5986738557094693e-10,1.797299999851115e-10,1.2233255051041031e-10,8.271483362336598e-11,5.533592397984862e-11,3.6376982378714333e-11,2.3240569484943265e-11,1.4286593488463703e-11
0.0,30,30.0,0.0,30.0,0.0,0.0,0.0,0.0,-13.0,0.0,2.0,0.0,0.0,0.0,6.619489384060334e-10,6.19092445817013e-10,5.725409109806578e-10,5.226417347226138e-10,4.701772875999764e-10,4.174920863589793e-10,3.6560969357031264e-10,3.14064370598134e-10,2.6439118201279563e-10,2.1908764953195452e-10,1.7839050485447643e-10,1.425388357599942e-10,1.1184845349375498e-10,8.562753334513384e-11,6.353955622690211e-11,4.5426022359838665e-11,3.1192267978007104e-11,2.046926018812835e-11,1.2806938001642372e-11,7.636700196524868e-12,4.361776028219541e-12,2.4083463810393223e-12,1.2817951185027553e-12,6.616660514152995e-13,3.3040828433520544e-13,1.641895271791007e-13,5.440543180839796e-09,4.241853030307232e-09,3.314771042770122e-09,2.5943303169980266e-09,2.018758855363551e-09,1.56266053453227e-09,1.2041122828286313e-09,9.186006938244245e-10,6.918720622943386e-10,5.112016256724498e-10,3.678306937576573e-10,2.5969567454643444e-10,1.7973572425487312e-10,1.2251804367934523e-10,8.30026746179447e-11,5.562238340951626e-11,3.659081136354786e-11,2.3365423625326484e-11,1.4345753032607927e-11
0.0,31,31.0,0.0,30.0,0.0,0.0,0.0,0.0,-13.0,0.0,2.0,0.0,0.0,0.0,6.621125223544476e-10,6.192680451778361e-10,5.727320627158766e-10,5.228533870525156e-10,4.704159758527331e-10,4.1776570688805427e-10,3.6592801093138533e-10,3.14439392097316e-10,2.648301119503762e-10,2.1958137802548656e-10,1.789075900395037e-10,1.4302674656129748e-10,1.122509830775276e-10,8.590680301630683e-11,6.368977100613816e-11,4.547097907580381e-11,3.11703125905029e-11,2.0416323144280215e-11,1.274826245027629e-11,7.586176123232994e-12,4.3238837689376495e-12,2.38256342710816e-12,1.265369989523227e-12,6.520596656803409e-13,3.249182213727439e-13,1.6121020191524885e-13,5.4402501142514565e-09,4.241558214212348e-09,3.3144740419737942e-09,2.59403103238868e-09,2.018456291561506e-09,1.5623531576702705e-09,1.203800980432579e-09,9.182863249364199e-10,6.915512192076765e-10,5.108790919095375e-10,3.6754854085051693e-10,2.5953417216908573e-10,1.7976374856422034e-10,1.227300533909108e-10,8.331214017576483e-11,5.592123803755829e-11,3.6809075156775466e-11,2.3490405553681174e-11,1.4403604839867017e-11
0.0,32,32.0,0.0,30.0,0.0,0.0,0.0,0.0,-13.0,0.0,2.0,0.0,0.0,0.0,6.622906640980078e-10,6.19459145646259e-10,5.7293988439596e-10,5.230831761888096e-10,4.706746332495916e-10,4.1806149871203394e-10,3.6627097771088704e-10,3.1484145383469674e-10,2.6529731875853943e-10,2.201020135875378e-10,1.7944667580361515e-10,1.4352873991618602e-10,1.126588839369879e-10,8.618437188418627e-11,6.383429318770667e-11,4.550923713940605e-11,3.114248638961537e-11,2.0359032544437976e-11,1.2686692592570877e-11,7.533918017369013e-12,4.285037570660728e-12,2.3563008647666438e-12,1.2487323549220946e-12,6.423726359344035e-13,3.194088871187316e-13,1.5821409557294139e-13,5.439944086771675e-09,4.241250433717137e-09,3.3141641109993574e-09,2.5937188724001503e-09,2.018140797646702e-09,1.5620328744776575e-09,1.2034770955377768e-09,9.179594883097571e-10,6.912178215106349e-10,5.105463738481756e-10,3.6726484204939227e-10,2.5938501503981287e-10,1.798163660891129e-10,1.2297015365372505e-10,8.36438126762964e-11,5.6232400951436794e-11,3.7031483536984726e-11,2.3615283201085732e-11,1.4459993928940293e-11
0.0,33,33.0,0.0,30.0,0.0,0.0,0.0,0.0,-13.0,0.0,2.0,0.0,0.0,0.0,6.624847123332182e-10,6.196671477111843e-10,5.731658367814796e-10,5.233326338004009e-10,4.709548725894913e-10,4.1838115401577515e-10,3.666403296994761e-10,3.152722289438077e-10,2.657942125683706e-10,2.2065047341420861e-10,1.8000804237396083e-10,1.4404451387273339e-10,1.1307151918022759e-10,8.645955447437281e-11,6.397257831148404e-11,4.554044376127959e-11,3.110858756497454e-11,2.0297283058943025e-11,1.262217838503946e-11,7.479906542428936e-12,4.245233527408075e-12,2.3295602382938964e-12,1.2318851722225769e-12,6.326070499643995e-13,3.1388181305770114e-13,1.5520240388570598e-13,5.4396246487982394e-09,4.240929243238106e-09,3.31384081495503e-09,2.593393405076444e-09,2.0178119381876663e-09,1.56169928243688e-09,1.2031402613790118e-09,9.176197844966398e-10,6.908715447194267e-10,5.102037255348544e-10,3.669809760139775e-10,2.592505497169885e-10,1.7989599354621143e-10,1.2323993228425554e-10,8.399822910395512e-11,5.655573840881236e-11,3.7257720915745036e-11,2.373981528405186e-11,1.451476108999143e-11
0.0,34,34.0,0.0,30.0,0.0,0.0,0.0,0.0,-13.0,0.0,2.0,0.0,0.0,0.0,6.626961249015752e-10,6.198935615934461e-10,5.734114907936637e-10,5.236034018959853e-10,4.712584161617499e-10,4.187264700441571e-10,3.670378948493149e-10,3.157334549477366e-10,2.663222238761437e-10,2.212276459024542e-10,1.8059190467976569e-10,1.4457369122675672e-10,1.1348819149014334e-10,8.673162936589772e-11,6.410406575908516e-11,4.556424014028403e-11,3.106841190558465e-11,2.023096835886197e-11,1.2554669828907016e-11,7.424122893312066e-12,4.204468375234221e-12,2.302343555319427e-12,1.2148316827731404e-12,6.227651560674321e-13,3.08338582961522e-13,1.521764936511449e-13,5.439291343879908e-09,4.2405941909316655e-09,3.3135037132923186e-09,2.593054191423442e-09,2.017469271652825e-09,1.561351978086693e-09,1.2027901072281624e-09,9.172668045544272e-10,6.905120899265898e-10,5.098515239783711e-10,3.6669854127865475e-10,2.591333440361331e-10,1.8000516929916316e-10,1.2354098280188388e-10,8.43758746883642e-11,5.689106748034723e-11,3.748744615886168e-11,2.386375144389787e-11,1.4567743043842537e-11
0.0,35,35.0,0.0,30.0,0.0,0.0,0.0,0.0,-13.0,0.0,2.0,0.0,0.0,0.0,6.629264755105068e-10,6.201400137048016e-10,5.73678533665977e-10,5.238972385732779e-10,4.715871008042278e-10,4.1909935279882085e-10,3.674655945301468e-10,3.162269314236964e-10,2.6688279746402107e-10,2.2183438250489055e-10,1.8119840489956728e-10,1.4511581488832147e-10,1.1390814149015589e-10,8.699983926548145e-11,6.422817917214775e-11,4.5580261647608505e-11,3.1021752841878025e-11,2.0159981168705796e-11,1.2484117066563226e-11,7.366548873506648e-12,4.162739532009977e-12,2.274653301971058e-12,1.197575415293266e-12,6.128493622756635e-13,3.027808314132635e-13,1.4913790107609678e-13,5.438943709023437e-09,4.240244819089818e-09,3.3131523600949223e-09,2.592700785492286e-09,2.017112351024371e-09,1.5609905578386095e-09,1.202426257820881e-09,9.169001307036118e-10,6.901391932759685e-10,5.094902900402805e-10,3.664193787300822e-10,2.590361980270685e-10,1.801465502230727e-10,1.2387489544925802e-10,8.4777176352493e-11,5.7238153807894083e-11,3.772029249023473e-11,2.3986832385829717e-11,1.4618772613812478e-11
0.0,36,36.0,0.0,30.0,0.0,0.0,0.0,0.0,-13.0,0.0,2.0,0.0,0.0,0.0,6.631774606380876e-10,6.20408253260423e-10,5.739687752156671e-10,5.242160238360138e-10,4.719428829225582e-10,4.1950182049745984e-10,3.679254442647713e-10,3.1675451686912365e-10,2.67477385426785e-10,2.2247148888409272e-10,1.818276046922307e-10,1.4567034327004068e-10,1.1433054625482293e-10,8.72633911752954e-11,6.434432687841619e-11,4.558813798691557e-11,3.0968401478963694e-11,2.0084213325940697e-11,1.241047048673274e-11,7.307166977013744e-12,4.120045138755395e-12,2.24649245897266e-12,1.1801201900428434e-12,6.02862235793422e-13,2.972102428299459e-13,1.460883282285962e-13,5.438581275022147e-09,4.239880664563588e-09,3.312786304358866e-09,2.5923327344723355e-09,2.016740724522239e-09,1.5606146187758922e-09,1.2020483326187103e-09,9.16519337548055e-10,6.89752637472835e-10,5.091207119433175e-10,3.6614559539984313e-10,2.589621542368866e-10,1.80322907189858e-10,1.242432473196441e-10,8.520249600291708e-11,5.7596709499228134e-11,3.7955867478450866e-11,2.4108790013797273e-11,1.4667678910035966e-11
0.0,37,37.0,0.0,30.0,0.0,0.0,0.0,0.0,-13.0,0.0,2.0,0.0,0.0,0.0,6.634509066007233e-10,6.207001590236237e-10,5.742841542126027e-10,5.245617654501423e-10,4.723278434269478e-10,4.19936006728604e-10,3.684195538549512e-10,3.173181246778782e-10,2.681074392427188e-10,2.2313971535306138e-10,1.8247947713614892e-10,1.462366457284819e-10,1.147545179802713e-10,8.752145665268158e-11,6.44519023199542e-11,4.558749332907287e-11,3.090814662316045e-11,2.0003555849363363e-11,1.2333680838988831e-11,7.245960474986975e-12,4.076384102393725e-12,2.217864518602912e-12,1.1624701235416403e-12,5.928065025929757e-13,2.9162855095111534e-13,1.4302963741100658e-13,5.438203566806644e-09,4.2395012592128515e-09,3.312405090257584e-09,2.591949578800643e-09,2.016353936448646e-09,1.5602237594059445e-09,1.20165594490872e-09,9.161239940446488e-10,6.893522656629045e-10,5.087436716107018e-10,3.65879589499409e-10,2.589145072426089e-10,1.8053711903428744e-10,1.2464759158098298e-10,8.565212370153923e-11,5.796639118039257e-11,3.8193753104947e-11,2.4229347556847737e-11,1.471428752579808e-11
0.0,38,38.0,0.0,30.0,0.0,0.0,0.0,0.0,-13.0,0.0,2.0,0.0,0.0,0.0,6.637487767596323e-10,6.210177461584598e-10,5.746267448194693e-10,5.249366048062216e-10,4.727441925363806e-10,4.2040416322592905e-10,3.689501267998147e-10,3.1791971812979615e-10,2.6877440082750533e-10,2.2383974659368306e-10,1.8315389840612748e-10,1.4681399809177057e-10,1.1517910282818911e-10,8.777317215859321e-11,6.455028447720125e-11,4.557794642029756e-11,3.0840774804224155e-11,1.9917899018492317e-11,1.2253699358195632e-11,7.1829135070574466e-12,4.031756139813953e-12,2.1887735024428002e-12,1.144629633771503e-12,5.826850471218975e-13,2.8603753875473474e-13,1.3996384329255096e-13,5.437810103818778e-09,4.239106130380515e-09,3.3120082573855006e-09,2.591550852297504e-09,2.0159515281622378e-09,1.5598175803308959e-09,1.201248700755829e-09,9.157136664529603e-10,6.889379980533949e-10,5.083602740464407e-10,3.656240765904997e-10,2.5889681211182164e-10,1.8079216485919652e-10,1.250894457956415e-10,8.612627076321031e-11,5.834679822628796e-11,3.8433505911169e-11,2.4348219682391087e-11,1.47584207450565e-11
0.0,39,39.0,0.0,30.0,0.0,0.0,0.0,0.0,-13.0,0.0,2.0,0.0,0.0,0.0,6.640731788384507e-10,6.213631731626261e-10,5.749987630738733e-10,5.253428227500979e-10,4.731942743925647e-10,4.209086621763677e-10,3.6951945889942276e-10,3.1856130429186707e-10,2.6947969251169696e-10,2.2457219065100377e-10,1.8385063922279063e-10,1.4740157830795872e-10,1.1560327995557674e-10,8.80176394897262e-11,6.463883828207717e-11,4.555911066292713e-11,3.0766070296026015e-11,1.9827132466195248e-11,1.2170477899422043e-11,7.118011177303731e-12,3.986161823150596e-12,2.159223979848751e-12,1.1266034457992273e-12,5.725009120797292e-13,2.8043903875927577e-13,1.3689310266754023e-13,5.437400400410138e-09,4.238694801388248e-09,3.31159534097364e-09,2.5911360823408278e-09,2.015533039189241e-09,1.5593956847953755e-09,1.2008261978406617e-09,9.15287922545587e-10,6.885098516902526e-10,5.079718799589584e-10,3.653821167447201e-10,2.5891289154335487e-10,1.81091114538981e-10,1.2557027934533263e-10,8.66250628287444e-11,5.873747118925405e-11,3.867465722062017e-11,2.4465112591548537e-11,1.4799897759964205e-11
0.0,40,40.0,0.0,30.0,0.0,0.0,0.0,0.0,-13.0,0.0,2.0,0.0,0.0,0.0,6.644263723208032e-10,6.217387488498146e-10,5.754025733792059e-10,5.257828453384755e-10,4.736805714175869e-10,4.214519979656129e-10,3.7012993592636155e-10,3.19244926724746e-10,2.702247058849711e-10,2.2533756720795209e-10,1.8456935611484416e-10,1.4799846224986935e-10,1.1602596074056564e-10,8.82539262874401e-11,6.471691501294343e-11,4.55305941685195e-11,3.0683815138803165e-11,1.9731145286825984e-11,1.2083969083817945e-11,7.0512396548184094e-12,3.93960262620644e-12,2.1292210870988658e-12,1.108396597760871e-12,5.622572982263766e-13,2.7483493366343057e-13,1.3381970174297162e-13,5.4369739662671785e-09,4.238266792050329e-09,3.3111658720711972e-09,2.5907047900954854e-09,2.015098008475835e-09,1.558957679064586e-09,1.2003880242397272e-09,9.148463374184087e-10,6.880679638478225e-10,5.075801418162462e-10,3.6515714250137353e-10,2.5896684139334435e-10,1.814371172833585e-10,1.2609149998257313e-10,8.714853296762857e-11,5.91378904440473e-11,3.891671343003931e-11,2.457972409157895e-11,1.4838534896792515e-11
0.0,41,41.0,0.0,30.0,0.0,0.0,0.0,0.0,-13.0,0.0,2.0,0.0,0.0,0.0,6.648107758931657e-10,6.221469393474082e-10,5.758406949671323e-10,5.262592494698741e-10,4.742057083398721e-10,4.2203678825300017e-10,3.707840302381009e-10,3.199726568843856e-10,2.710107894542205e-10,2.2613629515283503e-10,1.8530958254012318e-10,1.4860361971280597e-10,1.1644598821230579e-10,8.848106661463214e-11,6.47838526639865e-11,4.5491999783604725e-11,3.059378916649409e-11,1.962982616218698e-11,1.1994126455884341e-11,6.982586278809484e-12,3.892080971961479e-12,2.098770547166117e-12,1.090014447150169e-12,5.519575641892111e-13,2.6922715727167057e-13,1.3074604090395582e-13,5.436530306865398e-09,4.237821619201085e-09,3.310719377687715e-09,2.5902564908175795e-09,2.01464597578138e-09,1.5585031725806588e-09,1.1999337572362175e-09,9.143885013071228e-10,6.876126195295493e-10,5.071870434990589e-10,3.649529873816557e-10,2.590630342655066e-10,1.8183338812889526e-10,1.2665443954312517e-10,8.769661486924257e-11,5.954747506573457e-11,3.915915636220908e-11,2.4691743640277708e-11,1.487414584823106e-11
0.0,42,42.0,0.0,30.0,0.0,0.0,0.0,0.0,-13.0,0.0,2.0,0.0,0.0,0.0,6.652289748949136e-10,6.225903750720484e-10,5.763158082903025e-10,5.267747683345994e-10,4.747724558025548e-10,4.226657742551434e-10,3.7148429619251134e-10,3.2074658410541734e-10,2.7183923506762607e-10,2.2696867946047287e-10,1.8607071991692905e-10,1.4921591064166688e-10,1.168621366902124e-10,8.869806158976909e-11,6.483897628150991e-11,4.544292508913116e-11,3.04957700430595e-11,1.9523063507649523e-11,1.1900904652510145e-11,6.912039668168852e-12,3.843600281129218e-12,2.0678786900771918e-12,1.0714626773554284e-12,5.416052262376838e-13,2.6361769564622413e-13,1.2767461695699228e-13,5.436068923955403e-09,4.237358797230461e-09,3.3102553808919693e-09,2.5897906942578137e-09,2.0141764832062515e-09,1.5580317778415073e-09,1.1994629622902578e-09,9.139140298929031e-10,6.871442836196492e-10,5.067949436881254e-10,3.6477391466042446e-10,2.5920612081845826e-10,1.822831922343128e-10,1.2726033886835077e-10,8.826913618544905e-11,5.996558195456852e-11,3.940144367106059e-11,2.4800852357246115e-11,1.490654190958512e-11
0.0,43,43.0,0.0,30.0,0.0,0.0,0.0,0.0,-13.0,0.0,2.0,0.0,0.0,0.0,6.656837287341703e-10,6.230718576423169e-10,5.768307612992492e-10,5.273322966196108e-10,4.753837334566565e-10,4.233418201040709e-10,3.7223336421844746e-10,3.215688040507216e-10,2.7271126306335133e-10,2.2783489741720646e-10,1.868520286226171e-10,1.4983408162353023e-10,1.1727311163473523e-10,8.890388006532889e-11,6.48815982597388e-11,4.53829623754998e-11,3.038953331209085e-11,1.9410745640765326e-11,1.1804259584079402e-11,6.839589835430682e-12,3.794165021736738e-12,2.036552473818487e-12,1.0527473043868225e-12,5.312039579989629e-13,2.580085884231238e-13,1.2460800291285636e-13,5.435589316083901e-09,4.23687783862065e-09,3.309773400865414e-09,2.5893069051922084e-09,2.0136890768399694e-09,1.5575431099451794e-09,1.1989751923494504e-09,9.134225776668225e-10,6.866636382647918e-10,5.064066230803903e-10,3.6462464603379445e-10,2.5940102841833574e-10,1.8278982686748288e-10,1.279103320019308e-10,8.886581209077678e-11,6.039150521884469e-11,3.964300928787359e-11,2.4906722997025465e-11,1.4935532215933164e-11
0.0,44,44.0,0.0,30.0,0.0,0.0,0.0,0.0,-13.0,0.0,2.0,0.0,0.0,0.0,6.661779782249412e-10,6.235943666844377e-10,5.773885755523665e-10,5.279348953954057e-10,4.760426124283528e-10,4.240679111309728e-10,3.7303393338288905e-10,3.2244140551066613e-10,2.736280061095466e-10,2.287349842301906e-10,1.8765261902158718e-10,1.5045676268057143e-10,1.176775497082503e-10,8.909745933600571e-11,6.491101858908304e-11,4.5311698596030025e-11,3.0274852464394194e-11,1.929276097467752e-11,1.170414862788957e-11,6.76522830503752e-12,3.743780759720962e-12,2.0047995057516193e-12,1.033874683736686e-12,5.207575900883989e-13,2.5240193022296653e-13,1.2154882543725984e-13,5.4350909791529115e-09,4.236378254475311e-09,3.309272952910978e-09,2.5888046241128833e-09,2.0131833085051328e-09,1.5570367857445623e-09,1.1984699877455526e-09,9.129138550196344e-10,6.861716260995873e-10,5.060253354761651e-10,3.645103897514372e-10,2.596529567424393e-10,1.833566009877393e-10,1.2860542974213667e-10,8.948623912897682e-11,6.082447582298298e-11,3.9883263895459634e-11,2.500901987932171e-11,1.4960923976838723e-11
0.0,45,45.0,0.0,30.0,0.0,0.0,0.0,0.0,-13.0,0.0,2.0,0.0,0.0,0.0,6.667148527982173e-10,6.241610664835915e-10,5.779924521022543e-10,5.28585796602072e-10,4.767523170350167e-10,4.248471509109785e-10,3.7388876228589413e-10,3.2336645543592885e-10,2.745904917120183e-10,2.2966881807227423e-10,1.8847144258958944e-10,1.5108246439613613e-10,1.180740190406986e-10,8.92777058602415e-11,6.49265250504055e-11,4.522871530277774e-11,3.0151499028613e-11,1.9168998238588128e-11,1.1600530834051914e-11,6.688948235829515e-12,3.692454210548398e-12,1.9726280644984546e-12,1.0148515173111924e-12,5.102701096313957e-13,2.4679987208418915e-13,1.18499740174214e-13,5.434573407020607e-09,4.235859555031813e-09,3.3087535484219194e-09,2.588283348115174e-09,2.0126587375602516e-09,1.5565124225652584e-09,1.1979468770043285e-09,9.12387649831236e-10,6.856694999581229e-10,5.056548627123034e-10,3.644368677073007e-10,2.5996736992011534e-10,1.8398681234689592e-10,1.2934650264832158e-10,9.012988941623985e-11,6.126366150369185e-11,4.012159541533729e-11,2.5107398771911168e-11,1.498252270476027e-11
0.0,46,46.0,0.0,30.0,0.0,0.0,0.0,0.0,-13.0,0.0,2.0,0.0,0.0,0.0,6.672976775372055e-10,6.247753124300762e-10,5.786457770954063e-10,5.292884070402792e-10,4.775162256084097e-10,4.256827568877243e-10,3.7480065810482404e-10,3.243459820899742e-10,2.755996233773452e-10,2.3063610462527295e-10,1.8930728320543186e-10,1.5170957540385341e-10,1.1846101969024469e-10,8.944349597703234e-11,6.492739334970769e-11,4.513358856978914e-11,3.00192426902986e-11,1.903934672746392e-11,1.1493367143982944e-11,6.610744547671645e-12,3.640193291877397e-12,1.9400471222538827e-12,9.956848603700855e-13,4.997456596541696e-13,2.4120462284315595e-13,1.1546340522605621e-13,5.434036092146499e-09,4.235321250144533e-09,3.3082146948202256e-09,2.5877425720208234e-09,2.0121149327097037e-09,1.5559696364540568e-09,1.1974053789952159e-09,9.118438544523066e-10,6.851588797331229e-10,5.052995733340006e-10,3.644103409016232e-10,2.603499847816818e-10,1.846837220567283e-10,1.3013426361855525e-10,9.079610527157278e-11,6.17081669519152e-11,4.0357369491094063e-11,2.520150672234285e-11,1.5000132432873795e-11
0.0,47,47.0,0.0,30.0,0.0,0.0,0.0,0.0,-13.0,0.0,2.0,0.0,0.0,0.0,6.679299799847232e-10,6.254406572060834e-10,5.793521270150476e-10,5.300463117599376e-10,4.783378702652782e-10,4.2657805437885256e-10,3.75772463600204e-10,3.2538195621137286e-10,2.7665616043247604e-10,2.3163636119641714e-10,1.901587486845129e-10,1.5233636026569406e-10,1.1883698428451016e-10,8.959367659858018e-11,6.491288718883636e-11,4.502588891013824e-11,2.987785144514973e-11,1.890369658305722e-11,1.1382620621535249e-11,6.530614052138504e-12,3.5870071772947728e-12,1.907066367477145e-12,9.763821284061599e-13,4.891885383208124e-13,2.3561845038214414e-13,1.1244245316103074e-13,5.433478526283655e-09,4.234762849726715e-09,3.307655895480958e-09,2.5871817897788314e-09,2.011551473751549e-09,1.5554080399507119e-09,1.196845006968819e-09,9.112824990985373e-10,6.846418170511619e-10,5.049644847979077e-10,3.6443763260140866e-10,2.608067547760195e-10,1.854505265997525e-10,1.3096925017380063e-10,9.148409434357123e-11,6.215703425247673e-11,4.058992994941701e-11,2.5290981835245874e-11,1.5013555917652205e-11
0.0,48,48.0,0.0,30.0,0.0,0.0,0.0,0.0,-13.0,0.0,2.0,0.0,0.0,0.0,6.686154966690892e-10,6.261608566552139e-10,5.801152734886425e-10,5.30863276724276e-10,4.792209354454843e-10,4.2753646874513237e-10,3.7680704188746683e-10,3.2647627008253337e-10,2.7776069651697637e-10,2.3266890049502688e-10,1.910242626309412e-10,1.5296095775982649e-10,1.1920027882294558e-10,8.972706585830986e-11,6.488225826931274e-11,4.4905181194432545e-11,2.9727091792407476e-11,1.8761939108190587e-11,1.126825669676355e-11,6.448555587181534e-12,3.5329063511655557e-12,1.8736962279056866e-12,9.569511038924934e-13,4.786031979949576e-13,2.300436826674516e-13,1.0943946200533468e-13,5.432900201219646e-09,4.234183864136886e-09,3.3070766496665328e-09,2.5866004961854813e-09,2.010967953174671e-09,1.554827239414576e-09,1.1962652751765218e-09,9.107037928144994e-10,6.841208684233052e-10,5.046553288802272e-10,3.6452614843689514e-10,2.6134384911382485e-10,1.8629032729423246e-10,1.3185180660250875e-10,9.219292529977228e-11,6.260924356679839e-11,4.08185992187658e-11,2.5375452992932914e-11,1.5022594821237318e-11
0.0,49,49.0,0.0,30.0,0.0,0.0,0.0,0.0,-13.0,0.0,2.0,0.0,0.0,0.0,6.693581792935323e-10,6.269398752728316e-10,5.809391875718909e-10,5.31743250609819e-10,4.80169255015504e-10,4.285615154867229e-10,3.779072587720489e-10,3.276307144103252e-10,2.7891363678109184e-10,2.3373281416875866e-10,1.9190205668602739e-10,1.535813795928914e-10,1.1954920361570592e-10,8.984245369313231e-11,6.483474622825617e-11,4.47710245798704e-11,2.956672897459918e-11,1.8613967116096463e-11,1.1150243422277389e-11,6.364570155714129e-12,3.4779026646402574e-12,1.8399478938254304e-12,9.373999428199687e-13,4.679942441034783e-13,2.2448270849854478e-13,1.064569257660146e-13,5.4323006095668435e-09,4.23358380449538e-09,3.306476452505188e-09,2.585998188962801e-09,2.010363977495658e-09,1.554226831994109e-09,1.1956657089410845e-09,9.101081733074026e-10,6.835991775006946e-10,5.043786198232099e-10,3.646838925792294e-10,2.6196762669795855e-10,1.8720609726369286e-10,1.327820661374175e-10,9.292152413970602e-11,6.306371403695748e-11,4.1042678684384814e-11,2.545453951809098e-11,1.5027049868447876e-11
0.0,50,50.0,0.0,30.0,0.0,0.0,0.0,0.0,-13.0,0.0,2.0,0.0,0.0,0.0,6.701622005332229e-10,6.27781891250779e-10,5.81828043409549e-10,5.326903655828536e-10,4.811868077105439e-10,4.296567880104219e-10,3.7907596244028795e-10,3.2884695293588213e-10,2.8011517384167554e-10,2.3482695621084434e-10,1.9279016325044892e-10,1.5419550954388522e-10,1.1988199432909547e-10,8.99386023386958e-11,6.476957850758018e-11,4.462297246035964e-11,2.939652726996967e-11,1.8459675316426967e-11,1.1028551742101689e-11,6.278661068062252e-12,3.4220093928655942e-12,1.8058333415198945e-12,9.177371809432746e-13,4.573664337786607e-13,2.1893797789331243e-13,1.0349722511389623e-13,5.431679245601291e-09,4.232962182917002e-09,3.305854795059056e-09,2.585374371228196e-09,2.0097391682048547e-09,1.5536064024074507e-09,1.195045859253475e-09,9.094963670979777e-10,6.830805670092859e-10,5.041417245910265e-10,3.6491947905147755e-10,2.626846044162893e-10,1.8820064600559777e-10,1.3375993335307397e-10,9.366867118544662e-11,6.351930488163583e-11,4.12614489574242e-11,2.552785077864569e-11,1.5026720973189916e-11
0.0,51,51.0,0.0,30.0,0.0,0.0,0.0,0.0,-13.0,0.0,2.0,0.0,0.0,0.0,6.710319593833881e-10,6.286913010044992e-10,5.827862211596898e-10,5.337089368699901e-10,4.822777106614896e-10,4.308259427918147e-10,3.8031596029575236e-10,3.3012649470579417e-10,2.8136526256864154e-10,2.3594992636120927e-10,1.9368640875505925e-10,1.5480110303815817e-10,1.2019682310238225e-10,9.00142467168379e-11,6.468597016023564e-11,4.4460572449651763e-11,2.921625034400536e-11,1.8298960739350948e-11,1.0903155772947343e-11,6.190834088241656e-12,3.3652412934401256e-12,1.7713653568057386e-12,8.979717396473001e-13,4.4672467425442796e-13,2.1341200203792725e-13,1.0056259893519917e-13,5.431035606147518e-09,4.2323185126474345e-09,3.3052111645410017e-09,2.584728554377147e-09,2.0090931621709423e-09,1.5529655198109538e-09,1.1944053232126283e-09,9.088694615825205e-10,6.825696408512466e-10,5.039529344195207e-10,3.652421371331777e-10,2.6350141939764184e-10,1.892765817034805e-10,1.3478506698759667e-10,9.443299879363631e-11,6.397481664635812e-11,4.1474170035405246e-11,2.5594985736432467e-11,1.5021407329141697e-11
0.0,52,52.0,0.0,30.0,0.0,0.0,0.0,0.0,-13.0,0.0,2.0,0.0,0.0,0.0,6.719720860014216e-10,6.296727231038437e-10,5.838183090514822e-10,5.348034609139247e-10,4.834462107233315e-10,4.3207268163636936e-10,3.81629992730503e-10,3.314706639552471e-10,2.826635937968063e-10,2.371000536348152e-10,1.9458840755090907e-10,1.5539578714015521e-10,1.2049179969572871e-10,9.006809469562763e-11,6.458312360022393e-11,4.42833664108652e-11,2.9025661666444952e-11,1.813172319894389e-11,1.0774033097791693e-11,6.101097584038111e-12,3.3076146661470334e-12,1.7365575585475517e-12,8.781129313413901e-13,4.3607402099005223e-13,2.0790735273686827e-13,9.765511752716863e-14,5.430369191504701e-09,4.231652308094479e-09,3.30454504475386e-09,2.5840602613837344e-09,2.0084256113384113e-09,1.552303735179417e-09,1.1937437719045657e-09,9.082289907410037e-10,6.820718967361407e-10,5.038215366335299e-10,3.6566170973089935e-10,2.644247848695997e-10,1.904362714810244e-10,1.3585686340451188e-10,9.52129898204007e-11,6.442899256195335e-11,4.1680081331270035e-11,2.5655532443075283e-11,1.501090745988874e-11
0.0,53,53.0,0.0,30.0,0.0,0.0,0.0,0.0,-13.0,0.0,2.0,0.0,0.0,0.0,6.729874459851398e-10,6.307310015202133e-10,5.849291044265564e-10,5.35978611874939e-10,4.84696673289524e-10,4.3340073072415156e-10,3.830207036239282e-10,3.328805675756771e-10,2.8400956708150304e-10,2.3827538011956324e-10,1.9549355648225403e-10,1.5597706094246172e-10,1.207649726243023e-10,9.009882720436945e-11,6.44602283064117e-11,4.4090890547131795e-11,2.8824525000074167e-11,1.795786579685495e-11,1.064116507168478e-11,6.009462680881554e-12,3.2491474139808616e-12,1.701424422027278e-12,8.581704642826686e-13,4.254196754935654e-13,2.0242666130613106e-13,9.477665826579225e-14,5.429679506406688e-09,4.230963084750494e-09,3.3038559168417382e-09,2.583369030499133e-09,2.0077361815448862e-09,1.5516205798134765e-09,1.1930609876374788e-09,9.075770363544761e-10,6.81593849535892e-10,5.037578854696688e-10,3.6618864350684476e-10,2.6546143930973534e-10,1.916817998550651e-10,1.369744409193347e-10,9.600697685516271e-11,6.488051995660589e-11,4.18784015488394e-11,2.570906748847981e-11,1.4995019224226427e-11
0.0,54,54.0,0.0,30.0,0.0,0.0,0.0,0.0,-13.0,0.0,2.0,0.0,0.0,0.0,6.740831440279946e-10,6.318712080915382e-10,5.861236135897719e-10,5.372392362035577e-10,4.860335682420073e-10,4.348138161044969e-10,3.844906073688322e-10,3.343570601653701e-10,2.85402262640848e-10,2.3947364519303666e-10,1.9639903019688272e-10,1.565422963166015e-10,1.210143302295828e-10,9.010509818884005e-11,6.431646049380965e-11,4.388267556937418e-11,2.861260496741362e-11,1.7777295467016146e-11,1.0504537139730925e-11,5.915943419516399e-12,3.1898591054596313e-12,1.665981302024256e-12,8.381544467260026e-13,4.147669828143192e-13,1.969726168640955e-13,9.19288846066175e-14,5.428966061005461e-09,4.230250359011161e-09,3.3031432604592195e-09,2.5826544192950604e-09,2.0070245502922344e-09,1.5509155658381176e-09,1.1923569128115603e-09,9.069163467012487e-10,6.811431653363827e-10,5.037734703825262e-10,3.668339694883323e-10,2.6661808865098503e-10,1.930149257063461e-10,1.3813662521995424e-10,9.681314222091892e-11,6.532803165837769e-11,4.2068328383804225e-11,2.5755155409581658e-11,1.497353977318991e-11
