Line_number,Fiducial,Easting,Northing,Height,Elevation,tx_pitch,tx_roll,tx_yaw,txrx_dx,txrx_dy,txrx_dz,rx_pitch,rx_roll,rx_yaw,S0Z_time_1.431e-04,S0Z_time_1.801e-04,S0Z_time_2.266e-04,S0Z_time_2.846e-04,S0Z_time_3.581e-04,S0Z_time_4.506e-04,S0Z_time_5.671e-04,S0Z_time_7.136e-04,S0Z_time_8.981e-04,S0Z_time_1.131e-03,S0Z_time_1.423e-03,S0Z_time_1.791e-03,S0Z_time_2.255e-03,S0Z_time_2.838e-03,S0Z_time_3.573e-03,S0Z_time_4.498e-03,S0Z_time_5.662e-03,S1Z_time_1.409e-05,S1Z_time_1.610e-05,S1Z_time_1.909e-05,S1Z_time_2.360e-05,S1Z_time_2.960e-05,S1Z_time_3.709e-05,S1Z_time_4.609e-05,S1Z_time_5.759e-05,S1Z_time_7.209e-05,S1Z_time_9.060e-05,S1Z_time_1.141e-04,S1Z_time_1.431e-04,S1Z_time_1.801e-04,S1Z_time_2.266e-04,S1Z_time_2.846e-04,S1Z_time_3.581e-04,S1Z_time_4.506e-04,S1Z_time_5.671e-04,S1Z_time_7.136e-04,S1Z_time_8.981e-04,S1Z_time_1.131e-03
0.0,0,0.0,0.0,30.0,0.0,0.0,0.0,0.0,-13.0,0.0,2.0,0.0,0.0,0.0,9.871024186828141e-11,6.855437694105632e-11,4.6758462346426355e-11,3.121992166362577e-11,2.028210623083609e-11,1.2870961423144354e-11,8.014195686056792e-12,4.8869574419871314e-12,2.919537096573491e-12,1.7173351366579817e-12,1.0003772362279792e-12,5.749459106853869e-13,3.259655179234947e-13,1.8303421580287154e-13,1.0060411388505034e-13,5.476276411804517e-14,2.914304506068666e-14,4.23325674504926e-09,3.1025346130947326e-09,2.086615623425818e-09,1.2675159324908315e-09,7.69608612098612e-10,4.854209209733549e-10,3.325283664037878e-10,2.386928592818486e-10,1.7778961460770097e-10,1.3388816365409084e-10,1.0023251807807359e-10,7.394978233028763e-11,5.30383763293501e-11,3.682412269916474e-11,2.48843065072637e-11,1.6194555464510198e-11,1.0186026913477476e-11,6.186877594369133e-12,3.644889369508698e-12,2.0767708727288536e-12,1.1397047790644028e-12
0.0,1,1.0,0.0,30.0,0.0,0.0,0.0,0.0,-13.0,0.0,2.0,0.0,0.0,0.0,9.74186448226538e-11,6.844574991223507e-11,4.7342150776353616e-11,3.2051209189498084e-11,2.1087471136007258e-11,1.3527500890958291e-11,8.495249254409948e-12,5.211961500007235e-12,3.1262270168431183e-12,1.8422759369705953e-12,1.0729296490167558e-12,6.157253315187288e-13,3.4810406147183876e-13,1.9482059147355014e-13,1.0669978357212642e-13,5.785437180680229e-14,3.067601028993497e-14,4.214758686840812e-09,3.0866541105263344e-09,2.0751164027212404e-09,1.261197811094179e-09,7.667878095053595e-10,4.83670286340563e-10,3.301808361074982e-10,2.354334126968119e-10,1.7429511935296416e-10,1.3104808718556307e-10,9.854450011946854e-11,7.335952175406947e-11,5.322727264081623e-11,3.7421859202455336e-11,2.5595221071702776e-11,1.6847384683463342e-11,1.0703496085187332e-11,6.554237360024118e-12,3.885483663482458e-12,2.223596051444463e-12,1.2241582595391911e-12
0.0,2,2.0,0.0,30.0,0.0,0.0,0.0,0.0,-13.0,0.0,2.0,0.0,0.0,0.0,9.611948673606402e-11,6.8010705725302e-11,4.7567218489573114e-11,3.2601904337940073e-11,2.1707872702333824e-11,1.4076522606352345e-11,8.920238185472027e-12,5.511211915516732e-12,3.3228054406055133e-12,1.964056001984655e-12,1.145076741446222e-12,6.568612573305974e-13,3.706921315070242e-13,2.0693595383697818e-13,1.1299575194569794e-13,6.106243768136016e-14,3.226663323067372e-14,4.195839736933843e-09,3.070545415106958e-09,2.0635760671117455e-09,1.2550947917546448e-09,7.646934021521847e-10,4.833785905624678e-10,3.298198893566789e-10,2.3415334022312086e-10,1.7222483939288743e-10,1.288608720485312e-10,9.688901160893712e-11,7.248226634758519e-11,5.3046243748351886e-11,3.769184391312373e-11,2.6063041801049227e-11,1.734197187132753e-11,1.1128235952683578e-11,6.873362889332948e-12,4.10295862972521e-12,2.3608640875657993e-12,1.3055144679111063e-12
0.0,3,3.0,0.0,30.0,0.0,0.0,0.0,0.0,-13.0,0.0,2.0,0.0,0.0,0.0,9.504184957132402e-11,6.744129989959443e-11,4.754856432310631e-11,3.2930324412918884e-11,2.2168059358863278e-11,1.4525213563639864e-11,9.288953062163842e-12,5.782493263644679e-12,3.5071465831949826e-12,2.081269805419362e-12,1.216016644154234e-12,6.979487985079391e-13,3.9354746486562106e-13,2.1930046374184488e-13,1.1946177524315234e-13,6.437446431986237e-14,3.391095661603608e-14,4.176494980479636e-09,3.054222572013868e-09,2.0520132006232434e-09,1.2491074970580063e-09,7.628960991855642e-10,4.837567977996673e-10,3.305739311548022e-10,2.3424584373194147e-10,1.713936908833748e-10,1.2746164210635247e-10,9.551520338142539e-11,7.153973458390344e-11,5.264509697736373e-11,3.7721163605068116e-11,2.6333204650527448e-11,1.7697798604585046e-11,1.146612371181877e-11,7.144293753937993e-12,4.295738877296324e-12,2.4871955466145533e-12,1.3826409169332646e-12
0.0,4,4.0,0.0,30.0,0.0,0.0,0.0,0.0,-13.0,0.0,2.0,0.0,0.0,0.0,9.430456963351971e-11,6.688139755120748e-11,4.73851477874151e-11,3.309102817062195e-11,2.249387233687052e-11,1.488337874517507e-11,9.603528114088224e-12,6.025026223957452e-12,3.67785519849116e-12,2.192827414146541e-12,1.2850596220887552e-12,7.38615955583511e-13,4.16491306203838e-13,2.3183322189307143e-13,1.260655885160061e-13,6.777678245529712e-14,3.560447578535248e-14,4.156721586639315e-09,3.03768956371628e-09,2.040444662097839e-09,1.2432410373936557e-09,7.612771152485682e-10,4.844514129074492e-10,3.3191068420319857e-10,2.351995015814489e-10,1.715079975665023e-10,1.268174303895697e-10,9.454868323888929e-11,7.069026952286165e-11,5.2147723133611233e-11,3.7587975333653385e-11,2.644929532221984e-11,1.7935948233194505e-11,1.172559701548481e-11,7.36908486602769e-12,4.4635304285961426e-12,2.6018189653863083e-12,1.4546110839745918e-12
0.0,5,5.0,0.0,30.0,0.0,0.0,0.0,0.0,-13.0,0.0,2.0,0.0,0.0,0.0,9.394217978269152e-11,6.642808888018007e-11,4.7158892711120376e-11,3.31336936032323e-11,2.2710609915860056e-11,1.5162011408273315e-11,9.867602860513144e-12,6.239123776704573e-12,3.834167099111646e-12,2.297938054371766e-12,1.3516362685922447e-12,7.785325012321687e-13,4.393540872702163e-13,2.444544798144544e-13,1.3277378558450298e-13,7.125493371008333e-14,3.734220641164236e-14,4.136522180292261e-09,3.020951976142169e-09,2.0288800235326582e-09,1.237510876476498e-09,7.598202538949779e-10,4.853317979705029e-10,3.3355096420746906e-10,2.366581046228482e-10,1.7227991978646713e-10,1.268072598455511e-10,9.401976498918203e-11,7.003198072300303e-11,5.1650883433890834e-11,3.73605433143398e-11,2.64517495623732e-11,1.807746679120775e-11,1.191628359130825e-11,7.551072006376453e-12,4.607033119710173e-12,2.7043783026783947e-12,1.5208094008282981e-12
0.0,6,6.0,0.0,30.0,0.0,0.0,0.0,0.0,-13.0,0.0,2.0,0.0,0.0,0.0,9.39338501429085e-11,6.613653280129152e-11,4.6933591995886074e-11,3.310233137843899e-11,2.2842306625059694e-11,1.5372458922201862e-11,1.008568384089276e-11,6.425880084741699e-12,3.975838258668692e-12,2.396079528958835e-12,1.4152962678300727e-12,8.174145897956416e-13,4.619795783695728e-13,2.5708753608794954e-13,1.3955265202254852e-13,7.47940135197218e-14,3.911877292593372e-14,4.115902143765962e-09,3.004019053654302e-09,2.0173282183020997e-09,1.2319276655311709e-09,7.585327210778272e-10,4.863616520620641e-10,3.3536776177265943e-10,2.384050110130531e-10,1.7348029723884322e-10,1.272838488986579e-10,9.389686833135692e-11,6.961129928278552e-11,5.122368102143151e-11,3.7096116933573785e-11,2.6377270793200713e-11,1.8142605566920217e-11,1.2048159746967781e-11,7.694306112625722e-12,4.727642798163798e-12,2.7948153865683896e-12,1.5809529082598386e-12
0.0,7,7.0,0.0,30.0,0.0,0.0,0.0,0.0,-13.0,0.0,2.0,0.0,0.0,0.0,9.422942211072019e-11,6.602814351729289e-11,4.67547644494894e-11,3.303444931250494e-11,2.2911318817178225e-11,1.552597899526806e-11,1.0262711529754986e-11,6.586913567142091e-12,4.103033801249158e-12,2.4869611608764092e-12,1.475701628922435e-12,8.550259292765712e-13,4.84227511546671e-13,2.696602688175561e-13,1.4636892304516688e-13,7.837897261513023e-14,4.0928507406285416e-14,4.0948676450094295e-09,2.986902195605094e-09,2.0058000254169117e-09,1.2264994096249827e-09,7.574226487121645e-10,4.875368661373567e-10,3.373120063928612e-10,2.4032266346466943e-10,1.7494936304213413e-10,1.281108957872709e-10,9.411701922909811e-11,6.943566559520505e-11,5.0909168829186435e-11,3.683993628907398e-11,2.6258274225098938e-11,1.815044104187483e-11,1.2131103881735274e-11,7.803171791287154e-12,4.827175385479167e-12,2.8733278466938086e-12,1.6350255239363936e-12
0.0,8,8.0,0.0,30.0,0.0,0.0,0.0,0.0,-13.0,0.0,2.0,0.0,0.0,0.0,9.476891518772587e-11,6.610033759056326e-11,4.665098716355312e-11,3.296037548161941e-11,2.2937932259924546e-11,1.5633486334419378e-11,1.0403795060925813e-11,6.72417271606207e-12,4.2162251708103824e-12,2.570484839314857e-12,1.5326168829860189e-12,8.911765368390646e-13,5.059749088364723e-13,2.821062665791543e-13,1.5319043796072468e-13,8.199488195758212e-14,4.2765549138877085e-14,4.07342516536185e-09,2.9696136897269015e-09,1.9943078458248266e-09,1.2212340831075491e-09,7.564958124001898e-10,4.88860913922935e-10,3.3936892394980116e-10,2.423539610923685e-10,1.7658648691849715e-10,1.291795292720739e-10,9.460850110240366e-11,6.948723788708058e-11,5.072820616854092e-11,3.662495993405106e-11,2.612228930649076e-11,1.8118571465462534e-11,1.2174672943374572e-11,7.882163161749434e-12,4.907647460957067e-12,2.940358063441264e-12,1.6831804262538183e-12
0.0,9,9.0,0.0,30.0,0.0,0.0,0.0,0.0,-13.0,0.0,2.0,0.0,0.0,0.0,9.549480500603119e-11,6.633587585030882e-11,4.66365216966927e-11,3.290302196056271e-11,2.293995953328508e-11,1.5705356854586177e-11,1.0514056686636662e-11,6.8398009304256535e-12,4.316101963957371e-12,2.6467071708078964e-12,1.5858975736446447e-12,9.257199592603829e-13,5.271164561944432e-13,2.9436556123453463e-13,1.5998666728831635e-13,8.562716497317682e-14,4.462393904050995e-14,4.051581737413446e-09,2.95216630076573e-09,1.9828649888559534e-09,1.2161404787482664e-09,7.557567158755198e-10,4.903373355006501e-10,3.4153628263237653e-10,2.444744354976466e-10,1.7833362216548012e-10,1.304111423197642e-10,9.530468107633823e-11,6.973494135844925e-11,5.068468836190037e-11,3.647258151072829e-11,2.5991509754007137e-11,1.8062796113645745e-11,1.218796280023905e-11,7.935764913025521e-12,4.971130614444346e-12,2.9965741592979265e-12,1.7256588251132824e-12
0.0,10,10.0,0.0,30.0,0.0,0.0,0.0,0.0,-13.0,0.0,2.0,0.0,0.0,0.0,9.635824291327016e-11,6.671050332059292e-11,4.67146516921601e-11,3.287820560014739e-11,2.2932407669810815e-11,1.5751234546282037e-11,1.0598531470505584e-11,6.93604768782089e-12,4.403501966103678e-12,2.7158049734202808e-12,1.6354778339994762e-12,9.585495801272616e-13,5.475642394223212e-13,3.0638500914403704e-13,1.6672910303731653e-13,8.926179684018351e-14,4.6497706866568804e-14,4.029345303827889e-09,2.9345733462945683e-09,1.9714852510536605e-09,1.211228117189185e-09,7.552096842314242e-10,4.919685056411682e-10,3.43815167733245e-10,2.46675247973537e-10,1.8016000265892152e-10,1.317533013492668e-10,9.615053043490886e-11,7.014348096444326e-11,5.0771033527197215e-11,3.6394205083530715e-11,2.5882667632985802e-11,1.799680838401092e-11,1.2179477076496956e-11,7.968384965625234e-12,5.019674295535834e-12,3.0428289710461232e-12,1.7627426347418465e-12
0.0,11,11.0,0.0,30.0,0.0,0.0,0.0,0.0,-13.0,0.0,2.0,0.0,0.0,0.0,9.732105941587732e-11,6.719840175122186e-11,4.6881105097412125e-11,3.289545838980933e-11,2.2927300889364898e-11,1.577984138048561e-11,1.0662085538114323e-11,7.015210009677162e-12,4.479359388252122e-12,2.7780456688942743e-12,1.6813577347083724e-12,9.89594417722628e-13,5.672470674373178e-13,3.181183917994138e-13,1.7339152005355632e-13,9.288546803229096e-14,4.8380950883173275e-14,4.0067249860139276e-09,2.9168489055235746e-09,1.9601828086459372e-09,1.206506956863992e-09,7.548593079587601e-10,4.937560595992234e-10,3.4620682751330315e-10,2.4895405513988516e-10,1.8205072476676477e-10,1.3317333488733581e-10,9.710420575950049e-11,7.067912081183795e-11,5.0973062107995553e-11,3.639332848607449e-11,2.580728924969683e-11,1.7931971332502754e-11,1.2156985586592426e-11,7.984300169996717e-12,5.055277061330444e-12,3.0801027097544782e-12,1.7947358414382627e-12
0.0,12,12.0,0.0,30.0,0.0,0.0,0.0,0.0,-13.0,0.0,2.0,0.0,0.0,0.0,9.835529221217204e-11,6.777556478581757e-11,4.712709639329511e-11,3.2959153290063416e-11,2.293369805949643e-11,1.5798814954719006e-11,1.0709336351046268e-11,7.079589870103507e-12,4.544668452777275e-12,2.8337632958310284e-12,1.7235910929205975e-12,1.0188146925860937e-12,5.861095165839174e-13,3.2952630933954584e-13,1.7995012893862193e-13,9.64857098116757e-14,5.02679097467742e-14,3.983731247963506e-09,2.8990080002525267e-09,1.9489722680337327e-09,1.2019871913093527e-09,7.547104810007694e-10,4.957014117197716e-10,3.487119988791994e-10,2.5131068347320717e-10,1.8399928983173988e-10,1.3465212722379068e-10,9.81358766789089e-11,7.13127378850774e-11,5.12738117265234e-11,3.646775314116412e-11,2.5772278563638745e-11,1.7877227025788857e-11,1.2127386401821652e-11,7.987596355893017e-12,5.079882507504322e-12,3.1094423357093897e-12,1.8219619336972306e-12
0.0,13,13.0,0.0,30.0,0.0,0.0,0.0,0.0,-13.0,0.0,2.0,0.0,0.0,0.0,9.944155005638392e-11,6.842151301270765e-11,4.7441742566003566e-11,3.3069748950611526e-11,2.2957894261148254e-11,1.581459939588003e-11,1.074457351440047e-11,7.131457701592173e-12,4.600458058311456e-12,2.8833400162536395e-12,1.7622743589319805e-12,1.0461973880495085e-12,6.041107709755591e-13,3.405759286057853e-13,1.8638364567819682e-13,1.0005098194737238e-13,5.2153025759356525e-14,3.960375995964226e-09,2.881066713844537e-09,1.937868756282366e-09,1.1976791680242892e-09,7.547683023867876e-10,4.978060340363739e-10,3.5133102210176374e-10,2.5374537843174954e-10,1.8600321732065785e-10,1.3617915978430223e-10,9.922539557428036e-11,7.202091828158527e-11,5.1656184556994577e-11,3.661162249998023e-11,2.5780712052040835e-11,1.7839154845769548e-11,1.2096595464149986e-11,7.982100266702728e-12,5.095380724136553e-12,3.1319088008603452e-12,1.844766760105172e-12
0.0,14,14.0,0.0,30.0,0.0,0.0,0.0,0.0,-13.0,0.0,2.0,0.0,0.0,0.0,1.0056705196247217e-10,6.911984813137112e-11,4.7813792401712935e-11,3.3224989292627085e-11,2.300376188608297e-11,1.5832403990950273e-11,1.0771686425947138e-11,7.17301712911875e-12,4.647773234063883e-12,2.927192326493749e-12,1.7975370106559021e-12,1.071751997304202e-12,6.212233107461843e-13,3.5124063124923506e-13,1.926733010061119e-13,1.0357072591815461e-13,5.403099829591677e-14,3.936672651090935e-09,2.8630422626694833e-09,1.926887998726499e-09,1.1935933846679386e-09,7.550379791053281e-10,5.000715402966279e-10,3.5406408036518245e-10,2.5625826498254104e-10,1.8806170669337625e-10,1.377489894153158e-10,1.0035978505213257e-10,7.278583963674847e-11,5.210455199172764e-11,3.68171127230634e-11,2.583271704021487e-11,1.782216146886293e-11,1.2069482886251315e-11,7.971310168413184e-12,5.103604000354365e-12,3.148537870387947e-12,1.8635207252884083e-12
0.0,15,15.0,0.0,30.0,0.0,0.0,0.0,0.0,-13.0,0.0,2.0,0.0,0.0,0.0,1.0172379833458002e-10,6.985809588010652e-11,4.8232730599787645e-11,3.342094911749237e-11,2.307317310764021e-11,1.5856230492042997e-11,1.0794106807639229e-11,7.206370015710619e-12,4.687659992738668e-12,2.965760830027494e-12,1.829533639013456e-12,1.0955066164135618e-12,6.374314994220733e-13,3.6149959365639237e-13,1.9880280688222292e-13,1.0703538899771694e-13,5.589682636244279e-14,3.912636214999567e-09,2.844953041647521e-09,1.9160463714233656e-09,1.18974051721099e-09,7.555247708956913e-10,5.024996768237874e-10,3.569113698496469e-10,2.588492924365035e-10,1.9017452311103096e-10,1.3935896098311552e-10,1.0153103504064514e-10,7.359452685853927e-11,5.2605546465638314e-11,3.7075709882174185e-11,2.5926325876696067e-11,1.7828765824953457e-11,1.2049864407713547e-11,7.958334726336309e-12,5.106312965488169e-12,3.1603151541821872e-12,1.8786178905282177e-12
0.0,16,16.0,0.0,30.0,0.0,0.0,0.0,0.0,-13.0,0.0,2.0,0.0,0.0,0.0,1.0290706913580572e-10,7.062718302186145e-11,4.8689378636247783e-11,3.365287200463558e-11,2.3166447859180847e-11,1.5888959308450257e-11,1.0814772201299505e-11,7.23348327205021e-12,4.721151447439133e-12,2.9995023821079425e-12,1.8584376725728434e-12,1.1175044944733672e-12,6.52730128006579e-13,3.7133732161166433e-13,2.0475829131606338e-13,1.1043642544818009e-13,5.774583985204017e-14,3.8882833370288145e-09,2.82681865906213e-09,1.9053609327124856e-09,1.1861314528091171e-09,7.562339735372953e-10,5.050922893274811e-10,3.598731835843701e-10,2.6151832343874584e-10,1.9234154476795775e-10,1.4100783475379895e-10,1.0273438531911255e-10,7.443788228511017e-11,5.314828833164442e-11,3.7379087161905955e-11,2.6058232420506256e-11,1.7859936209907965e-11,1.2040545935274587e-11,7.945848278268248e-12,5.105174558328056e-12,3.1681628395035156e-12,1.890471661931385e-12
0.0,17,17.0,0.0,30.0,0.0,0.0,0.0,0.0,-13.0,0.0,2.0,0.0,0.0,0.0,1.0411428949710775e-10,7.142078281502302e-11,4.917612954982055e-11,3.3915790254517804e-11,2.3282782846312892e-11,1.5932478673721202e-11,1.083611307893732e-11,7.2561597786244444e-12,4.7492542448758276e-12,3.0288835909978927e-12,1.8844365180804274e-12,1.1378010948136306e-12,6.67122976279344e-13,3.807431581610158e-13,2.1052820801504857e-13,1.1376628072484828e-13,5.957371986464036e-14,3.863632383924119e-09,2.8086599681612794e-09,1.8948494413715903e-09,1.1827773157874233e-09,7.571709253032627e-10,5.07851297029819e-10,3.6294993949778175e-10,2.642652325953382e-10,1.9456263078680973e-10,1.4269502675557417e-10,1.0396709360351299e-10,7.530972901858106e-11,5.3724264800764e-11,3.771964094882078e-11,2.6224411950032018e-11,1.791544020911882e-11,1.2043411603272089e-11,7.936067207158886e-12,5.101735845094351e-12,3.17293444322436e-12,1.899507752064285e-12
0.0,18,18.0,0.0,30.0,0.0,0.0,0.0,0.0,-13.0,0.0,2.0,0.0,0.0,0.0,1.0534422553221467e-10,7.223466975279935e-11,4.968694197351079e-11,3.4204945233755173e-11,2.342063174621349e-11,1.598783908211087e-11,1.0860062836268084e-11,7.276015612652125e-12,4.772935254339427e-12,3.0543749501408316e-12,1.9077278036452653e-12,1.156461665245709e-12,6.806214470309544e-13,3.8971078127780174e-13,2.1610322461668287e-13,1.170183635671103e-13,6.137650918203816e-14,3.8387035106152025e-09,2.7904990977367263e-09,1.884530366969605e-09,1.1796894839255827e-09,7.583410228406249e-10,5.107786819440104e-10,3.6614218284342367e-10,2.6708997596374797e-10,1.968376225650863e-10,1.444202271537092e-10,1.0522761030100332e-10,7.620598617470242e-11,5.432702747046872e-11,3.809076282140736e-11,2.642059378859497e-11,1.799417678136194e-11,1.2059542018339136e-11,7.930748433030024e-12,5.097398274792412e-12,3.1754140796329453e-12,1.906155485021825e-12
0.0,19,19.0,0.0,30.0,0.0,0.0,0.0,0.0,-13.0,0.0,2.0,0.0,0.0,0.0,1.0659644390318791e-10,7.306615549143605e-11,5.021719436501244e-11,3.451604157696147e-11,2.3578020706331934e-11,1.6055416634256752e-11,1.0888087394712495e-11,7.29446503778458e-12,4.7931089752293715e-12,3.0764451852925105e-12,1.928516396298133e-12,1.1735592702387798e-12,6.932433170334222e-13,3.982377068571516e-13,2.214760923564221e-13,1.201870095895745e-13,6.315061448510388e-14,3.813518729618958e-09,2.7723594810315053e-09,1.8744228952331102e-09,1.1768795958165209e-09,7.597497376975832e-10,5.138764906129548e-10,3.6945058156583217e-10,2.6999263015024066e-10,1.9916638624883138e-10,1.4618323374614636e-10,1.0651505941979912e-10,7.712401676134772e-11,5.4951823134915226e-11,3.848692429410325e-11,2.6642595337887412e-11,1.8094470162162685e-11,1.2089348736536564e-11,7.931208062051138e-12,5.0933962397816605e-12,3.1763175877980404e-12,1.9108385688085304e-12
0.0,20,20.0,0.0,30.0,0.0,0.0,0.0,0.0,-13.0,0.0,2.0,0.0,0.0,0.0,1.0787096605241798e-10,7.391363259758797e-11,5.076347320171045e-11,3.484537361799902e-11,2.375279452079056e-11,1.6135072070513668e-11,1.092122967047186e-11,7.31271379099385e-12,4.810626326517279e-12,3.0955556672227188e-12,1.9470119046420815e-12,1.1891732087230246e-12,7.050116324570673e-13,4.063248110806326e-13,2.2664150029147692e-13,1.2326743884061867e-13,6.489280211221427e-14,3.788101976824079e-09,2.7542658813104763e-09,1.8645469292011597e-09,1.1743595508872305e-09,7.614026290587408e-10,5.171468427824484e-10,3.7287592287716483e-10,2.729734102330138e-10,2.0154885673637462e-10,1.4798389715022219e-10,1.0782893248599001e-10,7.806214440329156e-11,5.559522859084512e-11,3.89036408796902e-11,2.6886537285727882e-11,1.8214314843704014e-11,1.2132712545422804e-11,7.93835630892209e-12,5.090782500235402e-12,3.1762938773635133e-12,1.9139663195088646e-12
0.0,21,21.0,0.0,30.0,0.0,0.0,0.0,0.0,-13.0,0.0,2.0,0.0,0.0,0.0,1.0916805759317765e-10,7.477622619065997e-11,5.132334431329155e-11,3.518986074704811e-11,2.394279679111968e-11,1.6226296079226796e-11,1.096016368697073e-11,7.331760345779866e-12,4.8262654479354634e-12,3.1121549332518623e-12,1.9634264461248816e-12,1.203387728682223e-12,7.159537596413013e-13,4.139758838298827e-13,2.315959179592972e-13,1.2625570893930233e-13,6.660018911726997e-14,3.762479172069897e-09,2.7362444124957988e-09,1.8549230859393114e-09,1.1721415034502836e-09,7.633053510784267e-10,5.205919421121478e-10,3.7641911307786947e-10,2.7603267566510026e-10,2.0398507006606443e-10,1.4982211699157204e-10,1.091689209599716e-10,7.901931399833626e-11,5.6254827116332853e-11,3.933736767625127e-11,2.7148964266164146e-11,1.8351568587913296e-11,1.2189115780035783e-11,7.952743924430698e-12,5.0904216338882194e-12,3.1759257436394425e-12,1.915926069100522e-12
0.0,22,22.0,0.0,30.0,0.0,0.0,0.0,0.0,-13.0,0.0,2.0,0.0,0.0,0.0,1.1048810672889043e-10,7.56535402216281e-11,5.189513684959662e-11,3.55470231459731e-11,2.414599216137325e-11,1.6328335169881858e-11,1.1005253366364193e-11,7.352404178887568e-12,4.84072497074891e-12,3.126673474023703e-12,1.9779725360957944e-12,1.2162909513178187e-12,7.261005873830485e-13,4.211972216661647e-13,2.36337431063469e-13,1.2914866487897856e-13,6.827023116779464e-14,3.736678273659449e-09,2.718322553795797e-09,1.8455726883501418e-09,1.1702378517656842e-09,7.654636547549157e-10,5.242140856921863e-10,3.800811798120215e-10,2.79170930370484e-10,2.0647518268131625e-10,1.5169785634125084e-10,1.1053483292805816e-10,7.99948647560876e-11,5.692894185337461e-11,3.978536411881228e-11,2.7426895262639276e-11,1.8504095873130453e-11,1.225776189920743e-11,7.974615301696553e-12,5.092991477962615e-12,3.175730050051568e-12,1.9170771914949917e-12
0.0,23,23.0,0.0,30.0,0.0,0.0,0.0,0.0,-13.0,0.0,2.0,0.0,0.0,0.0,1.1183155846525354e-10,7.654548022291005e-11,5.247775503263026e-11,3.5914922743073863e-11,2.4360540953958813e-11,1.64402955521489e-11,1.105661176226232e-11,7.375259662156353e-12,4.854619986792452e-12,3.1395189856879835e-12,1.9908610273710596e-12,1.2279739292066235e-12,7.354858658798297e-13,4.2799726531833736e-13,2.4086557513116163e-13,1.3194388634180915e-13,6.990070851246811e-14,3.7107293265124673e-09,2.700529157828379e-09,1.8365177517733639e-09,1.1686612228245443e-09,7.678833850167943e-10,5.280156707327102e-10,3.838632751742376e-10,2.8238882041996793e-10,2.0901948016094487e-10,1.536111585139308e-10,1.1192655739184608e-10,8.098838535367498e-11,5.7616427561684945e-11,4.024555283199876e-11,2.7717825406109263e-11,1.866986750863122e-11,1.2337678363436711e-11,8.003963933860312e-12,5.098991664031948e-12,3.1761575621096764e-12,1.9177469000123207e-12
0.0,24,24.0,0.0,30.0,0.0,0.0,0.0,0.0,-13.0,0.0,2.0,0.0,0.0,0.0,1.1319888202508935e-10,7.745213427322133e-11,5.3070523226419447e-11,3.6292087653888485e-11,2.458483693486605e-11,1.656122487419646e-11,1.1114157447239312e-11,7.400774026784162e-12,4.8684807161155046e-12,3.151072279559428e-12,2.0022990860545357e-12,1.2385297801052659e-12,7.441456607125727e-13,4.3438628309716883e-13,2.451811719637097e-13,1.3463963331383952e-13,7.148971091552366e-14,3.6846645039980585e-09,2.682894452168429e-09,1.8277809653339915e-09,1.1674244534418496e-09,7.705704739593023e-10,5.319991979635732e-10,3.87766678302756e-10,2.8568713077208853e-10,2.1161837870382384e-10,1.5556215976184902e-10,1.1334405292490313e-10,8.199962578841404e-11,5.831651482237495e-11,4.07163874960876e-11,2.8019696949307768e-11,1.8847023767120714e-11,1.2427801201946566e-11,8.04058670320228e-12,5.108757825102326e-12,3.1775928809021563e-12,1.918227746601523e-12
0.0,25,25.0,0.0,30.0,0.0,0.0,0.0,0.0,-13.0,0.0,2.0,0.0,0.0,0.0,1.1459055688621861e-10,7.83736961933093e-11,5.3673063988350303e-11,3.667743260457525e-11,2.481751816834881e-11,1.6690173334172116e-11,1.1177665761904519e-11,7.429247859119887e-12,4.882753681241775e-12,3.1616840001632658e-12,2.012488228684785e-12,1.2480528570271933e-12,7.521178975130349e-13,4.4037609857594174e-13,2.492861731401379e-13,1.3723479082891274e-13,7.303562215498405e-14,3.6585181436329312e-09,2.665450034500647e-09,1.8193856682286225e-09,1.1665405682100908e-09,7.735309312041482e-10,5.361672719996458e-10,3.9179279663562997e-10,2.8906678154428276e-10,2.142724221109177e-10,1.5755109620665133e-10,1.1478734694999796e-10,8.302844632888665e-11,5.90286976473441e-11,4.119673734582193e-11,2.8330853062199557e-11,1.9033908747005245e-11,1.2527041427113461e-11,8.084134399522484e-12,5.12247983269922e-12,3.180354925737507e-12,1.9187766077095116e-12
0.0,26,26.0,0.0,30.0,0.0,0.0,0.0,0.0,-13.0,0.0,2.0,0.0,0.0,0.0,1.1600706849863873e-10,7.931041810473317e-11,5.428520561166832e-11,3.7070183186014234e-11,2.5057459518461132e-11,1.682623667497341e-11,1.1246813546392451e-11,7.460856730117332e-12,4.897805056123306e-12,3.1716722449914614e-12,2.021622467948685e-12,1.2566379330750714e-12,7.594419734715514e-13,4.459798585055748e-13,2.5318351395308996e-13,1.397288137247258e-13,7.453710444012964e-14,3.6323267768604928e-09,2.6482288616763964e-09,1.8113558212991364e-09,1.1660227548704377e-09,7.767708322919151e-10,5.405225992926499e-10,3.9594316553876767e-10,2.925288238605681e-10,2.1698227620054888e-10,1.595783055050456e-10,1.1625653814230863e-10,8.407478941168807e-11,5.975265492146407e-11,4.168579101217991e-11,2.864998427063653e-11,1.9229083218299744e-11,1.2634334658353733e-11,8.13415675682491e-12,5.140222429628008e-12,3.184698316461111e-12,1.9196148716724173e-12
0.0,27,27.0,0.0,30.0,0.0,0.0,0.0,0.0,-13.0,0.0,2.0,0.0,0.0,0.0,1.1744890848908574e-10,8.026258259927251e-11,5.4906914336112773e-11,3.74698082942203e-11,2.5303753709832507e-11,1.6968584037532494e-11,1.1321216742902802e-11,7.495672782163638e-12,4.913925773362382e-12,3.1813211181181427e-12,2.0298866219263637e-12,1.2643793944680594e-12,7.661584146381102e-13,4.5121183537537893e-13,2.568769801082339e-13,1.4212167231667798e-13,7.599308293074342e-14,3.606129153094544e-09,2.6312652330035894e-09,1.8037159743310483e-09,1.165884337671098e-09,7.802963059189924e-10,5.450679844215911e-10,4.002194464074841e-10,2.960744352345774e-10,2.197487219010332e-10,1.6164422449042378e-10,1.1775179833396156e-10,8.513866483044723e-11,6.048819696961924e-11,4.218297939228939e-11,2.8976074137194785e-11,1.9431322285511752e-11,1.2748676029219494e-11,8.19014107899598e-12,5.161946786847204e-12,3.190815859014707e-12,1.9209295322118643e-12
0.0,28,28.0,0.0,30.0,0.0,0.0,0.0,0.0,-13.0,0.0,2.0,0.0,0.0,0.0,1.1891657653456945e-10,8.123048747797244e-11,5.553824619352742e-11,3.78759626547679e-11,2.5555686231006647e-11,1.711647372402092e-11,1.140046085314388e-11,7.533685353216912e-12,4.931337938874267e-12,3.190880193800455e-12,2.037454838743277e-12,1.2713704464090374e-12,7.72308562095926e-13,4.560872582708331e-13,2.60371088443916e-13,1.4441379985927005e-13,7.740273043241002e-14,3.5799662581468804e-09,2.614594768078322e-09,1.796491229547483e-09,1.1661387492877587e-09,7.841135207300509e-10,5.498063254671709e-10,4.0462342357867944e-10,2.997049145022204e-10,2.2257264777893163e-10,1.6374938410603117e-10,1.19273372532762e-10,8.622014199097457e-11,6.123523000851325e-11,4.268791558494146e-11,2.9308348249884616e-11,1.963960308352507e-11,1.286914277319514e-11,8.25154415715204e-12,5.187531764256126e-12,3.198842182979805e-12,1.9228749212302087e-12
0.0,29,29.0,0.0,30.0,0.0,0.0,0.0,0.0,-13.0,0.0,2.0,0.0,0.0,0.0,1.20410582511844e-10,8.221443818903209e-11,5.6179313864822905e-11,3.8288439717446117e-11,2.5812707901004923e-11,1.7269259739512067e-11,1.1484124658853148e-11,7.574819976072978e-12,4.950202109244495e-12,3.2005648204145523e-12,2.0444893783211083e-12,1.2777023437654616e-12,7.779342747258881e-13,4.606221656121513e-13,2.63670981942384e-13,1.4660604256873507e-13,7.876545228612503e-14,3.5538813270667332e-09,2.5982543794101316e-09,1.7897072017601756e-09,1.1667995018696031e-09,7.882286722820529e-10,5.547406091379248e-10,4.0915700049509136e-10,3.0342167640708017e-10,2.2545504245806885e-10,1.6589440274806263e-10,1.2082157685448014e-10,8.731934545793564e-11,6.1993732837452e-11,4.320034921778716e-11,2.964622871168015e-11,1.9853086588730672e-11,1.2994906921225715e-11,8.317817654174915e-12,5.216793942424836e-12,3.208858443830004e-12,1.9255748619468648e-12
0.0,30,30.0,0.0,30.0,0.0,0.0,0.0,0.0,-13.0,0.0,2.0,0.0,0.0,0.0,1.219314483364857e-10,8.321474472968688e-11,5.683026461738499e-11,3.8707134241996484e-11,2.6074407694603336e-11,1.7426391645938696e-11,1.1571797885397717e-11,7.61895532791468e-12,4.970625022572341e-12,3.2105571617511394e-12,2.051139678922877e-12,1.283463662332903e-12,7.830776408061498e-13,4.648332738258091e-13,2.667823384822793e-13,1.4869961283453492e-13,8.008087145306209e-14,3.5279198513082522e-09,2.58228224001257e-09,1.7833899755984302e-09,1.1678801577438556e-09,7.926479707063324e-10,5.598739062075913e-10,4.138221955751522e-10,3.072262460121545e-10,2.2839698721017065e-10,1.6807997887025682e-10,1.2239679471744004e-10,8.843645167731537e-11,6.276374158769609e-11,4.37201323691384e-11,2.998929502107031e-11,2.0071096586943572e-11,1.3125240392569527e-11,8.388427455719844e-12,5.249505777176819e-12,3.2208979000981374e-12,1.929125075472674e-12
0.0,31,31.0,0.0,30.0,0.0,0.0,0.0,0.0,-13.0,0.0,2.0,0.0,0.0,0.0,1.234797093280567e-10,8.423172095238526e-11,5.7491266159424304e-11,3.913201339421116e-11,2.6340487451829185e-11,1.7587409857369817e-11,1.1663093634443864e-11,7.665937909098142e-12,4.992667427989987e-12,3.221007851949509e-12,2.057541721003629e-12,1.2887396273337855e-12,7.877806946882097e-13,4.687378568370516e-13,2.6971129216446744e-13,1.5069604606885968e-13,8.134881380074799e-14,3.5021295800145612e-09,2.566717746035713e-09,1.777566060176307e-09,1.169394300264389e-09,7.973776295097076e-10,5.652093677073051e-10,4.1862113819715837e-10,3.1112025314679123e-10,2.3139964890229234e-10,1.7030688345331449e-10,1.2399947183659286e-10,8.957168582094488e-11,6.354533957462863e-11,4.4247194497405853e-11,3.0337251387984935e-11,2.029309794827886e-11,1.3259514498343256e-11,8.46286768259327e-12,5.285411486714246e-12,3.234952111858749e-12,1.9335957207711644e-12
0.0,32,32.0,0.0,30.0,0.0,0.0,0.0,0.0,-13.0,0.0,2.0,0.0,0.0,0.0,1.2505591513487984e-10,8.526568502456457e-11,5.81624979728207e-11,3.95630949829487e-11,2.6610739367556958e-11,1.7751938088324356e-11,1.175765646072263e-11,7.715594394670813e-12,5.016351723175681e-12,3.23203813099132e-12,2.0638176863996303e-12,1.2936115144945896e-12,7.920851380227619e-13,4.723536323118609e-13,2.7246436563723633e-13,1.525971614525445e-13,8.256929361412895e-14,3.4765605150739662e-09,2.5516014744184803e-09,1.7722623414893998e-09,1.1713555052323099e-09,8.02423855873647e-10,5.707502222044571e-10,4.2355606513207115e-10,3.151054270986519e-10,2.344642734323163e-10,1.725759527424103e-10,1.256301105556526e-10,9.07253183377876e-11,6.433865025462363e-11,4.4781524160079366e-11,3.0689900028244114e-11,2.0518675636222364e-11,1.3397195563654082e-11,8.540670152328933e-12,5.324240497856919e-12,3.250977480193906e-12,1.939033985137491e-12
0.0,33,33.0,0.0,30.0,0.0,0.0,0.0,0.0,-13.0,0.0,2.0,0.0,0.0,0.0,1.266606303245583e-10,8.63169603260212e-11,5.884414631258698e-11,4.0000431476080397e-11,2.6885026635940857e-11,1.7919674274228113e-11,1.1855166947395412e-11,7.767741726884452e-12,5.041669175817342e-12,3.243742327781921e-12,2.0700758983437603e-12,1.2981561362587052e-12,7.960320673869939e-13,4.756986516860022e-13,2.7504841163886274e-13,1.5440502665040834e-13,8.37424993745537e-14,3.4512648994757357e-09,2.5369751354475382e-09,1.7675060327671312e-09,1.173777313256316e-09,8.077928427335561e-10,5.764997743986861e-10,4.286293176742891e-10,3.191835917362077e-10,2.3759217974949093e-10,1.7488808150673278e-10,1.272892639734501e-10,9.189766114992015e-11,6.514383199859836e-11,4.5323155720720455e-11,3.104711972415108e-11,2.0747515319199705e-11,1.353783805164575e-11,8.621410093713576e-12,5.365718448634014e-12,3.2689018518135707e-12,1.9454666689931742e-12
0.0,34,34.0,0.0,30.0,0.0,0.0,0.0,0.0,-13.0,0.0,2.0,0.0,0.0,0.0,1.2829443475618072e-10,8.738587640646275e-11,5.953640157086208e-11,4.044409855208362e-11,2.7163267273445876e-11,1.809038093636481e-11,1.1955343568212435e-11,7.822195104858178e-12,5.0685865688579206e-12,3.2561905652173327e-12,2.07641101784461e-12,1.3024454220654846e-12,7.996617117110798e-13,4.787911920889074e-13,2.7747056193606427e-13,1.5612192640330978e-13,8.486877986562872e-14,3.4262971983783984e-09,2.5228815200342945e-09,1.7633246229530019e-09,1.1766732033651968e-09,8.13490762850375e-10,5.824614051776125e-10,4.338433396367393e-10,3.2335666120775604e-10,2.4078475453001723e-10,1.7724421696842763e-10,1.2897753021202121e-10,9.308906360239797e-11,6.596107389631977e-11,4.587215964193764e-11,3.140884884829544e-11,2.097938604031399e-11,1.3681076268504647e-11,8.704708880329736e-12,5.4095758694568774e-12,3.2886309408344188e-12,1.9529027262226043e-12
0.0,35,35.0,0.0,30.0,0.0,0.0,0.0,0.0,-13.0,0.0,2.0,0.0,0.0,0.0,1.2995792383272273e-10,8.847276983009443e-11,6.023945709953757e-11,4.089418711544478e-11,2.744542092521905e-11,1.8263875672159483e-11,1.2057942531857378e-11,7.878774083429552e-12,5.097052166992514e-12,3.269431574093806e-12,2.082904464841249e-12,1.3065460976793814e-12,8.030131837008815e-13,4.816496492274874e-13,2.7973818192994255e-13,1.5775033476738224e-13,8.594863067432046e-14,3.401714072207375e-09,2.5093644414672476e-09,1.7597458234494162e-09,1.1800565681395992e-09,8.19523765026605e-10,5.88638573201556e-10,4.3920067630241283e-10,3.276266363175049e-10,2.44043447553322e-10,1.7964535347442928e-10,1.3069554706795368e-10,9.429990833797729e-11,6.679059214434965e-11,4.642863531204726e-11,3.1775072060152475e-11,2.1214125110871703e-11,1.3826615458259263e-11,8.790234477651624e-12,5.4555547487268245e-12,3.3100543625655893e-12,1.9613357316989716e-12
0.0,36,36.0,0.0,30.0,0.0,0.0,0.0,0.0,-13.0,0.0,2.0,0.0,0.0,0.0,1.3165170870650055e-10,8.957798484990087e-11,6.095350888203929e-11,4.135079789042272e-11,2.773147833813744e-11,1.8440022216751435e-11,1.2162756199339132e-11,7.93730702282493e-12,5.127000951294943e-12,3.283495518294983e-12,2.089625028164601e-12,1.310519464688673e-12,8.061242496373183e-13,4.842924310933286e-13,2.818588293888446e-13,1.5929289066876557e-13,8.698268115782265e-14,3.3775743410239034e-09,2.49646867136646e-09,1.7567975132482606e-09,1.1839406905975502e-09,8.258979725688836e-10,5.950348180276611e-10,4.4470397436288404e-10,3.3199560163464314e-10,2.4736976780137244e-10,1.8209252793424493e-10,1.324439871981467e-10,9.55306072688838e-11,6.763262678765191e-11,4.6992705640747714e-11,3.2145809955720975e-11,2.145162520098961e-11,1.3974222867304695e-11,8.87770020852904e-12,5.5034132373426355e-12,3.3330511244381465e-12,1.970746253421413e-12
0.0,37,37.0,0.0,30.0,0.0,0.0,0.0,0.0,-13.0,0.0,2.0,0.0,0.0,0.0,1.3337641648590924e-10,9.070187391433724e-11,6.167875565913998e-11,4.181403788643281e-11,2.8021453131223702e-11,1.8618722339928285e-11,1.2269610559606934e-11,7.997634139898778e-12,5.158359109221184e-12,3.298396750740374e-12,2.096629626417079e-12,1.3144212777853553e-12,8.090311216396799e-13,4.867378529765043e-13,2.838402160140702e-13,1.6075237637398906e-13,8.797168194118012e-14,3.3539389393535144e-09,2.4842398695593015e-09,1.7545076825719938e-09,1.18833872304821e-09,8.326194840602828e-10,6.016537647386172e-10,4.5035598282612394e-10,3.364657233517199e-10,2.507652802818462e-10,1.8458681601284917e-10,1.3422355391979222e-10,9.678159778942086e-11,6.848743871567616e-11,4.756451288464596e-11,3.252111104824877e-11,2.1691823482702197e-11,1.4123719172266476e-11,8.966862345764576e-12,5.552928767246375e-12,3.3574944707107856e-12,1.9811041098268488e-12
0.0,38,38.0,0.0,30.0,0.0,0.0,0.0,0.0,-13.0,0.0,2.0,0.0,0.0,0.0,1.3513269047175381e-10,9.184479803571154e-11,6.241539926375025e-11,4.228401818739839e-11,2.8315375487269643e-11,1.8799908707212435e-11,1.2378362148796043e-11,8.059609405745331e-12,5.191047798606254e-12,3.314136436788786e-12,2.1039641820340534e-12,1.3183017144661935e-12,8.117682758514837e-13,4.890040347070729e-13,2.8569017081912916e-13,1.6213169844277503e-13,8.891649300067309e-14,3.3308708606285243e-09,2.472724507611411e-09,1.7529043751726299e-09,1.1932636681201724e-09,8.396943764752684e-10,6.084991300074831e-10,4.561595548407554e-10,3.410392478767277e-10,2.5423160355702863e-10,1.8712932904539073e-10,1.3603497765151197e-10,9.805333933408965e-11,6.935530688585119e-11,4.814421533325704e-11,3.290104556307889e-11,2.1934692617429345e-11,1.4274970518676177e-11,9.057516946132228e-12,5.603899858876982e-12,3.383256025691803e-12,1.99237049486437e-12
0.0,39,39.0,0.0,30.0,0.0,0.0,0.0,0.0,-13.0,0.0,2.0,0.0,0.0,0.0,1.3692119043698903e-10,9.300712705727024e-11,6.316364502126614e-11,4.276085265191264e-11,2.861328741099567e-11,1.898353873769633e-11,1.2488894708894431e-11,8.12310151819946e-12,5.224986227263456e-12,3.330704998197398e-12,2.111664572573072e-12,1.322205429443567e-12,8.143682991707503e-13,4.911088013152813e-13,2.8741660458083314e-13,1.6343387072450257e-13,8.981807237314057e-14,3.3084350903853616e-09,2.461969785782141e-09,1.7520156294735522e-09,1.1987283621718526e-09,8.471287106486263e-10,6.15574729506544e-10,4.621176503598186e-10,3.457185011191118e-10,2.5777040794483394e-10,1.8972121162603836e-10,1.3787901298540963e-10,9.934631034645971e-11,7.023652578177125e-11,4.873198460926532e-11,3.3285700629727665e-11,2.218023335389535e-11,1.442788130740375e-11,9.149496252938343e-12,5.6561468774809256e-12,3.410209221940599e-12,2.004499955286459e-12
0.0,40,40.0,0.0,30.0,0.0,0.0,0.0,0.0,-13.0,0.0,2.0,0.0,0.0,0.0,1.3874259295411075e-10,9.418923985403483e-11,6.392370213842652e-11,4.324465722040815e-11,2.8915239236199624e-11,1.916958942648364e-11,1.2601115804261487e-11,8.187994155042661e-12,5.26009410537915e-12,3.3480843456798102e-12,2.1197576262550314e-12,1.326171684348169e-12,8.168617662072331e-13,4.930695884221621e-13,2.890274748820097e-13,1.6466199897848215e-13,9.067746551546848e-14,3.2866985273623254e-09,2.4520235432280087e-09,1.751869418790423e-09,1.20474546129939e-09,8.549285390930429e-10,6.228844865521505e-10,4.682333395528849e-10,3.5050588841392606e-10,2.6138341434666426e-10,1.9236363981462392e-10,1.397564363552473e-10,1.0066100568959617e-10,7.11314031247392e-11,4.932800342305325e-11,3.367517654324887e-11,2.2428468501699415e-11,1.4582387785377216e-11,9.242664917028951e-12,5.70951197401155e-12,3.4382320336528734e-12,2.017442206831457e-12
0.0,41,41.0,0.0,30.0,0.0,0.0,0.0,0.0,-13.0,0.0,2.0,0.0,0.0,0.0,1.4059759176872693e-10,9.539152449636458e-11,6.46957840451769e-11,4.373554961159687e-11,2.9221287108291924e-11,1.935805305925798e-11,1.2714953549900564e-11,8.254185687720206e-12,5.296293537217452e-12,3.3662498811884246e-12,2.128262132554032e-12,1.330234542216917e-12,8.192771471962216e-13,4.949033536701448e-13,2.9053075149846323e-13,1.6581926673564338e-13,9.14957953221286e-14,3.2657298916677816e-09,2.4429341613507196e-09,1.7524935909299196e-09,1.2113274301705865e-09,8.630999161484584e-10,6.304324418678036e-10,4.745098068684371e-10,3.5540389501886133e-10,2.650723936490604e-10,1.9505781990029672e-10,1.4166804425104215e-10,1.0199793450138351e-10,7.204025785600164e-11,4.9932463679581557e-11,3.4069583842039326e-11,2.2679438059987508e-11,1.4738452441222944e-11,9.336916220347726e-12,5.763858417115348e-12,3.467209060746177e-12,2.031143778741199e-12
0.0,42,42.0,0.0,30.0,0.0,0.0,0.0,0.0,-13.0,0.0,2.0,0.0,0.0,0.0,1.4248689821488087e-10,9.661437839803291e-11,6.548010867861403e-11,4.4233649256294467e-11,2.9531491213574514e-11,1.9548933724395293e-11,1.2830353553230634e-11,8.321588508393716e-12,5.333510422889933e-12,3.385172262081037e-12,2.137189842848867e-12,1.334423115727827e-12,8.21640746694369e-13,4.9662649540518e-13,2.9193438207865984e-13,1.669089220684044e-13,9.227425279316661e-14,3.2455996192334323e-09,2.4347504602765977e-09,1.7539158075361493e-09,1.2184865339282181e-09,8.716489104366701e-10,6.382227643424109e-10,4.809503556474094e-10,3.6041508711525815e-10,2.688391666418948e-10,1.9780498766006784e-10,1.4361465192255088e-10,1.0335761847787239e-10,7.296341839959244e-11,5.054556487327446e-11,3.446904101036746e-11,2.2933195303118162e-11,1.4896059169778496e-11,9.432168431797546e-12,5.819069491703423e-12,3.4970330264031195e-12,2.0455494793123014e-12
0.0,43,43.0,0.0,30.0,0.0,0.0,0.0,0.0,-13.0,0.0,2.0,0.0,0.0,0.0,1.4441124166662181e-10,9.785820846395409e-11,6.627689871151717e-11,4.4739077365842116e-11,2.984591456906199e-11,1.9742244519021178e-11,1.2947276130238223e-11,8.390128096881514e-12,5.3716754412385104e-12,3.404818928290351e-12,2.1465464405199313e-12,1.338761858094141e-12,8.23976672075125e-13,4.98254779653758e-13,2.932462582203563e-13,1.6793426499275132e-13,9.301408833194764e-14,3.2263797418331764e-09,2.4275215885622076e-09,1.7561634836335716e-09,1.2262348334220183e-09,8.805816195866847e-10,6.462597626588137e-10,4.875584131922832e-10,3.6554211324492305e-10,2.7268560439462614e-10,2.0060640805101819e-10,1.4559709251133945e-10,1.0474059055408636e-10,7.390122120632278e-11,5.1167512729673164e-11,3.4873672662057e-11,2.3189803651014648e-11,1.5055209147328607e-11,9.528361381583787e-12,5.875047109159653e-12,3.5276057609098165e-12,2.060603678771199e-12
0.0,44,44.0,0.0,30.0,0.0,0.0,0.0,0.0,-13.0,0.0,2.0,0.0,0.0,0.0,1.463713700203475e-10,9.912343124720015e-11,6.70863817343356e-11,4.525195706800165e-11,3.016462222460956e-11,1.993800534534874e-11,1.3065693825894287e-11,8.459741929584172e-12,5.410724682258138e-12,3.4251554005928487e-12,2.156332464175072e-12,1.3432708858721737e-12,8.26306830155732e-13,4.998032762244028e-13,2.9447418216357216e-13,1.6889863528618633e-13,9.371660364148061e-14,3.208143752037838e-09,2.4212969063463155e-09,1.7592637278992986e-09,1.2345841840427852e-09,8.899041871884928e-10,6.545478976681203e-10,4.943375362023854e-10,3.707877061185564e-10,2.7661362903354397e-10,2.0346337527766732e-10,1.4761621655186163e-10,1.06147393943439e-10,7.485400957044938e-11,5.1798518065974784e-11,3.528360809873455e-11,2.3449334177961893e-11,1.5215917347975424e-11,9.625453306279224e-12,5.931710245882387e-12,3.5588387487264725e-12,2.07625140945998e-12
0.0,45,45.0,0.0,30.0,0.0,0.0,0.0,0.0,-13.0,0.0,2.0,0.0,0.0,0.0,1.4836805020310373e-10,1.004104731207851e-10,6.790879040162581e-11,4.5772413568454406e-11,3.048768076179339e-11,2.0136241199328506e-11,1.3185589246069269e-11,8.530378310531803e-12,5.450599992836927e-12,3.446146363232275e-12,2.1665441717444867e-12,1.3479663235867414e-12,8.286509497407817e-13,5.012863045243968e-13,2.9562583439617837e-13,1.6980540056411717e-13,9.438314418021962e-14,3.190966452591014e-09,2.4161258623105783e-09,1.7632432842858386e-09,1.2435462384438515e-09,8.996228219245785e-10,6.630917953876657e-10,5.01291416494861e-10,3.761546847378515e-10,2.806252148660045e-10,2.0637721317974868e-10,1.496728917849646e-10,1.0757858149293871e-10,7.58221327031339e-11,5.243879584967458e-11,3.5698980163747785e-11,2.371186363803579e-11,1.537820962759227e-11,9.723417991192994e-12,5.988993301474642e-12,3.590653315159995e-12,2.092439286914796e-12
0.0,46,46.0,0.0,30.0,0.0,0.0,0.0,0.0,-13.0,0.0,2.0,0.0,0.0,0.0,1.5040206870293255e-10,1.0171977046674338e-10,6.874436255370542e-11,4.630057431341871e-11,3.081515800125231e-11,2.0336980862680745e-11,1.330695319234486e-11,8.601995185538973e-12,5.4912490936648215e-12,3.4677565477155737e-12,2.1771743368861114e-12,1.3528606609472581e-12,8.310266274593291e-13,5.027173894365509e-13,2.967087425111022e-13,1.706579445124495e-13,9.501509213377756e-14,3.1749237898348118e-09,2.412057864971097e-09,1.768128475705261e-09,1.2531324534420875e-09,9.097438188188581e-10,6.718962605038736e-10,5.08423886940707e-10,3.8164595678104217e-10,2.8472238980215786e-10,2.0934927589035372e-10,1.517680032316774e-10,1.090347153105061e-10,7.68059450413721e-11,5.3088564437822923e-11,3.6119924333216134e-11,2.3977472907174415e-11,1.5542120302857387e-11,9.822242217867767e-12,6.0468444459405815e-12,3.622980525008162e-12,2.109116258713187e-12
0.0,47,47.0,0.0,30.0,0.0,0.0,0.0,0.0,-13.0,0.0,2.0,0.0,0.0,0.0,1.5247423211834866e-10,1.0305176988311207e-10,6.959334132288399e-11,4.683656914046748e-11,3.114712285236806e-11,2.054025592005405e-11,1.3429783080723855e-11,8.67455898419664e-12,5.5326255185515765e-12,3.4899514367904815e-12,2.1882129724136442e-12,1.3579631144450766e-12,8.334493940015438e-13,5.041092273607924e-13,2.977302516670253e-13,1.7145965522369036e-13,9.561385985646713e-14,3.160092670987732e-09,2.409142148998765e-09,1.7739451505760002e-09,1.2633541013925493e-09,9.202735825316782e-10,6.809662902656045e-10,5.15738927556184e-10,3.872645212100786e-10,2.8890723702987633e-10,2.123809487194784e-10,1.5390245348034613e-10,1.1051636662213374e-10,7.780580576767018e-11,5.374804498060765e-11,3.6546578000320715e-11,2.424624576068895e-11,1.570769015702349e-11,9.921923511326376e-12,6.105224006749899e-12,3.655760859258104e-12,2.126234190820636e-12
0.0,48,48.0,0.0,30.0,0.0,0.0,0.0,0.0,-13.0,0.0,2.0,0.0,0.0,0.0,1.5458536772490813e-10,1.0440692840826445e-10,7.045597523180327e-11,4.738053041204132e-11,3.1483645256782836e-11,2.0746100034147696e-11,1.3554081619030242e-11,8.748043520962161e-12,5.574688420568041e-12,3.5126978086836024e-12,2.199647978268309e-12,1.363279986218378e-12,8.359327977121725e-13,5.054736623029324e-13,2.986974969935846e-13,1.7221391362646085e-13,9.618088373719741e-14,3.1465507652849203e-09,2.4074276374589393e-09,1.780718633121315e-09,1.274222286325152e-09,9.312186526164844e-10,6.903070886588177e-10,5.232406717012111e-10,3.9301347106629425e-10,2.931818969041506e-10,2.1547364922331515e-10,1.5607716314575694e-10,1.1202411581950641e-10,7.882207851413471e-11,5.441746097318919e-11,3.697907991935184e-11,2.4518267920790792e-11,1.5874964809989578e-11,1.002246817288051e-11,6.164102931475593e-12,3.688943728298416e-12,2.143748303487885e-12
0.0,49,49.0,0.0,30.0,0.0,0.0,0.0,0.0,-13.0,0.0,2.0,0.0,0.0,0.0,1.5673632405762592e-10,1.0578571376146219e-10,7.133251828957008e-11,4.793259313063768e-11,3.1824796190959713e-11,2.095454842236777e-11,1.3679855714721463e-11,8.822428975720622e-12,5.617402282722148e-12,3.535964141843149e-12,2.2114657138927274e-12,1.368815014193796e-12,8.384885024603829e-13,5.068216716940413e-13,2.9961737825213615e-13,1.729240820331992e-13,9.671761844620602e-14,3.134376289233368e-09,2.4069628010677613e-09,1.7884736783924535e-09,1.2857479651189705e-09,9.425857306388582e-10,6.999240807588428e-10,5.30933412347682e-10,3.988959964298753e-10,2.975485690178111e-10,2.1862882842495946e-10,1.582930714644641e-10,1.135585526624463e-10,7.985513122448932e-11,5.509703793962453e-11,3.741756978334113e-11,2.4793626321655768e-11,1.6043993396936668e-11,1.0123889578834848e-11,6.2234613495685544e-12,3.7224868719006686e-12,2.1616174704854804e-12
0.0,50,50.0,0.0,30.0,0.0,0.0,0.0,0.0,-13.0,0.0,2.0,0.0,0.0,0.0,1.589279715086084e-10,1.0718860459827703e-10,7.222323008971822e-11,4.849289503717224e-11,3.217064770346183e-11,2.1165637488495658e-11,1.3807115584036519e-11,8.897700965605058e-12,5.660736564543115e-12,3.5597208999095403e-12,2.223651496751399e-12,1.3745697086171141e-12,8.411263967591927e-13,5.081633614536404e-13,3.004965370191922e-13,1.7359349285774285e-13,9.722553152252965e-14,3.123647776517381e-09,2.407795515783744e-09,1.7972344330660646e-09,1.2979419739672364e-09,9.543817090420876e-10,7.098229271631399e-10,5.388216083918491e-10,4.0491538752643603e-10,3.020095144257817e-10,2.2184797215729424e-10,1.6055113699594915e-10,1.1512027660474035e-10,8.090533614849057e-11,5.578700323269883e-11,3.786218791422021e-11,2.5072408550010763e-11,1.6214827506605072e-11,1.0226206722442758e-11,6.283287247342566e-12,3.7563556880387994e-12,2.1798043966087665e-12
0.0,51,51.0,0.0,30.0,0.0,0.0,0.0,0.0,-13.0,0.0,2.0,0.0,0.0,0.0,1.611612029398012e-10,1.0861609077956397e-10,7.312837591266152e-11,4.906157669521086e-11,3.252127297044067e-11,2.1379404571659022e-11,1.3935874034166101e-11,8.97384971327738e-12,5.70466531013153e-12,3.583940715606458e-12,2.236190030203404e-12,1.3805436711366138e-12,8.438547112373599e-13,5.095079696712206e-13,3.013413366072438e-13,1.742254375744573e-13,9.770609826698351e-14,3.1144438334112396e-09,2.4099729202853913e-09,1.8070244031330063e-09,1.3108150603546145e-09,9.666137016252852e-10,7.200095384143896e-10,5.469098909957597e-10,4.110750379712429e-10,3.065670579999308e-10,2.2513260250364028e-10,1.628523384043217e-10,1.1670989721621022e-10,8.197306994497361e-11,5.648758593374426e-11,3.831307504806081e-11,2.535470242757845e-11,1.638752033684013e-11,1.0329442975274343e-11,6.343575263006523e-12,3.79052252482512e-12,2.198275688983556e-12
0.0,52,52.0,0.0,30.0,0.0,0.0,0.0,0.0,-13.0,0.0,2.0,0.0,0.0,0.0,1.6343693431108914e-10,1.1006867365282277e-10,7.404822683425373e-11,4.963878156418334e-11,3.287674635855795e-11,2.1595887782531583e-11,1.4066145891914756e-11,9.050869311979215e-12,5.749166738029028e-12,3.6085984908708916e-12,2.2490657650125936e-12,1.3867348935765307e-12,8.466801417546496e-13,5.108638781730189e-13,3.021578448796367e-13,1.748231560029319e-13,9.816079691068089e-14,3.1068428809206975e-09,2.4135412751269204e-09,1.8178664296503475e-09,1.3243779207263692e-09,9.792890754810762e-10,7.304900893316983e-10,5.552030699530326e-10,4.17378448148077e-10,3.1122359089601073e-10,2.284842793162113e-10,1.6519767529994064e-10,1.1832803467807803e-10,8.305871387198411e-11,5.7199016837090185e-11,3.877037220055142e-11,2.56405957083123e-11,1.656212603106339e-11,1.043362504421902e-11,6.404325603214547e-12,3.8249659627347574e-12,2.2170018377846945e-12
0.0,53,53.0,0.0,30.0,0.0,0.0,0.0,0.0,-13.0,0.0,2.0,0.0,0.0,0.0,1.6575610532432374e-10,1.1154686634502359e-10,7.498305984126459e-11,5.022465606458869e-11,3.323714348866567e-11,2.18151259031563e-11,1.4197947554709496e-11,9.128757084165248e-12,5.794222828702084e-12,3.633671428948706e-12,2.262263199525236e-12,1.3931400344202693e-12,8.496079756811468e-13,5.122386311637534e-13,3.0295182005633233e-13,1.7538982600839196e-13,9.859110403413771e-14,3.1009228852824065e-09,2.4185458256105755e-09,1.8297826737672718e-09,1.338641243976304e-09,9.924154842204913e-10,7.412710331769578e-10,5.637061400841179e-10,4.2382922872517846e-10,3.1598157311786205e-10,2.3190460179639552e-10,1.675881691245549e-10,1.1997532033260001e-10,8.4162654044968e-11,5.792152850467225e-11,3.9234220599828014e-11,2.5930175868555992e-11,1.6738699164727636e-11,1.0538782101222298e-11,6.4655430787376775e-12,3.859670108001348e-12,2.2359571216398438e-12
0.0,54,54.0,0.0,30.0,0.0,0.0,0.0,0.0,-13.0,0.0,2.0,0.0,0.0,0.0,1.6811968008403295e-10,1.1305119406619353e-10,7.593315795405043e-11,5.0819349637893413e-11,3.360254129643158e-11,2.2037158332141857e-11,1.4331296642481084e-11,9.207513028170463e-12,5.8398189215257225e-12,3.6591390124840335e-12,2.2757671239999056e-12,1.399754671799638e-12,8.526422191199532e-13,5.136389600848244e-13,3.0372869954950733e-13,1.7592855370945055e-13,9.899849021816062e-14,3.0967610788995634e-09,2.4250306706606784e-09,1.842794612255748e-09,1.3536157608176085e-09,1.006000902293798e-09,7.523591155934918e-10,5.724242876751285e-10,4.304311043152394e-10,3.2084353616727027e-10,2.3539521012445976e-10,1.7002486406730755e-10,1.2165239727153436e-10,8.528528174657612e-11,5.865535537745274e-11,3.970476167531432e-11,2.6223529972331196e-11,1.6917294355557628e-11,1.0644945064248152e-11,6.52723625419872e-12,3.894623912650377e-12,2.255119452291401e-12
0.0,55,55.0,0.0,30.0,0.0,0.0,0.0,0.0,-13.0,0.0,2.0,0.0,0.0,0.0,1.7052864777577212e-10,1.1458219442330043e-10,7.689881035631567e-11,5.1423014803360057e-11,3.397301808803613e-11,2.2262025061362205e-11,1.4466211731690519e-11,9.287139345889301e-12,5.885943329861103e-12,3.684982939908286e-12,2.2895628147914573e-12,1.4065735324602726e-12,8.55785723126011e-13,5.15070813807905e-13,3.044935918121174e-13,1.764423642805443e-13,9.938441591217722e-14,3.094433674282801e-09,2.4330386402264724e-09,1.8569230447738143e-09,1.3693122990269089e-09,1.0200536601984396e-09,7.637613882661655e-10,5.813628969827588e-10,4.3718791728994415e-10,3.2581208577038786e-10,2.389577871293852e-10,1.72508828002207e-10,1.2335992095115767e-10,8.642699377416683e-11,5.940073393159908e-11,4.018213709253101e-11,2.652074459718259e-11,1.709796597548437e-11,1.075214600964405e-11,6.58941670507152e-12,3.9298205320939545e-12,2.2744701721240386e-12
0.0,56,56.0,0.0,30.0,0.0,0.0,0.0,0.0,-13.0,0.0,2.0,0.0,0.0,0.0,1.729840233631798e-10,1.1614041774415732e-10,7.788031253165963e-11,5.2035807213602874e-11,3.4348653590324224e-11,2.248976667378977e-11,1.4602712155441004e-11,9.367640043665254e-12,5.932586980103408e-12,3.71118703074974e-12,2.3036361841114032e-12,1.4135906967391361e-12,8.590403072526068e-13,5.165393932828589e-13,3.0525127113275763e-13,1.7693419342971438e-13,9.975032751090702e-14,3.0940155740920165e-09,2.442611183969568e-09,1.872188114059805e-09,1.3857418444683851e-09,1.0345824803501353e-09,7.754852222655742e-10,5.905275568351811e-10,4.4410363176210454e-10,3.308899046736869e-10,2.4259405999221704e-10,1.7504115344049987e-10,1.2509855982435376e-10,8.758819281349941e-11,6.015790286877708e-11,4.0666488824978123e-11,2.68219058085514e-11,1.7280767945688857e-11,1.0860417697874408e-11,6.652098374102395e-12,3.965256727484768e-12,2.2939938170099262e-12
0.0,57,57.0,0.0,30.0,0.0,0.0,0.0,0.0,-13.0,0.0,2.0,0.0,0.0,0.0,1.754868483049415e-10,1.1772642741123184e-10,7.887796640647662e-11,5.265788571022349e-11,3.472952899556994e-11,2.272042435486266e-11,1.474081785610585e-11,9.449020598320013e-12,5.979743078376556e-12,3.737737108887571e-12,2.3179738909557925e-12,1.42079978005553e-12,8.624068790319352e-13,5.180491897784533e-13,3.0600617526526435e-13,1.7740687962226662e-13,1.0009765363403308e-13,3.0955800809332286e-09,2.4537882742007334e-09,1.8886093401966243e-09,1.4029156077126072e-09,1.0495965133813929e-09,7.875383210541087e-10,5.999240673653378e-10,4.5118233775012624e-10,3.360797555039999e-10,2.4630580197863583e-10,1.7762295849377075e-10,1.2686899598262322e-10,8.876928782927212e-11,6.092710333132925e-11,4.115795925525438e-11,2.712709917269686e-11,1.746575359915843e-11,1.0969793196415135e-11,6.715297018798347e-12,4.000932317039927e-12,2.3136778556417117e-12
0.0,58,58.0,0.0,30.0,0.0,0.0,0.0,0.0,-13.0,0.0,2.0,0.0,0.0,0.0,1.7803819129292997e-10,1.1934080020535898e-10,7.98920804987467e-11,5.328941238052254e-11,3.5115727001451346e-11,2.2954039911935125e-11,1.48805492791656e-11,9.531287680358314e-12,6.027406806808183e-12,3.7646208712898755e-12,2.3325634185429145e-12,1.4281940917871874e-12,8.658855482593818e-13,5.196040258896266e-13,3.067624057440087e-13,1.7786315710894221e-13,1.0042780160716948e-13,3.0991986111456592e-09,2.4666083262088036e-09,1.906205669991455e-09,1.4208450959644104e-09,1.065105374624736e-09,7.999287331489138e-10,6.095584469183944e-10,4.58428255540296e-10,3.4138448368843807e-10,2.500948341983844e-10,1.8025538784556655e-10,1.2867192580285432e-10,8.9970694465135e-11,6.170857913453863e-11,4.1656691298553605e-11,2.7436409799839927e-11,1.765297559768276e-11,1.1080305585357351e-11,6.779029741485386e-12,4.036849678210365e-12,2.3335124151990015e-12
0.0,59,59.0,0.0,30.0,0.0,0.0,0.0,0.0,-13.0,0.0,2.0,0.0,0.0,0.0,1.80639149012886e-10,1.2098412665944317e-10,8.092297007225857e-11,5.39305526159666e-11,3.550733184703628e-11,2.3190655798005302e-11,1.5021927298954038e-11,9.61444892674724e-12,6.0755750499684005e-12,3.791827748427721e-12,2.347393123273244e-12,1.435766772687996e-12,8.694757352004827e-13,5.212070985332348e-13,3.0752373070471215e-13,1.7830564980430866e-13,1.0074215414514623e-13,3.1049404174063864e-09,2.4811081392610997e-09,1.924995542386068e-09,1.4395421899086598e-09,1.081119180536472e-09,8.126648644554018e-10,6.194369391793776e-10,4.658457402624356e-10,3.4680702043095606e-10,2.5396302739085586e-10,1.8293961373099594e-10,1.3050806059531425e-10,9.119283544749189e-11,6.25025770094954e-11,4.2162828542625516e-11,2.774992241057025e-11,1.784248589234914e-11,1.1191987732931077e-11,6.843314593568526e-12,4.073013300789251e-12,2.353490001852212e-12
0.0,60,60.0,0.0,30.0,0.0,0.0,0.0,0.0,-13.0,0.0,2.0,0.0,0.0,0.0,1.8329084692905915e-10,1.2265701142227612e-10,8.197095729585209e-11,5.4581475172861076e-11,3.590442934564423e-11,2.3430315137148204e-11,1.5164973168755156e-11,9.698512756200285e-12,6.124246151044047e-12,3.8193487613534255e-12,2.362452259835537e-12,1.4435109122091132e-12,8.731762720665313e-13,5.228610232114613e-13,3.0829359000644055e-13,1.7873686604729099e-13,1.0104206624067289e-13,3.1128723255699652e-09,2.497322861637958e-09,1.94499697064237e-09,1.4590192249735438e-09,1.0976485848225768e-09,8.257554903055389e-10,6.295660205697275e-10,4.734392866937022e-10,3.5235038574316805e-10,2.57912303737521e-10,1.8567683692503753e-10,1.3237812725061605e-10,9.243614098887186e-11,6.330934685134558e-11,4.267651539915487e-11,2.8067721419702896e-11,1.8034335718395734e-11,1.1304872129704459e-11,6.908170245932283e-12,4.109429389736377e-12,2.3736052233154036e-12
0.0,61,61.0,0.0,30.0,0.0,0.0,0.0,0.0,-13.0,0.0,2.0,0.0,0.0,0.0,1.85994440094267e-10,1.2436007363262647e-10,8.303637140731967e-11,5.524235223548718e-11,3.630710691541345e-11,2.3673061749998833e-11,1.530970848919035e-11,9.783488220523016e-12,6.173419696584321e-12,3.847176379372832e-12,2.3777309866649414e-12,1.4514196472257918e-12,8.769854973121069e-13,5.245678788864792e-13,3.0907510243319977e-13,1.7915919426229824e-13,1.0132886226286215e-13,3.1230584917282304e-09,2.5152859830796267e-09,1.9662276418359894e-09,1.4792890764019604e-09,1.114704814041622e-09,8.392097672566347e-10,6.399524079628749e-10,4.812135343040557e-10,3.5801769152774993e-10,2.619446387030211e-10,1.8846828774129688e-10,1.342828688844388e-10,9.370104918786518e-11,6.412914196880801e-11,4.319789726234093e-11,2.8389891032732183e-11,1.822857561679814e-11,1.141899077162181e-11,6.973615717850229e-12,4.146105515555916e-12,2.3938545194252725e-12
0.0,62,62.0,0.0,30.0,0.0,0.0,0.0,0.0,-13.0,0.0,2.0,0.0,0.0,0.0,1.8875111398687182e-10,1.2609394730374856e-10,8.411954888167566e-11,5.5913359481837984e-11,3.671545360831965e-11,2.3918940178281755e-11,1.5456155190088497e-11,9.869384886250553e-12,6.2230963281493225e-12,3.875304381326094e-12,2.393220355524559e-12,1.4594862437523005e-12,8.809013424905581e-13,5.263292528779531e-13,3.0987107474183507e-13,1.7957489952586454e-13,1.0160383327092334e-13,3.1355601860009967e-09,2.53502935795825e-09,1.9887050339354857e-09,1.5003652474155116e-09,1.132299702482201e-09,8.530372447290898e-10,6.506030667685249e-10,4.891732725550455e-10,3.63812144713655e-10,2.6606206290776664e-10,1.913152270436819e-10,1.362230454795503e-10,9.498800642363565e-11,6.496221933184965e-11,4.3727120671208366e-11,2.8716515350866622e-11,1.8425255476255373e-11,1.1534375083324052e-11,7.039670157271911e-12,4.183050309432019e-12,2.4142359055793026e-12
0.0,63,63.0,0.0,30.0,0.0,0.0,0.0,0.0,-13.0,0.0,2.0,0.0,0.0,0.0,1.915620853761624e-10,1.2785928171844803e-10,8.522083360357071e-11,5.659467615199606e-11,3.7129560138287677e-11,2.4167995707856195e-11,1.5604335522081213e-11,9.956212741482581e-12,6.273277578870396e-12,3.903727722711016e-12,2.408912288550549e-12,1.4677041632603188e-12,8.849214115628219e-13,5.281462852654166e-13,3.106840123177707e-13,1.7998612103150668e-13,1.018682345485263e-13,3.150435610023967e-09,2.556583262326321e-09,2.012446550448326e-09,1.522261959657748e-09,1.1504457261440687e-09,8.672478765842405e-10,6.615252194332244e-10,4.973234464613833e-10,3.697370504431961e-10,2.7026666403563993e-10,1.942189472739865e-10,1.3819943452525862e-10,9.629746774382236e-11,6.580883981526491e-11,4.4264333472873195e-11,2.904767848133427e-11,1.862442459032674e-11,1.1651055874346478e-11,7.106352665890222e-12,4.2202731999281375e-12,2.4347487328216506e-12
