Line_number,Fiducial,Easting,Northing,Height,Elevation,tx_pitch,tx_roll,tx_yaw,txrx_dx,txrx_dy,txrx_dz,rx_pitch,rx_roll,rx_yaw,S0Z_time_1.431e-04,S0Z_time_1.801e-04,S0Z_time_2.266e-04,S0Z_time_2.846e-04,S0Z_time_3.581e-04,S0Z_time_4.506e-04,S0Z_time_5.671e-04,S0Z_time_7.136e-04,S0Z_time_8.981e-04,S0Z_time_1.131e-03,S0Z_time_1.423e-03,S0Z_time_1.791e-03,S0Z_time_2.255e-03,S0Z_time_2.838e-03,S0Z_time_3.573e-03,S0Z_time_4.498e-03,S0Z_time_5.662e-03,S1Z_time_1.409e-05,S1Z_time_1.610e-05,S1Z_time_1.909e-05,S1Z_time_2.360e-05,S1Z_time_2.960e-05,S1Z_time_3.709e-05,S1Z_time_4.609e-05,S1Z_time_5.759e-05,S1Z_time_7.209e-05,S1Z_time_9.060e-05,S1Z_time_1.141e-04,S1Z_time_1.431e-04,S1Z_time_1.801e-04,S1Z_time_2.266e-04,S1Z_time_2.846e-04,S1Z_time_3.581e-04,S1Z_time_4.506e-04,S1Z_time_5.671e-04,S1Z_time_7.136e-04,S1Z_time_8.981e-04,S1Z_time_1.131e-03
0.0,0,0.0,0.0,30.0,0.0,0.0,0.0,0.0,-13.0,0.0,2.0,0.0,0.0,0.0,1.07824144855325e-09,8.02135206922216e-10,5.914205205612851e-10,4.367151245397439e-10,3.1842983717701477e-10,2.2889813041412456e-10,1.6235238769056977e-10,1.1438909798890083e-10,8.014368350534453e-11,5.548234025608751e-11,3.793277003640351e-11,2.5246630815177323e-11,1.62728396199117e-11,1.0086359336808923e-11,5.9953491486904655e-12,3.414943716430677e-12,1.861125478570549e-12,6.653446137300993e-09,5.995921337628328e-09,5.250673271380977e-09,4.4368769364709275e-09,3.691817396746288e-09,3.0527431024838944e-09,2.5270904196944937e-09,2.065345920402269e-09,1.6680735396091095e-09,1.3271890753958187e-09,1.0387777602196119e-09,8.042477292274119e-10,6.09886085497373e-10,4.5329419748220727e-10,3.3063758144207895e-10,2.348192688612605e-10,1.6257218622610496e-10,1.0980289816790057e-10,7.264627337382626e-11,4.7300369113972474e-11,3.028296663750422e-11
0.0,1,1.0,0.0,30.0,0.0,0.0,0.0,0.0,-13.0,0.0,2.0,0.0,0.0,0.0,1.0782526046548142e-09,8.021467864780847e-10,5.91432397598373e-10,4.3672716182389413e-10,3.1845010813930353e-10,2.289483231685761e-10,1.6245473371750055e-10,1.1454170386104139e-10,8.03154784095859e-11,5.563172407357736e-11,3.803288735628128e-11,2.5294845831064593e-11,1.628296099944095e-11,1.0076266401566075e-11,5.978625824748861e-12,3.3989853575216256e-12,1.848827911307521e-12,6.65325581732471e-09,5.995730950120647e-09,5.2504827927289525e-09,4.43668635907863e-09,3.6916267415942504e-09,3.0525523713182614e-09,2.5268996689321417e-09,2.0651553914071073e-09,1.667883567750141e-09,1.3269999168158951e-09,1.038590021576911e-09,8.040630262951056e-10,6.097065813100345e-10,4.531215393231145e-10,3.3047643463609453e-10,2.3468509592751365e-10,1.6249109367992758e-10,1.0979630502596766e-10,7.271271321751063e-11,4.7409968728389574e-11,3.039197139478282e-11
0.0,2,2.0,0.0,30.0,0.0,0.0,0.0,0.0,-13.0,0.0,2.0,0.0,0.0,0.0,1.0782638494785536e-09,8.021584981752872e-10,5.914443509795079e-10,4.367394595370178e-10,3.1847196089292134e-10,2.2900269375711385e-10,1.6256351929544314e-10,1.1470070990731966e-10,8.049120646370156e-11,5.578181284159592e-11,3.8131501606000326e-11,2.5340891776961858e-11,1.6291268863243688e-11,1.0065015933809207e-11,5.9612967333146654e-12,3.3827589593474376e-12,1.836441199182398e-12,6.6530611806723846e-09,5.995536276571763e-09,5.250288075069096e-09,4.4364916153617634e-09,3.691432014954756e-09,3.0523576839831133e-09,2.5267051082660224e-09,2.0649612502854773e-09,1.667690218763903e-09,1.3268076589141102e-09,1.0383995736544012e-09,8.038761396576659e-10,6.095254582540664e-10,4.529478707480811e-10,3.303154688631553e-10,2.3455356564716594e-10,1.6241597727831998e-10,1.0979819342171518e-10,7.27877734898877e-11,4.752560193637453e-11,3.050383544447358e-11
0.0,3,3.0,0.0,30.0,0.0,0.0,0.0,0.0,-13.0,0.0,2.0,0.0,0.0,0.0,1.0782752046056495e-09,8.021703625392509e-10,5.914563973722192e-10,4.367520897737799e-10,3.18495632552734e-10,2.2906168249843782e-10,1.6267927603461174e-10,1.148665674590183e-10,8.067114602152747e-11,5.5932725751239064e-11,3.822863301719718e-11,2.538473924384627e-11,1.6297712418706456e-11,1.0052552817854214e-11,5.9433144388727775e-12,3.366230337516779e-12,1.8239439425556898e-12,6.652861886154508e-09,5.9953369778647245e-09,5.250088782493271e-09,4.43629237414734e-09,3.691232891467099e-09,3.052158722497377e-09,2.5265064294972026e-09,2.0647632007028607e-09,1.667493208517141e-09,1.3266120336603596e-09,1.0382061738653372e-09,8.03686854158982e-10,6.093425218594815e-10,4.5277303832741953e-10,3.3015465342762137e-10,2.344248651412898e-10,1.6234724115983114e-10,1.098090616042758e-10,7.287188981555446e-11,4.7647542833000314e-11,3.061871800619906e-11
0.0,4,4.0,0.0,30.0,0.0,0.0,0.0,0.0,-13.0,0.0,2.0,0.0,0.0,0.0,1.0782866898719673e-09,8.021823974627962e-10,5.91468551903473e-10,4.3676513311700737e-10,3.1852138240130687e-10,2.2912575077290296e-10,1.628025320451468e-10,1.1503969258280349e-10,8.085552388958911e-11,5.6084536927495154e-11,3.8324275936099906e-11,2.542635127663695e-11,1.6302244204789868e-11,1.0038828921507535e-11,5.9246380316482745e-12,3.349370014143847e-12,1.81131761159597e-12,6.652657646545055e-09,5.995132768969087e-09,5.249884633360307e-09,4.436088358745887e-09,3.6910291004831776e-09,3.0519552239493892e-09,2.5263033799338723e-09,2.064561002046992e-09,1.6672923085752735e-09,1.3264128290983109e-09,1.0380096362387513e-09,8.034950101210993e-10,6.091576306944214e-10,4.5259694339220135e-10,3.299940209768448e-10,2.342992503759613e-10,1.6228534482764558e-10,1.098294286162449e-10,7.296547867567063e-11,4.777602304593623e-11,3.073673782235696e-11
0.0,5,5.0,0.0,30.0,0.0,0.0,0.0,0.0,-13.0,0.0,2.0,0.0,0.0,0.0,1.0782983236928348e-09,8.021946184676508e-10,5.914808289584831e-10,4.3677868059931813e-10,3.1854949474924146e-10,2.291953843838555e-10,1.6293381636463735e-10,1.1522047214985572e-10,8.1044522079134e-11,5.6237280771474404e-11,3.8418401369086706e-11,2.546568335287219e-11,1.6304818718639282e-11,1.0023801520887501e-11,5.905231923642551e-12,3.3321524694036432e-12,1.7985461410949468e-12,6.652448221395912e-09,5.994923411755085e-09,5.249675393107527e-09,4.435879339756386e-09,3.690820418873336e-09,3.051746973317551e-09,2.52609575521657e-09,2.0643544622431048e-09,1.6670873390593608e-09,1.326209882330031e-09,1.0378098244895199e-09,8.033004964435919e-10,6.089706899006674e-10,4.524195368473159e-10,3.298336640393509e-10,2.3417704422700476e-10,1.6223080279606854e-10,1.0985983630914475e-10,7.30689422262633e-11,4.791123857431247e-11,3.085797911164088e-11
0.0,6,6.0,0.0,30.0,0.0,0.0,0.0,0.0,-13.0,0.0,2.0,0.0,0.0,0.0,1.0783101233285319e-09,8.022070389080527e-10,5.91493243010928e-10,4.3679283581013724e-10,3.1858028181409684e-10,2.2927109638899648e-10,1.6307366209350728e-10,1.1540926813865728e-10,8.123828292534599e-11,5.6390956301318963e-11,3.851095925190911e-11,2.5502683572398754e-11,1.6305391425556044e-11,1.0007432069206617e-11,5.8850648746735435e-12,3.3145555222670787e-12,1.78561558881891e-12,6.65223341160033e-09,5.9947087095536845e-09,5.249460868803031e-09,4.435665129603643e-09,3.6906066655542986e-09,3.0515337980003844e-09,2.525883393833472e-09,2.064143432230896e-09,1.6668781631336118e-09,1.3260030740928098e-09,1.0376066466105088e-09,8.031032451245537e-10,6.087816460737689e-10,4.5224081529791033e-10,3.2967373274758694e-10,2.340586352622087e-10,1.6218418408744223e-10,1.0990085022174338e-10,7.318267131159438e-11,4.805335480873063e-11,3.098249621719576e-11
0.0,7,7.0,0.0,30.0,0.0,0.0,0.0,0.0,-13.0,0.0,2.0,0.0,0.0,0.0,1.0783221050983857e-09,8.022196701325027e-10,5.915058095133965e-10,4.3680771717387746e-10,3.1861408665924976e-10,2.2935342954527898e-10,1.6322260854950804e-10,1.156064205838951e-10,8.143691292899358e-11,5.654553067336175e-11,3.860188045226648e-11,2.553729297409856e-11,1.6303918052646822e-11,9.989685234019837e-12,5.86410920366119e-12,3.296559817493654e-12,1.7725138470461617e-12,6.652013055332269e-09,5.994488503090518e-09,5.2492409050682426e-09,4.43544557844003e-09,3.6903876973746902e-09,3.0513155636954056e-09,2.525666172969964e-09,2.063927801755406e-09,1.6666646827873491e-09,1.3257923246044906e-09,1.0374000506773234e-09,8.029032269210651e-10,6.085904832511289e-10,4.520608182982736e-10,3.295144335975074e-10,2.339444771825769e-10,1.6214611169945998e-10,1.0995305965752616e-10,7.330704714671051e-11,4.8202510170153876e-11,3.1110317223722246e-11
0.0,8,8.0,0.0,30.0,0.0,0.0,0.0,0.0,-13.0,0.0,2.0,0.0,0.0,0.0,1.0783342845494923e-09,8.022325216178192e-10,5.915185458763664e-10,4.368234604244857e-10,3.186512862191236e-10,2.2944295845827977e-10,1.6338120265677416e-10,1.1581224947464209e-10,8.164048559578038e-11,5.67009420358494e-11,3.869107852650414e-11,2.5569445923055144e-11,1.6300354091918192e-11,9.970528144326388e-12,5.842340149430735e-12,3.2781484002221453e-12,1.7592303987337571e-12,6.651787025073414e-09,5.994262667505852e-09,5.249015381083561e-09,4.435220571126073e-09,3.6901634060751604e-09,3.051092171346788e-09,2.5254440054154596e-09,2.0637074962001024e-09,1.6664468356478731e-09,1.3255775904217088e-09,1.0371900216187293e-09,8.027004479223314e-10,6.083972198182323e-10,4.518796265699632e-10,3.293560291191595e-10,2.3383508885222056e-10,1.6211726209761001e-10,1.1001707718190243e-10,7.344244200877206e-11,4.835881869916467e-11,3.124144676148305e-11
0.0,9,9.0,0.0,30.0,0.0,0.0,0.0,0.0,-13.0,0.0,2.0,0.0,0.0,0.0,1.0783466765845897e-09,8.02245601088919e-10,5.915314725643578e-10,4.3684022130126565e-10,3.186922944274374e-10,2.2954029149218457e-10,1.6354999971899038e-10,1.1602705582601011e-10,8.184904348701798e-11,5.6857101841462395e-11,3.877845125600366e-11,2.5599070530505207e-11,1.6294654457551163e-11,9.949929801981398e-12,5.819735352473349e-12,3.2593063629346678e-12,1.7457561112164102e-12,6.65155522550511e-09,5.994031110238295e-09,5.248784208455469e-09,4.434990025069193e-09,3.689933716103976e-09,3.050863554943907e-09,2.525216837310936e-09,2.063482474249031e-09,1.6662245926171188e-09,1.3253588621090834e-09,1.0369765787557697e-09,8.024949468541154e-10,6.082019061830671e-10,4.516973610686902e-10,3.291988383536818e-10,2.3373105484435545e-10,1.6209836474804859e-10,1.1009353768228798e-10,7.358921918130506e-11,4.8522371846755147e-11,3.1375868169735554e-11
0.0,10,10.0,0.0,30.0,0.0,0.0,0.0,0.0,-13.0,0.0,2.0,0.0,0.0,0.0,1.0783592955525015e-09,8.022589146377199e-10,5.915446143386823e-10,4.3685817849060423e-10,3.1873756545827785e-10,2.2964607247296746e-10,1.637295636804037e-10,1.1625112209116496e-10,8.206259964795656e-11,5.7013896722497034e-11,3.8863881989937394e-11,2.5626089081960687e-11,1.6286773256225493e-11,9.927860621998023e-12,5.796274434791624e-12,3.2400205523433793e-12,1.7320830615353394e-12,6.6513175920919025e-09,5.993793769599008e-09,5.248547329771909e-09,4.434753888747835e-09,3.689698583116305e-09,3.050629679999984e-09,2.5249846465672914e-09,2.0632527262109923e-09,1.6659979561694524e-09,1.325136162559488e-09,1.0367597739520227e-09,8.022867929699693e-10,6.080046231022062e-10,4.515141828075843e-10,3.2904323805114804e-10,2.336330264332234e-10,1.6209020168235004e-10,1.1018309708225245e-10,7.374773232775949e-11,4.8693239657291e-11,3.1513545156027784e-11
0.0,11,11.0,0.0,30.0,0.0,0.0,0.0,0.0,-13.0,0.0,2.0,0.0,0.0,0.0,1.0783721553038032e-09,8.022724668551614e-10,5.915580016775634e-10,4.3687753683803624e-10,3.187875970845221e-10,2.2976098220079334e-10,1.6392046694622634e-10,1.164847120389602e-10,8.228113854395358e-11,5.7171190013810585e-11,3.8947240820087657e-11,2.565041845781042e-11,1.6276663639889613e-11,9.904292074165316e-12,5.77193865949092e-12,3.220279325996936e-12,1.7182043884760677e-12,6.651074090220628e-09,5.993550613900508e-09,5.248304717710309e-09,4.4345121407861275e-09,3.689457993023128e-09,3.0503905425770073e-09,2.5247474418208513e-09,2.0630182728737372e-09,1.6657669591821002e-09,1.3249095458380854e-09,1.036539690248525e-09,8.020760844147077e-10,6.078054805699965e-10,4.5133029336801525e-10,3.2888966451989056e-10,2.3354172296598886e-10,1.62093607071436e-10,1.1028643076604978e-10,7.391832442261763e-11,4.887147148876228e-11,3.165442305928152e-11
0.0,12,12.0,0.0,30.0,0.0,0.0,0.0,0.0,-13.0,0.0,2.0,0.0,0.0,0.0,1.0783852692138021e-09,8.022862609915259e-10,5.91571672406161e-10,4.3689853085478485e-10,3.1884293415374786e-10,2.298857397757894e-10,1.6412328981118372e-10,1.1672807019200773e-10,8.250461660698887e-11,5.7328822993136776e-11,3.902838561139781e-11,2.567197053676771e-11,1.6264277718226202e-11,9.879196404492407e-12,5.746710655382075e-12,3.2000723502284855e-12,1.704114167204501e-12,6.650824714788584e-09,5.993301641033432e-09,5.248056374591446e-09,4.434264789472127e-09,3.6892119614832916e-09,3.0501461687505358e-09,2.5245052618196273e-09,2.0627791647837304e-09,1.6655316641964863e-09,1.3246790964483178e-09,1.0363164408811461e-09,8.018629469696455e-10,6.076046172056852e-10,4.511459360490308e-10,3.287386160714352e-10,2.334579335530736e-10,1.621094667775826e-10,1.104042317464209e-10,7.410132633407818e-11,4.905709638118765e-11,3.1798429802146024e-11
0.0,13,13.0,0.0,30.0,0.0,0.0,0.0,0.0,-13.0,0.0,2.0,0.0,0.0,0.0,1.0783986501746076e-09,8.023002991620123e-10,5.915856735712853e-10,4.3692142854251406e-10,3.1890417217772835e-10,2.3002110373241874e-10,1.643386195286892e-10,1.1698142089774934e-10,8.27329624738725e-11,5.748661589566719e-11,3.91071629094121e-11,2.5690652576604495e-11,1.624956651392425e-11,9.852546419718635e-12,5.720574194741652e-12,3.179390432552011e-12,1.6898073030589552e-12,6.65056949015535e-09,5.99304687840595e-09,5.247802332293869e-09,4.434011872634979e-09,3.6889605337545535e-09,3.049896614429846e-09,2.524258175155371e-09,2.0625354818679346e-09,1.6652921630293602e-09,1.3244449289375925e-09,1.036090168597323e-09,8.01647533108978e-10,6.074022000930105e-10,4.509613976229227e-10,3.285906560159709e-10,2.3338251901944085e-10,1.6213871784858293e-10,1.1053720859289457e-10,7.429705512801043e-11,4.925012315828454e-11,3.1945476600529114e-11
0.0,14,14.0,0.0,30.0,0.0,0.0,0.0,0.0,-13.0,0.0,2.0,0.0,0.0,0.0,1.0784123105580983e-09,8.023145826167362e-10,5.916000635980398e-10,4.369465355594497e-10,3.189719610277379e-10,2.3016787297077984e-10,1.6456704904145033e-10,1.172449670887756e-10,8.296607698125684e-11,5.764436874943705e-11,3.9183408743140126e-11,2.5706367569322693e-11,1.62324799482501e-11,9.824315321806101e-12,5.693514014676144e-12,3.1582253828259195e-12,1.6752794416117254e-12,6.650308470390291e-09,5.992786383177627e-09,5.247542652460623e-09,4.433753457812686e-09,3.6887037848355156e-09,3.0496419654650486e-09,2.524006280272766e-09,2.0622873333307493e-09,1.6650485766687863e-09,1.3242071877756015e-09,1.0358610452039827e-09,8.0143002131295e-10,6.071984250437127e-10,4.5077701067831885e-10,3.2844641617177107e-10,2.333164140624228e-10,1.6218234791534115e-10,1.1068608312745178e-10,7.450581214565324e-11,4.945054032800523e-11,3.209545848445759e-11
0.0,15,15.0,0.0,30.0,0.0,0.0,0.0,0.0,-13.0,0.0,2.0,0.0,0.0,0.0,1.0784262621517173e-09,8.023291120971238e-10,5.916149147684997e-10,4.369741997502521e-10,3.190470087239909e-10,2.3032688746761628e-10,1.648091753859185e-10,1.1751888877667762e-10,8.320383297010328e-11,5.780186206961487e-11,3.925694933933407e-11,2.5719014569673784e-11,1.621296684769329e-11,9.794476582198022e-12,5.665515674377306e-12,3.136569898489891e-12,1.6605268925731601e-12,6.650041739760269e-09,5.992520242732242e-09,5.24727742694269e-09,4.433489642655337e-09,3.688441819843593e-09,3.049382337985544e-09,2.5237497056997674e-09,2.0620348577718868e-09,1.6648010554025025e-09,1.3239660474498627e-09,1.0356292712904197e-09,8.012106155972712e-10,6.069935172709941e-10,4.5059315654374054e-10,3.283066008583053e-10,2.3326062956389554e-10,1.622413944526535e-10,1.1085158788769942e-10,7.472788089536439e-11,4.9658315832859734e-11,3.224825467359929e-11
0.0,16,16.0,0.0,30.0,0.0,0.0,0.0,0.0,-13.0,0.0,2.0,0.0,0.0,0.0,1.0784405160695718e-09,8.02343888304014e-10,5.916303160655898e-10,4.370048160609135e-10,3.191300853034418e-10,2.3049902874521052e-10,1.650655977770043e-10,1.178033413149909e-10,8.344607494264616e-11,5.7958857442935604e-11,3.932760176180757e-11,2.5728488997063963e-11,1.6190974964924403e-11,9.763003847865495e-12,5.636565442031456e-12,3.114417469993376e-12,1.6455465654972627e-12,6.649769413412182e-09,5.99224857534398e-09,5.247006778433456e-09,4.4332205555183236e-09,3.6881747745838863e-09,3.049117878924058e-09,2.5234886104528625e-09,2.0617782234809988e-09,1.664549779135973e-09,1.3237217127321044e-09,1.0353950760792472e-09,8.00989545230141e-10,6.06787732471989e-10,4.5041026879424153e-10,3.281719913472536e-10,2.3321625500569417e-10,1.6231694386204564e-10,1.110344633534852e-10,7.49635247902534e-11,4.9873396689699525e-11,3.240372884235989e-11
0.0,17,17.0,0.0,30.0,0.0,0.0,0.0,0.0,-13.0,0.0,2.0,0.0,0.0,0.0,1.0784550826421702e-09,8.023589125067196e-10,5.91646376428556e-10,4.3703883185847423e-10,3.192220267458619e-10,2.3068522007237496e-10,1.6533691537524692e-10,1.1809845346046636e-10,8.369261860748798e-11,5.811509802790754e-11,3.93951744872834e-11,2.5734682911566857e-11,1.6166451009155032e-11,9.729870872912832e-12,5.606650206330618e-12,3.0917623031960824e-12,1.6303359155643826e-12,6.649491638212165e-09,5.991971530998857e-09,5.246730861256089e-09,4.432946356207927e-09,3.6879028162713744e-09,3.048848766687701e-09,2.523223184578695e-09,2.0615176288729777e-09,1.6642949578650758e-09,1.3234744190757642e-09,1.0351587173663383e-09,8.007670646188828e-10,6.065813583300188e-10,4.5022883735176866e-10,3.2804345074838375e-10,2.3318446093739667e-10,1.6241013033506367e-10,1.1123545493048317e-10,7.521298475768452e-11,5.009570855011781e-11,3.256172930281192e-11
0.0,18,18.0,0.0,30.0,0.0,0.0,0.0,0.0,-13.0,0.0,2.0,0.0,0.0,0.0,1.0784699712892772e-09,8.023741873268587e-10,5.916632284698589e-10,4.3707675267343926e-10,3.193237389334937e-10,2.3088642636832273e-10,1.656237247357523e-10,1.184043252573806e-10,8.394325034270444e-11,5.827030899184496e-11,3.945946792735824e-11,2.573748526516534e-11,1.613934068238764e-11,9.69505147088792e-12,5.57575740848397e-12,3.068599256067446e-12,1.614892897986942e-12,6.6492085937098895e-09,5.991689292339446e-09,5.2464498622719496e-09,4.432667236847543e-09,3.6876261443747736e-09,3.048575211943377e-09,2.522953649799299e-09,2.0612533030339044e-09,1.664036832274254e-09,1.3232244331102105e-09,1.0349204815169668e-09,8.005434533579187e-10,6.063747164582793e-10,4.50049413196644e-10,3.2792192930854205e-10,2.3316650144483307e-10,1.625221344551314e-10,1.1145530968314484e-10,7.547647674274708e-11,5.0325155206041925e-11,3.2722089128470844e-11
0.0,19,19.0,0.0,30.0,0.0,0.0,0.0,0.0,-13.0,0.0,2.0,0.0,0.0,0.0,1.0784851903820248e-09,8.023897177359369e-10,5.916810327067537e-10,4.371191483803606e-10,3.194362016146462e-10,2.3110365377709122e-10,1.659266169363614e-10,1.1872102576644348e-10,8.419772660235562e-11,5.842419790198734e-11,3.9520274904501236e-11,2.5736782129554236e-11,1.610958871910002e-11,9.65851948401593e-12,5.543874991397615e-12,3.0449237874612757e-12,1.599215929805221e-12,6.648920493199748e-09,5.991402075704811e-09,5.246164001881824e-09,4.432383422837276e-09,3.6873449915551644e-09,3.0482974584896577e-09,2.522680260233107e-09,2.0609855063527162e-09,1.663775674435428e-09,1.322972053200919e-09,1.0346806834909416e-09,8.003190164392965e-10,6.061681648168815e-10,4.498726137129185e-10,3.2780847010176517e-10,2.3316371656618435e-10,1.6265418149594004e-10,1.1169477280920162e-10,7.575418912530132e-11,5.056161806002967e-11,3.288462623782448e-11
0.0,20,20.0,0.0,30.0,0.0,0.0,0.0,0.0,-13.0,0.0,2.0,0.0,0.0,0.0,1.0785007471025896e-09,8.024055123116403e-10,5.916999823643232e-10,4.3716665982892934e-10,3.195604723362385e-10,2.3133794887747141e-10,1.6624617438153134e-10,1.1904859065775812e-10,8.445577328829723e-11,5.857645508484665e-11,3.957738108854497e-11,2.5732456901918327e-11,1.607713892771067e-11,9.620248766425333e-12,5.510991363305375e-12,3.0207319161117453e-12,1.5833038580282577e-12,6.6486275848553306e-09,5.991110132241659e-09,5.2458735350961845e-09,4.4320951738833266e-09,3.687059624675459e-09,3.0480157841897742e-09,2.5224033031672275e-09,2.060714531217863e-09,1.6635117885866696e-09,1.3227176100478105e-09,1.0344396668745057e-09,8.000940846362038e-10,6.059621006449739e-10,4.49699128694706e-10,3.277042150871018e-10,2.3317753460025597e-10,1.6280753937427737e-10,1.1195458384845706e-10,7.604628006875437e-11,5.080495557580889e-11,3.3049143453194836e-11
0.0,21,21.0,0.0,30.0,0.0,0.0,0.0,0.0,-13.0,0.0,2.0,0.0,0.0,0.0,1.0785166473124154e-09,8.024215848043962e-10,5.917203088101091e-10,4.3722000593422465e-10,3.196976903046608e-10,2.3159039749091542e-10,1.6658296727807596e-10,1.193870196859502e-10,8.471708510638717e-11,5.872675396528597e-11,3.96305653988664e-11,2.5724390490124905e-11,1.604193423278949e-11,9.580213179099249e-12,5.477095373634817e-12,2.996020188303036e-12,1.56715593323181e-12,6.648330152915475e-09,5.990813749065088e-09,5.245578752653068e-09,4.431802785076667e-09,3.686770345860185e-09,3.047730501943851e-09,2.522123099859823e-09,2.060440702761438e-09,1.663245511972003e-09,1.3224614672957234e-09,1.0341978039014587e-09,7.998690150793679e-10,6.057569639593463e-10,4.4952972704382186e-10,3.276104115079166e-10,2.332094742486044e-10,1.6298351621524336e-10,1.1223547261966632e-10,7.635287481800669e-11,5.105500272151058e-11,3.321542854788107e-11
0.0,22,22.0,0.0,30.0,0.0,0.0,0.0,0.0,-13.0,0.0,2.0,0.0,0.0,0.0,1.078532895443491e-09,8.02437956073264e-10,5.917422876837134e-10,4.3727999123010755e-10,3.1984908012814535e-10,2.31862123047745e-10,1.6693754977923076e-10,1.1973627406490522e-10,8.498132492396828e-11,5.887475139462499e-11,3.967960037636412e-11,2.5712461478741345e-11,1.600391671744248e-11,9.538386594810793e-12,5.442176299294337e-12,2.9707856529195106e-12,1.5507717878567132e-12,6.648028518902247e-09,5.99051325044903e-09,5.245279982163901e-09,4.431506588002056e-09,3.6864774935864203e-09,3.0474419606800153e-09,2.5218400063536815e-09,2.0601643796361734e-09,1.6629772157258153e-09,1.3222040221326372e-09,1.0339554954509072e-09,7.996441920563213e-10,6.055532416803124e-10,4.49365264191082e-10,3.2752841860248843e-10,2.332611465297449e-10,1.6318345748800657e-10,1.1253815488088654e-10,7.667406296386639e-11,5.1311570415534184e-11,3.3383254292383696e-11
0.0,23,23.0,0.0,30.0,0.0,0.0,0.0,0.0,-13.0,0.0,2.0,0.0,0.0,0.0,1.0785494944313101e-09,8.024546564584452e-10,5.917662457876876e-10,4.3734751388434763e-10,3.2001595538742996e-10,2.3215428447011128e-10,1.6731045579428953e-10,1.2009627375929604e-10,8.524812314367383e-11,5.902008797516207e-11,3.972425252840452e-11,2.5696546277252878e-11,1.596302766567003e-11,9.494742911714914e-12,5.406223839893922e-12,2.9450258427916073e-12,1.5341514185618547e-12,6.647723042853401e-09,5.9902089990287475e-09,5.244977589269753e-09,4.4312069518607485e-09,3.6861814437888756e-09,3.0471505463456723e-09,2.5215544142842094e-09,2.0598859548129628e-09,1.662707305786458e-09,1.3219457058520156e-09,1.0337131710140248e-09,7.994200280739508e-10,6.053514724550665e-10,4.492066902747186e-10,3.27459714590499e-10,2.333342563997226e-10,1.6340874267057277e-10,1.1286332771063727e-10,7.700989569146177e-11,5.157444498297857e-11,3.3552378508729395e-11
0.0,24,24.0,0.0,30.0,0.0,0.0,0.0,0.0,-13.0,0.0,2.0,0.0,0.0,0.0,1.0785664414928836e-09,8.02471724657984e-10,5.917925650877712e-10,4.374235709858474e-10,3.2019971969899087e-10,2.3246807231287745e-10,1.677021945530662e-10,1.2046689698832273e-10,8.551708175056714e-11,5.916239269871247e-11,3.9764283220581124e-11,2.5676516912172552e-11,1.5919206170241298e-11,9.449256519596924e-12,5.369228613700452e-12,2.91873863256448e-12,1.517295189444541e-12,6.647414124551991e-09,5.989901396998291e-09,5.244671978791841e-09,4.430904284591625e-09,3.685882610962876e-09,3.0468566828812864e-09,2.521266751666837e-09,2.059605856388784e-09,1.6624362238244934e-09,1.321686984356416e-09,1.0334712886280534e-09,7.991969652364557e-10,6.051522522580428e-10,4.490550591090394e-10,3.2740590389358086e-10,2.334306040090049e-10,1.6366078140266998e-10,1.1321166460951726e-10,7.736038303065835e-11,5.18433876289211e-11,3.3722544140422836e-11
0.0,25,25.0,0.0,30.0,0.0,0.0,0.0,0.0,-13.0,0.0,2.0,0.0,0.0,0.0,1.0785837398763118e-09,8.024892222830783e-10,5.918217016088244e-10,4.375092762364993e-10,3.2040187603650397e-10,2.3280470890413014e-10,1.6811324549005316e-10,1.2084797110810987e-10,8.578776093172327e-11,5.930127137263712e-11,3.9799447398730134e-11,2.5652247606568165e-11,1.587239313657805e-11,9.401901098297189e-12,5.33118080576303e-12,2.8919225861242548e-12,1.5002037729249609e-12,6.647102204738061e-09,5.989590887287336e-09,5.244363595860807e-09,4.430599033976257e-09,3.6855814492502584e-09,3.0465608331602535e-09,2.5209774836506976e-09,2.0593245483965795e-09,1.6621644481712136e-09,1.3214283585800177e-09,1.0332303347821718e-09,7.989754770032629e-10,6.049562408569141e-10,4.489115379749734e-10,3.273687245405157e-10,2.335520855210338e-10,1.6394100908672874e-10,1.135838103245979e-10,7.772549112717681e-11,5.211813393340672e-11,3.38934793442815e-11
0.0,26,26.0,0.0,30.0,0.0,0.0,0.0,0.0,-13.0,0.0,2.0,0.0,0.0,0.0,1.0786013893209223e-09,8.025072287630465e-10,5.918541864204505e-10,4.376058619121318e-10,3.2062402413475204e-10,2.3316544170793413e-10,1.6854405326636736e-10,1.2123927503955041e-10,8.605968932730365e-11,5.94363169407431e-11,3.9829495181294395e-11,2.5623609464344623e-11,1.582252800729907e-11,9.352650683789144e-12,5.292071324392014e-12,2.864576653310664e-12,1.4828781815237198e-12,6.646787766286652e-09,5.989277954702165e-09,5.2440529270106705e-09,4.430291688714902e-09,3.6852784534937005e-09,3.046263499878956e-09,2.5206871132268763e-09,2.05904253161029e-09,1.6618924947329877e-09,1.3211703648084574e-09,1.0329908243077015e-09,7.987560704053494e-10,6.047641692419569e-10,4.4877741826114373e-10,3.273500556987538e-10,2.337006934129614e-10,1.6425088189819297e-10,1.13980375401859e-10,7.81051395538367e-11,5.239839337182097e-11,3.4064897609257004e-11
0.0,27,27.0,0.0,30.0,0.0,0.0,0.0,0.0,-13.0,0.0,2.0,0.0,0.0,0.0,1.078619387925511e-09,8.025258477197332e-10,5.918906375632016e-10,4.3771468966231767e-10,3.208678634837948e-10,2.335515392521885e-10,1.689950222118964e-10,1.2164053561305324e-10,8.633236198282417e-11,5.956710834538344e-11,3.9854171918529826e-11,2.559047137173548e-11,1.576954930331003e-11,9.301479553920798e-12,5.251891651217611e-12,2.836700213479327e-12,1.4653197555832986e-12,6.646471335338308e-09,5.988963127016562e-09,5.243740501223707e-09,4.4299827794607175e-09,3.6849741602455476e-09,3.045965226382093e-09,2.520396181881492e-09,2.0587603443397074e-09,1.6616209178762976e-09,1.3209135748749264e-09,1.0327533002739326e-09,7.985392888135339e-10,6.045768481252564e-10,4.48654126979567e-10,3.2735192526391777e-10,2.3387851617410655e-10,1.6459187116807268e-10,1.1440193047522175e-10,7.849919868214445e-11,5.268384886322862e-11,3.423649790634273e-11
0.0,28,28.0,0.0,30.0,0.0,0.0,0.0,0.0,-13.0,0.0,2.0,0.0,0.0,0.0,1.0786377336674965e-09,8.025452137125688e-10,5.919317725746524e-10,4.3783726120256355e-10,3.211351954613423e-10,2.3396428618419455e-10,1.694665104625348e-10,1.2205142424198285e-10,8.660523902082826e-11,5.969321000055507e-11,3.987321830802056e-11,2.5552700560919115e-11,1.5713394968111808e-11,9.248362182371594e-12,5.210633764332132e-12,2.8082931039931135e-12,1.4475301553986533e-12,6.646153482367999e-09,5.988646975999062e-09,5.243426890914241e-09,4.42967287980102e-09,3.6846691487177087e-09,3.0456665974087964e-09,2.520105270185246e-09,2.0584785632110067e-09,1.6613503112674638e-09,1.3206585962129776e-09,1.0325183339218513e-09,7.983257153689776e-10,6.043951776243995e-10,4.485432391735757e-10,3.273765174275723e-10,2.340877373128349e-10,1.6496545710289251e-10,1.1484900030424687e-10,7.890748713513176e-11,5.297415634831324e-11,3.4407964872665266e-11
0.0,29,29.0,0.0,30.0,0.0,0.0,0.0,0.0,-13.0,0.0,2.0,0.0,0.0,0.0,1.0786564253552372e-09,8.02565499215763e-10,5.919784214300249e-10,4.379752286218274e-10,3.2142792434791466e-10,2.3440497732514873e-10,1.6995882380742596e-10,1.2247155409770445e-10,8.687774535384682e-11,5.981417216962984e-11,3.9886370607433274e-11,2.5510162679141414e-11,1.565400241817028e-11,9.193273290361267e-12,5.168290167602615e-12,2.779355624623822e-12,1.4295113586442486e-12,6.6458348231789895e-09,5.988330118363237e-09,5.24311271283895e-09,4.429362607174525e-09,3.6843640416596793e-09,3.0453682397462593e-09,2.5198149983134347e-09,2.0581978039298858e-09,1.6610813086496594e-09,1.3204060717481427e-09,1.0322865246806168e-09,7.981159772043531e-10,6.042201582530572e-10,4.4844649122732056e-10,3.274261801310514e-10,2.3433063357767534e-10,1.6537312180990381e-10,1.1532205757639948e-10,7.932976934300447e-11,5.326894439764195e-11,3.457896903197221e-11
0.0,30,30.0,0.0,30.0,0.0,0.0,0.0,0.0,-13.0,0.0,2.0,0.0,0.0,0.0,1.0786754639718858e-09,8.025869228064957e-10,5.920315407322172e-10,4.3813040488993805e-10,3.2174805758871846e-10,2.3487491093263905e-10,1.7047220924193054e-10,1.2290047733550543e-10,8.714927048352036e-11,5.992953135388236e-11,3.98933608263147e-11,2.5462721849407174e-11,1.55913085972353e-11,9.136187903777771e-12,5.124853923659004e-12,2.7498885442473313e-12,1.411265659265152e-12,6.64551601980953e-09,5.988013216629286e-09,5.242798628923514e-09,4.4290526237146806e-09,3.684059506151609e-09,3.0450708227780894e-09,2.519526026492143e-09,2.0579187220251763e-09,1.660814584538187e-09,1.320156679613355e-09,1.0320585003269551e-09,7.979107506039897e-10,6.040529033474537e-10,4.483657950754739e-10,3.275034322993255e-10,2.346095722940134e-10,1.658163415989136e-10,1.1582151649383041e-10,7.976575322358446e-11,5.3567813850125304e-11,3.4749167052801944e-11
0.0,31,31.0,0.0,30.0,0.0,0.0,0.0,0.0,-13.0,0.0,2.0,0.0,0.0,0.0,1.0786948545119125e-09,8.026097587272471e-10,5.920922292095685e-10,4.3830477447447225e-10,3.2209770518718396e-10,2.3537538113117147e-10,1.7100684824516419e-10,1.2333768239347741e-10,8.741916839130932e-11,6.003881068988652e-11,3.989391689664475e-11,2.5410240724269976e-11,1.5525250035575805e-11,9.077081415667686e-12,5.080318690201111e-12,2.719893109563219e-12,1.392795667628911e-12,6.645197781339721e-09,5.9876969798848954e-09,5.242485346995325e-09,4.428743637009764e-09,3.6837562543003463e-09,3.044775058916232e-09,2.519239055368936e-09,2.0576420135712555e-09,1.6605508548130136e-09,1.3199111326771313e-09,1.0318349173654653e-09,7.977107672727977e-10,6.038946530631679e-10,4.4830325329868383e-10,3.2761097073397716e-10,2.34927007713565e-10,1.662965785362182e-10,1.1634772616888979e-10,8.021508800978492e-11,5.387033748075465e-11,3.4918202044710194e-11
0.0,32,32.0,0.0,30.0,0.0,0.0,0.0,0.0,-13.0,0.0,2.0,0.0,0.0,0.0,1.0787146084312763e-09,8.026343480002509e-10,5.921617445709693e-10,4.385005039584112e-10,3.2247907810733e-10,2.359076694740827e-10,1.7156284980524982e-10,1.237825913869748e-10,8.768675752492516e-11,6.014152035309551e-11,3.9887762821836345e-11,2.535258053436137e-11,1.54557629151477e-11,9.015929654065266e-12,5.034678759320512e-12,2.689371055614492e-12,1.3741043117586394e-12,6.6448808645879275e-09,5.987382164435526e-09,5.242173621414095e-09,4.428436400771541e-09,3.6834550438261047e-09,3.0444817039061813e-09,2.51895482630871e-09,2.057368415887953e-09,1.6602908771853263e-09,1.3196701778790012e-09,1.0316164617289636e-09,7.975168219069276e-10,6.037467900805264e-10,4.482611750745054e-10,3.277516765282778e-10,2.3528547627030233e-10,1.6681527123108334e-10,1.1690096385706197e-10,8.067736224630253e-11,5.4176059695874505e-11,3.508570389203625e-11
0.0,33,33.0,0.0,30.0,0.0,0.0,0.0,0.0,-13.0,0.0,2.0,0.0,0.0,0.0,1.0787347468545309e-09,8.026611112866585e-10,5.922415217563732e-10,4.387199525299195e-10,3.228944855547419e-10,2.364730356043848e-10,1.7214024321998522e-10,1.2423455762167525e-10,8.795132088323832e-11,6.023715796421154e-11,3.987461880390492e-11,2.528960113342615e-11,1.5382783141741854e-11,8.952708955161363e-12,4.9879290995726655e-12,2.6583246179182032e-12,1.3551948394878489e-12,6.644566074685825e-09,5.987069574334232e-09,5.241864253592767e-09,4.428131715404941e-09,3.6831566785284197e-09,3.0441915569974207e-09,2.518674121618258e-09,2.0570987082164358e-09,1.66003545151258e-09,1.319434595374485e-09,1.0314038499226753e-09,7.973297812836955e-10,6.036108571584733e-10,4.4824209293463436e-10,3.279286208502575e-10,2.356875906337091e-10,1.6737382484104783e-10,1.1748142806059495e-10,8.115210197735223e-11,5.4484496253514585e-11,3.525128962373895e-11
0.0,34,34.0,0.0,30.0,0.0,0.0,0.0,0.0,-13.0,0.0,2.0,0.0,0.0,0.0,1.0787553047077337e-09,8.026905636974616e-10,5.923331926060438e-10,4.3896568219378775e-10,3.2334633099918606e-10,2.370727069873717e-10,1.7273897070542423e-10,1.2469286324841368e-10,8.821210620091872e-11,6.032520899433746e-11,3.985420134866207e-11,2.5221161041771625e-11,1.530624642518342e-11,8.887396241823372e-12,4.940065400568652e-12,2.6267565460509744e-12,1.3360708213957914e-12,6.644254265523914e-09,5.986760061783951e-09,5.241558092403451e-09,4.4278304284722066e-09,3.682862008619984e-09,3.0439054609727716e-09,2.5183977647061397e-09,2.056833712368964e-09,1.6597854199341374e-09,1.3192051975019904e-09,1.0311978307646747e-09,7.971505951142196e-10,6.034885766758324e-10,4.482487802572177e-10,3.281450699216717e-10,2.3613603244846115e-10,1.6797360028903154e-10,1.1808923154078895e-10,8.16387691464857e-11,5.479513400554283e-11,3.5414563816907954e-11
0.0,35,35.0,0.0,30.0,0.0,0.0,0.0,0.0,-13.0,0.0,2.0,0.0,0.0,0.0,1.0787763359751965e-09,8.027233317768332e-10,5.924386069532952e-10,4.3924046753052864e-10,3.2383710679598273e-10,2.377078676941859e-10,1.7335887984982439e-10,1.2515671708284847e-10,8.846832623245268e-11,6.040514716434176e-11,3.982622334897838e-11,2.5147117490188234e-11,1.522608836866544e-11,8.81996910748535e-12,4.891084119885287e-12,2.5946701185569036e-12,1.31673615439516e-12,6.6439463400587565e-09,5.986454527405189e-09,5.241256034463876e-09,4.427533435046042e-09,3.6825719309182773e-09,3.0436243020332372e-09,2.5181266201874827e-09,2.056574293349004e-09,1.659541666797325e-09,1.318982827597606e-09,1.030999187908263e-09,7.969803089293432e-10,6.033818722947007e-10,4.482842693972864e-10,3.2840448900199767e-10,2.3663354364895873e-10,1.6861590269295332e-10,1.1872439428160898e-10,8.213676022832435e-11,5.510743065770341e-11,3.557511903056968e-11
0.0,36,36.0,0.0,30.0,0.0,0.0,0.0,0.0,-13.0,0.0,2.0,0.0,0.0,0.0,1.0787979203105146e-09,8.027601728908266e-10,5.925598551228468e-10,4.395473048038518e-10,3.2436938725844186e-10,2.3837964622313034e-10,1.7399971595550124e-10,1.2562525261255362e-10,8.871915913343671e-11,6.047643483342574e-11,3.9790394146446945e-11,2.506732646656222e-11,1.5142244568295643e-11,8.750405905425798e-12,4.840982532114804e-12,2.5620691590698954e-12,1.2971950658580049e-12,6.64364325047684e-09,5.986153920365676e-09,5.240959024302948e-09,4.4272416779472266e-09,3.682287388885201e-09,3.0433490095378473e-09,2.517861593946831e-09,2.056321359936296e-09,1.6593051183421641e-09,1.3187683587010927e-09,1.0308087433699258e-09,7.96820079296936e-10,6.032928928724276e-10,4.48351870328965e-10,3.2871054516729665e-10,2.3718291623792083e-10,1.6930196901724963e-10,1.193868364519158e-10,8.264540511029868e-11,5.542081454291997e-11,3.573253626544594e-11
0.0,37,37.0,0.0,30.0,0.0,0.0,0.0,0.0,-13.0,0.0,2.0,0.0,0.0,0.0,1.0788201712690654e-09,8.02801997264732e-10,5.926992917894317e-10,4.398894201904626e-10,3.2494582003026565e-10,2.3908910235430783e-10,1.7466111431620052e-10,1.2609752621330922e-10,8.896374893521282e-11,6.053852337152021e-11,3.974641957212959e-11,2.4981642767559145e-11,1.5054650723926314e-11,8.678685843444293e-12,4.789758779898036e-12,2.528958053557625e-12,1.2774521181760037e-12,6.643345998210545e-09,5.985859238369616e-09,5.240668054405104e-09,4.4269561478631185e-09,3.682009372506118e-09,3.0430805556016336e-09,2.5176036331751964e-09,2.056075865228468e-09,1.659076742112006e-09,1.318562692218679e-09,1.0306273623298855e-09,7.966711916965607e-10,6.032240387358098e-10,4.484551896396776e-10,3.2906710865426e-10,2.37786980420694e-10,1.7003295496541045e-10,1.2007637141809908e-10,8.31639662401731e-11,5.5734684402639036e-11,3.588638544431929e-11
0.0,38,38.0,0.0,30.0,0.0,0.0,0.0,0.0,-13.0,0.0,2.0,0.0,0.0,0.0,1.0788432464693377e-09,8.028498929200296e-10,5.928595611187843e-10,4.4027027687791305e-10,3.255691156050546e-10,2.3983721304331287e-10,1.753425924826536e-10,1.2657251559508469e-10,8.920120610694817e-11,6.059085350991039e-11,3.969400196750075e-11,2.4889920057924227e-11,1.4963242762309345e-11,8.60478908394193e-12,4.7374119268020356e-12,2.4953417686112737e-12,1.257512213658828e-12,6.6430556338042005e-09,5.98557152750691e-09,5.240384165135936e-09,4.426677883344833e-09,3.6817389180016126e-09,3.0428199545597806e-09,2.517353726400888e-09,2.055838807126774e-09,1.6588575460576233e-09,1.3183667566361872e-09,1.0304559595214433e-09,7.965350814047745e-10,6.031779904125138e-10,4.485981496788965e-10,3.2947825252019686e-10,2.384485909912585e-10,1.7080992114337866e-10,1.2079269886307733e-10,8.36916380521901e-11,5.6048409170464685e-11,3.603622590667721e-11
0.0,39,39.0,0.0,30.0,0.0,0.0,0.0,0.0,-13.0,0.0,2.0,0.0,0.0,0.0,1.0788673600351197e-09,8.029051537657915e-10,5.930436230746943e-10,4.40693580746993e-10,3.2624203484039847e-10,2.406248573711446e-10,1.7604354257380403e-10,1.2704911849646084e-10,8.94306081972326e-11,6.06328556643846e-11,3.9632840187211013e-11,2.4792010940101978e-11,1.4867956973585605e-11,8.528696849400652e-12,4.683942011920064e-12,2.4612258707143817e-12,1.2373805996850319e-12,6.6427732566315045e-09,5.985291881966241e-09,5.240108444553979e-09,4.426407970681117e-09,3.6814771073659113e-09,3.0425682623102318e-09,2.5171129035362603e-09,2.0556112287487532e-09,1.6586485773048211e-09,1.318181506410984e-09,1.0302955075802205e-09,7.964133577701524e-10,6.031577398897855e-10,4.4878500762213544e-10,3.2994825035069505e-10,2.3917061187244826e-10,1.71633818535407e-10,1.2153539807144348e-10,8.422754668105406e-11,5.6361327751876936e-11,3.6181606910318734e-11
0.0,40,40.0,0.0,30.0,0.0,0.0,0.0,0.0,-13.0,0.0,2.0,0.0,0.0,0.0,1.0788927977188251e-09,8.029693110986313e-10,5.932547807313583e-10,4.4116328432507796e-10,3.2696737431671144e-10,2.4145280058029816e-10,1.767632236957471e-10,1.2752615164395934e-10,8.96510005451688e-11,6.066395022525674e-11,3.956262958587064e-11,2.4687767037026098e-11,1.4768730162066416e-11,8.45039153324552e-12,4.629350106088553e-12,2.4266165464341985e-12,1.2170628740238046e-12,6.64250001446727e-09,5.985021443618224e-09,5.239842028116132e-09,4.426147543648786e-09,3.6812250677290706e-09,3.0423265755533606e-09,2.5168822359648187e-09,2.055394218744143e-09,1.658450920560607e-09,1.3180079212143569e-09,1.0301470477858285e-09,7.963078322804929e-10,6.031666244377097e-10,4.4902037416447446e-10,3.3048157172854774e-10,2.3995589872194154e-10,1.725054733466142e-10,1.2230392144373819e-10,8.477074996859864e-11,5.66727487936024e-11,3.632206813163941e-11
0.0,41,41.0,0.0,30.0,0.0,0.0,0.0,0.0,-13.0,0.0,2.0,0.0,0.0,0.0,1.0789199351585145e-09,8.030441687584377e-10,5.934967083788903e-10,4.4168358866654813e-10,3.2774794939652795e-10,2.4232167724114326e-10,1.7750075453448972e-10,1.2800234998988205e-10,8.98613970488051e-11,6.068354780884318e-11,3.9483061991701465e-11,2.457703909106811e-11,1.4665499812206953e-11,8.369856816065443e-12,4.573638369628448e-12,2.3915206234831913e-12,1.196564990253437e-12,6.642237102920687e-09,5.984761401478653e-09,5.239586098286052e-09,4.4258977831391515e-09,3.6809839705420307e-09,3.04209603095373e-09,2.516662836694563e-09,2.055188911483e-09,1.6582656961418416e-09,1.3178470057484489e-09,1.0300117036959997e-09,7.962205508443221e-10,6.032083629931238e-10,4.4930923150737056e-10,3.310828751608379e-10,2.4080727952723966e-10,1.7342557128000317e-10,1.2309758830538298e-10,8.53202377628726e-11,5.6981950436030974e-11,3.6457140155385096e-11
0.0,42,42.0,0.0,30.0,0.0,0.0,0.0,0.0,-13.0,0.0,2.0,0.0,0.0,0.0,1.0789492597765033e-09,8.031318421729794e-10,5.93773480151667e-10,4.4225894278628336e-10,3.28586574848612e-10,2.432319736080146e-10,1.7825510619209832e-10,1.2847636623882805e-10,9.006078097664797e-11,6.069104946537772e-11,3.9393825670608626e-11,2.4459677082248012e-11,1.455820427060237e-11,8.287077787161235e-12,4.516810111533087e-12,2.355945592601964e-12,1.175893263207001e-12,6.641985764739733e-09,5.984512991065098e-09,5.23934188405804e-09,4.425659916661486e-09,3.680755030587293e-09,3.041877804255748e-09,2.51645586060325e-09,2.0549964870766187e-09,1.6580940576245769e-09,1.3176997904257302e-09,1.0298906982468367e-09,7.961538307227753e-10,6.032870950490714e-10,4.4965695024762746e-10,3.3175699814650634e-10,2.417275331276775e-10,1.743946413299422e-10,1.2391557907735287e-10,8.58749325034721e-11,5.7288180042263914e-11,3.658634494375645e-11
0.0,43,43.0,0.0,30.0,0.0,0.0,0.0,0.0,-13.0,0.0,2.0,0.0,0.0,0.0,1.0789813968858813e-09,8.032348015011099e-10,5.940895988432393e-10,4.4289404024306967e-10,3.2948604291362724e-10,2.4418400924106557e-10,1.7902509533845524e-10,1.2894677066894074e-10,9.024810580594074e-11,6.068584683898679e-11,3.929460528499145e-11,2.4335530368905413e-11,1.444678294475272e-11,8.20204107138297e-12,4.458869850038171e-12,2.3198996302142982e-12,1.155054374380307e-12,6.6417472890008575e-09,5.984277493664527e-09,5.23911066041073e-09,4.425435217724271e-09,3.680539504821699e-09,3.0416731093929056e-09,2.516262504799813e-09,2.0548181711822194e-09,1.6579371891331977e-09,1.317567333275605e-09,1.029785374972373e-09,7.961103025549356e-10,6.034074219325446e-10,4.500693047186699e-10,3.3250894405492974e-10,2.4271936561944705e-10,1.7541303918885404e-10,1.2475692987618604e-10,8.643369008022409e-11,5.759065389772435e-11,3.670919627392347e-11
0.0,44,44.0,0.0,30.0,0.0,0.0,0.0,0.0,-13.0,0.0,2.0,0.0,0.0,0.0,1.079017140631063e-09,8.033559190501094e-10,5.944500244982257e-10,4.4359381244236044e-10,3.304490987044465e-10,2.451779179874172e-10,1.7980937775246758e-10,1.2941205124922538e-10,9.042229606946366e-11,6.066732227618849e-11,3.918508185241651e-11,2.4204447854093977e-11,1.4331176519257864e-11,8.114734961219058e-12,4.3998233745215734e-12,2.2833916218036503e-12,1.1340553772404765e-12,6.641523010201276e-09,5.984056235532103e-09,5.238893747706338e-09,4.4252250050952e-09,3.680338691063199e-09,3.0414831976383736e-09,2.516084009122212e-09,2.0546552345326462e-09,1.6577963023182474e-09,1.3174507235336022e-09,1.0296972240808551e-09,7.960929579168647e-10,6.035744502790456e-10,4.5055248627215406e-10,3.333438654779242e-10,2.4378538462106345e-10,1.764809303789212e-10,1.256205276100613e-10,8.699530094488814e-11,5.788855687499765e-11,3.6825200132244484e-11
0.0,45,45.0,0.0,30.0,0.0,0.0,0.0,0.0,-13.0,0.0,2.0,0.0,0.0,0.0,1.0790574904491264e-09,8.03498521095639e-10,5.948602022903981e-10,4.443634182030355e-10,3.314784128550007e-10,2.462136284335728e-10,1.8060644232700134e-10,1.2987061404888745e-10,9.05822481908606e-11,6.063484888047213e-11,3.906493271011658e-11,2.4066278180997862e-11,1.4211327190004226e-11,8.025149554100727e-12,4.339677808691681e-12,2.246431185954128e-12,1.1129037023779705e-12,6.641314307275121e-09,5.983850587046144e-09,5.238692511053158e-09,4.425030641941167e-09,3.6801539265390985e-09,3.041309356852503e-09,2.515921656785359e-09,2.0545089921227316e-09,1.6576726331133877e-09,1.3173510874764631e-09,1.0296279142135973e-09,7.961052028397067e-10,6.037938374246823e-10,4.511131139229358e-10,3.342670437138943e-10,2.449280714018899e-10,1.775982732356999e-10,1.2650510563525374e-10,8.755849144732372e-11,5.8181042059670735e-11,3.693385505281032e-11
0.0,46,46.0,0.0,30.0,0.0,0.0,0.0,0.0,-13.0,0.0,2.0,0.0,0.0,0.0,1.0791036937979518e-09,8.036664441704983e-10,5.953260891073864e-10,4.452082291118625e-10,3.3257655135723535e-10,2.472908439599376e-10,1.8141460561075525e-10,1.3032078392864924e-10,9.072683128701998e-11,6.058779051186836e-11,3.893383149213918e-11,2.3920869960667683e-11,1.4087178916803487e-11,7.933276894893882e-12,4.278441675035102e-12,2.2090286989927464e-12,1.0916071624469354e-12,6.641122602559551e-09,5.983661961847049e-09,5.238508359649278e-09,4.4248535348490724e-09,3.6799865863211007e-09,3.0411529108909826e-09,2.515776775182654e-09,2.0543808019754094e-09,1.6575674384172909e-09,1.3172695971918178e-09,1.029579330802494e-09,7.961509176822157e-10,6.040718383345472e-10,4.517582417136228e-10,3.352838640448118e-10,2.461497509051082e-10,1.7876480188521497e-10,1.2740924003307311e-10,8.812192535876809e-11,5.846723033441626e-11,3.7034652387368775e-11
0.0,47,47.0,0.0,30.0,0.0,0.0,0.0,0.0,-13.0,0.0,2.0,0.0,0.0,0.0,1.0791572959529496e-09,8.038640958086993e-10,5.958541781664693e-10,4.4613381017343553e-10,3.3374594255658466e-10,2.484090225473964e-10,1.8223200695754625e-10,1.3076080549742756e-10,9.085488791490132e-11,6.052550173202087e-11,3.8791448126832694e-11,2.3768072035334026e-11,1.3958677694839838e-11,7.839111123560916e-12,4.216124960502676e-12,2.1711953201597163e-12,1.0701739568413386e-12,6.640949360739496e-09,5.983491815990725e-09,5.238342746125001e-09,4.424695132728097e-09,3.679838081680769e-09,3.0410152192439794e-09,2.5156507368308685e-09,2.0542720634056422e-09,1.6574819929204802e-09,1.317207483117091e-09,1.0295536220326421e-09,7.962345237045594e-10,6.04415353568518e-10,4.5249536208733904e-10,3.363997864750773e-10,2.4745255972929004e-10,1.7998000937007412e-10,1.2833134656115178e-10,8.868420553551718e-11,5.874620992056732e-11,3.712707649327651e-11
0.0,48,48.0,0.0,30.0,0.0,0.0,0.0,0.0,-13.0,0.0,2.0,0.0,0.0,0.0,1.0792201977237733e-09,8.040965196315829e-10,5.964515208832421e-10,4.4714589525383176e-10,3.349888413126551e-10,2.495673565047555e-10,1.8305660434880412e-10,1.311888443106701e-10,9.096523473950146e-11,6.044732769715263e-11,3.86374488632035e-11,2.3607733780479982e-11,1.3825771845175782e-11,7.742648627993601e-12,4.152739183419021e-12,2.1329430172204355e-12,1.0486126760572084e-12,6.640796087805256e-09,5.983341647150533e-09,5.238197165901008e-09,4.4245569255943025e-09,3.6797098584098608e-09,3.040897676982324e-09,2.5155449604293423e-09,2.05418421469911e-09,1.6574175863925759e-09,1.3171660513493958e-09,1.029553253503609e-09,7.963610566194661e-10,6.04831977651993e-10,4.53332404490399e-10,3.3762031161750465e-10,2.488384121691018e-10,1.8124313109273632e-10,1.2926967832445153e-10,8.924387566666002e-11,5.901703587884361e-11,3.721060482584721e-11
0.0,49,49.0,0.0,30.0,0.0,0.0,0.0,0.0,-13.0,0.0,2.0,0.0,0.0,0.0,1.0792947219820145e-09,8.043694645404098e-10,5.971257451068667e-10,4.482503568147981e-10,3.3630729037378516e-10,2.507647523039559e-10,1.8388617094819553e-10,1.3160298827915315e-10,9.105666309950785e-11,6.035260400345744e-11,3.8471496335496574e-11,2.343970544873617e-11,1.3688412324466319e-11,7.643888202037922e-12,4.088297461607652e-12,2.0942845924202335e-12,1.0269323056916293e-12,6.640664330059473e-09,5.983212993901917e-09,5.238073156575881e-09,4.424440443238473e-09,3.6796033951616107e-09,3.0408017150893305e-09,2.515460911981212e-09,2.054118730130672e-09,1.6573755218689797e-09,1.3171467069181926e-09,1.0295810727627325e-09,7.965362472996301e-10,6.05330047068789e-10,4.5427772836230716e-10,3.3895094143669914e-10,2.5030896445570547e-10,1.8255312875485427e-10,1.302223242003885e-10,8.979942203970624e-11,5.92787295738478e-11,3.7284707921441775e-11
0.0,50,50.0,0.0,30.0,0.0,0.0,0.0,0.0,-13.0,0.0,2.0,0.0,0.0,0.0,1.079383689916453e-09,8.046894576321556e-10,5.978850687231924e-10,4.494531694434923e-10,3.3770307906182416e-10,2.5199981072666435e-10,1.8471829243803678e-10,1.3200124924929275e-10,9.112793944767235e-11,6.024065649184103e-11,3.8293249676107557e-11,2.326383855850548e-11,1.3546553053934213e-11,7.542831208758145e-12,4.022814581722949e-12,2.05523370866577e-12,1.0051422300311881e-12,6.640555673213948e-09,5.983107435125592e-09,5.237972297353577e-09,4.424347253779561e-09,3.67952020188333e-09,3.0407288012563977e-09,2.515400105895619e-09,2.0540771162662804e-09,1.6573571153313436e-09,1.31715098442589e-09,1.0296403849516978e-09,7.967666096923277e-10,6.059186869264134e-10,4.5534010961070345e-10,3.403971345951264e-10,2.518655773806325e-10,1.8390867497979175e-10,1.3118720803891505e-10,9.034927524839685e-11,5.953027811031355e-11,3.7348849257852515e-11
0.0,51,51.0,0.0,30.0,0.0,0.0,0.0,0.0,-13.0,0.0,2.0,0.0,0.0,0.0,1.0794905079384225e-09,8.050638802799085e-10,5.987383075126539e-10,4.5076036670265206e-10,3.391776994167618e-10,2.532708075404548e-10,1.8555036517525935e-10,1.3238156470816164e-10,9.117780564419218e-11,6.011080102156273e-11,3.8102364687615414e-11,2.3079986330032577e-11,1.3400151267574894e-11,7.43948174901422e-12,3.956307069778271e-12,2.0158049157979517e-12,9.832522351828298e-13,6.640471741619906e-09,5.9830265895636805e-09,5.23789620851597e-09,4.424278962108056e-09,3.6794618184254334e-09,3.0406804412140122e-09,2.515364105956296e-09,2.054060907528722e-09,1.6573636976713754e-09,1.3171805876983686e-09,1.0297350408569387e-09,7.970595358284244e-10,6.066078551605837e-10,4.5652871961645363e-10,3.4196425619359035e-10,2.535092775329251e-10,1.8530813881036874e-10,1.3216208864200104e-10,9.089181175790545e-11,5.977063375294024e-11,3.740248497909119e-11
0.0,52,52.0,0.0,30.0,0.0,0.0,0.0,0.0,-13.0,0.0,2.0,0.0,0.0,0.0,1.0796192661403141e-09,8.055010466135035e-10,5.996948760355107e-10,4.521779908593331e-10,3.4073230000952564e-10,2.545756749344963e-10,1.863795951900592e-10,1.3274179955867643e-10,9.120497908347936e-11,5.996234322516567e-11,3.78984940853064e-11,2.2888004171410566e-11,1.3249167879486288e-11,7.333846835457263e-12,3.888793262853597e-12,1.976013676804973e-12,9.612725116995515e-13,6.640414197676309e-09,5.9829721155605825e-09,5.237846550938677e-09,4.424237208227622e-09,3.6794298134292635e-09,3.0406581806576126e-09,2.5153545260044746e-09,2.054071661066951e-09,1.657396619967741e-09,1.31723744034613e-09,1.0298695386780083e-09,7.974233976089636e-10,6.074083829473159e-10,4.5785309577179266e-10,3.43657521756434e-10,2.552407174272951e-10,1.8674957227469977e-10,1.3314456050784768e-10,9.142535523454329e-11,5.999871334569785e-11,3.744506347268246e-11
0.0,53,53.0,0.0,30.0,0.0,0.0,0.0,0.0,-13.0,0.0,2.0,0.0,0.0,0.0,1.079774849157551e-09,8.060102833981874e-10,6.007647802064192e-10,4.5371203509923613e-10,3.4236763769473393e-10,2.5591198395245847e-10,1.8720299803278944e-10,1.3307974790307845e-10,9.12081526377747e-11,5.979457826008634e-11,3.7681287822014216e-11,2.268775021677038e-11,1.3093567870165969e-11,7.2259365720770756e-12,3.820293381951611e-12,1.9358763937993935e-12,9.392136566529467e-13,6.640384741461918e-09,5.9829457110146326e-09,5.237825025639969e-09,4.424223665509876e-09,3.6794257836129787e-09,3.040663607805237e-09,2.5153730301437162e-09,2.0541109510607156e-09,1.6574572634000806e-09,1.3173237494153515e-09,1.0300491408164176e-09,7.978676548026783e-10,6.083320097789058e-10,4.593231025258225e-10,3.4548193538391165e-10,2.5706013485015724e-10,1.8823069820885595e-10,1.3413205530316114e-10,9.194817754041787e-11,6.021339775080491e-11,3.74760247890817e-11
0.0,54,54.0,0.0,30.0,0.0,0.0,0.0,0.0,-13.0,0.0,2.0,0.0,0.0,0.0,1.079963060190241e-09,8.066020100371406e-10,6.019586001167897e-10,4.553683778999115e-10,3.4408402764269033e-10,2.5727692816332464e-10,1.8801739945421828e-10,1.333931347661944e-10,9.118599440517683e-11,5.960679057545534e-11,3.7450393507413957e-11,2.2479085918633557e-11,1.2933320691579268e-11,7.115764339459102e-12,3.750829605953822e-12,1.8954104335659566e-12,9.170866751027659e-13,6.640385110635619e-09,5.982949113559334e-09,5.237833373342858e-09,4.424240038886031e-09,3.679451353591972e-09,3.040698356591845e-09,2.5154213322351524e-09,2.0541803627260097e-09,1.6575470554791952e-09,1.3174420846014745e-09,1.0302800069305213e-09,7.984029683877522e-10,6.093914114373428e-10,4.609488819004514e-10,3.474422220803181e-10,2.589673117992836e-10,1.8974889951510285e-10,1.3512184400223618e-10,9.24584992888198e-11,6.041353133177512e-11,3.749479989507029e-11
0.0,55,55.0,0.0,30.0,0.0,0.0,0.0,0.0,-13.0,0.0,2.0,0.0,0.0,0.0,1.0801907587954313e-09,8.072878171173147e-10,6.032874615721067e-10,4.571527093218502e-10,3.4588129206024175e-10,2.5866730880776644e-10,1.8881943688093935e-10,1.3367961768437706e-10,9.113714725490583e-11,5.93982537157823e-11,3.720545693405478e-11,2.2261876696144485e-11,1.2768400690797368e-11,7.003346985933415e-12,3.680426146602447e-12,1.8546341524616593e-12,8.949029809111811e-13,6.6404170806463295e-09,5.982984100981798e-09,5.2378733740201715e-09,4.424288063013064e-09,3.6795081763850148e-09,3.040764110458052e-09,2.515501194417284e-09,2.05428148647639e-09,1.6576674946966787e-09,1.3175954757995063e-09,1.0305693443864706e-09,7.990413180163052e-10,6.106002188693867e-10,4.627407924505642e-10,3.4954275436744783e-10,2.6096153344004615e-10,1.913012100176587e-10,1.3611103960460411e-10,9.295448985401429e-11,6.059792150881041e-11,3.7500809756052775e-11
0.0,56,56.0,0.0,30.0,0.0,0.0,0.0,0.0,-13.0,0.0,2.0,0.0,0.0,0.0,1.0804660128533644e-09,8.080805415767275e-10,6.047629947374248e-10,4.5907044908335297e-10,3.4775870808177316e-10,2.600795216475788e-10,1.8960556162171086e-10,1.3393678808190813e-10,9.106022816906805e-11,5.916823018638605e-11,3.6946122722387113e-11,2.2035992640636882e-11,1.2598787552008958e-11,6.888705024804743e-12,3.6091093244003657e-12,1.8135669204320794e-12,8.726743968455855e-13,6.640482465285843e-09,5.983052491868882e-09,5.237946846379325e-09,4.424369500469533e-09,3.67959793476912e-09,3.040862606630546e-09,2.515614424363496e-09,2.0544159129549466e-09,1.6578201861977127e-09,1.3177875320651416e-09,1.0309255770479717e-09,7.997961219665531e-10,6.119730257364378e-10,4.6470933567908775e-10,3.5178747340864254e-10,2.6304154754491107e-10,1.9288430705345535e-10,1.3709660031404333e-10,9.343426673025517e-11,6.076533841807175e-11,3.7493464246338775e-11
0.0,57,57.0,0.0,30.0,0.0,0.0,0.0,0.0,-13.0,0.0,2.0,0.0,0.0,0.0,1.0807982648297622e-09,8.089943361972601e-10,6.063972782342644e-10,4.6112665641445763e-10,3.497149553824994e-10,2.615095457271975e-10,1.9037204171215103e-10,1.341621723544211e-10,9.095382738783252e-11,5.891597140850397e-11,3.667203509682043e-11,2.1801309279754556e-11,1.2424466756755845e-11,6.771862837854617e-12,3.5369076452815e-12,1.7722291438843966e-12,8.504131539095615e-13,6.640583117608769e-09,5.983156146454333e-09,5.238055647234476e-09,4.424486140060255e-09,3.679722343649389e-09,3.040995640711357e-09,2.515762870991419e-09,2.054585230001379e-09,1.6580068916643885e-09,1.3180225853452017e-09,1.0313585330715647e-09,8.006823574729995e-10,6.135253821865999e-10,4.668650689860192e-10,3.541798049989545e-10,2.6520552492076186e-10,1.9449450590241776e-10,1.3807533303149895e-10,9.38958941398828e-11,6.091451470851175e-11,3.7472160891944784e-11
0.0,58,58.0,0.0,30.0,0.0,0.0,0.0,0.0,-13.0,0.0,2.0,0.0,0.0,0.0,1.081198512087417e-09,8.100447307225859e-10,6.082027670132591e-10,4.633259318382478e-10,3.517480641339263e-10,2.629529342283324e-10,1.911149652749643e-10,1.34353232579064e-10,9.081650737380868e-11,5.864071779490825e-11,3.6382838804439794e-11,2.1557708401147564e-11,1.2245430062301886e-11,6.652848885288703e-12,3.4638518778538695e-12,1.7306422871403864e-12,8.281318898359394e-13,6.640720931226406e-09,5.983296967613672e-09,5.238201670702876e-09,4.424639795338907e-09,3.6798831536040707e-09,3.0411650712971705e-09,2.515948418377413e-09,2.054791023079085e-09,1.6582295972676963e-09,1.3183058625873828e-09,1.031879651992445e-09,8.017166787878787e-10,6.152737721841657e-10,4.692185043351133e-10,3.56722570920683e-10,2.674510213582489e-10,1.9612775611954486e-10,1.3904389698361674e-10,9.433738079993201e-11,6.104414551066761e-11,3.743628345742442e-11
0.0,59,59.0,0.0,30.0,0.0,0.0,0.0,0.0,-13.0,0.0,2.0,0.0,0.0,0.0,1.0816795005310741e-09,8.112486814717887e-10,6.101922023472344e-10,4.656723112047107e-10,3.5385536398269687e-10,2.644048075601491e-10,1.9183024424150632e-10,1.3450736677415262e-10,9.064680162143566e-11,5.834169897946676e-11,3.607818018741178e-11,2.1305078936625468e-11,1.206167599813552e-11,6.531695922261521e-12,3.389975130961069e-12,1.6888288921754946e-12,8.058436466688721e-13,6.640897841959237e-09,5.98347690192467e-09,5.238386847156402e-09,4.424832303494046e-09,3.680082155742363e-09,3.0413728242360667e-09,2.516172977725136e-09,2.055034881283956e-09,1.6584906043061144e-09,1.3186436900340379e-09,1.0325022108792674e-09,8.02917529728852e-10,6.17235571543576e-10,4.717799919682267e-10,3.594178963189234e-10,2.697749416557656e-10,1.977796397791397e-10,1.3999880727835842e-10,9.475667677143886e-11,6.115288861051357e-11,3.738520039702643e-11
0.0,60,60.0,0.0,30.0,0.0,0.0,0.0,0.0,-13.0,0.0,2.0,0.0,0.0,0.0,1.0822559302852187e-09,8.126246058728466e-10,6.123785023577743e-10,4.681691525025804e-10,3.5603343478551683e-10,2.658598487773397e-10,1.925136182488479e-10,1.3462190863745034e-10,9.044321334828981e-11,5.801813423633564e-11,3.575770841934841e-11,2.1043317907573887e-11,1.1873210380710232e-11,6.408441222050664e-12,3.3153129312415543e-12,1.6468125963347318e-12,7.835618673539221e-13,6.641115829804202e-09,5.983697940678605e-09,5.238613141859828e-09,4.425065524786694e-09,3.6803211879680086e-09,3.041620896001912e-09,2.51643847741595e-09,2.055318411817616e-09,1.6587926479947393e-09,1.3190437336142601e-09,1.0332415686848122e-09,8.043052468119938e-10,6.194289836630105e-10,4.745595886899365e-10,3.622671139161544e-10,2.7217350627455453e-10,1.9944537157960831e-10,1.4093643815065932e-10,9.515166933606071e-11,6.123936485780078e-11,3.73182632012118e-11
0.0,61,61.0,0.0,30.0,0.0,0.0,0.0,0.0,-13.0,0.0,2.0,0.0,0.0,0.0,1.0829446713914643e-09,8.141923978875248e-10,6.147746316143203e-10,4.708190161966128e-10,3.5827805987007326e-10,2.6731230135596025e-10,1.9316065849579628e-10,1.3469412670246061e-10,9.020421411721523e-11,5.7669233126243946e-11,3.5421076914979236e-11,2.0772331432460934e-11,1.1680046846648384e-11,6.283126805855558e-12,3.2399033002927955e-12,1.6046181477058487e-12,7.613003912468938e-13,6.641376921133875e-09,5.9839621206897545e-09,5.238882553235959e-09,4.4253413427758425e-09,3.680602142668991e-09,3.0419113555349603e-09,2.5167468514651253e-09,2.0556432667638958e-09,1.659139050791535e-09,1.3195152793360892e-09,1.0341154271028306e-09,8.059021483632976e-10,6.218729498517893e-10,4.775669104885435e-10,3.6527066605418507e-10,2.7464222116735663e-10,2.0111980068540456e-10,1.4185302563598522e-10,9.552017787115651e-11,6.130215883176765e-11,3.723480468249426e-11
0.0,62,62.0,0.0,30.0,0.0,0.0,0.0,0.0,-13.0,0.0,2.0,0.0,0.0,0.0,1.083764986657688e-09,8.159734198542454e-10,6.173934485379629e-10,4.736235400784373e-10,3.60584182610169e-10,2.687559692819017e-10,1.937667713129788e-10,1.3472122286661856e-10,8.992824245087974e-11,5.729419640856848e-11,3.506794492146847e-11,2.0492035797366222e-11,1.1482207404757087e-11,6.155799679074102e-12,3.163786830965322e-12,1.5622714178201139e-12,7.390734484418911e-13,6.641683190999782e-09,5.984271524713788e-09,5.239197110719722e-09,4.4256616656175735e-09,3.6809269757433875e-09,3.0422463437735253e-09,2.5171000271645426e-09,2.0560111871905914e-09,1.6595339176294741e-09,1.3200695574035358e-09,1.0351441052401797e-09,8.07732604257681e-10,6.245870311119521e-10,4.808109695571944e-10,3.684280057208765e-10,2.7717585128723297e-10,2.027974141015971e-10,1.427446693895843e-10,9.585994772723073e-11,6.133981977746482e-11,3.713413725964818e-11
0.0,63,63.0,0.0,30.0,0.0,0.0,0.0,0.0,-13.0,0.0,2.0,0.0,0.0,0.0,1.0847387577842517e-09,8.179904658567959e-10,6.202475296123151e-10,4.765833098738029e-10,3.629458670972274e-10,2.7018421931925576e-10,1.9432720117780645e-10,1.3470033026441002e-10,8.961370251346444e-11,5.6892217258512615e-11,3.469797929863015e-11,2.0202358590691985e-11,1.1279723007321523e-11,6.026512073745793e-12,3.0870067622283567e-12,1.5197994113486285e-12,7.168956528084265e-13,6.642036765357425e-09,5.984628281251112e-09,5.2395588722025e-09,4.426028428770719e-09,3.6812977167167608e-09,3.042628070009814e-09,2.517499913365366e-09,2.0564240710413306e-09,1.6599823814356277e-09,1.3207201133886151e-09,1.0363508242095221e-09,8.09823080169316e-10,6.275912582869026e-10,4.842999961329429e-10,3.7173749788103746e-10,2.7976839822187923e-10,2.0447234128731492e-10,1.4360733335629054e-10,9.616864315065279e-11,6.13508628129953e-11,3.7015551316515216e-11
