Line_number,Fiducial,Easting,Northing,Height,Elevation,tx_pitch,tx_roll,tx_yaw,txrx_dx,txrx_dy,txrx_dz,rx_pitch,rx_roll,rx_yaw,S0Z_time_1.431e-04,S0Z_time_1.801e-04,S0Z_time_2.266e-04,S0Z_time_2.846e-04,S0Z_time_3.581e-04,S0Z_time_4.506e-04,S0Z_time_5.671e-04,S0Z_time_7.136e-04,S0Z_time_8.981e-04,S0Z_time_1.131e-03,S0Z_time_1.423e-03,S0Z_time_1.791e-03,S0Z_time_2.255e-03,S0Z_time_2.838e-03,S0Z_time_3.573e-03,S0Z_time_4.498e-03,S0Z_time_5.662e-03,S1Z_time_1.409e-05,S1Z_time_1.610e-05,S1Z_time_1.909e-05,S1Z_time_2.360e-05,S1Z_time_2.960e-05,S1Z_time_3.709e-05,S1Z_time_4.609e-05,S1Z_time_5.759e-05,S1Z_time_7.209e-05,S1Z_time_9.060e-05,S1Z_time_1.141e-04,S1Z_time_1.431e-04,S1Z_time_1.801e-04,S1Z_time_2.266e-04,S1Z_time_2.846e-04,S1Z_time_3.581e-04,S1Z_time_4.506e-04,S1Z_time_5.671e-04,S1Z_time_7.136e-04,S1Z_time_8.981e-04,S1Z_time_1.131e-03
0.0,0,0.0,0.0,30.0,0.0,0.0,0.0,0.0,-13.0,0.0,2.0,0.0,0.0,0.0,5.748727661363639e-11,3.342400917102553e-11,2.3463222055717566e-11,1.5826503100443685e-11,1.2392695582518215e-11,9.276277129632924e-12,7.142321225915204e-12,5.3462214823609376e-12,4.375836842797954e-12,3.252492184639408e-12,2.4145237943953952e-12,1.860728677752751e-12,1.3115540207645504e-12,9.967348037224035e-13,6.718452983140492e-13,4.399593222943697e-13,3.0666212111154434e-13,4.239116165750183e-09,3.2872026858793346e-09,2.08978019674486e-09,1.2621907289012164e-09,7.669874896149778e-10,4.795960403501869e-10,3.246748048459386e-10,2.0545111254953586e-10,1.321043494901576e-10,8.310182748285072e-11,5.44030956462156e-11,3.346909442630516e-11,2.1640535485671165e-11,1.4872136063419286e-11,1.0707351714454531e-11,7.794989636313477e-12,5.874229535201628e-12,3.990427870823987e-12,3.0646455297049534e-12,1.8540485580746537e-12,1.698756718104065e-12
0.0,1,1.0,0.0,30.0,0.0,0.0,0.0,0.0,-13.0,0.0,2.0,0.0,0.0,0.0,5.884725948334541e-11,3.734329719325128e-11,2.345310938483023e-11,1.5741761045588228e-11,1.1884778885439005e-11,8.996929334934614e-12,6.626337676632221e-12,5.296833502192053e-12,3.915865069221851e-12,2.8723212796053082e-12,2.23035936860572e-12,1.6325934188758502e-12,1.22673407323819e-12,8.558224030378587e-13,6.041300961269295e-13,4.0028804198287133e-13,2.8398147414159055e-13,4.168670628872449e-09,2.986479372757286e-09,2.2376044984619333e-09,1.206517235046051e-09,7.765922574798721e-10,4.4810739340501767e-10,3.228719018587854e-10,2.1739595534414861e-10,1.4434382130103467e-10,9.140380990119842e-11,5.930745396205815e-11,3.769076861775907e-11,2.3777620436726603e-11,1.5626956424016953e-11,1.1439705589062407e-11,7.73041111544804e-12,5.659662154910198e-12,3.692904653803859e-12,2.6544920512522245e-12,1.698626785306572e-12,1.1767499395364732e-12
0.0,2,2.0,0.0,30.0,0.0,0.0,0.0,0.0,-13.0,0.0,2.0,0.0,0.0,0.0,6.788943109347536e-11,4.059331136222508e-11,2.676694065994245e-11,1.6672000803701408e-11,1.1434333480975854e-11,8.499463159836266e-12,6.298877616208737e-12,4.627484821740611e-12,3.568134706026258e-12,2.8680150452877848e-12,2.1527736963318595e-12,1.5488539782923437e-12,1.1564818516704288e-12,8.44089853264412e-13,5.558876489264162e-13,3.8807242441462524e-13,2.589528177776453e-13,4.09125980196046e-09,3.111126507253624e-09,1.9922052594084584e-09,1.2583038674272695e-09,7.578000681555276e-10,4.880426962437092e-10,3.1235166907506484e-10,2.20943210288808e-10,1.6386224243084675e-10,1.0417343371546602e-10,6.849399828639846e-11,4.284626879474156e-11,2.7597856858426756e-11,1.7634378338867035e-11,1.121601292159856e-11,7.575114403210902e-12,5.222398210369748e-12,3.710110460328942e-12,2.6960240097198895e-12,1.6980536939222532e-12,1.2976381432112569e-12
0.0,3,3.0,0.0,30.0,0.0,0.0,0.0,0.0,-13.0,0.0,2.0,0.0,0.0,0.0,7.631294708527857e-11,4.561711914242326e-11,2.8572344078808738e-11,1.7578918845524914e-11,1.1713042242549771e-11,8.162268518029605e-12,5.969837264706319e-12,4.4837953422516115e-12,3.213169376107787e-12,2.611153096573898e-12,1.9080341506009607e-12,1.3653764380909536e-12,1.0736539836410211e-12,7.266818898644266e-13,5.387065736827915e-13,3.5243208015063505e-13,2.478442130639875e-13,4.414433222248922e-09,2.9080804960202086e-09,2.036296378666506e-09,1.2848749245212221e-09,7.691698822748383e-10,4.875166987193772e-10,3.3822745423127905e-10,2.244742399893328e-10,1.5577330987964655e-10,1.0957507351221808e-10,7.799342711355136e-11,4.7681246656106174e-11,2.9413630924928235e-11,1.98844481823901e-11,1.1965171408019054e-11,7.73485778634422e-12,4.956751505123606e-12,3.626476958250807e-12,2.5039934910172177e-12,1.6084316859190313e-12,1.0066618968763256e-12
0.0,4,4.0,0.0,30.0,0.0,0.0,0.0,0.0,-13.0,0.0,2.0,0.0,0.0,0.0,7.510902934510964e-11,5.0099147835789784e-11,3.251718225009904e-11,1.897924144795264e-11,1.2294241692999549e-11,8.219736590051164e-12,5.896964914430032e-12,4.2660256748665994e-12,3.233356093880915e-12,2.3438165718626647e-12,1.7313787615147866e-12,1.335825919834603e-12,9.752349940626346e-13,6.735366926955183e-13,4.822626128276129e-13,3.336735922097005e-13,2.3070799797326057e-13,4.176988239261535e-09,3.022886971922579e-09,1.9434177354926893e-09,1.2537398171184473e-09,7.737185336468111e-10,5.167099976781213e-10,3.362874246160494e-10,2.4020149245040074e-10,1.7160224124640728e-10,1.1120892078691534e-10,8.0247760836349e-11,5.321888572815696e-11,3.3735656886158536e-11,2.1816049060859312e-11,1.3875065579272209e-11,8.014273427253596e-12,5.267476476087871e-12,3.556717542102646e-12,2.2534929238542458e-12,1.351598863089095e-12,1.043231305547696e-12
0.0,5,5.0,0.0,30.0,0.0,0.0,0.0,0.0,-13.0,0.0,2.0,0.0,0.0,0.0,8.103367391266885e-11,4.979635965913165e-11,3.358100107033029e-11,2.1172587966783636e-11,1.2882231565996966e-11,8.415812313381486e-12,5.8195758629145865e-12,4.12402964591462e-12,3.0811564377309548e-12,2.2510463074974185e-12,1.6469851287189625e-12,1.2925819653080403e-12,9.28993215945316e-13,7.045821345880457e-13,4.474788903820423e-13,3.021838135524634e-13,2.2061756298491954e-13,4.124351942368759e-09,3.1448280449994835e-09,2.152383870349736e-09,1.1873493436437006e-09,7.410238409307375e-10,4.6153062823797343e-10,3.3264041938175617e-10,2.3152865132245625e-10,1.6059433683155573e-10,1.222122884943287e-10,8.83060934068755e-11,5.5924568882036025e-11,3.8846988446644314e-11,2.3934876920507245e-11,1.4431585329823333e-11,8.547099931664986e-12,5.404121838027623e-12,3.816006710669543e-12,2.2517743897632477e-12,1.5842579958883857e-12,9.81535331595612e-13
0.0,6,6.0,0.0,30.0,0.0,0.0,0.0,0.0,-13.0,0.0,2.0,0.0,0.0,0.0,8.428620708057658e-11,5.717099416322898e-11,3.6856277800799644e-11,2.2407225835440597e-11,1.409438705849515e-11,8.610223909321086e-12,5.742094259708929e-12,4.088162267965367e-12,2.887853489469976e-12,2.1070136360585065e-12,1.509299390435101e-12,1.203337695682344e-12,8.523878395063771e-13,5.81715210854066e-13,4.0644172317464803e-13,3.123304604718643e-13,2.057783529200761e-13,4.164492886017731e-09,2.8729797618267526e-09,2.0025007453345635e-09,1.1949295949453969e-09,7.513550554276849e-10,4.842525923778768e-10,3.2905083081320327e-10,2.2916010016255988e-10,1.7717131688416798e-10,1.2600676587781802e-10,9.003769602115765e-11,6.316320719203827e-11,4.1740013843898996e-11,2.689492374154616e-11,1.627514844810168e-11,9.70952597212365e-12,5.716117979864757e-12,3.3955156468520317e-12,2.3562687297294266e-12,1.4451577239273998e-12,1.1733801307451644e-12
0.0,7,7.0,0.0,30.0,0.0,0.0,0.0,0.0,-13.0,0.0,2.0,0.0,0.0,0.0,8.847012473774738e-11,5.916469491739017e-11,3.766365246361164e-11,2.2229418601378688e-11,1.3985077343647581e-11,8.412003537867624e-12,5.870468103873528e-12,3.9893939687487284e-12,2.8681005168939993e-12,1.991863927723469e-12,1.4500476521183194e-12,1.08824030801391e-12,8.092866444610135e-13,5.549495153593153e-13,4.083337215802586e-13,2.8273832028169666e-13,1.922333192238124e-13,4.052461954775938e-09,2.9962225873948666e-09,2.0812685264258387e-09,1.2021794398973701e-09,7.579752653295377e-10,5.183158554483335e-10,3.416967269277004e-10,2.4834315408004817e-10,1.7727415369222202e-10,1.3146168713027327e-10,9.27015226495817e-11,6.352976499923185e-11,4.269666512477456e-11,2.7474607859587546e-11,1.7577371376304164e-11,1.0395403645358375e-11,6.189497568084111e-12,3.73755100713307e-12,2.3392619775064023e-12,1.6231160748385532e-12,8.35019086253277e-13
0.0,8,8.0,0.0,30.0,0.0,0.0,0.0,0.0,-13.0,0.0,2.0,0.0,0.0,0.0,9.496332254030067e-11,6.011135178648327e-11,3.89346374904545e-11,2.4638547727349512e-11,1.4617428928132066e-11,9.222450583058455e-12,5.950754674981263e-12,3.888462810256372e-12,2.84045811909734e-12,1.9037269910073664e-12,1.41461145763239e-12,1.0188960989592658e-12,7.810516404634396e-13,5.178139421548752e-13,3.844556748859269e-13,2.7171251762656665e-13,1.8434550294635637e-13,4.09680408365687e-09,3.1254164071388345e-09,1.9390374637343385e-09,1.2026897203533692e-09,7.45889708511479e-10,4.942424917466786e-10,3.192781210739393e-10,2.5074841759777964e-10,1.843946083092413e-10,1.2858015609111384e-10,9.713644584720237e-11,6.743617236241223e-11,4.392184921709345e-11,2.893859159352489e-11,1.8325912383086792e-11,1.1373632155336664e-11,6.866805053749447e-12,4.0260657144212905e-12,2.2856232232218706e-12,1.4604686677180445e-12,8.440205277002236e-13
0.0,9,9.0,0.0,30.0,0.0,0.0,0.0,0.0,-13.0,0.0,2.0,0.0,0.0,0.0,9.822627765814068e-11,6.200876548753103e-11,4.098092361574439e-11,2.5921438509779484e-11,1.5590891744639373e-11,9.893241814945128e-12,6.3412294485567424e-12,3.976693270933893e-12,2.5585285188282927e-12,1.8736079240878227e-12,1.3277558689343735e-12,9.851242281910449e-13,7.314510176849629e-13,4.980140270464933e-13,3.561171612803829e-13,2.475171065781042e-13,1.595059461664388e-13,4.096427025297207e-09,2.928009808710597e-09,1.927815005828355e-09,1.1688297010801013e-09,7.566222804307076e-10,5.042315715058726e-10,3.4830618251540884e-10,2.374196584443214e-10,1.7801717058692347e-10,1.3334610878293902e-10,9.884700305849686e-11,7.129236568650647e-11,4.7455079842487467e-11,3.22578593187745e-11,1.9079877736855647e-11,1.2336140757839647e-11,7.54604460975838e-12,4.159787193957716e-12,2.620510393285254e-12,1.611523926117702e-12,9.591471546712624e-13
0.0,10,10.0,0.0,30.0,0.0,0.0,0.0,0.0,-13.0,0.0,2.0,0.0,0.0,0.0,1.0010328497394161e-10,6.371293494147298e-11,4.2266761358306024e-11,2.8671937637827163e-11,1.7289681914670588e-11,1.0076744018684718e-11,6.4557276766607326e-12,4.440059702913678e-12,2.487091782982061e-12,1.9086493494958673e-12,1.282143722724088e-12,9.50812382679656e-13,6.898832800612352e-13,4.612248245498191e-13,3.218975674207057e-13,2.2718778149163372e-13,1.571241945466056e-13,3.827908119531266e-09,2.994423630966261e-09,2.0085635424245623e-09,1.2240738424240758e-09,7.622712980236174e-10,4.743390445673474e-10,3.4238989642071407e-10,2.487657041358309e-10,1.860757039431878e-10,1.33745855925691e-10,1.0184232709347987e-10,7.108738354922208e-11,4.8818493994343664e-11,3.31680437062237e-11,2.2180956697439845e-11,1.2561136474453482e-11,7.616487743817076e-12,4.389238808019539e-12,2.4821485285981127e-12,1.392764093083329e-12,9.534880127923533e-13
0.0,11,11.0,0.0,30.0,0.0,0.0,0.0,0.0,-13.0,0.0,2.0,0.0,0.0,0.0,9.536414513061271e-11,6.678371642197964e-11,4.32361412634918e-11,2.7480108100499106e-11,1.861088650142412e-11,1.1626953121488635e-11,6.793557290652456e-12,4.254896940644997e-12,2.8286154451267182e-12,1.8300525116169743e-12,1.3012436354641517e-12,9.136220915461094e-13,6.64856159392579e-13,4.595866230023773e-13,3.2232722168845276e-13,2.246952397524567e-13,1.4291676024018153e-13,3.903816396393873e-09,3.038143624002961e-09,2.04590646854118e-09,1.224176550265741e-09,7.35276625557191e-10,5.136405555490767e-10,3.489841440901317e-10,2.4202040358493184e-10,1.8726678420113266e-10,1.3844469450557483e-10,1.0096025433065401e-10,7.04430821100993e-11,4.928671730899104e-11,3.2658451766838e-11,2.3270152663313886e-11,1.3939575062182068e-11,8.673016793779691e-12,4.709835893439282e-12,2.929007142516211e-12,1.3483986771328935e-12,9.15812142024467e-13
0.0,12,12.0,0.0,30.0,0.0,0.0,0.0,0.0,-13.0,0.0,2.0,0.0,0.0,0.0,9.557984039536178e-11,6.550937597858988e-11,4.3154384346145326e-11,2.900441442831539e-11,1.9858710510731006e-11,1.1398071834436917e-11,7.299212936022804e-12,4.077812313195368e-12,2.922283928932667e-12,1.78382272655668e-12,1.255567997019918e-12,8.907468229844104e-13,5.989707329542512e-13,4.3785554172552535e-13,3.002209763483335e-13,2.0458324913774686e-13,1.3455427581328402e-13,3.9737620344624255e-09,2.9661364576052883e-09,2.0054871764536812e-09,1.2123770149364737e-09,7.66191675436244e-10,5.02364244174899e-10,3.4294502442188596e-10,2.4156184254211753e-10,1.827208719871681e-10,1.2986398655722512e-10,1.0211745267099801e-10,7.765797441216882e-11,5.274716682663116e-11,3.479266783746662e-11,2.323621855497189e-11,1.5147074077093047e-11,8.625638467559695e-12,5.102480844284439e-12,2.5835855524758818e-12,1.4920784189580942e-12,8.567702028986413e-13
0.0,13,13.0,0.0,30.0,0.0,0.0,0.0,0.0,-13.0,0.0,2.0,0.0,0.0,0.0,1.0109195401781071e-10,6.61822155653035e-11,4.6752352168997795e-11,3.0637697855443984e-11,2.062542701660915e-11,1.1749345390911185e-11,6.956112499530928e-12,4.167632944806128e-12,2.7652051834344603e-12,1.8429592633427848e-12,1.2027395097338883e-12,8.450182000902897e-13,5.820173212707391e-13,4.1448066480305217e-13,2.742700037866755e-13,2.098054097650181e-13,1.3597887373405626e-13,3.806109240596676e-09,2.7133604025337224e-09,1.9710186417652736e-09,1.1958479732226986e-09,7.50414366930291e-10,5.21350236504717e-10,3.4730837251212394e-10,2.491747277189765e-10,1.9196849328995207e-10,1.4048990860398507e-10,9.696270714261121e-11,7.501475948985884e-11,5.522214301147058e-11,3.5658249806893e-11,2.364225361615745e-11,1.5000262136735604e-11,9.569299979025329e-12,5.5774133717675475e-12,2.8955768968502403e-12,1.8239303170106862e-12,1.0743116496293329e-12
0.0,14,14.0,0.0,30.0,0.0,0.0,0.0,0.0,-13.0,0.0,2.0,0.0,0.0,0.0,1.0129204453054912e-10,6.418101207453759e-11,4.785388015965003e-11,2.97337617144238e-11,2.0669328418684722e-11,1.3048788681925291e-11,7.96685892379925e-12,4.3111473254420504e-12,2.7875021775384533e-12,1.8313135412279413e-12,1.1758668843590552e-12,7.669887907493004e-13,5.521858966695554e-13,3.9273827861401583e-13,2.592581324384922e-13,1.98031883223294e-13,1.3045379860911694e-13,3.956433839334753e-09,2.8019308218107906e-09,1.910869303304853e-09,1.1722291438645056e-09,7.345733481510341e-10,5.043352775897442e-10,3.678360250768723e-10,2.5672453670998877e-10,1.8758887815474355e-10,1.4030339083650648e-10,1.0445066992199525e-10,7.305400759455035e-11,5.078431578158215e-11,3.786928899060106e-11,2.3812052107496707e-11,1.625150700527992e-11,9.779889878364369e-12,5.557924857457637e-12,3.4253661159813764e-12,1.9001233250332444e-12,1.03595486696e-12
0.0,15,15.0,0.0,30.0,0.0,0.0,0.0,0.0,-13.0,0.0,2.0,0.0,0.0,0.0,1.0294802696969109e-10,7.057040517994261e-11,4.609703633815101e-11,3.141458496084649e-11,1.981310579165601e-11,1.3270507983728492e-11,8.428474128015554e-12,4.815298336402054e-12,2.9572957546990607e-12,1.7843787795845506e-12,1.153119355003344e-12,7.76017989374615e-13,5.155992393326259e-13,3.8887331624094096e-13,2.606056346297328e-13,1.8444442123558716e-13,1.2215906143561845e-13,3.8200021493743374e-09,2.819929506484295e-09,1.8267681016786687e-09,1.2199565809691927e-09,7.606398285791946e-10,4.925869223988756e-10,3.4263303299330617e-10,2.562414757004897e-10,1.856421358232175e-10,1.4171543598131531e-10,9.996897974361588e-11,7.974945663161616e-11,5.532223656681165e-11,3.7088788976176465e-11,2.4340472995322295e-11,1.651044347670282e-11,9.633933589724674e-12,6.2763052365522045e-12,3.5368359757926444e-12,2.0521461757696876e-12,9.590034929491981e-13
0.0,16,16.0,0.0,30.0,0.0,0.0,0.0,0.0,-13.0,0.0,2.0,0.0,0.0,0.0,1.0530094139040147e-10,7.336827601820127e-11,4.756198004503617e-11,3.185592815528857e-11,2.22607533608268e-11,1.3672235276179949e-11,8.516667791282435e-12,5.057726357014366e-12,2.920851626167757e-12,1.90710002073826e-12,1.0970313079618335e-12,7.921510001385739e-13,5.176538993387194e-13,3.589207542405888e-13,2.4501051939787617e-13,1.7349719422185064e-13,1.16717091023821e-13,4.0783263617619524e-09,2.8131606865464877e-09,1.8968981431771254e-09,1.175463042261752e-09,7.605212793462722e-10,5.001639907987219e-10,3.742869279471646e-10,2.7418920164173945e-10,1.8294040645050798e-10,1.3722654990529608e-10,1.0121333282425454e-10,7.74981011761811e-11,5.295699660306434e-11,3.8747164924610145e-11,2.71315075163988e-11,1.7481073733246008e-11,1.0338857503456589e-11,6.104275198600425e-12,3.2221759026664756e-12,2.0471353004880945e-12,9.328557836515882e-13
0.0,17,17.0,0.0,30.0,0.0,0.0,0.0,0.0,-13.0,0.0,2.0,0.0,0.0,0.0,1.0417179033249364e-10,7.178954863924411e-11,4.6922398083883765e-11,3.40693173698099e-11,2.121538912338504e-11,1.3785142751484937e-11,8.41555515903018e-12,5.281078957637611e-12,3.078773632123921e-12,2.016199906688031e-12,1.1510467178985847e-12,7.6302841415922e-13,5.032998317481436e-13,3.5693813723219056e-13,2.3849599381821156e-13,1.5574054385765004e-13,1.1057952503813244e-13,3.916525359724801e-09,2.7026749779872317e-09,1.837372582266289e-09,1.1613267328043965e-09,7.648604760122958e-10,5.042104945781874e-10,3.4009775706892577e-10,2.5996362561736006e-10,2.0297712472131106e-10,1.4711527602470733e-10,1.0766072339577456e-10,7.671445024094481e-11,5.865566446729892e-11,3.857209904071166e-11,2.6357161387505294e-11,1.7276253401784302e-11,1.0933809167424761e-11,6.826733157735715e-12,3.4895110722267877e-12,1.9577271307021957e-12,1.2646603377430071e-12
0.0,18,18.0,0.0,30.0,0.0,0.0,0.0,0.0,-13.0,0.0,2.0,0.0,0.0,0.0,1.0283030390666941e-10,6.97051382972654e-11,4.921436028045267e-11,3.288726308388892e-11,2.2543659604658675e-11,1.3905529088095064e-11,9.430986638193229e-12,5.259234033597295e-12,3.246340146246783e-12,1.940304808830482e-12,1.1943786558988792e-12,7.514258356556855e-13,4.957315435384522e-13,3.352487281110273e-13,2.379714629729244e-13,1.55358010794036e-13,1.0811734560541365e-13,3.756098422910859e-09,2.7920547121238613e-09,1.8789169786041105e-09,1.216893791973068e-09,7.466976959162331e-10,5.018603286771053e-10,3.6611901009436276e-10,2.685964081566677e-10,1.859646140896876e-10,1.4226406457082708e-10,1.1034180390778733e-10,7.710234834262317e-11,5.5273651642025436e-11,3.981429851219497e-11,2.7415689154965722e-11,1.8875981563727607e-11,1.164111825353182e-11,6.82015251251531e-12,3.99906804537982e-12,2.2996270040799733e-12,1.2749382989551788e-12
0.0,19,19.0,0.0,30.0,0.0,0.0,0.0,0.0,-13.0,0.0,2.0,0.0,0.0,0.0,1.0365640543226809e-10,7.446597886074089e-11,5.272028794935467e-11,3.393972870024149e-11,2.2764663283010632e-11,1.4367867920342702e-11,9.011353592850457e-12,5.6739792204264356e-12,3.451320880059479e-12,1.9749610494439045e-12,1.2431030926603372e-12,7.71330144167029e-13,4.812732079767698e-13,3.3298821791717196e-13,2.194316206412542e-13,1.498918533664358e-13,1.0374542190858137e-13,4.094283539776918e-09,2.6578086620772186e-09,1.8574694498725133e-09,1.2195330456408808e-09,7.557937795473037e-10,5.088470549193849e-10,3.896113791060521e-10,2.7107588386614484e-10,2.0546343987438616e-10,1.463340656434539e-10,1.0294281860081251e-10,7.734709347548119e-11,5.743871958537243e-11,3.9828305917057234e-11,2.669977494418273e-11,1.9422323428841093e-11,1.176610094855637e-11,6.933889453478374e-12,4.3755557110780975e-12,2.4269878219763155e-12,1.171953558998837e-12
0.0,20,20.0,0.0,30.0,0.0,0.0,0.0,0.0,-13.0,0.0,2.0,0.0,0.0,0.0,1.0993954981778529e-10,7.561246456055112e-11,5.136316748146853e-11,3.4700166534978634e-11,2.1904848566490717e-11,1.495636277427058e-11,9.557345546323497e-12,5.760998231428558e-12,3.4533129888699764e-12,2.0968237973011315e-12,1.2073836948332525e-12,7.143378950223568e-13,4.708568888776296e-13,3.120269066705757e-13,2.1153104674690651e-13,1.380991128645321e-13,9.513547080211555e-14,3.689937028846163e-09,2.820236124653095e-09,1.855231455358934e-09,1.19519042369963e-09,7.692462270632208e-10,4.98658262503012e-10,3.7388806159563717e-10,2.881977735823362e-10,1.9319406821996666e-10,1.5366444651230902e-10,1.0954863503690109e-10,7.581523637301723e-11,5.786097099071189e-11,4.124053412775542e-11,2.765611420233754e-11,1.8753033957717548e-11,1.2676772118743922e-11,7.249436783420379e-12,4.635046523133106e-12,2.6250200953731755e-12,1.1496871166695893e-12
0.0,21,21.0,0.0,30.0,0.0,0.0,0.0,0.0,-13.0,0.0,2.0,0.0,0.0,0.0,1.0953195031878721e-10,7.488311000287735e-11,5.324042365296824e-11,3.622262491188704e-11,2.4542163548868753e-11,1.465225800797892e-11,1.0224759979353919e-11,6.150828639905636e-12,3.4107551028256606e-12,2.201612209196845e-12,1.2109594937465427e-12,7.755165764044746e-13,4.670750327579064e-13,3.0797625816479334e-13,2.0848011285810037e-13,1.3720223131646827e-13,8.787579640040863e-14,3.798411206352913e-09,2.642989130958826e-09,1.8866367207419966e-09,1.1294493411928842e-09,7.678929089385593e-10,5.276800623985952e-10,4.0061994560215034e-10,2.612736607073855e-10,2.072870879010732e-10,1.4544043808360485e-10,1.1206365135310716e-10,8.002390707018926e-11,5.880848714675146e-11,4.2174510073171364e-11,2.774147757643156e-11,1.8844251289160064e-11,1.258248677192881e-11,7.470569523612688e-12,4.559886328291191e-12,2.630903377608879e-12,1.236396702541867e-12
0.0,22,22.0,0.0,30.0,0.0,0.0,0.0,0.0,-13.0,0.0,2.0,0.0,0.0,0.0,1.0540081851443553e-10,7.601631265861739e-11,5.320761503873954e-11,3.381389653991191e-11,2.4153470689374463e-11,1.5502239909779497e-11,9.996328007962467e-12,6.416090425071925e-12,3.743694590454914e-12,2.129326663115882e-12,1.2825820287087472e-12,7.609083053839996e-13,4.691901232501827e-13,3.1482183109984785e-13,1.9567387125451539e-13,1.2989268708418852e-13,8.921447953468947e-14,3.809605577950142e-09,2.708682710938097e-09,1.778616548276247e-09,1.1753368578844036e-09,8.225015985991197e-10,5.344123723068449e-10,3.6232913177648703e-10,2.7242260627857e-10,2.0830774872897098e-10,1.55421007850085e-10,1.0941783799925063e-10,8.646124588840403e-11,5.902252188637794e-11,4.1270699426643416e-11,2.940293626006732e-11,1.9240071873805396e-11,1.1693506262822678e-11,7.687383585717937e-12,4.5285029040401565e-12,2.5822373647278823e-12,1.4253255224722897e-12
0.0,23,23.0,0.0,30.0,0.0,0.0,0.0,0.0,-13.0,0.0,2.0,0.0,0.0,0.0,1.1412620302971748e-10,7.473958132325491e-11,5.1236397858465524e-11,3.5739429058766075e-11,2.4526248519588248e-11,1.6190462407066794e-11,1.0445219021022464e-11,6.602761633412851e-12,3.802127880319862e-12,2.3300564684649556e-12,1.3297441114175472e-12,7.811140825006061e-13,4.985737236347017e-13,2.965090575619284e-13,1.8983459152191158e-13,1.3452759375807252e-13,8.5020299263531e-14,3.834973720699804e-09,2.7339878124131666e-09,1.741067670785905e-09,1.1796847048907228e-09,7.834539121414038e-10,5.280219077110306e-10,3.9221860370655583e-10,2.9368134495714445e-10,2.1944451859820508e-10,1.5842654145670418e-10,1.1018413140472004e-10,8.239924872897074e-11,5.743641761811759e-11,4.069877983533565e-11,2.8202952212549433e-11,1.9289372692885858e-11,1.2732527635118276e-11,8.492973400337377e-12,4.815545841975482e-12,2.949990400370239e-12,1.4708279101768648e-12
0.0,24,24.0,0.0,30.0,0.0,0.0,0.0,0.0,-13.0,0.0,2.0,0.0,0.0,0.0,1.1578383699018709e-10,7.660204617436747e-11,5.310002536692858e-11,3.545043657259187e-11,2.4911236651000723e-11,1.5785172582795163e-11,1.0364201322973386e-11,6.590558162854105e-12,4.007945515556509e-12,2.3605861275908177e-12,1.3331672272809504e-12,7.587452650883044e-13,4.423276512944938e-13,2.880158313031705e-13,1.8603172795213238e-13,1.2196840486832466e-13,7.98113311028726e-14,3.736643791881294e-09,2.6618079179660338e-09,1.821304736036492e-09,1.140910832360035e-09,8.093933175825742e-10,5.286339267418359e-10,3.6138875027252163e-10,2.8004718271134164e-10,2.0418656676943453e-10,1.5001797831521974e-10,1.1596417113088416e-10,8.895480917132131e-11,5.716259730754372e-11,4.115587574768976e-11,2.820715769802514e-11,1.824130732986729e-11,1.3272244630280854e-11,7.852925189668179e-12,5.0309039228040424e-12,2.981881573738344e-12,1.5167855845662714e-12
0.0,25,25.0,0.0,30.0,0.0,0.0,0.0,0.0,-13.0,0.0,2.0,0.0,0.0,0.0,1.1094926770894126e-10,7.186911715196641e-11,5.4713685109684206e-11,3.8990670042462675e-11,2.4355047856754957e-11,1.6613063954446355e-11,1.0516944330089956e-11,6.573320599636849e-12,4.252380823070251e-12,2.4060012690388466e-12,1.3906710917353956e-12,8.098904342344869e-13,4.797159795834978e-13,2.7946350399379365e-13,1.8503663347572786e-13,1.2751060025718095e-13,8.125237900620397e-14,3.5977386184047153e-09,2.681904504960105e-09,1.88915207268104e-09,1.1791328849949856e-09,8.324673123621463e-10,5.425077172230927e-10,3.9561393489950675e-10,2.8060244058832844e-10,2.044266103578243e-10,1.63392351103048e-10,1.1435507250882734e-10,8.203427403228161e-11,6.096694821136386e-11,4.131850560733548e-11,2.978787786012879e-11,1.9867081012399124e-11,1.2721873241300657e-11,8.304866869644011e-12,4.7404474035560714e-12,2.951325423123455e-12,1.5287808510547629e-12
0.0,26,26.0,0.0,30.0,0.0,0.0,0.0,0.0,-13.0,0.0,2.0,0.0,0.0,0.0,1.1586587797403816e-10,8.223138810527883e-11,5.4319868150393514e-11,3.6314328489901155e-11,2.5706498457529878e-11,1.6571651968106993e-11,1.120189333972213e-11,6.681134313217225e-12,4.132062147703672e-12,2.3902435958798184e-12,1.3724602071454148e-12,8.283995581075344e-13,4.737824074622331e-13,2.860705233274117e-13,1.836087877789704e-13,1.1393274584195324e-13,7.63922743737658e-14,3.5759910387359636e-09,2.795157975611031e-09,1.766741822033129e-09,1.1192856039332579e-09,7.647020102070042e-10,5.438812632270674e-10,3.8634060905985517e-10,2.884975576640245e-10,2.0949508423375688e-10,1.5635346117755373e-10,1.183040078063701e-10,8.71868535029095e-11,6.132032451406391e-11,4.374962710918074e-11,2.9368578591647535e-11,2.029914277737914e-11,1.3279859611628427e-11,8.350296367423833e-12,4.661985278902966e-12,2.9489157877392296e-12,1.7415535944531312e-12
0.0,27,27.0,0.0,30.0,0.0,0.0,0.0,0.0,-13.0,0.0,2.0,0.0,0.0,0.0,1.1460247156034626e-10,8.462834976022514e-11,5.625666451672573e-11,3.915739679670144e-11,2.6577759605433885e-11,1.5736600058955412e-11,1.1286823820952807e-11,7.016113357585675e-12,4.4204621072792156e-12,2.6050960249242007e-12,1.443799180633085e-12,8.185456096727119e-13,4.745663479387033e-13,2.939962095423477e-13,1.752194269135579e-13,1.1156810206926702e-13,7.27199336707143e-14,3.642198155391344e-09,2.5687165001028317e-09,1.8612232195146193e-09,1.1392773732535343e-09,8.130885819195183e-10,5.290950275160402e-10,3.985584513187505e-10,2.97746944438508e-10,2.141362761340805e-10,1.5883125045764524e-10,1.194005950108434e-10,8.470764829239497e-11,6.02137955846169e-11,4.2408188646481515e-11,2.9877834998363806e-11,1.9576652421282225e-11,1.3929379542078718e-11,7.95010578120204e-12,5.206881094489532e-12,3.023159522620274e-12,1.6492604313277288e-12
0.0,28,28.0,0.0,30.0,0.0,0.0,0.0,0.0,-13.0,0.0,2.0,0.0,0.0,0.0,1.1391269364081569e-10,8.27346580183294e-11,5.274595768867352e-11,3.845751533166372e-11,2.543638049630289e-11,1.6713940372385192e-11,1.0695992701392938e-11,6.9332189400698616e-12,4.056079629770646e-12,2.6452978861408845e-12,1.5157067754386498e-12,8.771508851878952e-13,4.788449026834247e-13,2.8804616485986755e-13,1.8169919246029622e-13,1.1335887529709601e-13,7.467316559363042e-14,3.6262453042922713e-09,2.641709814458635e-09,1.8046398017640928e-09,1.216013058047846e-09,7.735146656893128e-10,5.398224963503096e-10,4.0545384478827123e-10,3.0004199794544424e-10,2.2162050262401694e-10,1.6877388579293786e-10,1.213589902027689e-10,8.559968443083889e-11,6.594736284606436e-11,4.264178908588937e-11,3.052475534715114e-11,1.9742503483912163e-11,1.3148458935848832e-11,8.46557774629463e-12,5.630671337898353e-12,3.1244444642588644e-12,1.757935326341008e-12
0.0,29,29.0,0.0,30.0,0.0,0.0,0.0,0.0,-13.0,0.0,2.0,0.0,0.0,0.0,1.1521210587376307e-10,8.277377866011719e-11,5.443917491278639e-11,3.750572471945799e-11,2.613061187458945e-11,1.6934170949601088e-11,1.1777047844306235e-11,7.480595246710785e-12,4.478766060926939e-12,2.6675056467036967e-12,1.5415310935215582e-12,8.938502691649231e-13,5.126397485791224e-13,2.9277002369355843e-13,1.708580537818275e-13,1.1131507407210603e-13,7.05078271175498e-14,3.4825711697499056e-09,2.5945882621499867e-09,1.7464177994388082e-09,1.1884861594700555e-09,7.925314891301928e-10,5.58407273126795e-10,4.186563226613829e-10,3.2400840726874386e-10,2.2632547632854793e-10,1.694440028293997e-10,1.2539728330567704e-10,8.76963964094992e-11,6.431071999422255e-11,4.548734904808971e-11,3.028526437925449e-11,2.221057235855794e-11,1.2762224998326069e-11,8.437528384175893e-12,5.136506992415789e-12,3.329345615410575e-12,1.8128573804921777e-12
0.0,30,30.0,0.0,30.0,0.0,0.0,0.0,0.0,-13.0,0.0,2.0,0.0,0.0,0.0,1.1919418549633715e-10,8.520961568838199e-11,5.6332386690950145e-11,4.175904237421168e-11,2.5665702770973875e-11,1.7928747665944322e-11,1.1057541096932621e-11,7.427853766232885e-12,4.4781913466203895e-12,2.6177984365941564e-12,1.4924219040135854e-12,8.99625941087813e-13,5.303845599149533e-13,2.9790350257797686e-13,1.687751087349106e-13,1.1346485078690594e-13,6.930783533524765e-14,3.6112214424857783e-09,2.6174283477473035e-09,1.919662342524794e-09,1.1747153282108184e-09,7.741080331977579e-10,5.78542408006238e-10,3.872070063394671e-10,3.1041296487453267e-10,2.2632663337353232e-10,1.751099523828642e-10,1.2311536309184716e-10,8.697484767289689e-11,6.35922944140689e-11,4.254782403522162e-11,3.2265844381275475e-11,2.047846168874047e-11,1.3895068518900807e-11,8.559462683557553e-12,5.508693121781854e-12,3.2149125629575823e-12,2.04246152931286e-12
0.0,31,31.0,0.0,30.0,0.0,0.0,0.0,0.0,-13.0,0.0,2.0,0.0,0.0,0.0,1.1803241247359404e-10,8.319116358889105e-11,5.6615733236392806e-11,3.768814191362924e-11,2.6232329399379052e-11,1.7992785002286365e-11,1.1281319182222041e-11,7.409099167543682e-12,4.683346301842981e-12,2.8300948794262658e-12,1.6047448834715485e-12,8.627385738361611e-13,5.186305730282443e-13,3.1959525717972017e-13,1.7111688775335746e-13,1.0366243979678273e-13,6.722876240021052e-14,3.5033133907566825e-09,2.514240734583845e-09,1.7771732475991095e-09,1.164053902985061e-09,8.067376003495374e-10,5.731549920694407e-10,4.054588444539074e-10,3.1808274676738375e-10,2.3033429309780246e-10,1.6750913867418762e-10,1.2838702440856746e-10,8.999069568061477e-11,6.33558444930661e-11,4.4405691676672766e-11,3.1348800347840995e-11,2.091815436080387e-11,1.400492869690366e-11,8.297987559060923e-12,5.704107854188888e-12,3.2656499923164424e-12,1.9250644341592045e-12
0.0,32,32.0,0.0,30.0,0.0,0.0,0.0,0.0,-13.0,0.0,2.0,0.0,0.0,0.0,1.3030610968314976e-10,8.877667130098236e-11,5.5771627973757464e-11,4.077233610111115e-11,2.6821399286852928e-11,1.8272505524431207e-11,1.1107799719890865e-11,7.28572326180501e-12,4.733134295792572e-12,2.7651307990098664e-12,1.6498645913066573e-12,9.934753925774298e-13,5.729039304230777e-13,3.0298496382260523e-13,1.8155524576791242e-13,1.0663232470926913e-13,6.745913261359424e-14,3.5324442817002725e-09,2.457138057036951e-09,1.8412122767531727e-09,1.1415694383918478e-09,7.71479853291101e-10,5.916695128859604e-10,4.196679935467425e-10,3.234745642183258e-10,2.3869964878753624e-10,1.6799197907174436e-10,1.1999836452492586e-10,9.59700791222469e-11,6.613512562642551e-11,4.7233761939177004e-11,3.0988965686286245e-11,2.1778411106136095e-11,1.4561019284863008e-11,8.817863127618122e-12,5.490845969740214e-12,3.3370383445017664e-12,1.893011823841992e-12
0.0,33,33.0,0.0,30.0,0.0,0.0,0.0,0.0,-13.0,0.0,2.0,0.0,0.0,0.0,1.165620616365053e-10,8.386350497288069e-11,5.934744951446398e-11,4.0359738623319677e-11,2.7095909202828375e-11,1.7741972168585108e-11,1.106464682037478e-11,7.629413079809067e-12,4.8001208436596655e-12,2.818170261870896e-12,1.725607497296729e-12,9.838701458478599e-13,5.39801008553438e-13,3.080985383204247e-13,1.8166046727475745e-13,1.0618672583701204e-13,6.216168734554785e-14,3.613862484091553e-09,2.625714447356433e-09,1.7245146237632536e-09,1.1488080935011535e-09,7.927689369575972e-10,5.869699376015925e-10,4.3769606822231847e-10,3.2517611517886723e-10,2.4303034619664355e-10,1.6849241123237427e-10,1.2551123489874186e-10,8.698501716002132e-11,6.718787575581965e-11,4.712740755839362e-11,3.250646070909448e-11,2.091508112522353e-11,1.4085939648285282e-11,9.071299782121942e-12,5.8916194466547624e-12,3.0944835953187083e-12,2.0162020095159154e-12
0.0,34,34.0,0.0,30.0,0.0,0.0,0.0,0.0,-13.0,0.0,2.0,0.0,0.0,0.0,1.2700447845491769e-10,8.647710235023842e-11,6.067273397630633e-11,4.0976395279361094e-11,2.647787557904201e-11,1.8366999492054397e-11,1.2048860475504865e-11,8.07059195805466e-12,4.874580130300086e-12,3.0192238858317007e-12,1.6672289983220142e-12,9.859507426738438e-13,5.445994775433336e-13,3.138278346098586e-13,1.875556734097648e-13,9.896155410411958e-14,6.248219005479458e-14,3.4219068426005423e-09,2.4848695658647623e-09,1.8369949120208689e-09,1.2165273047627284e-09,8.38491612682716e-10,5.774388702737111e-10,4.3276258046893497e-10,3.2874020020422133e-10,2.421232309737196e-10,1.7319459218993934e-10,1.3219389354360857e-10,8.750448146455952e-11,6.844446076447695e-11,4.863970651849579e-11,3.212747952342347e-11,2.1931975988810365e-11,1.4042971808540652e-11,8.730849210191945e-12,5.909517419998863e-12,3.2792956354835864e-12,2.217871113523976e-12
0.0,35,35.0,0.0,30.0,0.0,0.0,0.0,0.0,-13.0,0.0,2.0,0.0,0.0,0.0,1.2859338823289594e-10,8.865480007952922e-11,6.026352793563391e-11,4.140887787070797e-11,2.6979547670689447e-11,1.8084288147433138e-11,1.2460767374542769e-11,7.44120872432584e-12,4.803484055147414e-12,2.9204123085451863e-12,1.7753479262683204e-12,1.024766161238057e-12,5.700486871915734e-13,3.2264889199031573e-13,1.8501761992294576e-13,1.069624590176332e-13,6.190719562891708e-14,3.4252853189578717e-09,2.444090178027754e-09,1.8297946793019933e-09,1.1867224835921361e-09,7.597727398179506e-10,5.827461435076935e-10,4.274925272097239e-10,3.3760174098042187e-10,2.3994769150084315e-10,1.7625578786965016e-10,1.2898730803679616e-10,8.96036758904876e-11,6.414444200013389e-11,4.749390197329373e-11,3.1332260837030985e-11,2.2323693607576832e-11,1.3713724014956403e-11,9.117879119962844e-12,5.623855801371164e-12,3.275737987528202e-12,2.0056522378541045e-12
0.0,36,36.0,0.0,30.0,0.0,0.0,0.0,0.0,-13.0,0.0,2.0,0.0,0.0,0.0,1.2910676691136745e-10,8.961273647157272e-11,6.176522067126875e-11,4.026223573178118e-11,2.979561356750391e-11,1.8120924420602854e-11,1.2428144098356994e-11,7.839341786725298e-12,4.979793574940749e-12,3.0641907616510067e-12,1.777111088363972e-12,1.044206022859832e-12,5.869463543799575e-13,3.274220700654118e-13,1.7954956882773522e-13,1.0417694605820956e-13,5.885527290332765e-14,3.348411405161842e-09,2.452123167215235e-09,1.7592663599798066e-09,1.1974624980726488e-09,8.2640279981436e-10,6.267340177480062e-10,4.2688204199309015e-10,3.4405433085008914e-10,2.5124359652885615e-10,1.823276604660365e-10,1.2515227560257732e-10,9.708520323642003e-11,6.713647664109599e-11,4.7598842875761795e-11,3.105574517281946e-11,2.137396717960473e-11,1.4240124988036733e-11,9.570848047954795e-12,5.6497494263294524e-12,3.198041248391105e-12,2.0479160899469943e-12
0.0,37,37.0,0.0,30.0,0.0,0.0,0.0,0.0,-13.0,0.0,2.0,0.0,0.0,0.0,1.393775169419605e-10,8.990890122919559e-11,6.031397609275303e-11,4.223363593431911e-11,2.6851045053165104e-11,1.870978710432168e-11,1.2201449511919224e-11,7.87635414630599e-12,4.9946267574383625e-12,3.0314789716020945e-12,1.8212220925112603e-12,1.0442883285849443e-12,6.043914720699056e-13,3.3276201089434937e-13,1.811472038819348e-13,1.0618753804583215e-13,6.19599521174462e-14,3.531435023575411e-09,2.5514175514541917e-09,1.75370431729146e-09,1.1510554758459321e-09,8.391662830291099e-10,5.803953397175851e-10,4.5944643417070454e-10,3.3348086486637745e-10,2.601222230259803e-10,1.7875302165707592e-10,1.3421981172457393e-10,9.759647218876256e-11,6.742167787821072e-11,4.98074301735544e-11,3.557131454225702e-11,2.2654229057351022e-11,1.4047860733695317e-11,8.915928729249936e-12,5.714778496065092e-12,3.4804138989409902e-12,1.9847699046534368e-12
0.0,38,38.0,0.0,30.0,0.0,0.0,0.0,0.0,-13.0,0.0,2.0,0.0,0.0,0.0,1.2974219047451812e-10,9.328374604641742e-11,6.151547342039663e-11,4.268548828658425e-11,3.041591436211904e-11,1.775496459241609e-11,1.2349879411063684e-11,8.029869079608396e-12,5.083875049269669e-12,3.13171808619925e-12,1.8956362149922782e-12,1.052931818733936e-12,6.125741937772973e-13,3.3333108861548605e-13,1.801867422922417e-13,1.0371767656484202e-13,5.6716562084057665e-14,3.0712953857741004e-09,2.4875663999102087e-09,1.7275792840118223e-09,1.200816673792206e-09,8.588595865260864e-10,6.334673815540937e-10,4.658376020328958e-10,3.481757557030157e-10,2.543045497111858e-10,1.9485151515025046e-10,1.328093494636873e-10,9.703329488379508e-11,6.677047235290598e-11,4.8865862367480936e-11,3.258833217348636e-11,2.2440899115826086e-11,1.4657247885113795e-11,9.912603147918825e-12,5.633606717272168e-12,3.54944500306399e-12,2.044604877876766e-12
0.0,39,39.0,0.0,30.0,0.0,0.0,0.0,0.0,-13.0,0.0,2.0,0.0,0.0,0.0,1.4255125285733767e-10,9.229665500807956e-11,6.074472802470564e-11,4.0655386386649555e-11,2.8662354745702437e-11,1.9722382206927408e-11,1.2438235041651727e-11,8.286143418575806e-12,5.1272191154814864e-12,3.1088501619112046e-12,1.984113770349702e-12,1.0382325828330779e-12,6.159774552841297e-13,3.4722728918429157e-13,1.835588237589345e-13,1.0649186173120499e-13,6.218886396656686e-14,3.2923285136268517e-09,2.4383807141330965e-09,1.7309237062763125e-09,1.1749610320056202e-09,8.442910537585504e-10,6.080037837874561e-10,4.5932033590379844e-10,3.7294556643462285e-10,2.515801302184559e-10,1.9116785088617706e-10,1.3858495358113852e-10,1.0552025695830281e-10,6.832305489099767e-11,4.8853085554235214e-11,3.2763952283514e-11,2.2563346217346495e-11,1.5110164774666732e-11,9.154703537280524e-12,5.813757525827595e-12,3.683077129251245e-12,2.080832667186667e-12
0.0,40,40.0,0.0,30.0,0.0,0.0,0.0,0.0,-13.0,0.0,2.0,0.0,0.0,0.0,1.390025285539415e-10,9.197405384906121e-11,6.684361478519856e-11,4.270697223963101e-11,2.8689263041585446e-11,1.9014365934994222e-11,1.2976419465094265e-11,8.454676808723638e-12,5.162888507135056e-12,3.220303484987908e-12,1.9733513480937254e-12,1.1395573103132969e-12,6.54180480739771e-13,3.6417308492985787e-13,1.8841235614882345e-13,1.055051237529177e-13,5.99726985657687e-14,3.238370338954936e-09,2.2868915146361e-09,1.7099932042487758e-09,1.175584330318297e-09,8.611922483618917e-10,6.311635030130132e-10,4.72580177481677e-10,3.5352242601095076e-10,2.543351191184886e-10,1.8402540483225438e-10,1.4324054678779995e-10,9.632062480591818e-11,7.54680683805545e-11,4.99159189720025e-11,3.3960557467915584e-11,2.28804787438769e-11,1.4573677685468092e-11,9.667122874095725e-12,5.873555853987776e-12,3.4626231562153372e-12,2.15263680814756e-12
0.0,41,41.0,0.0,30.0,0.0,0.0,0.0,0.0,-13.0,0.0,2.0,0.0,0.0,0.0,1.5210961081015188e-10,9.221945353994821e-11,6.427501685869306e-11,4.5504228162858e-11,2.8809063073305806e-11,2.0166195977083282e-11,1.3140715846803896e-11,8.247913105808709e-12,5.2160755811132375e-12,3.3499085326984187e-12,1.9266576431174345e-12,1.1797311281200543e-12,6.796159342947259e-13,3.7301327458627516e-13,2.0131281098125617e-13,1.0393699374836168e-13,6.143081550371618e-14,3.258995691240756e-09,2.36551241516006e-09,1.7452007211608364e-09,1.1593071487493932e-09,8.58540203630378e-10,6.281846281994466e-10,4.82254762192352e-10,3.668525735842323e-10,2.540133608359244e-10,1.8737824143317982e-10,1.330628316951184e-10,1.0467589941394454e-10,7.066963530371856e-11,4.9216616897739943e-11,3.416803351515615e-11,2.283669148978027e-11,1.522959093946157e-11,8.870107179442222e-12,5.901490395283387e-12,3.428964696629623e-12,2.3183419157894064e-12
0.0,42,42.0,0.0,30.0,0.0,0.0,0.0,0.0,-13.0,0.0,2.0,0.0,0.0,0.0,1.4478157933305156e-10,9.765753146837487e-11,6.977077596011444e-11,4.406112743965143e-11,3.0346539214973316e-11,1.8710477335892052e-11,1.292244230504378e-11,8.886317389803546e-12,5.372859976065357e-12,3.2205025294268506e-12,1.9418219910669937e-12,1.117852514404104e-12,6.739207996125005e-13,3.764617653453447e-13,1.9952655047206877e-13,1.0560769179687007e-13,6.060262080996668e-14,3.1787874344570223e-09,2.5239749319198702e-09,1.7323546348072795e-09,1.1862757742097096e-09,8.574414722861837e-10,6.456928048681276e-10,4.6325881879182887e-10,3.6769724509763984e-10,2.667224302420737e-10,1.983670277480201e-10,1.4313607070643758e-10,1.1047638361436436e-10,7.268951906103234e-11,5.194213116095017e-11,3.714930005415881e-11,2.336929862665965e-11,1.5905967387641235e-11,9.629579679583833e-12,6.1471314296283586e-12,3.5479107836615564e-12,2.002527384347863e-12
0.0,43,43.0,0.0,30.0,0.0,0.0,0.0,0.0,-13.0,0.0,2.0,0.0,0.0,0.0,1.4023755069437079e-10,9.781080238652237e-11,6.686837150929851e-11,4.3261732338264945e-11,2.8632301895747658e-11,1.864989738274979e-11,1.3791084715723625e-11,8.420055236527108e-12,4.999206773215983e-12,3.3293761806682874e-12,2.0172785619674403e-12,1.143235119989264e-12,7.013730293645449e-13,3.691341318062679e-13,2.0256758528917587e-13,1.0867492042432999e-13,6.037837008513458e-14,3.3249118330295344e-09,2.4716740714741224e-09,1.7324001633238003e-09,1.2842413826216198e-09,9.213198402088741e-10,6.179381913289097e-10,4.713052739421019e-10,3.5889234390681913e-10,2.852220136834807e-10,1.995671452486199e-10,1.4316304696422153e-10,1.047057970360908e-10,7.348374129112402e-11,5.1018159506572476e-11,3.384969208357675e-11,2.2747965089122905e-11,1.50658168276289e-11,1.0101867391695239e-11,6.292003425754441e-12,3.7949555710364664e-12,2.193656609612821e-12
0.0,44,44.0,0.0,30.0,0.0,0.0,0.0,0.0,-13.0,0.0,2.0,0.0,0.0,0.0,1.3492504255298664e-10,1.0444319079662007e-10,6.936109411211521e-11,4.477357772864063e-11,2.959966509450358e-11,2.0070564185687033e-11,1.3101631614121843e-11,8.291230783288424e-12,5.63315678284039e-12,3.2984071527935023e-12,2.0678842699206214e-12,1.1673665470319777e-12,6.849685233501911e-13,3.9410914428341824e-13,2.0626950734572987e-13,1.0903193363441802e-13,5.652280618204952e-14,3.1753557966620388e-09,2.395566699217388e-09,1.7980024140746063e-09,1.2835924131896067e-09,8.574062624359209e-10,6.703285930985039e-10,4.800085826220146e-10,3.83615644725873e-10,2.7303205893303856e-10,2.0691374911489833e-10,1.5453137545561595e-10,1.0077423335347567e-10,7.524962597118347e-11,5.433321815026586e-11,3.620053363166861e-11,2.509538959528771e-11,1.5099210124337374e-11,1.009310693660458e-11,6.21799819123679e-12,3.690327421916513e-12,2.0448142932546956e-12
0.0,45,45.0,0.0,30.0,0.0,0.0,0.0,0.0,-13.0,0.0,2.0,0.0,0.0,0.0,1.4938935250028938e-10,1.06261742908682e-10,7.048041635641788e-11,4.646733988742996e-11,3.00585083103214e-11,1.9306890937902273e-11,1.3126433283609471e-11,8.308540978536186e-12,5.381144984777507e-12,3.5100921338615524e-12,2.153389970233031e-12,1.2692193930736465e-12,7.13977422722103e-13,3.828457939202681e-13,2.126014689103329e-13,1.0653462908697701e-13,6.324008220038231e-14,3.085747837421745e-09,2.512852154697784e-09,1.7297536087903765e-09,1.3268827225827815e-09,8.925273314820456e-10,6.608171920831539e-10,5.127864590863294e-10,3.610409260448219e-10,2.824989016982236e-10,2.001874537290351e-10,1.5275379220904375e-10,1.0923808558147556e-10,7.638519349781066e-11,5.445047810736558e-11,3.592521197086238e-11,2.221440987651368e-11,1.5120708288821168e-11,9.540217762156986e-12,6.251381918519831e-12,3.6763486175959445e-12,2.1032551237767817e-12
0.0,46,46.0,0.0,30.0,0.0,0.0,0.0,0.0,-13.0,0.0,2.0,0.0,0.0,0.0,1.4675684784554411e-10,1.0070223712690546e-10,6.963948813032327e-11,4.7561196475866415e-11,3.087337342331477e-11,2.0088892746205623e-11,1.334333675656224e-11,8.302904794973852e-12,5.4110177695811875e-12,3.5769224401075405e-12,2.1682222820130036e-12,1.330124909910259e-12,6.987224628214844e-13,4.274397220649301e-13,2.1040582777526221e-13,1.1194178033567047e-13,6.20275906751841e-14,3.2217324748034852e-09,2.426127370082084e-09,1.7640289501349943e-09,1.3306627597528828e-09,8.770657990568077e-10,6.498107914915326e-10,5.116902306112969e-10,3.805532663375363e-10,2.8518101499923105e-10,2.2393683619139614e-10,1.5941255080328428e-10,1.1117494080039801e-10,7.507914307988367e-11,5.354454138008011e-11,3.4279866763442557e-11,2.3429822525350114e-11,1.598685928225891e-11,9.628202260835243e-12,6.028941508762979e-12,3.7642612941532745e-12,1.8425514511329427e-12
0.0,47,47.0,0.0,30.0,0.0,0.0,0.0,0.0,-13.0,0.0,2.0,0.0,0.0,0.0,1.53473139952806e-10,1.0404685178651443e-10,7.08044854640144e-11,4.9226985036305376e-11,3.068834242564567e-11,2.043616792157384e-11,1.3134075292326127e-11,8.528871908377002e-12,5.4132527174818274e-12,3.386613741497233e-12,1.9984684727442486e-12,1.2199150504293183e-12,7.434729826570059e-13,3.995782315238905e-13,2.1440434456566464e-13,1.1445350228551392e-13,6.26159334388884e-14,3.034279546974697e-09,2.474963716692684e-09,1.6632860521575637e-09,1.301939066683621e-09,9.320638787657802e-10,6.389113496233674e-10,5.170907339409054e-10,3.919255574196272e-10,2.785716088141571e-10,2.119811668230875e-10,1.4691830664744648e-10,1.1342102033043932e-10,7.948193020237171e-11,5.3763031879386116e-11,3.3781084071213495e-11,2.4260923271454997e-11,1.5693403345953408e-11,9.796575208979113e-12,5.896196860877896e-12,3.6281557555037986e-12,2.1490095449601066e-12
0.0,48,48.0,0.0,30.0,0.0,0.0,0.0,0.0,-13.0,0.0,2.0,0.0,0.0,0.0,1.5412262214910133e-10,1.064965058610049e-10,7.18088299415406e-11,4.769400664429229e-11,3.0535779273861127e-11,2.089393740564074e-11,1.3843769114486815e-11,8.947547753339138e-12,5.740162347439454e-12,3.248733112941866e-12,2.052461371076601e-12,1.2642360977053554e-12,7.548313921337889e-13,4.2137132685092704e-13,2.1744822149545792e-13,1.2551496872201536e-13,5.861769548877064e-14,3.115854484110281e-09,2.45739696775049e-09,1.7559086751325207e-09,1.2383343325882558e-09,9.65092036190506e-10,6.87608337397853e-10,5.265796078211316e-10,4.0718541857320747e-10,2.8615902201489973e-10,2.1679658120264684e-10,1.5414594523594889e-10,1.0801174835333526e-10,8.13730402562092e-11,5.5328208891211576e-11,3.7333433460982695e-11,2.4626939293235072e-11,1.6621822163070068e-11,9.274308327545814e-12,6.190450719757191e-12,3.5597892645822076e-12,2.2508815672727117e-12
0.0,49,49.0,0.0,30.0,0.0,0.0,0.0,0.0,-13.0,0.0,2.0,0.0,0.0,0.0,1.6251832382063787e-10,1.0310968248151765e-10,7.462625404272318e-11,4.848957809338746e-11,3.259648289404395e-11,2.1486437754757644e-11,1.3864789927341171e-11,8.593318305514442e-12,5.5036442612677265e-12,3.5186304797455245e-12,2.135935441735362e-12,1.3167916726293707e-12,6.975317715937548e-13,4.22392172155501e-13,2.2504464184391866e-13,1.188925868430755e-13,6.306868640596997e-14,2.928031003045451e-09,2.4570921000312117e-09,1.7900340797487677e-09,1.3803668884245754e-09,9.629110857987909e-10,7.044049362887893e-10,5.136130444974632e-10,3.8827903566729215e-10,2.8915798786121467e-10,2.3124305720875694e-10,1.5437409089276976e-10,1.0838038629323454e-10,8.208139237116345e-11,5.656404612475808e-11,3.733256739545842e-11,2.5538259946806606e-11,1.622910224661452e-11,9.778133380178857e-12,6.75090563212402e-12,3.468731180709006e-12,2.194134927708953e-12
0.0,50,50.0,0.0,30.0,0.0,0.0,0.0,0.0,-13.0,0.0,2.0,0.0,0.0,0.0,1.6594949893437566e-10,1.135521382293662e-10,7.024395114486319e-11,4.850966516469917e-11,3.124107399703978e-11,2.213592587144167e-11,1.3946236302957954e-11,8.824587554205206e-12,5.766534716029691e-12,3.387353904252666e-12,2.10465326095016e-12,1.3205601899996694e-12,7.88639216101072e-13,4.219549834697243e-13,2.321668426209532e-13,1.1786975239645433e-13,6.78589226009084e-14,3.203063552734348e-09,2.5041968372798973e-09,1.887524947172627e-09,1.2887134091155904e-09,9.441929248176062e-10,6.665372520232056e-10,5.316600082110718e-10,4.1306975413245814e-10,3.1183377527889047e-10,2.2368892485778004e-10,1.5999724874521981e-10,1.18540701018939e-10,8.191361754478061e-11,5.474972861056958e-11,3.771655587677556e-11,2.530925043242057e-11,1.5708063059459813e-11,9.385994133586286e-12,6.512992441541589e-12,3.680943752019902e-12,2.3588405471134414e-12
0.0,51,51.0,0.0,30.0,0.0,0.0,0.0,0.0,-13.0,0.0,2.0,0.0,0.0,0.0,1.6438151978081593e-10,1.0822213299442236e-10,7.716608477881636e-11,5.008271078483237e-11,3.220277536837703e-11,2.244468463890782e-11,1.3503146133122055e-11,8.31287599803351e-12,5.657218517508561e-12,3.682710099818169e-12,2.2361011751898472e-12,1.3135676821189515e-12,7.857767645321197e-13,4.218996069348972e-13,2.2544459746834205e-13,1.2166432518997457e-13,6.324673255386388e-14,3.018645684469931e-09,2.398113183531364e-09,1.874835125468049e-09,1.298331218062615e-09,9.399001307598208e-10,7.08384958632975e-10,5.432220817579014e-10,4.179426830356973e-10,3.1372567822575787e-10,2.3706185251078797e-10,1.6009091419865028e-10,1.1848784690364023e-10,8.15149384757827e-11,5.4793107410476517e-11,3.833008945654328e-11,2.368084315662355e-11,1.622268923214624e-11,1.0344968591787506e-11,6.341567791121556e-12,3.7441656390605426e-12,2.320465915321601e-12
0.0,52,52.0,0.0,30.0,0.0,0.0,0.0,0.0,-13.0,0.0,2.0,0.0,0.0,0.0,1.6087875499942845e-10,1.0726599955671644e-10,7.404860299125485e-11,4.915648986412243e-11,3.3812091750339045e-11,2.1915106625187462e-11,1.4558684837988783e-11,8.839907399848023e-12,5.6724494763912065e-12,3.5925300282408935e-12,2.25193336509632e-12,1.4035191222260892e-12,7.233651047125178e-13,4.2601965018999424e-13,2.4300013868776936e-13,1.267453662371221e-13,6.163181318239717e-14,2.9845356628096197e-09,2.329152040938465e-09,1.7885447905167595e-09,1.3046946955968876e-09,9.9721747282618e-10,7.625864272351432e-10,5.599130286007421e-10,4.174124786418213e-10,3.069193739938355e-10,2.2362619811508328e-10,1.6438983305843748e-10,1.1700733587041542e-10,8.60987046849877e-11,5.974812545416558e-11,3.751058857667425e-11,2.4054152594907892e-11,1.6124148641748266e-11,9.814602254120962e-12,6.6490211561653735e-12,4.0086877079411805e-12,2.372983432990857e-12
0.0,53,53.0,0.0,30.0,0.0,0.0,0.0,0.0,-13.0,0.0,2.0,0.0,0.0,0.0,1.695757874155044e-10,1.1381537188028691e-10,7.795675248733688e-11,5.0518579324806566e-11,3.3659570293172675e-11,2.1693724937094317e-11,1.4537752851350628e-11,8.49016827372146e-12,5.940810259811083e-12,3.722797299599265e-12,2.3673865090179074e-12,1.2956991876933472e-12,7.938890366641776e-13,4.42846929318244e-13,2.30836517570376e-13,1.3295959441841918e-13,6.764236848549951e-14,3.1705360808819768e-09,2.2853210181057776e-09,1.7695977269696137e-09,1.3177413626958814e-09,9.781905876529993e-10,6.940833555452103e-10,5.503084100343721e-10,4.216723583151332e-10,3.122752389240271e-10,2.339104959501466e-10,1.6581490756111612e-10,1.1511306007751101e-10,8.392400515437365e-11,5.856490117796576e-11,3.877501469675962e-11,2.6059899790540468e-11,1.826728865927848e-11,1.1109978222016956e-11,6.431654378014073e-12,3.754862010928246e-12,2.3069762912205867e-12
0.0,54,54.0,0.0,30.0,0.0,0.0,0.0,0.0,-13.0,0.0,2.0,0.0,0.0,0.0,1.6743650042135964e-10,1.1219197629093536e-10,7.782077322978629e-11,5.095745791186144e-11,3.423126428197323e-11,2.216051025280351e-11,1.5525919260175742e-11,8.782734313548208e-12,6.125726292360733e-12,3.4043529236491024e-12,2.3265020497968866e-12,1.3205310315163706e-12,8.032737181339879e-13,4.770080755920118e-13,2.4893570058592957e-13,1.3376907791410026e-13,7.040383559501687e-14,3.0945683410563357e-09,2.3705820002209703e-09,1.8510054487956062e-09,1.3713941052066977e-09,1.017565486003471e-09,7.87310132049275e-10,5.599335902661814e-10,4.4301102703596985e-10,3.084648870688979e-10,2.5024443603759625e-10,1.7117431587127532e-10,1.1752169818977367e-10,8.45586045823878e-11,5.734897257816946e-11,3.6616640968605075e-11,2.529680853323303e-11,1.743387791589055e-11,1.0252672200814487e-11,6.712389875024725e-12,4.061292248475695e-12,2.4181872713553136e-12
0.0,55,55.0,0.0,30.0,0.0,0.0,0.0,0.0,-13.0,0.0,2.0,0.0,0.0,0.0,1.7173600608475326e-10,1.1133428042458026e-10,7.448527902817949e-11,5.146408067159772e-11,3.531470665874671e-11,2.2850195870915875e-11,1.4041097038991637e-11,8.923424264225438e-12,5.8949186699526345e-12,3.740422195461098e-12,2.331960324797745e-12,1.3709539106457494e-12,8.052698843201334e-13,4.3943976734104607e-13,2.627636667818034e-13,1.3192945551945312e-13,7.110731111943481e-14,3.076492621314014e-09,2.4704678327551146e-09,1.8681969146365673e-09,1.4014152196097233e-09,1.0018124356615988e-09,7.681892361835479e-10,5.770558023871659e-10,4.333009490431474e-10,3.365749782230527e-10,2.4211330613180496e-10,1.6639737111851097e-10,1.22853348349902e-10,8.544326424126944e-11,5.960291367847297e-11,3.8804904719530466e-11,2.7303434342027487e-11,1.7196170671241272e-11,1.0381408281257051e-11,6.494653085638432e-12,4.347908648513087e-12,2.566982633971158e-12
0.0,56,56.0,0.0,30.0,0.0,0.0,0.0,0.0,-13.0,0.0,2.0,0.0,0.0,0.0,1.7465668389631867e-10,1.1979769098854658e-10,8.11707492004524e-11,4.989634382311396e-11,3.5070377705513724e-11,2.2372905630578114e-11,1.4644122063805577e-11,9.287078716293416e-12,5.705378611440807e-12,3.726844399723471e-12,2.1809782699382876e-12,1.3644380415715293e-12,8.454425862664903e-13,4.753046334799548e-13,2.497581944694417e-13,1.4023129711733852e-13,6.825479442324581e-14,3.009653211637413e-09,2.6100243012802665e-09,1.910830102529465e-09,1.4132630567951031e-09,1.062155356135438e-09,7.881337816911663e-10,5.776412696421272e-10,4.34936417344136e-10,3.342099857204434e-10,2.4613568020788753e-10,1.7986792240808599e-10,1.2467514159183626e-10,9.243662318626678e-11,5.775509422573187e-11,4.302437042527328e-11,2.7959624882081636e-11,1.7458985596216918e-11,1.0978630748770441e-11,6.621057518397787e-12,3.8719471050391744e-12,2.2797558342001637e-12
0.0,57,57.0,0.0,30.0,0.0,0.0,0.0,0.0,-13.0,0.0,2.0,0.0,0.0,0.0,1.776531900840341e-10,1.2566728100699732e-10,8.099905365270885e-11,5.040680929246869e-11,3.3714062563206423e-11,2.3386142971460165e-11,1.4776114960313166e-11,9.178593362548844e-12,5.827205817576822e-12,3.617308802490087e-12,2.440141531140531e-12,1.4000194093302425e-12,8.250283507367825e-13,4.65487946270466e-13,2.530227903501649e-13,1.3036318768943103e-13,7.14691267152723e-14,3.2161916405483886e-09,2.4284623616872986e-09,1.908992329433117e-09,1.451191136495157e-09,1.0756410683391916e-09,7.687425548344052e-10,5.941220373141643e-10,4.5319629597195054e-10,3.5311914710841223e-10,2.554858822588175e-10,1.770137716659157e-10,1.1967377174832747e-10,8.858372599983248e-11,5.936477611654377e-11,4.2285728585645334e-11,2.6402147838403175e-11,1.7107131987715743e-11,1.1003992329322858e-11,6.713083340146061e-12,3.891962564093536e-12,2.535251596214741e-12
0.0,58,58.0,0.0,30.0,0.0,0.0,0.0,0.0,-13.0,0.0,2.0,0.0,0.0,0.0,1.7237320461940847e-10,1.0837522038812627e-10,7.578521053075253e-11,5.365735343892491e-11,3.50599950464688e-11,2.1838762973369452e-11,1.4072219046375519e-11,9.55518863643078e-12,6.3096966290974785e-12,3.829284845248935e-12,2.2773677542295194e-12,1.4325205881295228e-12,8.12931237200778e-13,4.434405368564703e-13,2.639474549198748e-13,1.3994572801262032e-13,7.402923979670071e-14,3.1678218950643263e-09,2.464563047824676e-09,1.949926747218192e-09,1.385376252069618e-09,1.0200078585804998e-09,7.567576952640159e-10,5.96775148709004e-10,4.667588325931283e-10,3.500762022078583e-10,2.4369549090021985e-10,1.826117458579353e-10,1.3107078032395606e-10,9.231828857726688e-11,6.24035029978447e-11,4.0440956137036945e-11,2.734440896551583e-11,1.7086587301715734e-11,1.0663626381389512e-11,7.127856398574758e-12,4.166691060996762e-12,2.3689115200431326e-12
0.0,59,59.0,0.0,30.0,0.0,0.0,0.0,0.0,-13.0,0.0,2.0,0.0,0.0,0.0,1.7567194309519462e-10,1.1905799431518135e-10,8.085758687945837e-11,5.5414436696059736e-11,3.619709578555352e-11,2.3210790405523312e-11,1.5423004843925953e-11,9.446544078782435e-12,6.430523683516785e-12,3.87388382517639e-12,2.1891476840774906e-12,1.3999566063577286e-12,8.331349722036014e-13,5.067538770698097e-13,2.649322321459884e-13,1.4111143869888378e-13,7.529523183993384e-14,3.2139461939623856e-09,2.3281257488954113e-09,1.9595743947632397e-09,1.3831331402781427e-09,1.0777510951794423e-09,8.045616047282211e-10,6.362202284949399e-10,5.071460340466102e-10,3.3030314313857157e-10,2.5773522873461754e-10,1.898716641743876e-10,1.2978105906664836e-10,8.943352750785608e-11,6.580306554409449e-11,4.170507347973125e-11,2.7416302035106406e-11,1.7884693017902972e-11,1.1021381291590215e-11,7.00089530127849e-12,3.910942201183597e-12,2.2933139881457602e-12
0.0,60,60.0,0.0,30.0,0.0,0.0,0.0,0.0,-13.0,0.0,2.0,0.0,0.0,0.0,1.811023358043662e-10,1.2541483679834653e-10,8.364192248974622e-11,5.69560773514917e-11,3.5597993547320935e-11,2.3712550435879583e-11,1.576525233503025e-11,9.739314247212064e-12,6.298654935246034e-12,3.707655995985108e-12,2.430154164631858e-12,1.4464313654590081e-12,8.377068608648398e-13,4.705239233730136e-13,2.68765827499068e-13,1.4567195102996556e-13,7.467841787284538e-14,3.1043006694403387e-09,2.5773537715062873e-09,2.0083014598550425e-09,1.4222618952773506e-09,1.0916729224039471e-09,8.160174170619664e-10,6.322899939594505e-10,4.725894060752766e-10,3.5959105736694903e-10,2.4983630853343983e-10,1.8731281153418758e-10,1.440847673904486e-10,8.708146088097649e-11,6.302453622036344e-11,4.11431692223883e-11,2.8218414018366954e-11,1.855796866008741e-11,1.141794171547839e-11,7.25096998920815e-12,4.2165580948458615e-12,2.5597367781757527e-12
0.0,61,61.0,0.0,30.0,0.0,0.0,0.0,0.0,-13.0,0.0,2.0,0.0,0.0,0.0,1.8676288993830733e-10,1.2077846355730936e-10,8.395670855194632e-11,5.553192062810074e-11,3.655657178977315e-11,2.4300134159188065e-11,1.500031784410412e-11,9.839964864525307e-12,6.053729968895249e-12,3.965825333620672e-12,2.339045150256598e-12,1.461758804459013e-12,8.264980574648094e-13,4.923445250537772e-13,2.754707474115122e-13,1.5030556862083606e-13,7.628288259588171e-14,3.185560827929133e-09,2.500707709482887e-09,1.9635481157652172e-09,1.4589658000028508e-09,1.1236742630925943e-09,8.528240346310691e-10,6.506943952858256e-10,4.878878250697801e-10,3.7194134265289533e-10,2.601149136165417e-10,1.9813496573454774e-10,1.3526939027409794e-10,9.160978257748262e-11,6.475301834949677e-11,4.3112004026807386e-11,2.8355184487171448e-11,1.8746187354500057e-11,1.1204264652508967e-11,6.751493963082839e-12,4.192821278450005e-12,2.334440014321155e-12
0.0,62,62.0,0.0,30.0,0.0,0.0,0.0,0.0,-13.0,0.0,2.0,0.0,0.0,0.0,1.8952291175183466e-10,1.2910673813440803e-10,8.068751618377166e-11,5.751095597928014e-11,3.727300959918224e-11,2.4116476694108052e-11,1.481376355668859e-11,9.573939456334927e-12,6.101681873630747e-12,3.837517342388304e-12,2.4096522950835095e-12,1.5144650995112705e-12,8.782073966616496e-13,4.914774854982035e-13,2.710027570232687e-13,1.5385739334518841e-13,7.73858775775299e-14,3.232219130524265e-09,2.4722805506805077e-09,2.0040281965750053e-09,1.4684062622311675e-09,1.1271206569955964e-09,8.370810236047753e-10,6.478529154528211e-10,4.863063623271656e-10,3.488648668842265e-10,2.5675618934170003e-10,1.937735128446087e-10,1.367560413987984e-10,9.266015340590074e-11,6.391880236804564e-11,4.4324687164916394e-11,2.9845940561311633e-11,1.8886519501468397e-11,1.1458885446840133e-11,7.064521974832278e-12,4.031447667728899e-12,2.484284830608314e-12
0.0,63,63.0,0.0,30.0,0.0,0.0,0.0,0.0,-13.0,0.0,2.0,0.0,0.0,0.0,1.9407569600748633e-10,1.2711503419439407e-10,8.40114640507247e-11,5.670720265290694e-11,3.7810562205195726e-11,2.4494833177943855e-11,1.6300111006716833e-11,9.914566754714958e-12,6.320035338418488e-12,4.0211687632603026e-12,2.4092527455043687e-12,1.5032002118364798e-12,8.862664285999009e-13,5.122768658402117e-13,2.7395770921106296e-13,1.5711940639469375e-13,7.38228857642008e-14,3.1353666410879783e-09,2.6290658253663337e-09,1.9429456515016013e-09,1.5764195106823356e-09,1.118568068192609e-09,8.285495359516608e-10,6.870850747657487e-10,4.897892817777155e-10,3.594137962835959e-10,2.816962527579967e-10,1.8660160858193346e-10,1.3600430660666878e-10,9.671011431490352e-11,6.453347794042967e-11,4.364796144151326e-11,3.044165243565211e-11,1.969400247981689e-11,1.2117705944507125e-11,6.948002514866161e-12,4.2229048745616865e-12,2.4556425847123275e-12
