Line_number,Fiducial,Easting,Northing,Height,Elevation,tx_pitch,tx_roll,tx_yaw,txrx_dx,txrx_dy,txrx_dz,rx_pitch,rx_roll,rx_yaw,S0Z_time_1.431e-04,S0Z_time_1.801e-04,S0Z_time_2.266e-04,S0Z_time_2.846e-04,S0Z_time_3.581e-04,S0Z_time_4.506e-04,S0Z_time_5.671e-04,S0Z_time_7.136e-04,S0Z_time_8.981e-04,S0Z_time_1.131e-03,S0Z_time_1.423e-03,S0Z_time_1.791e-03,S0Z_time_2.255e-03,S0Z_time_2.838e-03,S0Z_time_3.573e-03,S0Z_time_4.498e-03,S0Z_time_5.662e-03,S1Z_time_1.409e-05,S1Z_time_1.610e-05,S1Z_time_1.909e-05,S1Z_time_2.360e-05,S1Z_time_2.960e-05,S1Z_time_3.709e-05,S1Z_time_4.609e-05,S1Z_time_5.759e-05,S1Z_time_7.209e-05,S1Z_time_9.060e-05,S1Z_time_1.141e-04,S1Z_time_1.431e-04,S1Z_time_1.801e-04,S1Z_time_2.266e-04,S1Z_time_2.846e-04,S1Z_time_3.581e-04,S1Z_time_4.506e-04,S1Z_time_5.671e-04,S1Z_time_7.136e-04,S1Z_time_8.981e-04,S1Z_time_1.131e-03
0.0,0,0.0,0.0,30.0,0.0,0.0,0.0,0.0,-13.0,0.0,2.0,0.0,0.0,0.0,1.0977204965236911e-09,8.199088327015754e-10,6.174887196697644e-10,4.494320295976512e-10,3.353336818001014e-10,2.6231292669426664e-10,1.9048481346073154e-10,1.352351167480505e-10,8.922328304416328e-11,5.796311365576766e-11,3.567896100668795e-11,2.028420187744701e-11,1.1867271871291284e-11,6.488878317627657e-12,3.2632894203891628e-12,1.7014706129427888e-12,8.295600164725725e-13,6.592964739381127e-09,6.189892152493508e-09,5.120951890686025e-09,4.3421648751701164e-09,3.564123656377678e-09,3.112525009663063e-09,2.5790480946479995e-09,2.035837944787988e-09,1.7130505381460168e-09,1.3001352765614465e-09,1.016125970580874e-09,8.080780915223816e-10,6.025324411173054e-10,4.885012061949928e-10,3.7041867545259936e-10,2.768121831590567e-10,1.9870830067940377e-10,1.412421830877875e-10,9.697704305629564e-11,6.259066787995575e-11,3.665828624347078e-11
0.0,1,1.0,0.0,30.0,0.0,0.0,0.0,0.0,-13.0,0.0,2.0,0.0,0.0,0.0,1.019298469441e-09,8.055516294309389e-10,6.007517009113739e-10,4.4495226775855533e-10,3.376185408240418e-10,2.468745211159126e-10,1.790402431674146e-10,1.2964061566316414e-10,8.985671738539896e-11,5.949463406738808e-11,3.714419799874752e-11,2.2871624068455472e-11,1.346032022903434e-11,7.603018814542227e-12,4.070096405349059e-12,1.9726565019763827e-12,1.0068954766039174e-12,6.363799311395204e-09,6.081950298924469e-09,5.176114246913521e-09,4.414996640027742e-09,3.5539260134538146e-09,3.168539598390084e-09,2.6075467551258645e-09,2.1035054567759324e-09,1.675525887998324e-09,1.3112149229914626e-09,1.07636169635429e-09,8.15921853990028e-10,6.205721502688766e-10,4.73747109839115e-10,3.4519174535844077e-10,2.511065042561588e-10,1.7906399870174337e-10,1.3290803513873447e-10,8.943286240059013e-11,5.997936387680591e-11,3.877152441355954e-11
0.0,2,2.0,0.0,30.0,0.0,0.0,0.0,0.0,-13.0,0.0,2.0,0.0,0.0,0.0,1.1122186998251498e-09,8.515872383433547e-10,5.827974120277864e-10,4.3017053272670986e-10,3.182140859918528e-10,2.4355463399383386e-10,1.7402988999228354e-10,1.2701703689840664e-10,8.30498168076033e-11,6.244775307441873e-11,3.795607849038159e-11,2.4105336190853467e-11,1.396868621143619e-11,8.417098198585035e-12,4.613170535098304e-12,2.505854719434027e-12,1.2349786879386122e-12,6.777970875405922e-09,5.887440508430428e-09,5.247137376466963e-09,4.538629160586312e-09,3.881305181885991e-09,3.0170902461186465e-09,2.603899805609253e-09,2.0291638439837823e-09,1.5935951490419175e-09,1.3611190971151417e-09,1.0721598678777722e-09,8.234059538264878e-10,6.138216852332662e-10,4.43381010506789e-10,3.4197178266473254e-10,2.4633708204292753e-10,1.7754926648563402e-10,1.2191907716900932e-10,8.71563268421985e-11,5.5447398869967263e-11,3.5632572351341097e-11
0.0,3,3.0,0.0,30.0,0.0,0.0,0.0,0.0,-13.0,0.0,2.0,0.0,0.0,0.0,1.0462833563580204e-09,8.168916988072953e-10,5.767792211313464e-10,4.499631920113544e-10,3.382497801122908e-10,2.428437164498772e-10,1.742601941782566e-10,1.225081783179916e-10,8.711521413524657e-11,6.090332612373075e-11,4.123923889236106e-11,2.411486528971714e-11,1.493692423690829e-11,8.709549474109376e-12,4.972036199764934e-12,2.9462564508667564e-12,1.3074486105749898e-12,6.850612710863271e-09,6.162245462266319e-09,5.367100717909325e-09,4.300459760046425e-09,3.603042757767342e-09,3.099446309822456e-09,2.5415763135236737e-09,2.062478242054173e-09,1.7342832190720287e-09,1.3122392244971538e-09,1.0266912657989612e-09,7.542546267768044e-10,6.10594331472281e-10,4.579890243471053e-10,3.254218653040086e-10,2.383264103679403e-10,1.6692218692166812e-10,1.1906252716496023e-10,8.087730321792932e-11,5.4644337212489924e-11,3.5175150856133214e-11
0.0,4,4.0,0.0,30.0,0.0,0.0,0.0,0.0,-13.0,0.0,2.0,0.0,0.0,0.0,1.0994474542584153e-09,7.711947371545333e-10,5.668545300462051e-10,4.241914620498946e-10,3.3446637566509547e-10,2.367600993956669e-10,1.584498395480608e-10,1.2115787841687065e-10,8.331629168730955e-11,5.6984481504831154e-11,3.777232115673257e-11,2.5191330254524096e-11,1.5897814284814938e-11,9.137655181508005e-12,5.608301252241903e-12,3.03335806912103e-12,1.5366534791134473e-12,6.144557822873526e-09,5.631777161252134e-09,5.208746705263783e-09,4.602034757327799e-09,3.881658733138649e-09,2.9745891760481544e-09,2.5504216810822107e-09,2.1289883364459967e-09,1.672075439497568e-09,1.3385618689478526e-09,1.0641564160452091e-09,8.192649344126724e-10,6.210605369252191e-10,4.4902304420504343e-10,3.253938158183451e-10,2.1910317973534204e-10,1.578284553568902e-10,1.1770444372106027e-10,7.183362717985637e-11,4.962636061428275e-11,3.262976544258596e-11
0.0,5,5.0,0.0,30.0,0.0,0.0,0.0,0.0,-13.0,0.0,2.0,0.0,0.0,0.0,1.0612793567572017e-09,8.694818873337422e-10,5.788832991007328e-10,4.2639214866196244e-10,3.1610217568975437e-10,2.34227648168774e-10,1.6170193246354175e-10,1.22124201485989e-10,7.645944353303664e-11,5.7989930132371164e-11,3.965207938060433e-11,2.6154932030834054e-11,1.6691760037812165e-11,9.771951828155255e-12,5.509675633763096e-12,3.1338034461929984e-12,1.6946030223220621e-12,6.654652888381321e-09,5.980998752325743e-09,5.206726186133009e-09,4.650762157089485e-09,3.854785511006166e-09,2.989840465535879e-09,2.465667600273365e-09,1.981031973252099e-09,1.745005521297044e-09,1.3209871222843225e-09,1.0602561834953664e-09,7.896402790564582e-10,5.936052781031174e-10,4.5960057739590344e-10,3.362755321268667e-10,2.415668422416684e-10,1.637767335485203e-10,1.0997534813234795e-10,7.072758510414694e-11,5.1762292909992387e-11,3.352493090739415e-11
0.0,6,6.0,0.0,30.0,0.0,0.0,0.0,0.0,-13.0,0.0,2.0,0.0,0.0,0.0,1.0430381371055035e-09,7.88022259411269e-10,5.846564377623429e-10,4.437950382847186e-10,3.3267715488321107e-10,2.298259283486686e-10,1.621928944924681e-10,1.1386034822934613e-10,8.273892906274945e-11,5.604605953397808e-11,3.722034340776236e-11,2.6113628219047525e-11,1.5655704276474233e-11,1.0716742466704663e-11,6.3845076540918275e-12,3.366390534283939e-12,1.7933188992716506e-12,6.598839002463847e-09,5.771371013906387e-09,5.2061193863495376e-09,4.428624506414153e-09,3.8261519333463705e-09,2.9331166901066888e-09,2.5640571364708894e-09,2.0649962547515643e-09,1.6758119677713623e-09,1.3223609688932941e-09,1.0442221089014485e-09,8.198378764557e-10,6.346640257030285e-10,4.5738400699194033e-10,3.271069272926716e-10,2.3162871524345042e-10,1.5645413982169372e-10,1.1510221618255801e-10,7.505569544925777e-11,4.755639639165874e-11,3.168625142788334e-11
0.0,7,7.0,0.0,30.0,0.0,0.0,0.0,0.0,-13.0,0.0,2.0,0.0,0.0,0.0,1.0612322968606765e-09,7.255140147725223e-10,5.629297865834305e-10,4.229985512873938e-10,3.345426043611175e-10,2.2768472839294925e-10,1.6019429851909937e-10,1.1370033665723807e-10,8.251041375088226e-11,5.353946973135841e-11,3.639793085143029e-11,2.6083176142246945e-11,1.6709810242003556e-11,1.0136566230159811e-11,5.685422121300616e-12,3.4539624512217766e-12,1.8958588061262827e-12,6.940978950057094e-09,6.0930713290998805e-09,5.167796512207891e-09,4.2682305670827186e-09,3.50924699103356e-09,3.069252785958757e-09,2.5939964622027616e-09,2.0392852075071964e-09,1.7647780341658558e-09,1.3226562047780933e-09,1.0643315362837631e-09,8.14726897571425e-10,6.136361458075556e-10,4.4032989582812946e-10,3.3406056517926174e-10,2.359013560203964e-10,1.6544176997877023e-10,1.1013142367840383e-10,7.205668403442445e-11,4.90688749197382e-11,2.9906651067969575e-11
0.0,8,8.0,0.0,30.0,0.0,0.0,0.0,0.0,-13.0,0.0,2.0,0.0,0.0,0.0,1.0394913730714502e-09,8.006875355979084e-10,5.640356048912725e-10,4.3539919878622305e-10,3.296555484017338e-10,2.3535303568303787e-10,1.663657830673191e-10,1.0796520011213445e-10,7.982974950076514e-11,5.2281421136053264e-11,3.7484474164469595e-11,2.5027785131500964e-11,1.5859106122798146e-11,1.0406657077066592e-11,6.319936603901037e-12,3.630346541359657e-12,2.010992486365643e-12,6.506277423473039e-09,6.110369548396545e-09,5.09191424270841e-09,4.330377156366061e-09,3.825706320934316e-09,3.100112707088716e-09,2.566887981938291e-09,2.049109936729741e-09,1.7637473598213179e-09,1.3833693995423914e-09,1.0080118075472518e-09,8.015822286080536e-10,6.055143052506959e-10,4.468991304278992e-10,3.3183193853403096e-10,2.4225329230923096e-10,1.6142673594898238e-10,1.1185890461285557e-10,7.189088603376004e-11,4.629766667570316e-11,2.893220105816914e-11
0.0,9,9.0,0.0,30.0,0.0,0.0,0.0,0.0,-13.0,0.0,2.0,0.0,0.0,0.0,1.0598973297889915e-09,8.349724402803611e-10,5.849509838241503e-10,4.5712086137598504e-10,3.271916324007507e-10,2.2827165300945015e-10,1.5648157924964386e-10,1.1746646228985292e-10,7.431990660979719e-11,5.04880810746862e-11,3.5716918112910624e-11,2.38468300277094e-11,1.6490155861202e-11,1.0190988522215158e-11,6.1991256562730385e-12,3.713073550612652e-12,2.0693235519343432e-12,6.5105479333481795e-09,6.102824675193195e-09,5.336634331241238e-09,4.4032567632672646e-09,3.6921694168033e-09,3.0022556176293776e-09,2.6601259912033953e-09,2.0481085994614718e-09,1.7943391126726605e-09,1.3038871750136188e-09,1.0445247113118914e-09,8.378172859172037e-10,6.286721094938529e-10,4.707566873199741e-10,3.211787938488574e-10,2.417128092078037e-10,1.6965612181003444e-10,1.1233166731071939e-10,7.140174950969399e-11,4.624532380194334e-11,2.997564243646377e-11
0.0,10,10.0,0.0,30.0,0.0,0.0,0.0,0.0,-13.0,0.0,2.0,0.0,0.0,0.0,1.07752848299113e-09,8.036703233235397e-10,6.111475759679231e-10,4.551207398367484e-10,3.27304817635381e-10,2.319967408334201e-10,1.6686446836767594e-10,1.0965095895744378e-10,7.695797585042302e-11,5.041889531886782e-11,3.511870641280696e-11,2.360882303130891e-11,1.5396005759393718e-11,1.0053603849146007e-11,6.256798702248903e-12,3.8069941161500084e-12,2.0359493112342348e-12,6.4068319142913716e-09,5.706222573145553e-09,5.052466168362922e-09,4.294755309663722e-09,3.7203771236292015e-09,3.0229549730022014e-09,2.619001467150553e-09,2.193155806056926e-09,1.7100149489054544e-09,1.2913285364898355e-09,9.733773648383556e-10,8.037467617727624e-10,6.002695736807972e-10,4.500268220425028e-10,3.197087687888559e-10,2.455502974523556e-10,1.661790811154995e-10,1.0629411576485795e-10,7.24608726394795e-11,4.723140402827842e-11,2.7095163226613006e-11
0.0,11,11.0,0.0,30.0,0.0,0.0,0.0,0.0,-13.0,0.0,2.0,0.0,0.0,0.0,1.0638924716434023e-09,8.401289366470709e-10,5.734688916552206e-10,4.090742555885892e-10,3.267219777870782e-10,2.307292251702744e-10,1.5427069899865738e-10,1.1278847510659217e-10,7.772736641448546e-11,4.85250681955458e-11,3.423595337026307e-11,2.2983196495039813e-11,1.5433990947350163e-11,9.328853288169306e-12,6.511498563546277e-12,3.675721145524602e-12,2.1781745189283578e-12,6.5489674260441836e-09,5.829097508404182e-09,5.355661516975196e-09,4.393889924399021e-09,3.593659183063884e-09,3.093255083661878e-09,2.576141677558382e-09,1.9613121158357764e-09,1.7347469697273867e-09,1.322878433036233e-09,1.0894662820357566e-09,8.034563846406116e-10,6.021047686094318e-10,4.595607258901225e-10,3.3725786180812403e-10,2.511899006891529e-10,1.6796732449061933e-10,1.1246808003138312e-10,7.000372600206186e-11,4.5937922441788784e-11,2.807058496152829e-11
0.0,12,12.0,0.0,30.0,0.0,0.0,0.0,0.0,-13.0,0.0,2.0,0.0,0.0,0.0,1.11881715948665e-09,7.976417368608105e-10,5.836436047128705e-10,4.2227091472207416e-10,3.169713962851325e-10,2.2323474620247425e-10,1.5459993290679706e-10,1.1178454540421135e-10,7.390032156321588e-11,4.876546286291648e-11,3.3483490997415386e-11,2.208213067080304e-11,1.5079265678830588e-11,9.848549472852278e-12,6.367167221884845e-12,3.54169981453103e-12,2.173886161248661e-12,6.445526049850226e-09,5.9481990954492215e-09,5.2431693818804205e-09,4.419460835989324e-09,3.797718437420544e-09,3.0447794513472933e-09,2.5111334758067063e-09,1.963572784323994e-09,1.6449527600134254e-09,1.3016350535665242e-09,1.039677994349784e-09,7.991126030011581e-10,6.572511441557061e-10,4.931846889093911e-10,3.3971961378179863e-10,2.392452479623831e-10,1.641616768265582e-10,1.0945802174146319e-10,7.583732984884788e-11,4.478410065283611e-11,2.807604389002397e-11
0.0,13,13.0,0.0,30.0,0.0,0.0,0.0,0.0,-13.0,0.0,2.0,0.0,0.0,0.0,1.1135991745819716e-09,8.078898979101174e-10,5.895837877119751e-10,4.2332862740310247e-10,3.2570573564240845e-10,2.3907161829886276e-10,1.6312856362389928e-10,1.1864241089800911e-10,7.71984317691924e-11,5.002588944277301e-11,3.460667489479961e-11,2.2653480381487446e-11,1.5332945222176703e-11,9.332832731143568e-12,6.062968802160487e-12,3.679915029903221e-12,2.20502409689164e-12,6.828277388310115e-09,6.312637345046551e-09,5.358671315417271e-09,4.3630949093116354e-09,3.5596218080086853e-09,3.068925157890286e-09,2.5192794698532895e-09,2.087338107619555e-09,1.705480373751237e-09,1.3291431151305588e-09,1.0228374600328242e-09,8.054292861395872e-10,6.108516908798964e-10,4.541467798043322e-10,3.370808315459084e-10,2.435890319545821e-10,1.5345013576554126e-10,1.1566068379948454e-10,7.327315354986924e-11,4.7449445900074816e-11,2.8636799740654762e-11
0.0,14,14.0,0.0,30.0,0.0,0.0,0.0,0.0,-13.0,0.0,2.0,0.0,0.0,0.0,1.11718627066066e-09,8.522903632149529e-10,6.12441710727752e-10,4.346947056841864e-10,3.173315496392653e-10,2.262811268988579e-10,1.5379080856400948e-10,1.1185255218513558e-10,7.866077635998391e-11,5.471251767261933e-11,3.3899846614100504e-11,2.263696558941894e-11,1.473657063723093e-11,9.610622482756404e-12,5.8088977095469825e-12,3.718164321487392e-12,2.1803299386132387e-12,6.4770453327801554e-09,6.102374159607528e-09,5.169531317560828e-09,4.56251125839341e-09,3.6085852882749597e-09,3.042736941707647e-09,2.627881437746143e-09,2.0347708231443992e-09,1.6998698861260404e-09,1.3900010841463483e-09,1.0364709664545792e-09,8.123851031582373e-10,5.815340593293113e-10,4.625945470458522e-10,3.3747435305689353e-10,2.350678236166816e-10,1.694042936422383e-10,1.0870569184775239e-10,7.702179927967219e-11,4.341290474162176e-11,2.7567040817657627e-11
0.0,15,15.0,0.0,30.0,0.0,0.0,0.0,0.0,-13.0,0.0,2.0,0.0,0.0,0.0,1.0675286154406483e-09,8.076630982970394e-10,5.68545442804332e-10,4.395557280876115e-10,3.3318082421031857e-10,2.3669389490436884e-10,1.656474477284762e-10,1.0941223834348818e-10,7.39026297866223e-11,5.301081178298603e-11,3.471973182670107e-11,2.3399036429067903e-11,1.4333448643032463e-11,9.246805443849514e-12,5.516167184984662e-12,3.755063309239519e-12,2.0251092177989824e-12,6.682563019294551e-09,6.201408952009052e-09,5.238554814136425e-09,4.288336531911459e-09,3.714963820553867e-09,3.083339429382249e-09,2.5500428762249574e-09,2.1757376468766217e-09,1.7186037763654064e-09,1.3769750632438602e-09,1.0323838823903923e-09,8.198977717256632e-10,6.070609444069972e-10,4.508452484993923e-10,3.511707416058423e-10,2.3337651803523416e-10,1.738918033327495e-10,1.1265811837738782e-10,7.32516362215037e-11,4.81132782583336e-11,2.996425162823868e-11
0.0,16,16.0,0.0,30.0,0.0,0.0,0.0,0.0,-13.0,0.0,2.0,0.0,0.0,0.0,1.1014365313113368e-09,7.877254850918133e-10,5.887776775337393e-10,4.4040157355667973e-10,2.9339745843742625e-10,2.359235899701817e-10,1.6696482167273909e-10,1.1058780194425134e-10,7.456928271401712e-11,5.0958779790703496e-11,3.3061851048619036e-11,2.1634295143550334e-11,1.463024061022778e-11,9.254135501828578e-12,5.5423555569492636e-12,3.55335475519744e-12,2.133410575457093e-12,6.9378781597012824e-09,6.0178615547072295e-09,5.2175904773093614e-09,4.344166313294753e-09,3.64335912646973e-09,2.90303750702033e-09,2.494820970854831e-09,2.107915172405485e-09,1.6200759354257793e-09,1.3017759584140082e-09,1.0547106382396136e-09,8.255053608208537e-10,6.207451196604127e-10,4.807374213468593e-10,3.275874550100354e-10,2.3455080240443323e-10,1.574211753421498e-10,1.1199663903901556e-10,7.64467202115949e-11,4.7992225314305884e-11,3.101024313630401e-11
0.0,17,17.0,0.0,30.0,0.0,0.0,0.0,0.0,-13.0,0.0,2.0,0.0,0.0,0.0,1.0490366080021457e-09,8.215989784182985e-10,5.951969161487546e-10,4.3052415683366666e-10,3.217825533294809e-10,2.350297666998528e-10,1.6015005284855332e-10,1.1035613338430936e-10,7.335033175648125e-11,5.1427826192258955e-11,3.4269117387063654e-11,2.233189376451371e-11,1.465172356196685e-11,9.212419556470445e-12,5.552387251455088e-12,3.438489827225112e-12,1.98563916779446e-12,6.961985719760078e-09,6.1616268100783075e-09,5.1020433349439295e-09,4.6166846297760044e-09,3.875829390086654e-09,2.9976343367967464e-09,2.508142448944748e-09,2.15586937950803e-09,1.5684400743684503e-09,1.3466818512647957e-09,1.0986918196200996e-09,8.290104578350233e-10,6.280079584490283e-10,4.651270528020025e-10,3.506427739546421e-10,2.2980975822976638e-10,1.665051982605717e-10,1.1686751053798548e-10,7.357516401040691e-11,4.771540500170148e-11,3.027156600721295e-11
0.0,18,18.0,0.0,30.0,0.0,0.0,0.0,0.0,-13.0,0.0,2.0,0.0,0.0,0.0,1.0044884594363342e-09,8.054159463198304e-10,5.901698696792636e-10,4.260102425699918e-10,3.2081434983872857e-10,2.2623548816655694e-10,1.5616832458296379e-10,1.1536497921755604e-10,7.49420365954721e-11,5.260791388977465e-11,3.449729629802969e-11,2.1637844633390705e-11,1.4683727065520657e-11,9.072739298053987e-12,5.844089159845326e-12,3.5853406436000904e-12,2.0370320719024326e-12,6.868860897294899e-09,6.131757676206879e-09,5.292215164157251e-09,4.62006428057334e-09,3.875626601921077e-09,3.1386459743257317e-09,2.5110504106221543e-09,1.9710410324478794e-09,1.6608579512490416e-09,1.3352360076528147e-09,1.0233299493288716e-09,8.202646404071309e-10,6.324795325015269e-10,4.742750939509704e-10,3.2743587204219774e-10,2.319215264751306e-10,1.6966511333988475e-10,1.1171087181858105e-10,7.498864507473465e-11,4.7099699558189844e-11,2.9125255040797215e-11
0.0,19,19.0,0.0,30.0,0.0,0.0,0.0,0.0,-13.0,0.0,2.0,0.0,0.0,0.0,1.0980301581371308e-09,8.154166670821026e-10,5.882976559934167e-10,4.2883515433197573e-10,3.3041415839578176e-10,2.380232580186947e-10,1.65641646323875e-10,1.1441451725403765e-10,7.732469574949663e-11,5.032071189447988e-11,3.4222828791061697e-11,2.2053418460329736e-11,1.4310928396464985e-11,9.440693044788031e-12,5.927106982267105e-12,3.3803628075010963e-12,2.1612767884158824e-12,6.5278966437011e-09,6.016093879201776e-09,4.925978698188015e-09,4.493163352718911e-09,3.5810391595735097e-09,3.175982485394398e-09,2.551637924319967e-09,2.081369690419324e-09,1.7241630066397474e-09,1.3307225063607642e-09,1.0422863148712944e-09,8.486107567650684e-10,6.259263448480338e-10,4.6093978719503464e-10,3.3690325980041506e-10,2.4274187318854054e-10,1.7002108144129473e-10,1.162154507925317e-10,7.488633646118017e-11,4.741700424382577e-11,3.120485275117155e-11
0.0,20,20.0,0.0,30.0,0.0,0.0,0.0,0.0,-13.0,0.0,2.0,0.0,0.0,0.0,1.072128659554182e-09,8.131127698198961e-10,5.78174691441021e-10,4.4819999470647035e-10,3.170201380999951e-10,2.2140436604198066e-10,1.5635322494225582e-10,1.1484070324447319e-10,7.818278170914183e-11,5.4564116817015643e-11,3.30516311082325e-11,2.2204484871175062e-11,1.4285651142814184e-11,9.189772221116632e-12,5.511248464211933e-12,3.3983595856465898e-12,2.014680289419028e-12,6.590260174817671e-09,5.8501528948159774e-09,5.425552769548702e-09,4.336537065136066e-09,3.693771783478263e-09,3.0286937918353003e-09,2.6566964463937442e-09,2.0138947410723474e-09,1.6761641777443812e-09,1.3584101321699835e-09,1.060929010297872e-09,8.136348068636516e-10,6.240715495125775e-10,4.750356525515436e-10,3.42559368272745e-10,2.4400300687388946e-10,1.5204611682087878e-10,1.0765098323581783e-10,7.101169387649513e-11,4.708545197609964e-11,2.9650077064813176e-11
0.0,21,21.0,0.0,30.0,0.0,0.0,0.0,0.0,-13.0,0.0,2.0,0.0,0.0,0.0,1.0607216784877065e-09,7.607420145813284e-10,5.884804514238052e-10,4.3180411152773285e-10,2.987980127326304e-10,2.331025984184437e-10,1.6555895792313326e-10,1.080907189947452e-10,7.494066133327486e-11,5.336649425177108e-11,3.439130987265764e-11,2.2625839981759178e-11,1.3571391723586207e-11,8.90648557911915e-12,5.635260731955183e-12,3.5385329252830524e-12,1.966850856748439e-12,6.7679730019809465e-09,5.731798418551087e-09,5.099750083240232e-09,4.35406158654155e-09,3.69969696741447e-09,3.0163575078452247e-09,2.498461226248212e-09,1.9426904053374476e-09,1.6542547803032458e-09,1.277194628475692e-09,1.066617411907409e-09,7.808908300003122e-10,6.098163233762338e-10,4.6314459971823833e-10,3.2995191504811873e-10,2.3887392434157533e-10,1.652502118887985e-10,1.1686296281644452e-10,7.688094303745159e-11,4.7200175033649733e-11,3.098082439020508e-11
0.0,22,22.0,0.0,30.0,0.0,0.0,0.0,0.0,-13.0,0.0,2.0,0.0,0.0,0.0,1.0788762944628376e-09,8.021561906473883e-10,5.994705492023259e-10,4.078706748638808e-10,3.1332473173627686e-10,2.1597199169438268e-10,1.6415233025218287e-10,1.0918495859817089e-10,7.842235035575487e-11,5.4322303893482865e-11,3.420334095021291e-11,2.2810142796892452e-11,1.4770419349426805e-11,8.443524867196479e-12,5.212295139309279e-12,3.4290909351382427e-12,2.0113830223921386e-12,6.67873129381429e-09,6.367587223398646e-09,5.259750799127459e-09,4.588994137902258e-09,3.747645605337027e-09,3.043766823171876e-09,2.4963707574382483e-09,2.065164398918554e-09,1.654080404880621e-09,1.294591581459622e-09,1.105386865294202e-09,8.492259218145657e-10,6.202964326501484e-10,4.3885315255193766e-10,3.511726593453401e-10,2.2492172641372776e-10,1.7122712429124092e-10,1.0542686149894169e-10,7.751891052427953e-11,4.6866795638764e-11,3.014098713837743e-11
0.0,23,23.0,0.0,30.0,0.0,0.0,0.0,0.0,-13.0,0.0,2.0,0.0,0.0,0.0,1.0523690751255659e-09,8.021242891161817e-10,6.061800131838588e-10,4.364320514410803e-10,3.0943931556086115e-10,2.3914058816722843e-10,1.5978546989813305e-10,1.1575566455569963e-10,7.916071855367453e-11,5.056706254519325e-11,3.3801566238221685e-11,2.210018255503275e-11,1.4486775763595342e-11,8.842407656288725e-12,5.316270149825095e-12,3.2918561479250197e-12,1.9735899070216985e-12,6.6712530524416124e-09,5.885584606523965e-09,5.29670620069235e-09,4.367060167453901e-09,3.615799493546782e-09,3.0619585900211867e-09,2.4162195039177925e-09,2.1214614775217328e-09,1.6929537066649379e-09,1.331855398649576e-09,1.078882957353715e-09,8.312818652467641e-10,5.711752446928709e-10,5.013373910413504e-10,3.267738838897413e-10,2.508590825933654e-10,1.7472587467140755e-10,1.0996536973732532e-10,7.479171169103885e-11,4.46297320154962e-11,3.0318012207692755e-11
0.0,24,24.0,0.0,30.0,0.0,0.0,0.0,0.0,-13.0,0.0,2.0,0.0,0.0,0.0,1.1411702544739465e-09,7.83241620820097e-10,6.113675125334216e-10,4.491266798640657e-10,3.157959270392549e-10,2.378765085772583e-10,1.6183666525522427e-10,1.179494479386854e-10,7.701999439021856e-11,5.168344396572509e-11,3.285116482297704e-11,2.1895086791822713e-11,1.380309018386478e-11,8.61235583821319e-12,5.387999444409057e-12,3.4528196056712892e-12,1.9792744014066497e-12,7.0423747959630904e-09,6.158422592524604e-09,5.4224261306445765e-09,4.536223832232767e-09,3.6843199205952557e-09,3.004055984139193e-09,2.508277704812147e-09,2.001591405857658e-09,1.6791994348720139e-09,1.3783255435976965e-09,1.0237962821432182e-09,7.949507678461655e-10,6.381404788542342e-10,4.690347740197493e-10,3.2888984722236007e-10,2.321569878278242e-10,1.7187585007682887e-10,1.0780353526936282e-10,7.890480253509759e-11,4.8511672231901085e-11,3.009544810593156e-11
0.0,25,25.0,0.0,30.0,0.0,0.0,0.0,0.0,-13.0,0.0,2.0,0.0,0.0,0.0,1.0833897622648382e-09,8.138606471580695e-10,5.879965881751663e-10,4.463218487486622e-10,2.9503917749770504e-10,2.376364946935855e-10,1.586642206811919e-10,1.1963803611498373e-10,7.879928852404791e-11,5.330503761299186e-11,3.426856518486179e-11,2.1736856750237673e-11,1.3407697931930231e-11,9.013975673754465e-12,5.606863720466792e-12,3.296112508166062e-12,1.9898566145226406e-12,6.608820731000674e-09,6.156178359477288e-09,5.350282620967565e-09,4.553110178053982e-09,3.7226624217368134e-09,2.9852009445613717e-09,2.5664158492124275e-09,2.0507089896055785e-09,1.6615610639128525e-09,1.3441206102003085e-09,1.0495547839250876e-09,8.370129786556234e-10,6.192387159369009e-10,4.893842893866837e-10,3.3336404864544555e-10,2.403454705743885e-10,1.753026655745776e-10,1.1862735032969115e-10,7.713673389962616e-11,4.642074038273006e-11,2.9921499941364655e-11
0.0,26,26.0,0.0,30.0,0.0,0.0,0.0,0.0,-13.0,0.0,2.0,0.0,0.0,0.0,1.0377617383187244e-09,8.190842212502551e-10,5.934700376077822e-10,4.142334653976594e-10,3.0883071825997146e-10,2.3483931216234387e-10,1.6149090724721804e-10,1.1421218199085863e-10,7.771264579811067e-11,5.0909434654205163e-11,3.330276263127053e-11,2.206376159966435e-11,1.4410845792928015e-11,8.938350325018546e-12,5.603702840278757e-12,3.250582094786598e-12,2.0069202703582698e-12,6.94257693041652e-09,6.100914331394425e-09,5.117332519942475e-09,4.576930505700262e-09,3.6135258781493867e-09,2.8282293209764294e-09,2.543157525832819e-09,2.0637631937000933e-09,1.7834697173822832e-09,1.311137683288437e-09,1.0479550866201005e-09,8.00991509298384e-10,6.371692920804797e-10,4.612634581329656e-10,3.307906788019346e-10,2.2442630918581607e-10,1.687386560510435e-10,1.0962478354116621e-10,7.349056577398996e-11,4.6196916012654335e-11,2.971097237102455e-11
0.0,27,27.0,0.0,30.0,0.0,0.0,0.0,0.0,-13.0,0.0,2.0,0.0,0.0,0.0,1.0895908915988293e-09,7.915081909896417e-10,5.779027511816588e-10,4.5522214961092104e-10,3.223300376811866e-10,2.368212014376066e-10,1.6423346668825326e-10,1.0787917050106113e-10,7.776411567757485e-11,4.919258685085614e-11,3.30121170438368e-11,2.236426259760211e-11,1.4488680275845933e-11,8.544046238406175e-12,5.473953925187309e-12,3.3665637619325706e-12,1.8687044157692056e-12,6.550644146062326e-09,6.3370965234525565e-09,5.492531294609928e-09,4.2692236892987605e-09,3.82240455087462e-09,2.9558621163367423e-09,2.614890430208544e-09,2.0298721936662413e-09,1.748132372504125e-09,1.3108549689614231e-09,1.0103180456916993e-09,8.078181088409178e-10,5.893681281353168e-10,4.4066538594496664e-10,3.240581729626947e-10,2.4181966938250877e-10,1.6468116176254478e-10,1.2063501870268279e-10,7.574078733345475e-11,4.617115596477288e-11,2.8774062415749923e-11
0.0,28,28.0,0.0,30.0,0.0,0.0,0.0,0.0,-13.0,0.0,2.0,0.0,0.0,0.0,1.104897337626091e-09,7.955572377315617e-10,5.754651727740636e-10,4.336554327709176e-10,3.1583549994632785e-10,2.1363989409919493e-10,1.5768647149392015e-10,1.1242929527141494e-10,7.635052175341141e-11,5.0474634472776676e-11,3.5242445285583714e-11,2.1607277384770505e-11,1.512967159072627e-11,9.113376102434312e-12,5.315647067625518e-12,2.96602804874867e-12,1.9645202469696125e-12,6.579385086838274e-09,5.821731560235628e-09,5.041201283302579e-09,4.621395557923856e-09,3.649649807840796e-09,3.02030492919448e-09,2.6133198406909964e-09,2.1349988928925067e-09,1.6555579453986773e-09,1.3510997742060143e-09,1.0133007325918461e-09,8.292598903556865e-10,6.110975508777472e-10,4.459221332722729e-10,3.400589291842967e-10,2.3843341704767773e-10,1.648980005915846e-10,1.1108879581749478e-10,7.322163583879176e-11,4.7715793386441675e-11,2.9546047800001975e-11
0.0,29,29.0,0.0,30.0,0.0,0.0,0.0,0.0,-13.0,0.0,2.0,0.0,0.0,0.0,1.0443740579877306e-09,8.064870521623387e-10,6.063528518827035e-10,4.2926423660363605e-10,3.37255415035984e-10,2.4341678210823616e-10,1.644556150467404e-10,1.1443401469865974e-10,7.770288249788553e-11,5.284029837945434e-11,3.4854256972598786e-11,2.2304500594875054e-11,1.4258486383496239e-11,9.411965244737698e-12,5.508146634287494e-12,3.4758886757195487e-12,1.9348002730505675e-12,6.4323742519755955e-09,5.88405627429501e-09,5.590505786659692e-09,4.304950714359537e-09,3.736447520678445e-09,3.1798772214886654e-09,2.566887378141317e-09,2.161849095694511e-09,1.6946832028344745e-09,1.2722695207209842e-09,1.028039841258012e-09,7.990976585695846e-10,6.129148662546508e-10,4.200773738309417e-10,3.2233498735483776e-10,2.3802188913013326e-10,1.578401601149945e-10,1.1060124806256186e-10,7.450618342221803e-11,4.6517020401614324e-11,3.0098472268738155e-11
0.0,30,30.0,0.0,30.0,0.0,0.0,0.0,0.0,-13.0,0.0,2.0,0.0,0.0,0.0,1.0136902313463872e-09,7.925681802272732e-10,6.094314329216887e-10,4.5182664276237876e-10,3.322808086569076e-10,2.1889673916017331e-10,1.5996950572798525e-10,1.1071681390870961e-10,7.740450153867243e-11,5.072363305226938e-11,3.458776127356572e-11,2.3349212758590915e-11,1.4398644033560738e-11,9.42316944949364e-12,5.502543932209586e-12,3.1653188200359936e-12,1.9189828442118295e-12,6.808125973496586e-09,6.174387499989123e-09,5.214507035435613e-09,4.27928693928108e-09,3.590656955000426e-09,2.975845153816102e-09,2.5253092542080146e-09,2.1087319276404923e-09,1.6197128977247598e-09,1.3140647933134927e-09,1.0913414746208369e-09,8.211018625695508e-10,6.074485925340292e-10,4.468639984656831e-10,3.1749650294237156e-10,2.4670818744941037e-10,1.6345890568062732e-10,1.142486868794992e-10,7.357506655137639e-11,4.8960700149829313e-11,3.179026967916978e-11
0.0,31,31.0,0.0,30.0,0.0,0.0,0.0,0.0,-13.0,0.0,2.0,0.0,0.0,0.0,1.0802785293930355e-09,8.090183971513533e-10,5.78058364039762e-10,4.232914363131878e-10,3.2899066503007467e-10,2.3023948201480668e-10,1.647047726573927e-10,1.1132722267347702e-10,7.353294770467429e-11,5.2524935989793046e-11,3.29763210685931e-11,2.2066143284618658e-11,1.4419488162067892e-11,8.96528936562721e-12,5.450552549050026e-12,3.3166903170862187e-12,1.905049798397435e-12,6.741350169408362e-09,6.050882874844434e-09,5.106244344099678e-09,4.336003918282473e-09,3.6038800330326825e-09,3.1872314083063777e-09,2.593042862951732e-09,1.9952270007742524e-09,1.6487704977307965e-09,1.3113060261459413e-09,1.0640382108346698e-09,7.913498469859618e-10,5.927529839937213e-10,4.3296517750422377e-10,3.4813187859715205e-10,2.4374319317573535e-10,1.6882911993502244e-10,1.1276012029018955e-10,7.139745423196125e-11,4.579075261996925e-11,2.9417307546142364e-11
0.0,32,32.0,0.0,30.0,0.0,0.0,0.0,0.0,-13.0,0.0,2.0,0.0,0.0,0.0,1.064016331595741e-09,7.978282434429954e-10,5.951718575605522e-10,4.559175525839735e-10,3.04576091855099e-10,2.185091334726324e-10,1.633447128116959e-10,1.1169017401700572e-10,7.98587532102672e-11,5.381954940193564e-11,3.549799824814812e-11,2.2514876487158857e-11,1.4535099004289512e-11,8.689415235291003e-12,5.33901265372321e-12,3.3346240093009304e-12,1.9951260454049866e-12,6.740062521674555e-09,5.945999388629002e-09,5.4492135462321476e-09,4.2990191507451835e-09,3.4929646463283472e-09,3.0075398771764178e-09,2.3702038345543488e-09,2.0305705598698356e-09,1.6953496770674073e-09,1.3556172635772936e-09,9.892165660460482e-10,8.153235237150566e-10,6.016807558586586e-10,4.6404382598998197e-10,3.3813028056104006e-10,2.446613794839978e-10,1.6840966397144893e-10,1.0885481215466537e-10,7.539212049019462e-11,4.893111246314086e-11,3.143928104753796e-11
0.0,33,33.0,0.0,30.0,0.0,0.0,0.0,0.0,-13.0,0.0,2.0,0.0,0.0,0.0,1.080727304534451e-09,8.181843623777486e-10,6.056238044199066e-10,4.3363774250961136e-10,3.1660812813278897e-10,2.3085046620510435e-10,1.5740854762390516e-10,1.1427045718905598e-10,7.823329442979581e-11,4.9555163914423055e-11,3.428062225307832e-11,2.2338085762681586e-11,1.4265079978456917e-11,9.162482948212208e-12,5.52706909661476e-12,3.3166333349415838e-12,1.9507647602971255e-12,6.733829584320347e-09,5.689133487646483e-09,5.317211534356026e-09,4.398064608551294e-09,3.7141773757485018e-09,3.049967079453442e-09,2.580999580170854e-09,2.031307279034652e-09,1.649212832871049e-09,1.3743129251428509e-09,1.0743142150261832e-09,7.94532363390582e-10,5.894042169183811e-10,4.713243050758635e-10,3.5128720890929077e-10,2.298154517642971e-10,1.6294750716343797e-10,1.1358674073625888e-10,7.598306576769533e-11,4.858555276412339e-11,2.9395531632021127e-11
0.0,34,34.0,0.0,30.0,0.0,0.0,0.0,0.0,-13.0,0.0,2.0,0.0,0.0,0.0,1.0487460812623221e-09,7.695254868959906e-10,5.710987971992386e-10,4.4073546984214556e-10,3.3116633818509303e-10,2.0877638369283605e-10,1.623100733812421e-10,1.136018552138485e-10,7.391678335309851e-11,5.21795271013045e-11,3.504193316000347e-11,2.1820703470905978e-11,1.447735809626179e-11,8.936925922297693e-12,5.331681361523625e-12,3.2754214454569595e-12,2.0192888053857815e-12,6.801825407293039e-09,6.123168051890758e-09,5.341218817915345e-09,4.372130540622722e-09,3.6772343118352744e-09,3.2357510607514285e-09,2.575246254217627e-09,2.118596546856195e-09,1.6492975688877593e-09,1.3903808632712969e-09,1.0516290028512758e-09,7.936840149935115e-10,6.227033581910506e-10,4.432975936922264e-10,3.3695097112306915e-10,2.5390830483695815e-10,1.655843168927533e-10,1.1383407339807686e-10,7.401993798613578e-11,4.661741324931912e-11,3.080673173927172e-11
0.0,35,35.0,0.0,30.0,0.0,0.0,0.0,0.0,-13.0,0.0,2.0,0.0,0.0,0.0,1.0929778711350764e-09,7.963699928088052e-10,5.824674040694132e-10,4.338375555704413e-10,3.1774551238829896e-10,2.3483989922176414e-10,1.658958717571184e-10,1.1232513457994348e-10,7.646724017085721e-11,5.13005277195298e-11,3.534263788921355e-11,2.288503455362212e-11,1.4695382048829284e-11,8.498160698081158e-12,5.213714011104829e-12,3.2038210447206064e-12,1.9198664910897203e-12,6.2030760550907065e-09,5.889552317393146e-09,5.35143596459145e-09,4.4879495140676405e-09,3.801839331912034e-09,3.002312367599895e-09,2.6721518496876747e-09,2.090239230107194e-09,1.6709893083005662e-09,1.3636364273093447e-09,1.0803788919428909e-09,7.857630498388932e-10,6.252626595469364e-10,4.749614163978504e-10,3.394861422105131e-10,2.459856627943117e-10,1.6106578739986846e-10,1.154393528784962e-10,7.814157342149549e-11,4.7292093774822075e-11,2.7540506981203618e-11
0.0,36,36.0,0.0,30.0,0.0,0.0,0.0,0.0,-13.0,0.0,2.0,0.0,0.0,0.0,1.1170683174663827e-09,8.171325154800613e-10,5.578070407243198e-10,4.3206359731756956e-10,3.046540324103125e-10,2.2743894496182414e-10,1.6010509383913563e-10,1.1457688859564332e-10,7.949144029127607e-11,5.15561594919919e-11,3.3848124425884376e-11,2.231146692248833e-11,1.2974571644661745e-11,8.93656216919399e-12,5.4271605913068286e-12,3.2326902933158473e-12,1.9708973394768325e-12,6.930260573224587e-09,6.449847270477867e-09,4.974222398824695e-09,4.82703766682356e-09,3.7428693648442885e-09,3.055012655794412e-09,2.446903243088041e-09,2.08190678911997e-09,1.6798433873211537e-09,1.345969052484033e-09,1.0736531999212233e-09,8.098317265854472e-10,5.933638439338431e-10,5.047081545291255e-10,3.0614270130909787e-10,2.456718168229469e-10,1.6529790175201451e-10,1.1096629497324463e-10,7.018687435564744e-11,4.8351815161841254e-11,3.0848012188071776e-11
0.0,37,37.0,0.0,30.0,0.0,0.0,0.0,0.0,-13.0,0.0,2.0,0.0,0.0,0.0,1.0174826412270956e-09,7.715319379607918e-10,5.815519129126847e-10,4.282342334518748e-10,3.370835329623979e-10,2.2834099704808865e-10,1.7221884694212635e-10,1.1342108890174446e-10,7.745560989541934e-11,5.2088364925360706e-11,3.5019295934677715e-11,2.2327600517759183e-11,1.4206650941874392e-11,8.944964694955657e-12,5.357354717442211e-12,3.2150898113220242e-12,1.9081129025818113e-12,6.443027188135309e-09,6.0565850892817304e-09,5.2100899277066716e-09,4.359786977368644e-09,3.523288916902348e-09,3.143504474302296e-09,2.5515851871449383e-09,2.04229085320297e-09,1.590042216757524e-09,1.3649030218851458e-09,1.0641532681772039e-09,8.15451344517414e-10,6.419994086847476e-10,4.5338967839109064e-10,3.4656481518693675e-10,2.357431246922382e-10,1.7442585993334891e-10,1.1179260463886864e-10,7.472651015778648e-11,4.761035768303028e-11,2.8650477010902767e-11
0.0,38,38.0,0.0,30.0,0.0,0.0,0.0,0.0,-13.0,0.0,2.0,0.0,0.0,0.0,1.0484539650620084e-09,8.168395624433432e-10,5.901913909726653e-10,4.616505535967576e-10,3.1730267783168745e-10,2.3149973624380275e-10,1.6757945494853425e-10,1.1258743629772642e-10,7.403499854263302e-11,5.129023944397852e-11,3.4590618405616345e-11,2.3095167761197367e-11,1.4816372354124495e-11,8.65945218389637e-12,5.260192399640058e-12,3.2449882753456626e-12,1.9231265859777806e-12,6.870830633202413e-09,6.096390412111285e-09,5.08184907294989e-09,4.529106994506249e-09,3.7109625476717547e-09,2.98515184232522e-09,2.583737188916755e-09,1.9951587775247905e-09,1.6954240153268667e-09,1.2681051352238229e-09,9.887679580230382e-10,8.319806985230336e-10,6.321968792508538e-10,4.705315930338898e-10,3.43572162670551e-10,2.3585269929888213e-10,1.6483989774351363e-10,1.1689012800480415e-10,7.304064132845897e-11,4.786370782777901e-11,2.8722775172450302e-11
0.0,39,39.0,0.0,30.0,0.0,0.0,0.0,0.0,-13.0,0.0,2.0,0.0,0.0,0.0,1.0627377197588305e-09,7.915363222149712e-10,6.1594699130962e-10,4.565764942824212e-10,3.2307486955818353e-10,2.1514118984511327e-10,1.611585446958872e-10,1.131009768005633e-10,7.623036081405006e-11,5.257479877017393e-11,3.444999905962372e-11,2.1952758698003165e-11,1.3556646633689906e-11,8.802299200726751e-12,5.634831979622231e-12,3.2458611706825844e-12,1.818003889602404e-12,6.836572696277333e-09,6.1061558819761715e-09,5.493766937434259e-09,4.381694988512867e-09,3.581561189838829e-09,3.0857009178996637e-09,2.5133122219926444e-09,2.0643902348819357e-09,1.6753671689035835e-09,1.383887508937045e-09,1.0435616353952215e-09,8.023071206579903e-10,6.186637445334752e-10,4.365776894844992e-10,3.4970135964991375e-10,2.3875714909175086e-10,1.662936704093624e-10,1.0728973386211498e-10,7.274750471602429e-11,5.033069455143349e-11,2.9098210298174615e-11
0.0,40,40.0,0.0,30.0,0.0,0.0,0.0,0.0,-13.0,0.0,2.0,0.0,0.0,0.0,1.0772850044413213e-09,7.881290530619898e-10,6.074746428097043e-10,4.513508945184024e-10,3.2110475197961094e-10,2.333429742713777e-10,1.6123313796834758e-10,1.1807408460182559e-10,7.234956231932177e-11,4.803026054770915e-11,3.251512421073401e-11,2.0672449411536546e-11,1.4922070808532092e-11,9.006255861839048e-12,5.321329131580978e-12,3.1528137490973132e-12,1.882768277255924e-12,6.602227394916395e-09,6.27732596815231e-09,5.185603547722753e-09,4.3912865571928365e-09,3.7572883039091954e-09,3.0329818296446474e-09,2.565463602747799e-09,2.085074794286941e-09,1.6914158763547881e-09,1.2960474159005377e-09,1.0352990229691786e-09,7.960777216281069e-10,6.333236055673947e-10,4.797741487402649e-10,3.3278743611906504e-10,2.438094004095232e-10,1.5620018433478981e-10,1.1003692570578601e-10,7.235894530261613e-11,4.874024694691553e-11,2.8927157194936182e-11
0.0,41,41.0,0.0,30.0,0.0,0.0,0.0,0.0,-13.0,0.0,2.0,0.0,0.0,0.0,1.0359752903805799e-09,7.613774748666622e-10,6.012310617946649e-10,4.0844778133337695e-10,3.0237359987692154e-10,2.3493573699471357e-10,1.6941391795824228e-10,1.1253226885785357e-10,7.392868493279994e-11,4.997574475064549e-11,3.420526296988778e-11,2.2576151593120287e-11,1.4247065288012306e-11,8.903968884091142e-12,5.540723780786826e-12,3.2153978993857443e-12,1.9479014387945488e-12,6.7176262259815976e-09,6.0481397422037074e-09,5.124979453427965e-09,4.560022513433132e-09,3.710573778312045e-09,3.1131135317063756e-09,2.5561112284587926e-09,2.092729108413511e-09,1.66867915177502e-09,1.3937089593423387e-09,1.0435899203241634e-09,8.631790933730278e-10,5.977863172044671e-10,4.699540050124066e-10,3.2505236016017236e-10,2.3433787400580514e-10,1.7712418483282502e-10,1.1568550057220016e-10,7.35908832847006e-11,4.888589761261354e-11,3.118820820524883e-11
0.0,42,42.0,0.0,30.0,0.0,0.0,0.0,0.0,-13.0,0.0,2.0,0.0,0.0,0.0,1.1130848145982449e-09,7.487475822146808e-10,5.87620082012759e-10,4.2572314288864134e-10,3.148616787189106e-10,2.3196780077492746e-10,1.6663324487605335e-10,1.1497813443106674e-10,7.48181146460033e-11,5.1478697530135366e-11,3.2783220472033175e-11,2.268988627162154e-11,1.4374608707972316e-11,9.146490857763171e-12,5.3382815783159694e-12,3.1335881872388617e-12,1.9843965084217588e-12,6.3978212136054466e-09,5.98301330891873e-09,5.298300417094093e-09,4.589373439841625e-09,3.887529536506816e-09,2.9575570116667842e-09,2.5298604575472848e-09,2.1071390605971903e-09,1.6586976090412296e-09,1.2887639015651854e-09,1.0493621536796787e-09,8.001512948602672e-10,6.319488844900747e-10,4.575194552134466e-10,3.2487227958816276e-10,2.4167273679541365e-10,1.6560170919029934e-10,1.0389382655995802e-10,7.125617677765397e-11,4.846493641234364e-11,2.800460558061667e-11
0.0,43,43.0,0.0,30.0,0.0,0.0,0.0,0.0,-13.0,0.0,2.0,0.0,0.0,0.0,1.125521054649773e-09,7.892683514997043e-10,5.84352918610468e-10,4.406007536166518e-10,3.1704707805822016e-10,2.345792514830971e-10,1.617261590422038e-10,1.1273544941085406e-10,7.802009567557173e-11,5.089028025486883e-11,3.410050839526389e-11,2.2960722319761436e-11,1.4784630078080754e-11,9.133667323211534e-12,5.8240607409401005e-12,3.261794034541504e-12,1.8916602982300966e-12,6.831439862741766e-09,5.939329681055703e-09,5.166678649313428e-09,4.36702677413037e-09,3.753960420104163e-09,2.991187978971171e-09,2.6653526493630243e-09,2.0444682117097134e-09,1.6939187348787082e-09,1.3336829783089017e-09,1.007281326099592e-09,7.912088051431723e-10,5.803003503143013e-10,4.3507281186374223e-10,3.3037577241449293e-10,2.415699121685442e-10,1.6844623804306414e-10,1.1226732710776618e-10,7.20212029941527e-11,4.645463596519647e-11,2.8249212716230008e-11
0.0,44,44.0,0.0,30.0,0.0,0.0,0.0,0.0,-13.0,0.0,2.0,0.0,0.0,0.0,1.0899497038314413e-09,7.801509929034193e-10,5.782518797599856e-10,4.239772416951399e-10,3.164359360675829e-10,2.291396792084059e-10,1.605118646952827e-10,1.1172447211032012e-10,7.609739721213045e-11,5.3890372822466286e-11,3.4870769616302415e-11,2.3606927890951294e-11,1.4700199603045182e-11,9.007562895737992e-12,5.5565171561271455e-12,3.2770173842916857e-12,1.964577856652716e-12,6.72448753922128e-09,5.872337275786687e-09,5.279636940046582e-09,4.674978122625036e-09,3.7208886306414052e-09,3.1433552274591165e-09,2.437158372353714e-09,2.066976972102068e-09,1.7085665479010043e-09,1.2675824772838629e-09,1.0291422755642845e-09,8.243572575744082e-10,6.072426536623745e-10,4.892312694264255e-10,3.2544700833751924e-10,2.350653665738929e-10,1.632580534290192e-10,1.164168252073178e-10,7.383381911962011e-11,4.6997534931129186e-11,3.118787894921901e-11
0.0,45,45.0,0.0,30.0,0.0,0.0,0.0,0.0,-13.0,0.0,2.0,0.0,0.0,0.0,1.0537838078799535e-09,7.671299035046632e-10,5.779939822867036e-10,4.25223275719185e-10,3.060476936091382e-10,2.328975725106775e-10,1.6441878385338178e-10,1.1637359922538313e-10,7.840257260662742e-11,5.090543242482605e-11,3.439764152353678e-11,2.2972401632287272e-11,1.4456018964650172e-11,8.73760999000818e-12,5.449285400873482e-12,3.343195040164499e-12,1.9187512968805077e-12,6.595835997523676e-09,5.984897103978868e-09,5.278453640628591e-09,4.291194412805089e-09,3.6214232913478772e-09,3.034626581062067e-09,2.598693336395693e-09,2.0863131854469977e-09,1.740600746901858e-09,1.3291168848378926e-09,1.0404236919620212e-09,8.196441136985752e-10,6.082333115259334e-10,4.771963621020181e-10,3.332308265040682e-10,2.249087207965892e-10,1.6462114751628565e-10,1.0720220646330776e-10,7.685754476636894e-11,4.531634922599433e-11,3.137429602443224e-11
0.0,46,46.0,0.0,30.0,0.0,0.0,0.0,0.0,-13.0,0.0,2.0,0.0,0.0,0.0,1.1439541232483886e-09,7.766547816119406e-10,5.972369034936416e-10,4.503219430970727e-10,3.3436343175838813e-10,2.35060547469442e-10,1.5419733295106493e-10,1.1497760895550984e-10,7.39690209996063e-11,4.9551696783345646e-11,3.439236655755417e-11,2.2639318702812084e-11,1.43928545666884e-11,8.694663425838728e-12,5.434022018098543e-12,3.2041688206344467e-12,1.8291524636273583e-12,6.788757053591563e-09,5.821594325279751e-09,5.564154064095738e-09,4.382677657466043e-09,3.7011962665966987e-09,3.003592650166164e-09,2.494770143416916e-09,2.1979794383298552e-09,1.7176335983555607e-09,1.2767972091901746e-09,1.0404077157855819e-09,8.344252033927435e-10,6.302688716920933e-10,4.735787073346433e-10,3.6130789749627997e-10,2.5030573352960753e-10,1.5925389460786417e-10,1.1565415289876454e-10,7.273692187183036e-11,4.488729574366195e-11,2.970380648002477e-11
0.0,47,47.0,0.0,30.0,0.0,0.0,0.0,0.0,-13.0,0.0,2.0,0.0,0.0,0.0,1.0598308094350474e-09,8.561656070472392e-10,5.977161005782476e-10,4.3262715268356204e-10,3.138275888240498e-10,2.3515354049534094e-10,1.614808113931096e-10,1.0984600307199584e-10,7.830416594051994e-11,4.971659770278011e-11,3.4382459249375e-11,2.3500345567666995e-11,1.439765817488654e-11,8.715072229226823e-12,5.909027126390371e-12,3.3794806417787384e-12,2.003888540211303e-12,6.841930334900995e-09,5.807957958842421e-09,5.430087366903964e-09,4.5126931544265464e-09,3.7023845594583624e-09,2.9574865968231467e-09,2.5112835583886623e-09,1.9954796791818196e-09,1.7200907929186828e-09,1.3355571169125216e-09,1.0603984837864292e-09,7.667514957098797e-10,5.908849315470568e-10,4.5440746725605143e-10,3.3879571676095916e-10,2.3832515890604495e-10,1.6872161002519052e-10,1.0705674924544622e-10,7.197178330423247e-11,4.9632478441305707e-11,2.974190074008795e-11
0.0,48,48.0,0.0,30.0,0.0,0.0,0.0,0.0,-13.0,0.0,2.0,0.0,0.0,0.0,1.1231218254074269e-09,7.781872705427369e-10,5.725682642433757e-10,4.196026120554998e-10,3.3006509498127826e-10,2.3245060892044416e-10,1.5641487064184608e-10,1.1505048085892721e-10,7.639826817497386e-11,5.240332616874018e-11,3.370942806232411e-11,2.26995299137518e-11,1.4492999039933027e-11,9.322046372133705e-12,5.2526433317616534e-12,3.2043322888052418e-12,1.8859006328240512e-12,6.854974903953182e-09,5.67841908255676e-09,5.274618926963162e-09,4.661793834828528e-09,3.478746710512922e-09,3.104752298403182e-09,2.6000679366922007e-09,2.0995059700391368e-09,1.6728856718356351e-09,1.313505878839009e-09,9.858886172822593e-10,8.029709713036833e-10,6.368246962525393e-10,4.3905318842831475e-10,3.5957148802381604e-10,2.3819833137169093e-10,1.6133611096891537e-10,1.1476778526099937e-10,7.441944933072554e-11,4.748719948179309e-11,3.004783214485538e-11
0.0,49,49.0,0.0,30.0,0.0,0.0,0.0,0.0,-13.0,0.0,2.0,0.0,0.0,0.0,1.0523657829527798e-09,7.812512026664214e-10,6.06114116501143e-10,4.5053306302071696e-10,2.9491496586128916e-10,2.3078605513653897e-10,1.5878842914786354e-10,1.124772112751645e-10,7.971521963967698e-11,5.3784722132062085e-11,3.483314376213024e-11,2.3053662310499095e-11,1.4712325227773647e-11,8.267189939333017e-12,4.996523790145481e-12,3.238320133001961e-12,1.9825520094335742e-12,6.2412624055332654e-09,6.484842182567524e-09,5.034605971262462e-09,4.404440775248378e-09,3.8172910156589555e-09,2.857410778635618e-09,2.5776077749603953e-09,2.1530585470230394e-09,1.7104780272597274e-09,1.2098381746140421e-09,1.1224691453951003e-09,7.717558758940896e-10,5.71542331543074e-10,4.687449794121157e-10,3.0999773347261173e-10,2.459071874900199e-10,1.7215581430015647e-10,1.1091446771276792e-10,7.379937571723206e-11,4.78873340086127e-11,2.963345186379991e-11
0.0,50,50.0,0.0,30.0,0.0,0.0,0.0,0.0,-13.0,0.0,2.0,0.0,0.0,0.0,1.0976813609227327e-09,8.106244785018508e-10,6.008603557667738e-10,4.1957409967252136e-10,3.2268119540652723e-10,2.4029908242331207e-10,1.6203493441667765e-10,1.1622513536380855e-10,7.679752312112076e-11,5.1414112247083065e-11,3.4325280785106577e-11,2.2596687139785383e-11,1.4230678165053604e-11,8.752470373711974e-12,5.543056920999273e-12,3.3047661091297944e-12,1.91595656734511e-12,6.682156717546939e-09,5.924529811276535e-09,5.421170361710544e-09,4.500998093683036e-09,3.4033785548740214e-09,2.9457074644271877e-09,2.5194314496725902e-09,2.0481642582945286e-09,1.5945156480003821e-09,1.3823505696257433e-09,1.0225001251485442e-09,8.171821479915308e-10,6.225391802751465e-10,4.796742363144498e-10,3.453688532683778e-10,2.4484539962423203e-10,1.6667715985925176e-10,1.0801758452851322e-10,7.46181046956351e-11,4.979118663229288e-11,3.099633975042012e-11
0.0,51,51.0,0.0,30.0,0.0,0.0,0.0,0.0,-13.0,0.0,2.0,0.0,0.0,0.0,1.1182913860111054e-09,8.429958269765472e-10,5.933603414560336e-10,4.333593232650546e-10,3.199231081034128e-10,2.188208431716992e-10,1.643653801647699e-10,1.1508303854230695e-10,7.969029286509397e-11,5.351617665088134e-11,3.3423051365995384e-11,2.2211324099867168e-11,1.3872727737695466e-11,8.880684349645784e-12,5.754901588770972e-12,3.2077389420108744e-12,1.8705828942870698e-12,6.595752127562019e-09,6.173300150167155e-09,5.2079163133985185e-09,4.563742759735045e-09,3.8228849178711654e-09,3.0017169806745398e-09,2.57299654250574e-09,2.1882225194992234e-09,1.661666324745854e-09,1.3143394819847214e-09,1.0500797228904149e-09,8.030296227392685e-10,6.278516616821826e-10,4.542009436676192e-10,3.400566105083918e-10,2.259876587770413e-10,1.6067850582107392e-10,1.1016442546901788e-10,7.461757758716904e-11,4.7177580252512764e-11,2.7825464403583658e-11
0.0,52,52.0,0.0,30.0,0.0,0.0,0.0,0.0,-13.0,0.0,2.0,0.0,0.0,0.0,1.0471891424060205e-09,8.253826948647783e-10,5.877506948527196e-10,4.1374229390165123e-10,3.1372935009708444e-10,2.366179499958812e-10,1.5856914207861885e-10,1.0960728890580397e-10,7.666233144298102e-11,5.219775680302342e-11,3.408235527426797e-11,2.2033638687142822e-11,1.4112749856978927e-11,8.940984867317178e-12,5.584678050390622e-12,3.357950733510753e-12,1.9171151875770654e-12,6.439700910385048e-09,6.149144642295642e-09,5.325313272701842e-09,4.320143083617536e-09,3.5806753000527926e-09,3.1200215272675322e-09,2.614548331781916e-09,2.1118039463222563e-09,1.7739602089053644e-09,1.3537222579079623e-09,1.0318766480736243e-09,8.484328071494453e-10,6.201070229237415e-10,4.5555126593428876e-10,3.334859139447561e-10,2.3597762852786613e-10,1.5998342499642671e-10,1.1199809795747353e-10,7.580712095849767e-11,4.6103696458768335e-11,2.8737745454195184e-11
0.0,53,53.0,0.0,30.0,0.0,0.0,0.0,0.0,-13.0,0.0,2.0,0.0,0.0,0.0,1.0454018853423266e-09,8.305389890285464e-10,5.957878775113474e-10,4.494196509470129e-10,3.126293591921947e-10,2.4001747865663543e-10,1.5773293759304302e-10,1.1414069098053381e-10,7.654459517875538e-11,5.329593224469334e-11,3.54397477710242e-11,2.2408127223744095e-11,1.487011086763674e-11,8.612069687519907e-12,5.530205834823447e-12,3.22956297366315e-12,1.967345767385596e-12,6.752715594808758e-09,5.907981812010277e-09,5.065498735582257e-09,4.603780265697887e-09,3.6073883929037476e-09,3.1552048131882293e-09,2.4690534914495504e-09,2.0600526526408053e-09,1.6339488822209674e-09,1.35298395551089e-09,1.0555714295173168e-09,7.80450692458857e-10,5.908252352221517e-10,4.6399959279726865e-10,3.2602783847355807e-10,2.3647082379323315e-10,1.6448557336602268e-10,1.0715325295557807e-10,7.858888586585891e-11,4.625664499491502e-11,2.8075250097539822e-11
0.0,54,54.0,0.0,30.0,0.0,0.0,0.0,0.0,-13.0,0.0,2.0,0.0,0.0,0.0,1.064597890482725e-09,8.362582704437818e-10,6.044770026253344e-10,4.3299755769485044e-10,3.045251494101882e-10,2.2208020076226734e-10,1.5866138470439384e-10,1.1298363053922451e-10,7.529619439287286e-11,5.056050565877784e-11,3.264083961245103e-11,2.141148110826611e-11,1.3720734453598167e-11,8.763589740260958e-12,5.373431878065891e-12,3.210524665133341e-12,1.791650512335485e-12,6.9120498016729325e-09,5.9942004709871355e-09,5.160811078085447e-09,4.529574203636201e-09,3.761690213957164e-09,3.083336857363114e-09,2.434495118274184e-09,2.1364933052921603e-09,1.6738782702935217e-09,1.3584107167795309e-09,1.0198713350921886e-09,8.492558786206941e-10,6.443159700230167e-10,4.456583800305354e-10,3.3310667452431994e-10,2.382665362851861e-10,1.590150619557506e-10,1.091055826440726e-10,7.41642254764903e-11,4.707612171146109e-11,2.8800486574907256e-11
0.0,55,55.0,0.0,30.0,0.0,0.0,0.0,0.0,-13.0,0.0,2.0,0.0,0.0,0.0,1.0464752460571117e-09,8.154297075034738e-10,5.99429697052554e-10,4.3749718450372737e-10,3.2390421588749247e-10,2.4151428450261215e-10,1.4968300561552093e-10,1.1071911899783795e-10,7.582788803526729e-11,4.9720069619920505e-11,3.506682258255388e-11,2.1882489987248903e-11,1.3316997759699324e-11,9.706820396631282e-12,5.338220302007572e-12,3.205253852978136e-12,2.00118651155346e-12,6.611594259607685e-09,6.071903290964229e-09,5.3241806424251696e-09,4.304370601785101e-09,3.6808870827122453e-09,3.0580683634425922e-09,2.499265330199589e-09,2.099272479946782e-09,1.6290478429444128e-09,1.3110681253577973e-09,1.0695572577015537e-09,8.137020143755391e-10,6.177201853170915e-10,4.658148160484849e-10,3.4161310042418223e-10,2.466894749676291e-10,1.6398075739546787e-10,1.121185466490257e-10,7.182048235255593e-11,4.5881812772491586e-11,2.8551147820555055e-11
0.0,56,56.0,0.0,30.0,0.0,0.0,0.0,0.0,-13.0,0.0,2.0,0.0,0.0,0.0,1.0621113256899079e-09,8.066511516028233e-10,6.01990823684723e-10,4.459250080477117e-10,3.1479033953467205e-10,2.3288088453381304e-10,1.6922239814952418e-10,1.141397288718978e-10,7.741958772753775e-11,5.101309715874072e-11,3.427149998707615e-11,2.2418873610598766e-11,1.4193493982280907e-11,8.929796549441552e-12,5.195661454021195e-12,3.2763935746267044e-12,1.8423154122932634e-12,6.84238948882311e-09,5.998663523926848e-09,5.401651652174196e-09,4.469449121406491e-09,3.83986778864571e-09,3.064720347596593e-09,2.501712582821496e-09,1.9675631855291704e-09,1.69272727832072e-09,1.2731870794466617e-09,1.0684120961740724e-09,8.299255348234409e-10,6.154584200026134e-10,4.5044606847742834e-10,3.44341505272196e-10,2.355269019432518e-10,1.691849327711414e-10,1.1697911247913403e-10,7.347383205455044e-11,4.97311447693419e-11,3.019298661065347e-11
0.0,57,57.0,0.0,30.0,0.0,0.0,0.0,0.0,-13.0,0.0,2.0,0.0,0.0,0.0,1.0852705395657027e-09,8.106578127079811e-10,5.963846269987308e-10,4.1480226193038255e-10,2.997669280938817e-10,2.412740995004593e-10,1.5892182306935967e-10,1.1050746628311373e-10,7.555424939601178e-11,5.006089942137858e-11,3.632894514606358e-11,2.246682835216741e-11,1.4078604548338372e-11,8.642341233652016e-12,5.084299521885634e-12,3.2781082439734967e-12,1.8829263484860178e-12,6.467423381561995e-09,6.137147046791393e-09,5.02148042598449e-09,4.3411962086394824e-09,3.726819869348453e-09,3.0276938354849745e-09,2.53612631933709e-09,2.0178520639346753e-09,1.717517566859248e-09,1.4203191574676493e-09,1.0342596634848224e-09,7.575974426311535e-10,5.984690730196642e-10,4.5496102165029733e-10,3.32069294857241e-10,2.383005181966336e-10,1.5859555664510996e-10,1.0868703488824772e-10,7.07641780385306e-11,4.956919101368904e-11,3.025327026130967e-11
0.0,58,58.0,0.0,30.0,0.0,0.0,0.0,0.0,-13.0,0.0,2.0,0.0,0.0,0.0,1.0657200595948635e-09,8.335144827684213e-10,5.75306565333138e-10,4.431935152277183e-10,3.215397886455788e-10,2.2802871465568173e-10,1.6635495463966035e-10,1.1565804395748469e-10,7.554021077150428e-11,5.1082226231867035e-11,3.401504422066631e-11,2.30332161414723e-11,1.3893165833483354e-11,8.7444333834961e-12,5.326200432285989e-12,3.3395105324162127e-12,1.9337147312171644e-12,6.76795121670232e-09,6.269121153003341e-09,4.911419762974868e-09,4.479018445565645e-09,3.909128454429414e-09,2.9702174300578204e-09,2.6350716902313723e-09,1.9620303784366867e-09,1.7407894809627573e-09,1.3444878022165788e-09,1.0730173768919954e-09,7.815970682725132e-10,5.92086856280506e-10,4.3347729054426237e-10,3.2403983629092995e-10,2.434739491844803e-10,1.7236253094492312e-10,1.0911860428378674e-10,7.389085049112847e-11,4.5951478216246396e-11,2.8656622555477507e-11
0.0,59,59.0,0.0,30.0,0.0,0.0,0.0,0.0,-13.0,0.0,2.0,0.0,0.0,0.0,1.0471461990273943e-09,8.207363920366063e-10,5.594396041444103e-10,4.313656067777932e-10,3.1396801701664105e-10,2.3171012446541732e-10,1.6730065826189946e-10,1.099005841579625e-10,8.023249157763447e-11,5.170159221486272e-11,3.288331908751796e-11,2.1063072695559345e-11,1.4030765457581674e-11,8.577582848220358e-12,5.25456583799008e-12,3.306650875923406e-12,1.9878915926414877e-12,6.66856672526165e-09,6.054977990892074e-09,5.2125065275640435e-09,4.514723788494419e-09,3.6349232125832293e-09,3.1091963703018177e-09,2.6160167333808856e-09,2.0697200125857004e-09,1.6621084941665903e-09,1.3852559121592468e-09,1.0728927798941076e-09,8.26274381829286e-10,6.223126589343528e-10,4.620707472158522e-10,3.3680032015459535e-10,2.432054654960578e-10,1.6841059303836132e-10,1.1083103344651151e-10,7.425857387418979e-11,4.908153107720898e-11,3.0951802592522184e-11
0.0,60,60.0,0.0,30.0,0.0,0.0,0.0,0.0,-13.0,0.0,2.0,0.0,0.0,0.0,1.1299927282035303e-09,7.590445386460953e-10,6.160477944900545e-10,4.4432210387609124e-10,3.129848101976863e-10,2.3677466881416723e-10,1.559141236570143e-10,1.1048241084766034e-10,7.584188609039415e-11,5.150109047092991e-11,3.4460316248557445e-11,2.1663882054855217e-11,1.3590001025030462e-11,9.2839895410005e-12,5.8098599827450525e-12,3.31263200391007e-12,1.9028291731194843e-12,6.4992413446541095e-09,6.001468274914379e-09,5.404653195173747e-09,4.603091338160965e-09,3.7497762188471e-09,2.9710305106537947e-09,2.4585194357399565e-09,2.033419858660324e-09,1.6609954417797764e-09,1.4186585988132919e-09,1.0898871889996125e-09,7.820653339424264e-10,6.09170196340358e-10,4.4017918994988266e-10,3.3352767453484384e-10,2.4213872061338466e-10,1.633765434608106e-10,1.1134680822777713e-10,7.386974509949314e-11,4.601655499340465e-11,2.968794403219118e-11
0.0,61,61.0,0.0,30.0,0.0,0.0,0.0,0.0,-13.0,0.0,2.0,0.0,0.0,0.0,1.0672234249076265e-09,7.991222464883457e-10,5.777097670143616e-10,4.337572984495684e-10,3.365834528855395e-10,2.24713128937539e-10,1.592452092697246e-10,1.0566384124540309e-10,7.673909331495585e-11,5.201562609294433e-11,3.56100692938842e-11,2.303986655028602e-11,1.4036545386221958e-11,8.615224419276132e-12,5.230440124961008e-12,3.2896357115442946e-12,1.8431670887748914e-12,6.849659839399692e-09,5.63511806118046e-09,5.2881738522424725e-09,4.200205553820283e-09,3.934327992566575e-09,3.07964456382241e-09,2.5560392517176806e-09,2.12358744939005e-09,1.67397807944704e-09,1.3104443170754096e-09,1.0681801307118858e-09,8.917263637011003e-10,6.30165125069916e-10,4.670596293026172e-10,3.1808656874722225e-10,2.3393344467445224e-10,1.6898016653177082e-10,1.085351379507854e-10,7.432200652957848e-11,4.930949731376206e-11,2.9838339032098435e-11
0.0,62,62.0,0.0,30.0,0.0,0.0,0.0,0.0,-13.0,0.0,2.0,0.0,0.0,0.0,1.064660725846574e-09,7.912212804896974e-10,5.787746679233252e-10,4.647039038850008e-10,3.204695052993395e-10,2.2268848701962232e-10,1.5830140462726858e-10,1.1001774516577087e-10,7.379820730448112e-11,5.154035633299923e-11,3.3392222895309564e-11,2.1811281113722907e-11,1.4112865093616991e-11,8.842242993348115e-12,5.210025538335432e-12,3.21288010939457e-12,1.9330651278499668e-12,6.984394706187225e-09,5.995972801462238e-09,5.337451123793728e-09,4.59855409943596e-09,3.781066544969523e-09,3.115320222804862e-09,2.4710726270710537e-09,2.0572960930982952e-09,1.6692953322293958e-09,1.3426716151051913e-09,1.0417659621773894e-09,8.157129368727115e-10,6.367011198475851e-10,4.6057780565538504e-10,3.1595837813277494e-10,2.3898256118464637e-10,1.6761253630253401e-10,1.1578955335437125e-10,7.399947214558504e-11,4.6426439948927886e-11,3.039143779849813e-11
0.0,63,63.0,0.0,30.0,0.0,0.0,0.0,0.0,-13.0,0.0,2.0,0.0,0.0,0.0,1.0697414094989094e-09,8.504699427688407e-10,5.885600626227862e-10,4.3819335816708904e-10,3.3868488483396527e-10,2.3405556111208874e-10,1.6596530044512848e-10,1.1150038339020957e-10,7.588531382745707e-11,5.185249961997492e-11,3.575180948244614e-11,2.1683956673197716e-11,1.4665472386224674e-11,8.782658119675091e-12,5.594355735931158e-12,3.133735720083371e-12,1.9632241039711008e-12,6.8187589534460715e-09,6.103025878226611e-09,5.09994369910385e-09,4.43821136046018e-09,3.639737463691348e-09,3.1132255354204572e-09,2.4655234379338617e-09,2.0447965784264513e-09,1.6015090884392329e-09,1.3663895022435975e-09,9.910040841405991e-10,8.100036469383106e-10,6.052959657440716e-10,4.692597398532302e-10,3.5395099317046373e-10,2.35948440766998e-10,1.6505803017722462e-10,1.1413469358396943e-10,7.081875875651313e-11,4.894503825709387e-11,2.986174354175924e-11
