Line_number,Fiducial,Easting,Northing,Height,Elevation,tx_pitch,tx_roll,tx_yaw,txrx_dx,txrx_dy,txrx_dz,rx_pitch,rx_roll,rx_yaw,S0Z_time_7.292e-05,S0Z_time_7.642e-05,S0Z_time_8.092e-05,S0Z_time_8.642e-05,S0Z_time_9.341e-05,S0Z_time_1.024e-04,S0Z_time_1.139e-04,S0Z_time_1.284e-04,S0Z_time_1.464e-04,S0Z_time_1.689e-04,S0Z_time_1.969e-04,S0Z_time_2.324e-04,S0Z_time_2.779e-04,S0Z_time_3.349e-04,S0Z_time_4.069e-04,S0Z_time_4.979e-04,S0Z_time_6.119e-04,S0Z_time_7.559e-04,S0Z_time_9.373e-04,S0Z_time_1.166e-03,S0Z_time_1.454e-03,S0Z_time_1.818e-03,S0Z_time_2.276e-03,S0Z_time_2.855e-03,S0Z_time_3.574e-03,S0Z_time_4.454e-03,S0Z_time_5.530e-03,S0Z_time_6.849e-03,S0Z_time_8.463e-03,S0Z_time_1.044e-02,S1Z_time_1.273e-05,S1Z_time_1.623e-05,S1Z_time_2.073e-05,S1Z_time_2.623e-05,S1Z_time_3.323e-05,S1Z_time_4.222e-05,S1Z_time_5.373e-05,S1Z_time_6.822e-05,S1Z_time_8.622e-05,S1Z_time_1.087e-04,S1Z_time_1.367e-04,S1Z_time_1.722e-04,S1Z_time_2.177e-04,S1Z_time_2.747e-04,S1Z_time_3.467e-04,S1Z_time_4.377e-04,S1Z_time_5.517e-04,S1Z_time_6.957e-04,S1Z_time_8.772e-04,S1Z_time_1.106e-03,S1Z_time_1.394e-03
0.0,0,0.0,0.0,30.0,0.0,0.0,0.0,0.0,-13.0,0.0,2.0,0.0,0.0,0.0,2.3559125975340526e-09,2.210590803267442e-09,2.0256856432723185e-09,1.9217107430521037e-09,1.708049490854318e-09,1.5952636819399344e-09,1.3136079666492194e-09,1.1455651908719444e-09,9.833335400084724e-10,8.431632245889619e-10,6.928039105171412e-10,5.30210088692994e-10,4.2428909469819094e-10,3.46894571913677e-10,2.6341652870375567e-10,1.7978441573320175e-10,1.3101745226811876e-10,1.077228027546172e-10,7.418815480216123e-11,4.9183210448388997e-11,3.577211970798668e-11,2.2012075520280785e-11,1.5635609325227024e-11,9.481183381099382e-12,5.361680215893944e-12,3.129267469302963e-12,1.756453374935822e-12,9.428762913432806e-13,5.135359232716401e-13,2.4668561583602877e-13,6.734638532510232e-09,5.652640327758099e-09,4.564581914589647e-09,3.71879011419668e-09,3.0277269920386444e-09,2.3990815436059195e-09,1.9053823668206183e-09,1.5099835827356046e-09,1.164828629766056e-09,9.77566818954432e-10,6.563005344014072e-10,5.076156366395024e-10,3.621040545571652e-10,2.516670881988464e-10,1.7966692746660413e-10,1.2050521446204856e-10,7.698522465782873e-11,5.1438576762669705e-11,3.358849402000049e-11,2.0514880569161975e-11,1.2438823400628525e-11
0.0,1,1.0,0.0,30.0,0.0,0.0,0.0,0.0,-13.0,0.0,2.0,0.0,0.0,0.0,2.299621079997996e-09,2.2025984325927907e-09,1.9293527662225816e-09,1.810176541864384e-09,1.7025726431716225e-09,1.5950117100983028e-09,1.3036558025358065e-09,1.1372832340474726e-09,9.627327372183943e-10,8.170481864526652e-10,6.770635694172878e-10,5.802545485743657e-10,4.4569536782872826e-10,3.321480830759451e-10,2.537403409805204e-10,1.8834947886063888e-10,1.4744919868927222e-10,1.0338715820759887e-10,6.842129700087706e-11,5.3262729695238943e-11,3.7211512644459867e-11,2.4496342297078755e-11,1.4947959341404308e-11,9.136162367110652e-12,5.491239887962065e-12,3.2518439039816693e-12,1.747334793602198e-12,9.395449494511298e-13,5.182965064535738e-13,2.4640473690419045e-13,7.311254345365458e-09,5.8601671342598675e-09,4.6520838893716625e-09,3.915881209537416e-09,3.052439546958815e-09,2.377310964982288e-09,1.906585777819342e-09,1.5462986892295639e-09,1.1667362967540373e-09,8.705390993220347e-10,6.790019064207739e-10,5.203894454994077e-10,3.636938804215458e-10,2.803392513868612e-10,1.7915184100940199e-10,1.175237549790318e-10,8.39583740716178e-11,5.2261334260250075e-11,3.2672339677236563e-11,2.039918204463287e-11,1.249191895145826e-11
0.0,2,2.0,0.0,30.0,0.0,0.0,0.0,0.0,-13.0,0.0,2.0,0.0,0.0,0.0,2.2462953165525786e-09,2.2621922334245338e-09,2.1266459657982396e-09,1.8909643255796116e-09,1.6520028122751367e-09,1.5463189939725723e-09,1.3345402829951704e-09,1.1360226997323306e-09,9.559901651917377e-10,8.451249618684131e-10,6.987707525210942e-10,5.299597247551201e-10,4.4685306715370293e-10,3.369497866647048e-10,2.5909966718937324e-10,1.9786634019394065e-10,1.337805037820525e-10,1.046373911317433e-10,7.542556950092763e-11,5.2180422611341046e-11,3.438561607543699e-11,2.4543747170765035e-11,1.5081902761350442e-11,9.018141229972325e-12,5.404235898422561e-12,3.060452805986855e-12,1.8092511708650803e-12,9.58400286206849e-13,4.833028775687875e-13,2.4732754678707315e-13,7.456448552531641e-09,6.053359234068997e-09,4.684647129428439e-09,3.7130568419419392e-09,3.145985414150335e-09,2.4201288801222238e-09,1.910077913899812e-09,1.5088214810720665e-09,1.1576833297864325e-09,9.060435745338943e-10,6.785678192162793e-10,5.019765446686606e-10,3.825534232453399e-10,2.6446628508192946e-10,1.88678202466816e-10,1.212477329113171e-10,8.028792713203254e-11,4.937918801614215e-11,3.3132764360289346e-11,1.9878373135134892e-11,1.3131908647876148e-11
0.0,3,3.0,0.0,30.0,0.0,0.0,0.0,0.0,-13.0,0.0,2.0,0.0,0.0,0.0,2.296340965781733e-09,2.2459101948435503e-09,1.99264564734317e-09,1.9304312935869617e-09,1.6934082580752605e-09,1.5039973134222139e-09,1.3463873118463235e-09,1.2459256515633558e-09,1.0279563108616142e-09,8.359452862959271e-10,7.021228464016603e-10,5.540717924865267e-10,4.541640891300283e-10,3.063936939983501e-10,2.579947679028863e-10,1.9560195434119438e-10,1.437681051354268e-10,1.0144495019675668e-10,7.368724440467113e-11,4.986765419765767e-11,3.240561681226079e-11,2.2876829742416508e-11,1.5543702945112425e-11,9.075580454442e-12,5.520082497384116e-12,3.132156583328389e-12,1.8016404363710742e-12,9.51963108499392e-13,4.986372411185309e-13,2.4686136024241373e-13,7.559853206212718e-09,5.880594792930219e-09,4.56681026081346e-09,3.734145538458862e-09,3.1102551436683833e-09,2.491340182011136e-09,1.882481843401047e-09,1.5505011441373025e-09,1.2097230942961173e-09,9.197672632370656e-10,6.845998275569697e-10,5.12781392811395e-10,3.7112136532702067e-10,2.6136162131202053e-10,1.753968910294206e-10,1.22061143248363e-10,7.626702122558111e-11,5.376299231888594e-11,3.342098906042661e-11,2.0617451593829596e-11,1.2516603013304133e-11
0.0,4,4.0,0.0,30.0,0.0,0.0,0.0,0.0,-13.0,0.0,2.0,0.0,0.0,0.0,2.2598013165641362e-09,2.13653355001632e-09,2.0045872475015663e-09,1.7962713866446478e-09,1.590260899461821e-09,1.5557561944232786e-09,1.3350000001947653e-09,1.1729890308905945e-09,9.901020088421953e-10,8.525309618664661e-10,6.72820229160514e-10,5.894715305418038e-10,4.355563350299543e-10,3.2428511563195955e-10,2.5660279274186214e-10,1.845503643977951e-10,1.3782543212137371e-10,1.0242583783612517e-10,7.543422126602969e-11,5.272643311490332e-11,3.4554907102719846e-11,2.2813913016351332e-11,1.5612993472951873e-11,9.336856581685215e-12,5.485831161052182e-12,3.0185859426484832e-12,1.743091281274475e-12,9.510929253898909e-13,4.993939462392937e-13,2.4443382831903316e-13,7.41491185243827e-09,5.6230475349144e-09,4.61250629126039e-09,3.6589885714747543e-09,3.0054115828796596e-09,2.408171131115424e-09,1.875596872810774e-09,1.4853345204860254e-09,1.1527405703476391e-09,9.270946036127348e-10,6.983901237837103e-10,5.13980153822327e-10,3.7956837585808787e-10,2.605338484927669e-10,1.7554168706756664e-10,1.2087562319954937e-10,7.844701739010824e-11,5.0361463260333706e-11,3.350062570252252e-11,1.9122629270831376e-11,1.3103268607037915e-11
0.0,5,5.0,0.0,30.0,0.0,0.0,0.0,0.0,-13.0,0.0,2.0,0.0,0.0,0.0,2.304580274246077e-09,2.2548660576285058e-09,2.007382615696532e-09,1.872672196681658e-09,1.727730431583204e-09,1.5007517492131661e-09,1.3485180570680489e-09,1.1201035160721296e-09,9.182927478359045e-10,7.975332466419437e-10,6.687220075774513e-10,5.464234388516175e-10,4.2435272532131565e-10,3.428008121134827e-10,2.5681293877213024e-10,1.9081174350359913e-10,1.375047253214527e-10,1.0168417608446795e-10,7.277684043333687e-11,5.3023287731685466e-11,3.4800181886306617e-11,2.4902173971008344e-11,1.5341343451984675e-11,9.574856091192429e-12,5.389124207343844e-12,3.1393845565838715e-12,1.6942993992137899e-12,9.179719636608043e-13,4.673263323429634e-13,2.407523334128944e-13,7.1832118438711155e-09,5.702655355478822e-09,4.6439860876720374e-09,3.891755765392348e-09,3.063629742864529e-09,2.425056347528297e-09,1.9948828793831305e-09,1.5130172945066408e-09,1.159811964952818e-09,9.032314210786447e-10,7.072518429226227e-10,5.087635655093028e-10,3.5426144532980425e-10,2.647620466718478e-10,1.7648544718162316e-10,1.1748818382994468e-10,8.558227067778798e-11,4.977319108142549e-11,3.358390171169182e-11,2.0838996057397864e-11,1.3120459097170324e-11
0.0,6,6.0,0.0,30.0,0.0,0.0,0.0,0.0,-13.0,0.0,2.0,0.0,0.0,0.0,2.3503308843678134e-09,2.1222209710466086e-09,1.9625879172506876e-09,1.944214810786784e-09,1.673982976963638e-09,1.528938378063161e-09,1.351478293587442e-09,1.1717857276172797e-09,9.372556866416212e-10,8.380629842051628e-10,6.629705170706816e-10,5.64372910058567e-10,4.225758371118116e-10,3.4151991143750915e-10,2.5214566671901085e-10,1.9132880423876274e-10,1.4155300878507885e-10,1.0052957350317635e-10,7.523908984534814e-11,5.1853316852309424e-11,3.5821523860261426e-11,2.461290652981669e-11,1.5284188029967676e-11,9.62825494802341e-12,5.6032351637664425e-12,3.226768840789912e-12,1.618249954714267e-12,9.099681491679584e-13,4.606990914330603e-13,2.573381964018153e-13,7.153230732343971e-09,5.8632351579535614e-09,4.512531298307094e-09,3.700563839500452e-09,2.8895112253265898e-09,2.4932606035610546e-09,1.9621544630072076e-09,1.465771652053501e-09,1.1535675921055095e-09,8.953641700337902e-10,6.488470234593086e-10,5.094367998598186e-10,3.8324736772542047e-10,2.810015581986357e-10,1.8145300584624467e-10,1.2186242740499093e-10,7.265075197362282e-11,5.2407232122183477e-11,3.302546151054027e-11,2.186824074353978e-11,1.2845952568670745e-11
0.0,7,7.0,0.0,30.0,0.0,0.0,0.0,0.0,-13.0,0.0,2.0,0.0,0.0,0.0,2.169370433576446e-09,2.137528881784966e-09,2.0178316071021197e-09,1.9307221355999175e-09,1.7158512347031946e-09,1.5119171295602732e-09,1.3103885535151754e-09,1.1475117267745777e-09,9.335735766848532e-10,8.409384754063733e-10,6.451624895862561e-10,5.830561772897564e-10,4.3860028449667093e-10,3.4687195368055245e-10,2.551928232003162e-10,1.905824145583863e-10,1.4290527144877083e-10,9.926165571595178e-11,7.035465275517853e-11,5.349159344159183e-11,3.6689011434707487e-11,2.437954284688861e-11,1.5413128106995254e-11,9.569616006081534e-12,5.688121327709524e-12,2.9980961791026694e-12,1.6722066709165477e-12,8.873465943078371e-13,4.627392323594997e-13,2.2874852277910085e-13,7.848784277830763e-09,5.575732169938571e-09,4.598196001600525e-09,3.6273783981308847e-09,3.071675669038471e-09,2.4099437879755993e-09,1.9676279099886086e-09,1.4395862624251892e-09,1.144521283895682e-09,9.375492153368266e-10,6.830609225640975e-10,5.217168466577784e-10,3.6177063258946274e-10,2.599713267551885e-10,1.744795597110149e-10,1.1987468386587208e-10,8.172186073852513e-11,5.2839814888776615e-11,3.3174297202174515e-11,2.1212734057586103e-11,1.3182364498107354e-11
0.0,8,8.0,0.0,30.0,0.0,0.0,0.0,0.0,-13.0,0.0,2.0,0.0,0.0,0.0,2.220407344225483e-09,2.2640994846168927e-09,2.1167773378790253e-09,1.8723360856399574e-09,1.7361791465110966e-09,1.5987383526467564e-09,1.3315919923195308e-09,1.1359580379654403e-09,9.362189973398792e-10,7.931243033827991e-10,6.42424630257585e-10,5.70888604329948e-10,4.207106202831134e-10,3.4486499471094164e-10,2.58856576157488e-10,1.8153110932855935e-10,1.4625084971167761e-10,9.965339437137924e-11,7.361492212577743e-11,5.167507667115113e-11,3.7245033815447905e-11,2.440552550243105e-11,1.549579990201005e-11,9.11381896332355e-12,5.565292302903455e-12,3.136201032371686e-12,1.6864160407119736e-12,8.96660527235468e-13,4.752368441293047e-13,2.187549498052813e-13,7.31242829292107e-09,6.0576133616157114e-09,4.6939808777996265e-09,3.844971762247746e-09,2.9537538301619383e-09,2.4389426469881054e-09,1.8856286126422403e-09,1.5535148791869044e-09,1.179627618237274e-09,8.8660412068468e-10,6.830566008626313e-10,4.942931277199649e-10,3.8535932753783163e-10,2.649728611608226e-10,1.7828404113973557e-10,1.2358418811515214e-10,8.170652719530072e-11,5.1299651175643504e-11,3.221266570521491e-11,2.112298357967517e-11,1.3247195041399518e-11
0.0,9,9.0,0.0,30.0,0.0,0.0,0.0,0.0,-13.0,0.0,2.0,0.0,0.0,0.0,2.308463679432128e-09,2.299900939305614e-09,2.1192779342387814e-09,1.8335222649656089e-09,1.6530181112170643e-09,1.5408521015222435e-09,1.3379377593456507e-09,1.10493131658944e-09,1.0302616718889822e-09,8.370542846313361e-10,6.675145773674898e-10,5.38924388023901e-10,4.301010227456293e-10,3.2904866558112004e-10,2.700778440860448e-10,1.9307619025378108e-10,1.4234535454101918e-10,1.0593059487635464e-10,7.527560772240137e-11,5.110001748416966e-11,3.824091345348765e-11,2.2686961173566133e-11,1.4958382808986134e-11,9.267816497821804e-12,5.282365896038394e-12,3.038607938539092e-12,1.6442791376945919e-12,8.766855568990714e-13,4.752304070703318e-13,2.2459052552144577e-13,7.20514804058463e-09,5.907585711740381e-09,4.619952735213818e-09,3.838781367731548e-09,3.060256928754426e-09,2.346514998302143e-09,1.9917618803795802e-09,1.5790754987432842e-09,1.1843152628689919e-09,9.33802786269979e-10,6.819807842962055e-10,4.713923087011375e-10,3.7462583805830084e-10,2.6042322052817435e-10,1.7998526841075726e-10,1.243243313956746e-10,7.800497939277247e-11,5.082269806437472e-11,3.293853801746416e-11,2.0669037312693375e-11,1.3850882004730456e-11
0.0,10,10.0,0.0,30.0,0.0,0.0,0.0,0.0,-13.0,0.0,2.0,0.0,0.0,0.0,2.2560416753535876e-09,2.172352245798131e-09,2.034651538972496e-09,1.883853268033885e-09,1.6637320606051493e-09,1.4744778019430328e-09,1.3764234709087547e-09,1.193448048278281e-09,8.853279761148782e-10,8.47619930176132e-10,6.271018933339738e-10,5.602505997678924e-10,4.4475856011482375e-10,3.303465740360823e-10,2.5136770371452405e-10,1.779690996672189e-10,1.4163130014159526e-10,1.0599911127142335e-10,7.3750814763762e-11,5.266618368234788e-11,3.577191008458213e-11,2.3060060641725225e-11,1.5248476366418252e-11,8.67716821740546e-12,5.396929841553541e-12,3.0784855879198867e-12,1.6290275474453997e-12,8.530886135088524e-13,4.70137698151067e-13,2.272431567900043e-13,7.667684099244365e-09,6.040170623624483e-09,4.5338999933050746e-09,3.920573455005883e-09,3.0000451081806846e-09,2.5335837229315817e-09,1.9740212812806188e-09,1.4929142257144287e-09,1.1775805647630542e-09,8.734907548268756e-10,6.818240217556341e-10,5.133395513915135e-10,3.789917168691467e-10,2.538562947772624e-10,1.6954487711364172e-10,1.2079849144917484e-10,8.417792590683177e-11,5.2187370902772135e-11,3.3237204722015236e-11,2.263797084438219e-11,1.3044560291301464e-11
0.0,11,11.0,0.0,30.0,0.0,0.0,0.0,0.0,-13.0,0.0,2.0,0.0,0.0,0.0,2.500215345246776e-09,2.1631984305559034e-09,2.0608706663432624e-09,1.8911560675785615e-09,1.6458929731283127e-09,1.4817510404685147e-09,1.396207614744033e-09,1.1245695415979537e-09,1.0358402832121667e-09,8.20400465742664e-10,6.732278077557043e-10,5.363324712389377e-10,4.2280356439227577e-10,3.405139171697053e-10,2.619491862976456e-10,1.824143312339307e-10,1.4168242949652992e-10,1.0675434142297574e-10,7.775105305618138e-11,4.9219677547228637e-11,3.626226533050895e-11,2.449268603343886e-11,1.6059740926423354e-11,8.988167151968568e-12,5.529460446144328e-12,2.9440958641428857e-12,1.5321952677592815e-12,8.907661255886945e-13,4.710752301517025e-13,2.2428637025346192e-13,7.2301340066283486e-09,5.9778371612778715e-09,4.619566460011603e-09,3.866843606368104e-09,3.1793127124850426e-09,2.3253771583420387e-09,1.884242534809074e-09,1.5144180650010668e-09,1.1001632153131483e-09,8.911651513313928e-10,6.474556434676402e-10,5.176612844010482e-10,3.5587179984727686e-10,2.6499252973062143e-10,1.758535497254718e-10,1.1638535716836501e-10,8.461759826679623e-11,5.032689868560625e-11,3.511333841773016e-11,2.234409410389502e-11,1.3114475081099819e-11
0.0,12,12.0,0.0,30.0,0.0,0.0,0.0,0.0,-13.0,0.0,2.0,0.0,0.0,0.0,2.3147428729687297e-09,2.249278297148893e-09,2.016360389343006e-09,1.9595188550686968e-09,1.6990946495980988e-09,1.5354087729528856e-09,1.3214215385169305e-09,1.128407119970841e-09,9.540868016056008e-10,8.455121745051777e-10,6.497461015256137e-10,5.52093839548556e-10,4.4655893832865256e-10,3.284359070991592e-10,2.5369588567759134e-10,1.8841078452792878e-10,1.4440476165558444e-10,1.0219251815520983e-10,7.312943081237513e-11,5.3276603580120084e-11,3.8429165346763463e-11,2.4730426881404236e-11,1.4892056769044208e-11,9.228688267230056e-12,5.525751532874205e-12,3.0828501318537298e-12,1.5945446537960613e-12,8.930556678689762e-13,4.267787869251376e-13,2.397443472578844e-13,7.309363300535937e-09,6.187859523514291e-09,4.52529390197726e-09,3.6356230389814853e-09,2.964681777422462e-09,2.268016612866802e-09,1.954615449852777e-09,1.5252048398954761e-09,1.20208550463119e-09,8.675785781957045e-10,6.589620772463626e-10,5.041190871218312e-10,3.616607977060751e-10,2.749377039058111e-10,1.7442296308054817e-10,1.1458385489515461e-10,8.239013273435863e-11,5.2731153028778727e-11,3.4037652540702286e-11,2.0979914515115876e-11,1.3418912731610986e-11
0.0,13,13.0,0.0,30.0,0.0,0.0,0.0,0.0,-13.0,0.0,2.0,0.0,0.0,0.0,2.4281917441243407e-09,2.16137002731823e-09,2.0335291250095364e-09,1.8770893699029403e-09,1.735245338692275e-09,1.5999338849851791e-09,1.3254369034054217e-09,1.1594791913093795e-09,9.652803239855706e-10,7.896214558184737e-10,7.074017240287407e-10,5.385824907299819e-10,4.3928568207816967e-10,3.4044475834108656e-10,2.5989993677220915e-10,1.9985637806163037e-10,1.506223873768551e-10,1.0369402783786692e-10,7.644922578727948e-11,5.649885400853125e-11,3.5272653374734975e-11,2.3123151925911588e-11,1.469922473880285e-11,9.48679329921014e-12,5.517168255674105e-12,2.928232183690749e-12,1.6245190852573182e-12,8.51606430613445e-13,4.2416651858496314e-13,2.294475048443779e-13,7.314863633520115e-09,5.686858625728831e-09,4.71265478871442e-09,3.741656022364164e-09,3.046915522826916e-09,2.4672707618204384e-09,1.8428974630833453e-09,1.4852145951502726e-09,1.2163506626570879e-09,8.831809515525356e-10,6.736383301748773e-10,4.98827952706553e-10,3.7497447610880907e-10,2.52183485190065e-10,1.848213440833596e-10,1.258016156053196e-10,8.02044110181268e-11,5.265361486364825e-11,3.4927512377937996e-11,2.1427987804472022e-11,1.3925953054994422e-11
0.0,14,14.0,0.0,30.0,0.0,0.0,0.0,0.0,-13.0,0.0,2.0,0.0,0.0,0.0,2.2486151728514796e-09,2.1683644678814945e-09,2.030181079738076e-09,1.9039738490248235e-09,1.700190863043089e-09,1.5566217023636288e-09,1.3659514794424803e-09,1.174442620633654e-09,9.635491588866732e-10,8.276329672978112e-10,6.697321324659318e-10,5.626703275083805e-10,4.2835855021379683e-10,3.4121549333674346e-10,2.564700715895463e-10,1.9486813568232788e-10,1.4422070089029965e-10,1.0452868877547352e-10,7.361571831656038e-11,5.325436333148562e-11,3.551198774927856e-11,2.394936818968784e-11,1.4967446143048554e-11,8.708226501132795e-12,5.4115252818175464e-12,2.918695043865456e-12,1.5169247716642014e-12,8.378092073829552e-13,4.522150284889932e-13,2.1061858420920835e-13,7.245451401982367e-09,5.887604602142408e-09,4.711855452959338e-09,3.938926363076577e-09,2.8908418241791896e-09,2.298190673957129e-09,1.920136831430028e-09,1.4610228779181545e-09,1.1644726825793085e-09,9.404541703184823e-10,6.625392575689109e-10,5.15270551857286e-10,3.9364460000318683e-10,2.4852926399438723e-10,1.797112786859088e-10,1.2050890019021317e-10,7.824426107424739e-11,5.246073892460959e-11,3.2978932284956744e-11,2.0075661101256755e-11,1.3386718445266857e-11
0.0,15,15.0,0.0,30.0,0.0,0.0,0.0,0.0,-13.0,0.0,2.0,0.0,0.0,0.0,2.3626868604080646e-09,2.257231600262499e-09,2.0922937872459035e-09,1.7928388339817744e-09,1.7691301503354605e-09,1.41341540261848e-09,1.3462602313416887e-09,1.1426282987400233e-09,9.82854217876342e-10,8.116485833006237e-10,6.71778849367999e-10,5.269759583228553e-10,4.244323648593306e-10,3.430951720688618e-10,2.6390029903511675e-10,1.9312236100905645e-10,1.4772996210827138e-10,1.077306359914063e-10,7.776864412065356e-11,5.081780296553856e-11,3.77275025074509e-11,2.3871706501511337e-11,1.4878970599018885e-11,9.220807574028045e-12,5.1734504122971034e-12,2.7919296998069483e-12,1.5421578374754993e-12,8.036902950936517e-13,4.2763654686133734e-13,2.1792651296951158e-13,7.200581679604342e-09,5.635230837926186e-09,4.600004431882916e-09,3.6931859006858933e-09,2.943968352567908e-09,2.523101102528944e-09,1.8555489022184694e-09,1.399548180781426e-09,1.1428592951136488e-09,8.91048647054536e-10,7.020585935623257e-10,4.992828743421199e-10,3.6278106308228256e-10,2.5386252718099814e-10,1.8140633903016587e-10,1.2217702128734987e-10,8.048312341372271e-11,5.539106010513302e-11,3.379923038303382e-11,2.195216076470164e-11,1.4177917776729895e-11
0.0,16,16.0,0.0,30.0,0.0,0.0,0.0,0.0,-13.0,0.0,2.0,0.0,0.0,0.0,2.2860196924677705e-09,2.097621401801683e-09,1.9673066870056122e-09,1.9382523938635225e-09,1.7234308768666259e-09,1.541126430398829e-09,1.3492292475514778e-09,1.157545237858623e-09,9.85562015281835e-10,8.695294418588159e-10,6.81112746010837e-10,5.332532642669724e-10,4.4375514538128757e-10,3.396931436063899e-10,2.551737567754187e-10,1.879433033521494e-10,1.4428358507871548e-10,1.0548356575432655e-10,7.742031699769242e-11,5.2166362484435385e-11,3.525662223974805e-11,2.4072146335070208e-11,1.5293269286179418e-11,9.46716198734178e-12,5.05286894435656e-12,2.901581856776833e-12,1.5906561263433714e-12,8.410851398158492e-13,4.2676201279829887e-13,2.1157150172886419e-13,7.130062207526715e-09,6.057184860009397e-09,4.756057088872096e-09,3.850337747524571e-09,3.1719195772626622e-09,2.386799946351443e-09,1.951117595620514e-09,1.5421718882385805e-09,1.1733933637281583e-09,8.863657225326253e-10,7.165860506463181e-10,4.939524670535043e-10,3.638405315529305e-10,2.637101087596554e-10,1.795755228720945e-10,1.2254211337990673e-10,7.883591790628525e-11,5.4004380882236917e-11,3.575403541727693e-11,2.0920222897835133e-11,1.3576911135506016e-11
0.0,17,17.0,0.0,30.0,0.0,0.0,0.0,0.0,-13.0,0.0,2.0,0.0,0.0,0.0,2.2409470654728452e-09,2.307090276701094e-09,2.062239812617834e-09,1.787478647555351e-09,1.72144786452784e-09,1.44822197264651e-09,1.2381462041355132e-09,1.1852686114180527e-09,1.0332573160789154e-09,7.802858806207374e-10,6.90945061023749e-10,5.668233069692445e-10,4.484886289024422e-10,3.4584855013682245e-10,2.5477080089155924e-10,1.9298478824976477e-10,1.4838481546257445e-10,1.0447965958541624e-10,7.668228871053974e-11,5.532479223647272e-11,3.5351809701760616e-11,2.4776866462589986e-11,1.5245472546312537e-11,9.630544887421675e-12,5.30434266287436e-12,2.9126456356249084e-12,1.5606668550886195e-12,8.547633428080741e-13,4.101843226843371e-13,2.0061564426350737e-13,7.121930616317119e-09,5.810678825446427e-09,4.524702652477233e-09,3.603071552497792e-09,2.862236416403203e-09,2.242883071640066e-09,1.9221291650918172e-09,1.5438050785378845e-09,1.1873823825288778e-09,9.019559686826739e-10,6.476779330563647e-10,4.982200693910666e-10,3.7027112319411805e-10,2.5918385030118434e-10,1.7595593414684632e-10,1.1646988756768108e-10,8.337267114326094e-11,5.296861894573295e-11,3.315464321723377e-11,2.069511724594626e-11,1.2843461281277614e-11
0.0,18,18.0,0.0,30.0,0.0,0.0,0.0,0.0,-13.0,0.0,2.0,0.0,0.0,0.0,2.342243887596358e-09,2.2253611010766453e-09,2.030373981493317e-09,1.829866728433223e-09,1.6454427637242578e-09,1.5841954655824546e-09,1.3668108354613098e-09,1.137833216886062e-09,9.784170816205387e-10,8.154769572128053e-10,6.598243216585995e-10,5.428877233738589e-10,4.1791957477160955e-10,3.3125258324212793e-10,2.5116477767627557e-10,1.8933735941380573e-10,1.4439229763431586e-10,1.0483115803512087e-10,7.462030112961157e-11,5.51074124905196e-11,3.715807651880579e-11,2.317534791968393e-11,1.53646360504893e-11,8.66652482496306e-12,5.3378519723746235e-12,2.8267842865595254e-12,1.6636102017598095e-12,7.790717750268665e-13,4.091715690546757e-13,1.9848438798236652e-13,7.372182274373786e-09,6.124272481826086e-09,4.350900299751286e-09,4.084413192871984e-09,2.9893806910305064e-09,2.4289846803679185e-09,1.932585810053543e-09,1.5513536929008646e-09,1.1458380571344494e-09,9.036110185230483e-10,6.472094485163125e-10,5.130772985365151e-10,3.560147326260429e-10,2.705877640660537e-10,1.801355056999016e-10,1.2277867124557082e-10,8.15565518511697e-11,5.1685237296166165e-11,3.3992087921822644e-11,2.2579475852135203e-11,1.4008788568681077e-11
0.0,19,19.0,0.0,30.0,0.0,0.0,0.0,0.0,-13.0,0.0,2.0,0.0,0.0,0.0,2.3837383728470434e-09,2.223025104414948e-09,2.0096730188156647e-09,1.852486475122492e-09,1.6853286517542997e-09,1.625812543289303e-09,1.370738928779881e-09,1.1134421839381056e-09,9.35484723424816e-10,8.162511182510072e-10,6.643161221859007e-10,5.400102576500548e-10,4.36393209809491e-10,3.364151717044258e-10,2.6491457758299893e-10,1.9161179927253102e-10,1.4455313304138982e-10,1.055482807078383e-10,7.240279404112723e-11,5.853782815040606e-11,3.870286923202271e-11,2.236673267807453e-11,1.4586792098785063e-11,8.773961915795379e-12,5.062955561280954e-12,3.0302827785592046e-12,1.5762857170760519e-12,8.397432365695784e-13,4.017099928703924e-13,2.0581877883147025e-13,7.077818091724209e-09,5.8295374871317346e-09,4.815929541984569e-09,3.636008606717361e-09,2.9153659851292063e-09,2.5959332382818327e-09,1.8025308428941238e-09,1.51864307792514e-09,1.1983697319507594e-09,9.397410079561317e-10,7.113189590630214e-10,4.940624794255632e-10,3.4977132276315983e-10,2.4515741109237327e-10,1.7811718841876593e-10,1.1575229534343384e-10,8.534086628080507e-11,5.52240026231066e-11,3.722956232155133e-11,2.2162915691651864e-11,1.3839577951192324e-11
0.0,20,20.0,0.0,30.0,0.0,0.0,0.0,0.0,-13.0,0.0,2.0,0.0,0.0,0.0,2.338675723321655e-09,2.218894200748506e-09,2.1255280655517532e-09,1.8889083490487912e-09,1.6576716432572613e-09,1.517817040718311e-09,1.3198659522574438e-09,1.1653586822106467e-09,1.0322567197138186e-09,7.894926365415224e-10,6.808768119793639e-10,5.364724271512774e-10,4.2542477578452165e-10,3.3710603336324723e-10,2.5878025224784893e-10,1.9488160852096197e-10,1.382278805315911e-10,1.0692846066959164e-10,7.170134782540957e-11,5.331883008526824e-11,3.8249646242326444e-11,2.4709338988121678e-11,1.5299843461564718e-11,9.01021618135275e-12,5.04641156797824e-12,2.7657347378868863e-12,1.5583122681871104e-12,7.990669877953952e-13,4.3399900787588044e-13,2.0391601463344758e-13,7.549461846266268e-09,6.2342411509161535e-09,4.758900279284864e-09,3.756984928565233e-09,3.072981640341545e-09,2.3533722275162565e-09,1.9073896574028767e-09,1.5448529287768527e-09,1.1476639977879466e-09,8.90314076667277e-10,6.934970746235669e-10,5.086961416169393e-10,3.5090354345867385e-10,2.684391615937985e-10,1.8310883723210364e-10,1.2848073762894366e-10,7.8778058907561e-11,5.5087664943568624e-11,3.368811503905299e-11,2.401577940845267e-11,1.4164339315768976e-11
0.0,21,21.0,0.0,30.0,0.0,0.0,0.0,0.0,-13.0,0.0,2.0,0.0,0.0,0.0,2.1889707236503026e-09,2.100672998236298e-09,2.1229324995292778e-09,1.9109690881643617e-09,1.6775910163948354e-09,1.5651257218150066e-09,1.3547130432960375e-09,1.0892522520117306e-09,9.411041285468194e-10,8.207890687135068e-10,6.869433338472311e-10,5.387982798788289e-10,4.3005952306010297e-10,3.3586104964025676e-10,2.5867589889085887e-10,1.9599744968036765e-10,1.512903587372441e-10,1.0236871250716414e-10,7.677998584916249e-11,5.618239430402799e-11,3.7277676818678923e-11,2.429363273933647e-11,1.4084851427445806e-11,9.128782880329553e-12,5.024326126441105e-12,2.825775126759574e-12,1.5291639156434632e-12,7.637465733995e-13,3.8188558257014817e-13,2.034963834668277e-13,7.138230657930097e-09,5.90621140545031e-09,4.829084787434107e-09,3.781548823737385e-09,3.0539785056789892e-09,2.3630595336765578e-09,1.8898823270870913e-09,1.5245347551196948e-09,1.1662709337140132e-09,8.817878272787062e-10,6.241638909053219e-10,4.877890721316141e-10,3.6809746156928896e-10,2.5388452443747686e-10,1.6298969290805825e-10,1.203218709469373e-10,8.085781690712748e-11,5.608588742134388e-11,3.3572858179194613e-11,2.198315596865994e-11,1.3929326731932325e-11
0.0,22,22.0,0.0,30.0,0.0,0.0,0.0,0.0,-13.0,0.0,2.0,0.0,0.0,0.0,2.2727827743332425e-09,2.114749458475586e-09,1.9544157805252946e-09,1.808733721785799e-09,1.7255957708342512e-09,1.4564560087267093e-09,1.330296762769577e-09,1.2032035626564685e-09,9.654768330289158e-10,8.067737873358431e-10,7.137416859159323e-10,5.404874043966772e-10,4.477515611597072e-10,3.27964649654893e-10,2.541521105606646e-10,1.917546494692262e-10,1.3726477139565578e-10,1.0906126851521682e-10,8.040775206532078e-11,5.451592010635127e-11,3.797349649773524e-11,2.4527505256051082e-11,1.5490802212135438e-11,9.269631367985047e-12,5.020827333066708e-12,2.9487154765509194e-12,1.4435060258906884e-12,7.879413593390099e-13,4.0260626907261983e-13,1.888128122176568e-13,7.435610859042429e-09,5.994583855258008e-09,4.86315262699205e-09,3.860551803239376e-09,3.1020897778372985e-09,2.276106175233782e-09,1.9097124330136426e-09,1.4810106463290496e-09,1.2034055462567888e-09,9.087066620842059e-10,6.629337006917987e-10,5.046323125915756e-10,3.527001243479511e-10,2.6007883304272826e-10,1.801941662404021e-10,1.2329113761667178e-10,8.364981857184504e-11,5.547162181993207e-11,3.350208481801956e-11,2.2564138150426664e-11,1.4448701818492735e-11
0.0,23,23.0,0.0,30.0,0.0,0.0,0.0,0.0,-13.0,0.0,2.0,0.0,0.0,0.0,2.376500145082012e-09,2.226419409742617e-09,2.0680260424461576e-09,1.8272005022175947e-09,1.7944701119533769e-09,1.48351205566309e-09,1.2906989146947355e-09,1.1571111026237837e-09,1.0214313360312768e-09,8.203037127932957e-10,6.992270078856164e-10,5.616302581525708e-10,4.286590740531181e-10,3.2824063882249113e-10,2.576713869894836e-10,2.0583868396757256e-10,1.4003389280122227e-10,1.0916774334390804e-10,7.895153114201125e-11,5.549845406325874e-11,3.793451138215138e-11,2.5049912970521217e-11,1.5771637164809335e-11,8.837435156930471e-12,4.749057915168838e-12,2.953824349357798e-12,1.4762306810700176e-12,7.421617002422748e-13,3.8353877349557864e-13,1.995077171815244e-13,7.276862020454175e-09,5.586996074572404e-09,4.4811085560533305e-09,3.5759461714416686e-09,3.0681819738680636e-09,2.459725428387226e-09,1.880097746703068e-09,1.5320935805314458e-09,1.1885691368854773e-09,9.069817127485571e-10,6.757405927276461e-10,5.095507673150681e-10,3.743198259892799e-10,2.552144427355482e-10,1.8128276900486983e-10,1.3028894449440415e-10,8.284084843704326e-11,5.5059169992382895e-11,3.39901714131195e-11,2.3483518098421505e-11,1.442676084363284e-11
0.0,24,24.0,0.0,30.0,0.0,0.0,0.0,0.0,-13.0,0.0,2.0,0.0,0.0,0.0,2.3737959902912742e-09,2.24007868847017e-09,1.9959027494210023e-09,1.8049013794275641e-09,1.6160155651532046e-09,1.4874675499869182e-09,1.3458020258682107e-09,1.1445485921810047e-09,1.0021262254860924e-09,8.239516688006265e-10,6.589112771262644e-10,5.435121401363255e-10,4.156518681101135e-10,3.396624291250378e-10,2.535492405689178e-10,1.911959666959441e-10,1.5067285126247147e-10,1.0530240346884015e-10,7.740526024643741e-11,5.503839527092757e-11,3.7307826108778855e-11,2.4602861780425564e-11,1.481999403189509e-11,9.115175159342557e-12,4.946022677245413e-12,2.656795066396173e-12,1.53126338304647e-12,7.360504683755336e-13,3.8437154997328126e-13,1.726173703909778e-13,7.438713566101118e-09,5.649607417357935e-09,4.552094768554917e-09,3.701613552698269e-09,3.0905291832539082e-09,2.340930080433309e-09,1.966717159465072e-09,1.4631739701459969e-09,1.1974109255250754e-09,8.811122759166378e-10,6.53376300132868e-10,5.152399859686525e-10,3.3660979719261867e-10,2.525088530136067e-10,1.8093482469510565e-10,1.3094290863096144e-10,7.607465284218998e-11,5.397705189236872e-11,3.441194694807465e-11,2.3378911344478383e-11,1.4076677786234512e-11
0.0,25,25.0,0.0,30.0,0.0,0.0,0.0,0.0,-13.0,0.0,2.0,0.0,0.0,0.0,2.3597414035668334e-09,2.1768718221120245e-09,2.0503450322124195e-09,1.863797162798363e-09,1.6371763603035567e-09,1.6139683823236146e-09,1.327418024986623e-09,1.1918180071153223e-09,1.0152254220139921e-09,8.295034517379488e-10,6.732482194138413e-10,5.492537270449085e-10,4.453375332697234e-10,3.2353078510924156e-10,2.551893296037135e-10,1.9570956046631745e-10,1.4827840072434183e-10,1.0593598821389684e-10,8.095280058801374e-11,5.351738878850946e-11,3.6216095114522845e-11,2.3866024060518792e-11,1.4507661015990584e-11,8.725900539880929e-12,4.884954733759408e-12,2.7423550361691334e-12,1.501463512842042e-12,7.392322928821444e-13,3.785047947682913e-13,1.8701206147358342e-13,6.960390731093028e-09,5.664474510515638e-09,4.595750890492699e-09,3.842226748492639e-09,3.15123275640019e-09,2.438858812096329e-09,1.8748081853956386e-09,1.5278286641194934e-09,1.1317150230086354e-09,8.761293426118261e-10,6.503098582200095e-10,5.070516177074247e-10,3.7330520108124763e-10,2.7226629959152637e-10,1.8639343392824205e-10,1.2071446136295576e-10,8.502380027505706e-11,5.632600981611102e-11,3.608126071988596e-11,2.2519398352163132e-11,1.4830357368793065e-11
0.0,26,26.0,0.0,30.0,0.0,0.0,0.0,0.0,-13.0,0.0,2.0,0.0,0.0,0.0,2.310026776431025e-09,2.231983629136804e-09,2.064469174832577e-09,1.9761669026436437e-09,1.7675682371989466e-09,1.541060009159637e-09,1.379615420959439e-09,1.1646728798031309e-09,1.0337159464901639e-09,8.148247378397639e-10,6.665067531759267e-10,5.883797558023822e-10,4.3211264156946343e-10,3.445014947343257e-10,2.6064538964088017e-10,2.0208496569345764e-10,1.4511119300839466e-10,1.0956734149656612e-10,7.778081730667749e-11,5.600682083368396e-11,3.7267709787697524e-11,2.457421901489989e-11,1.3681885063748394e-11,8.926032745649785e-12,4.967242668829132e-12,2.7752179839608823e-12,1.3838616442404434e-12,7.5523342322113e-13,3.826614025437173e-13,1.786636363070921e-13,7.0865084759015575e-09,6.156438995777302e-09,4.785885657943531e-09,3.801207355365607e-09,3.0678332529707186e-09,2.3019172237576903e-09,1.938361917037435e-09,1.4661849435814736e-09,1.1146128193116864e-09,9.017168686851065e-10,6.772469215591038e-10,5.217003388103715e-10,3.727337265320094e-10,2.5558059764388257e-10,1.7324240249263475e-10,1.2407558146871983e-10,8.181756477526356e-11,5.4167710236132634e-11,3.6004515954709245e-11,2.2605719299281656e-11,1.3710485407663054e-11
0.0,27,27.0,0.0,30.0,0.0,0.0,0.0,0.0,-13.0,0.0,2.0,0.0,0.0,0.0,2.2437321494792976e-09,2.2770021398437215e-09,2.049155306485332e-09,1.873106235547409e-09,1.6346987163131754e-09,1.5638935296369462e-09,1.3444477821569449e-09,1.1764225269800989e-09,1.006197835880752e-09,8.056205204070936e-10,6.736284702372817e-10,5.399067175284532e-10,4.2710088546284324e-10,3.266747777177564e-10,2.4213642545475986e-10,1.9942658543784545e-10,1.4930016501684667e-10,1.0890537231144637e-10,8.176743139867595e-11,5.37192864633803e-11,3.812370297277189e-11,2.2690216603350043e-11,1.4954592553878402e-11,8.314449197631617e-12,4.943736359261427e-12,2.6869103336696013e-12,1.3948182156996712e-12,7.096769795414589e-13,3.654381190693946e-13,1.7586160716344422e-13,7.2309956444727525e-09,5.8073677748667955e-09,4.790446651361713e-09,3.7058098445165796e-09,3.055731572062053e-09,2.4119902475843916e-09,1.8443893289897188e-09,1.5013454122581748e-09,1.1053469077924245e-09,8.603763053639285e-10,6.493510433791419e-10,5.073947705565819e-10,3.6701398293819667e-10,2.5557776307086843e-10,1.8321058397070168e-10,1.2545995651445728e-10,8.388999404443324e-11,5.4673673233737244e-11,3.6635300372100455e-11,2.300076147145339e-11,1.4249951132247748e-11
0.0,28,28.0,0.0,30.0,0.0,0.0,0.0,0.0,-13.0,0.0,2.0,0.0,0.0,0.0,2.3765143695617265e-09,2.2492463911898663e-09,2.0155814181631283e-09,1.897846506150392e-09,1.6565076736213316e-09,1.4752977583478962e-09,1.299562649718156e-09,1.1346558297903183e-09,9.874988229243859e-10,8.404840728669405e-10,6.902457945890138e-10,5.499014594224141e-10,4.357751289045526e-10,3.273536951973061e-10,2.7090551972908465e-10,1.94562031291426e-10,1.4427313244691853e-10,1.0300204717491675e-10,7.693755086207669e-11,5.592395371456588e-11,3.62407495873139e-11,2.1972354779110757e-11,1.4370080765917709e-11,8.685313628870405e-12,5.034547764383222e-12,2.6332561797235925e-12,1.3598924812873655e-12,6.788928240924909e-13,3.739856736607548e-13,1.7537737205232546e-13,7.334145891633214e-09,6.041930983553128e-09,4.788694317734077e-09,3.876536922670491e-09,3.0270808988995865e-09,2.340524422599548e-09,1.9738409249126693e-09,1.4807633280078977e-09,1.1315517690301571e-09,9.192675923124812e-10,7.033055638541247e-10,4.984596742010382e-10,3.7080872439462946e-10,2.568928464370902e-10,1.828612440316443e-10,1.2640286080651216e-10,8.08546573793623e-11,5.536150450966993e-11,3.5742637883323953e-11,2.3896344399287836e-11,1.4149944861166709e-11
0.0,29,29.0,0.0,30.0,0.0,0.0,0.0,0.0,-13.0,0.0,2.0,0.0,0.0,0.0,2.2349733620737222e-09,2.1222447070728225e-09,2.112639032583846e-09,1.7669074255686255e-09,1.7713742060182813e-09,1.4983931841211591e-09,1.3445222887412291e-09,1.1873865846800103e-09,9.705641728339803e-10,8.227454959338437e-10,6.809949633117104e-10,5.474527628458844e-10,4.308653582919586e-10,3.3910559032675633e-10,2.6104968955662375e-10,2.0152941251193122e-10,1.413885268618471e-10,1.0582113534576807e-10,7.75619604121677e-11,5.498452064745426e-11,3.53016097372176e-11,2.4587005007924887e-11,1.4247738078299664e-11,8.740413096229066e-12,5.027195617760678e-12,2.5893341360984977e-12,1.4732713480080843e-12,7.053103263917436e-13,3.711749619504466e-13,1.7698686978023702e-13,7.3599088688746495e-09,5.948956792057425e-09,4.4295961738705086e-09,3.839167679318895e-09,3.0827578463357602e-09,2.3584592213645796e-09,1.9203790942737736e-09,1.478828540884545e-09,1.1508042558253656e-09,8.921390510754501e-10,6.979667969131302e-10,5.283607661815699e-10,3.6726713987306396e-10,2.5603818842914274e-10,1.7871278589429341e-10,1.2005848806929173e-10,8.173373770993454e-11,5.829354281912084e-11,3.6616518978621846e-11,2.3560354108753023e-11,1.4168020320197433e-11
0.0,30,30.0,0.0,30.0,0.0,0.0,0.0,0.0,-13.0,0.0,2.0,0.0,0.0,0.0,2.3192494589100852e-09,2.1898824227015888e-09,2.1049263519408186e-09,1.8373678006972036e-09,1.7135259452789518e-09,1.4403764380907114e-09,1.2577588854019609e-09,1.1456800371915838e-09,9.777661390623442e-10,8.400270069012578e-10,6.591473451475285e-10,5.575077956772303e-10,4.2366752867001585e-10,3.2312563110509e-10,2.476429061479064e-10,2.003059993751888e-10,1.5231379494213796e-10,1.0638293420552998e-10,7.737057864012409e-11,5.334614457964661e-11,3.7648142816934734e-11,2.3272102595692915e-11,1.4436526503894559e-11,8.192584385017835e-12,4.918321898311246e-12,2.651298439212707e-12,1.3636387305509862e-12,7.385827252062131e-13,3.555941672386833e-13,1.7378556998274362e-13,7.385516253361674e-09,5.7927282843030505e-09,4.751321093895871e-09,3.874952691152802e-09,3.0624704229923824e-09,2.4118998206734503e-09,1.9715664035657342e-09,1.491944084661663e-09,1.1931295366171154e-09,9.168312836350968e-10,6.535346046095316e-10,4.83246937292054e-10,3.566128957132905e-10,2.576028960626371e-10,1.8055808442430193e-10,1.2078532051972806e-10,7.938929697889938e-11,5.378266956331073e-11,3.587558608310924e-11,2.409875357093815e-11,1.480081488796091e-11
0.0,31,31.0,0.0,30.0,0.0,0.0,0.0,0.0,-13.0,0.0,2.0,0.0,0.0,0.0,2.2179893912245715e-09,2.2262698199870985e-09,2.109686689425343e-09,1.8950444988444976e-09,1.6853727055487197e-09,1.5106658432226967e-09,1.2617931727684466e-09,1.1618192105547909e-09,9.293634500647739e-10,8.352929088702048e-10,6.342953967466058e-10,5.454070053598665e-10,4.082532805753113e-10,3.3680058216313113e-10,2.701118214576764e-10,1.9846889859800463e-10,1.5113654555858398e-10,1.1166963341283632e-10,7.905009732501084e-11,5.681000452919983e-11,3.8398278220374065e-11,2.423208017727815e-11,1.4770143584418186e-11,8.412868853914154e-12,4.836251458767167e-12,2.328676984492316e-12,1.3256506714665293e-12,6.775204573117575e-13,3.427328631288939e-13,1.7216564472360279e-13,7.543408021279318e-09,5.965529263152818e-09,4.796209851865458e-09,3.6570745666350607e-09,3.229975161869577e-09,2.324493325852775e-09,1.844768895345247e-09,1.5598272909145798e-09,1.1317904896103495e-09,9.24125669367043e-10,6.661028943502549e-10,4.708456473180849e-10,3.7402263877520477e-10,2.540601049855277e-10,1.8401211961122486e-10,1.2501133571627515e-10,8.597875580598679e-11,5.527554082034573e-11,3.605489050851064e-11,2.520005006255206e-11,1.4447518747155025e-11
0.0,32,32.0,0.0,30.0,0.0,0.0,0.0,0.0,-13.0,0.0,2.0,0.0,0.0,0.0,2.3206275941634104e-09,2.210468876430331e-09,2.0638821462349567e-09,1.784190737603134e-09,1.6758729870335517e-09,1.5813783276675816e-09,1.3766095685093852e-09,1.1518984170557655e-09,9.717197027451382e-10,8.00612276147711e-10,6.970339644391439e-10,5.468060656804576e-10,4.4192322501060146e-10,3.5347027533098656e-10,2.5436180183910477e-10,2.0134939086977923e-10,1.523966320397592e-10,1.041051216497922e-10,7.969298046904712e-11,5.426858253614523e-11,3.805905792676882e-11,2.4393506213769152e-11,1.493889593498847e-11,8.61792763080828e-12,4.811048714910991e-12,2.615699384287475e-12,1.356053683140618e-12,6.869121981287362e-13,3.3665490649689583e-13,1.621176153044188e-13,6.96792191371722e-09,6.055712985443209e-09,4.631733681065122e-09,3.856208553834267e-09,2.9090771723014287e-09,2.511954247289894e-09,1.9043034844893167e-09,1.544177299047728e-09,1.1776538106625501e-09,9.48025197995511e-10,6.757767154377208e-10,5.122043210524068e-10,3.5891958859127416e-10,2.55638573630972e-10,1.7958212331416362e-10,1.193603292805572e-10,8.429494720314365e-11,5.521060372302633e-11,3.544664156042894e-11,2.4693006471340978e-11,1.5404457796328066e-11
0.0,33,33.0,0.0,30.0,0.0,0.0,0.0,0.0,-13.0,0.0,2.0,0.0,0.0,0.0,2.260347706994191e-09,2.2349139229006294e-09,2.015367108778815e-09,1.7769236361187782e-09,1.660017206735097e-09,1.5530552999860587e-09,1.3308176904049411e-09,1.1579042740472296e-09,1.035556093544789e-09,8.364657056627729e-10,6.864061922704394e-10,5.542402793195037e-10,4.3740282347290313e-10,3.255676784367723e-10,2.740876872909286e-10,2.050029561115317e-10,1.486665135221078e-10,1.1102964505112497e-10,8.056970451604528e-11,5.364680030049313e-11,3.7472622663078515e-11,2.419087459662559e-11,1.4299260866133843e-11,7.937707125180864e-12,4.7320643710213295e-12,2.6177557868182327e-12,1.3304458070339778e-12,6.679497580274681e-13,3.302449661304482e-13,1.6332860358865589e-13,7.313577303246103e-09,5.565294506817286e-09,4.5039327039047386e-09,3.896218806304548e-09,3.0972886809841506e-09,2.4474510039116922e-09,1.930040340015055e-09,1.5468965395349777e-09,1.2129755950573416e-09,8.905478829441663e-10,6.418513012162925e-10,4.976525967267795e-10,3.759188929814811e-10,2.614228126765749e-10,1.7960628067331428e-10,1.18876287373228e-10,8.417266439233883e-11,5.3255718881674853e-11,3.5348090563395115e-11,2.3177711694505723e-11,1.4195539368481831e-11
0.0,34,34.0,0.0,30.0,0.0,0.0,0.0,0.0,-13.0,0.0,2.0,0.0,0.0,0.0,2.2858712773319893e-09,2.218305944794588e-09,2.1263916557873673e-09,1.8421574023044559e-09,1.772765189196677e-09,1.4485100246027056e-09,1.3174072819023675e-09,1.1257162985785379e-09,9.682196313520883e-10,8.419681048127306e-10,6.818480845738848e-10,5.686174319439338e-10,4.546358298178434e-10,3.563753823145138e-10,2.619922152900763e-10,2.0180763691601886e-10,1.479492814710757e-10,1.1884280950437068e-10,7.763047819617012e-11,5.554845459615206e-11,3.7265109451387114e-11,2.4237983375675886e-11,1.4279553092532102e-11,8.206469727076002e-12,4.594564768725095e-12,2.4287754737569853e-12,1.2441690652751082e-12,6.56630060142233e-13,3.268296474395654e-13,1.6765909106640165e-13,7.106773718127244e-09,5.759771777565415e-09,4.753848532198004e-09,3.832235358155483e-09,2.955138094683324e-09,2.4468419426687603e-09,1.8848330751971934e-09,1.5038486668857556e-09,1.1810695632968237e-09,8.822405289162485e-10,6.756934594819156e-10,5.026108462314122e-10,3.75479872890051e-10,2.4283649187023385e-10,1.837116890293867e-10,1.2389788154132673e-10,8.703453592755293e-11,5.7995803401101586e-11,3.556347812197723e-11,2.4076386780612264e-11,1.4464454695386284e-11
0.0,35,35.0,0.0,30.0,0.0,0.0,0.0,0.0,-13.0,0.0,2.0,0.0,0.0,0.0,2.151432992170069e-09,2.1307714890922205e-09,1.9803377653608667e-09,1.879369093915352e-09,1.7263631480255461e-09,1.5573869320070019e-09,1.3491845371249256e-09,1.1037384608795462e-09,1.017155311004084e-09,8.409589617024974e-10,7.151600612775139e-10,5.411899235146776e-10,4.3620394648336205e-10,3.3530017434206827e-10,2.6876737684085973e-10,2.0022448641052017e-10,1.5581188634915332e-10,1.1084043409296279e-10,7.781253678290133e-11,5.640984323994904e-11,3.790151722719198e-11,2.355461637231573e-11,1.3971748954123059e-11,7.996717479074525e-12,4.569473056694588e-12,2.5378717887884354e-12,1.2791128695937396e-12,6.373112026611342e-13,2.960676360763829e-13,1.634218245514623e-13,7.27597998885285e-09,5.6631260327544535e-09,4.811812961217418e-09,3.896080586924148e-09,3.0984966909431794e-09,2.5304735867373953e-09,1.9415627951384905e-09,1.5185464601165883e-09,1.244886836859752e-09,8.87925027204395e-10,7.036750427093497e-10,4.944046192160589e-10,3.6916929196694685e-10,2.619612768216993e-10,1.8303965886213762e-10,1.2278132655701274e-10,8.647146913568281e-11,5.6121387478792206e-11,3.890233012337412e-11,2.4673604383464353e-11,1.4129890558341022e-11
0.0,36,36.0,0.0,30.0,0.0,0.0,0.0,0.0,-13.0,0.0,2.0,0.0,0.0,0.0,2.241805782240042e-09,2.1504975713220746e-09,2.1413638574168923e-09,1.9297037973703763e-09,1.6253183615202205e-09,1.5778513409908772e-09,1.315239481655022e-09,1.120839177016005e-09,9.7851795956346e-10,8.548927080389382e-10,6.565694432979073e-10,5.420308291371795e-10,4.1993241682949606e-10,3.5001730128025795e-10,2.7226931066898957e-10,1.986187009387165e-10,1.4508656295962038e-10,1.1230932597565265e-10,8.241150763515225e-11,5.483288569513162e-11,3.5257796566695916e-11,2.3504064878816328e-11,1.4159599405126026e-11,8.407268049055322e-12,4.612600094649941e-12,2.5123361401412838e-12,1.2602822850829288e-12,6.422729931606649e-13,3.228476710761754e-13,1.4981540294270279e-13,7.763313336282925e-09,5.89580518654538e-09,4.567845990556316e-09,3.866886987805419e-09,3.176041275569136e-09,2.435627423472898e-09,1.9724489566014636e-09,1.479068498572415e-09,1.1663050968916831e-09,9.1631836986093e-10,6.729405482634784e-10,5.01005879466784e-10,3.517221497082165e-10,2.4688960394538345e-10,1.6423189107149529e-10,1.2383995569865664e-10,8.515195061964387e-11,5.540868941324029e-11,3.822431210751159e-11,2.3029948529705807e-11,1.5168685828270127e-11
0.0,37,37.0,0.0,30.0,0.0,0.0,0.0,0.0,-13.0,0.0,2.0,0.0,0.0,0.0,2.2218430955195295e-09,2.210119053337356e-09,1.985779017983341e-09,1.968529798654036e-09,1.71291437385829e-09,1.5502741865707618e-09,1.3265628995469061e-09,1.2014638908614555e-09,9.995678559217714e-10,8.227761523005649e-10,6.603798341689979e-10,5.306465896498116e-10,4.3765807279587657e-10,3.520293873636067e-10,2.6095676290074145e-10,2.090378409136984e-10,1.5363331744417664e-10,1.143934517143749e-10,7.972662815326204e-11,5.6940364200579966e-11,3.56688611392796e-11,2.4041992288283877e-11,1.4360797731196233e-11,7.840728370225281e-12,4.5261062497562086e-12,2.335146075684448e-12,1.2485777622918585e-12,6.490250475277639e-13,3.2133672454382716e-13,1.4995855736656183e-13,7.502761598759412e-09,5.6956155849072775e-09,4.677961145846216e-09,3.6065359018975244e-09,3.0385932337367463e-09,2.425032642073657e-09,1.8439399776099572e-09,1.5303942257208352e-09,1.214814984415647e-09,8.725385571415434e-10,6.924035255528996e-10,5.057906084004774e-10,3.544878572525638e-10,2.585665931718166e-10,1.6915779303678756e-10,1.2140298974374833e-10,8.551221496825753e-11,5.7618488050432947e-11,3.912416998932052e-11,2.5264841505478988e-11,1.5344298678255097e-11
0.0,38,38.0,0.0,30.0,0.0,0.0,0.0,0.0,-13.0,0.0,2.0,0.0,0.0,0.0,2.2119311807804024e-09,2.262621726481872e-09,2.1042824212103655e-09,1.9220749392690137e-09,1.6903210926438848e-09,1.5283303745322653e-09,1.3925544016936416e-09,1.1193690291463571e-09,1.032543934284249e-09,8.350611329266585e-10,6.852919752192512e-10,5.415659356161754e-10,4.324801006868878e-10,3.31822940369559e-10,2.614418054477073e-10,1.8346476803672697e-10,1.635188439083049e-10,1.1379932799907778e-10,8.190969306049243e-11,5.914740574080979e-11,3.618240475920608e-11,2.3142217497968807e-11,1.467839486710867e-11,8.0118195795551e-12,4.659597788812124e-12,2.2698217934443307e-12,1.2299602881738393e-12,6.453308664918058e-13,3.100105215876562e-13,1.4666046212128564e-13,7.478411757754496e-09,6.150350759305023e-09,4.6247716637281195e-09,3.752403329190146e-09,2.9652537555971265e-09,2.5680832989172598e-09,1.921537410493067e-09,1.4169378615191621e-09,1.1527097116747382e-09,8.985799853842277e-10,6.633675628325203e-10,4.926971605270537e-10,3.600240312312505e-10,2.4826812156090275e-10,1.7455387039867128e-10,1.2508631486810618e-10,8.64598384696127e-11,5.904460792063541e-11,3.8684671712021327e-11,2.4219700147927455e-11,1.4961455576935832e-11
0.0,39,39.0,0.0,30.0,0.0,0.0,0.0,0.0,-13.0,0.0,2.0,0.0,0.0,0.0,2.2355075291296383e-09,2.2594690661800043e-09,2.130874643087883e-09,1.9635605782125085e-09,1.7293073957934676e-09,1.522053396783654e-09,1.327338710367289e-09,1.1002662701499448e-09,9.545247085586938e-10,8.202251864585351e-10,6.797674549328145e-10,5.474396509458993e-10,4.314207626279885e-10,3.4875713342367737e-10,2.8102236235116364e-10,2.0399420230435068e-10,1.648505348682311e-10,1.1363908233135752e-10,8.192846439545625e-11,5.674083438700181e-11,3.5518703652982603e-11,2.3407132526575244e-11,1.3608375116998217e-11,8.136962266089921e-12,4.466837081109129e-12,2.3865128214356894e-12,1.2371977729509522e-12,6.262490839438157e-13,2.893605829338017e-13,1.395761823708598e-13,7.289898666420836e-09,5.7604198130454115e-09,4.427035300197468e-09,3.7512040356632424e-09,3.173427134005641e-09,2.428625650887741e-09,1.8131796523656251e-09,1.447448872777127e-09,1.0879026338770057e-09,8.822296935317006e-10,7.05846627725299e-10,4.958429539164406e-10,3.6785682673966565e-10,2.627224811747785e-10,1.9103470432203818e-10,1.2504240630288143e-10,8.691894004319274e-11,5.703391623826784e-11,4.0237514906633224e-11,2.4384839032799866e-11,1.4879585173595284e-11
0.0,40,40.0,0.0,30.0,0.0,0.0,0.0,0.0,-13.0,0.0,2.0,0.0,0.0,0.0,2.317225993296254e-09,2.110519147397404e-09,2.0024672629768437e-09,2.034055350602092e-09,1.6168834016168006e-09,1.5215649528917514e-09,1.3550113328522308e-09,1.1862927391895936e-09,9.92120465164418e-10,8.094724835039228e-10,6.777020222384187e-10,5.498257951860199e-10,4.2466198018040214e-10,3.2795215990801875e-10,2.6551832531820063e-10,1.9533878812125653e-10,1.5987700026258292e-10,1.075921075705386e-10,8.123679702719508e-11,5.5898082187669245e-11,3.668525467134425e-11,2.279744415351782e-11,1.3684764594160862e-11,7.898335000908705e-12,4.496180396927847e-12,2.3461218360143953e-12,1.200144011744082e-12,5.864062089904463e-13,2.907184116733389e-13,1.3680793285444995e-13,7.563910093296702e-09,5.490697015814585e-09,4.8877290628443614e-09,3.6218385082916484e-09,3.1466802454983837e-09,2.437709807852084e-09,1.8695823662075312e-09,1.4334175080450813e-09,1.1230591030011345e-09,8.894483435312988e-10,6.814287330040353e-10,5.057384521292428e-10,3.742620139995369e-10,2.556577217587262e-10,1.7344434876632685e-10,1.187392289589823e-10,8.590747452746148e-11,5.945907697544433e-11,3.968361588212142e-11,2.3835782799012004e-11,1.4093325205314514e-11
0.0,41,41.0,0.0,30.0,0.0,0.0,0.0,0.0,-13.0,0.0,2.0,0.0,0.0,0.0,2.355695967064015e-09,2.2470790061529017e-09,1.8748651638723696e-09,1.8969875315629624e-09,1.7026575709009555e-09,1.5217736337773422e-09,1.3376562889209877e-09,1.1198168308821481e-09,9.723625174294295e-10,8.696666514172835e-10,6.727103661581668e-10,5.418999634770656e-10,4.3505202926130725e-10,3.326755349404695e-10,2.5694270101489754e-10,2.0147227809646902e-10,1.534502800754933e-10,1.2049401755192282e-10,8.162107720958229e-11,5.4998669820528954e-11,3.661942530667529e-11,2.419380432144289e-11,1.4042345443732348e-11,7.54386786256182e-12,4.1021702048236494e-12,2.2726310974389398e-12,1.2125236550153348e-12,6.174995865541756e-13,2.8168967794437e-13,1.393671901992627e-13,6.9996815851449885e-09,6.099939434596053e-09,4.738563841759868e-09,4.091717499969939e-09,2.9703526997149025e-09,2.4221946832940607e-09,1.893461990745842e-09,1.4931349788050382e-09,1.1635675106685017e-09,8.975957535524205e-10,6.667052985334174e-10,5.117266999696509e-10,3.524790530756941e-10,2.633294838529666e-10,1.825206238351308e-10,1.308509288610715e-10,8.81477305904318e-11,6.096327734215973e-11,3.923407514896687e-11,2.4582500844026417e-11,1.460654231593464e-11
0.0,42,42.0,0.0,30.0,0.0,0.0,0.0,0.0,-13.0,0.0,2.0,0.0,0.0,0.0,2.296100608773145e-09,2.2302188198624902e-09,1.944672013130435e-09,1.8376432988898964e-09,1.7077199807665343e-09,1.5194927971044575e-09,1.3424675922498755e-09,1.1739917870621596e-09,9.643924780324615e-10,7.961729030087933e-10,6.574989555497429e-10,5.750852085790924e-10,4.437298457292194e-10,3.3309550373442033e-10,2.6906117839715655e-10,2.0771395182335721e-10,1.5555728349640067e-10,1.1065510116981774e-10,8.443939004726311e-11,5.704197177619166e-11,3.4994873437581034e-11,2.168556228700925e-11,1.3391436579604174e-11,8.2026654998737e-12,4.010138367420915e-12,2.215792520514347e-12,1.1880109227523437e-12,5.871785144910573e-13,2.717020693851693e-13,1.401905041704759e-13,7.097421125873351e-09,6.207194162444611e-09,4.585803632312285e-09,3.6670173875043396e-09,2.9625109360255746e-09,2.2312717793175052e-09,1.8700972323097954e-09,1.5484484412039048e-09,1.0923740965411613e-09,8.97700203792666e-10,6.425472170189311e-10,4.741106512273247e-10,3.4707080423305043e-10,2.6465806524061284e-10,1.8063101067942437e-10,1.3012259904831068e-10,9.069072517609725e-11,6.194883363982239e-11,3.9524693628823766e-11,2.6028244068023227e-11,1.5328606763380595e-11
0.0,43,43.0,0.0,30.0,0.0,0.0,0.0,0.0,-13.0,0.0,2.0,0.0,0.0,0.0,2.3552193102789816e-09,2.1906423897657295e-09,2.07794431500401e-09,1.9112958678770147e-09,1.6482515679654973e-09,1.4640166626689626e-09,1.3223995952115389e-09,1.1406780878610623e-09,9.720188020925074e-10,8.385117231459618e-10,6.967466548768914e-10,5.561330051422267e-10,4.722589799009662e-10,3.4068395362860935e-10,2.626532668538042e-10,2.0666705432002167e-10,1.5629634882927054e-10,1.124446856945013e-10,8.716389777816924e-11,5.7533641532976537e-11,3.7616013213400624e-11,2.2823694254147907e-11,1.324081219277344e-11,7.551394159752094e-12,4.2726880347583055e-12,2.2039216634695634e-12,1.1588779581636161e-12,5.273645003559517e-13,2.785416319639228e-13,1.3161276670076625e-13,6.932639743649236e-09,5.62958095902612e-09,4.650084503222801e-09,3.683351111273951e-09,2.972905098741665e-09,2.2462095519357347e-09,2.0356655294288343e-09,1.4826853047541152e-09,1.1775971474523462e-09,8.95351034117192e-10,6.693714451621047e-10,4.900294406634226e-10,3.4173971862213826e-10,2.7322485791474096e-10,1.8881105475226997e-10,1.2583017507076189e-10,8.985239648625571e-11,6.285371194467575e-11,4.116678196258282e-11,2.431570448770597e-11,1.514851548325337e-11
0.0,44,44.0,0.0,30.0,0.0,0.0,0.0,0.0,-13.0,0.0,2.0,0.0,0.0,0.0,2.22381125102301e-09,2.2159582520787733e-09,2.1156754145566194e-09,1.9385841523814573e-09,1.6682820974106654e-09,1.5473344190362983e-09,1.2940572056753053e-09,1.1742784092907534e-09,9.769334109892558e-10,8.206838858726069e-10,6.923208178293942e-10,5.38500997930122e-10,4.354894376023436e-10,3.4105584223424036e-10,2.837993286372794e-10,2.1142353528057169e-10,1.5770595415943965e-10,1.1618943862667546e-10,7.884550317767487e-11,5.726088457671009e-11,3.5857100664787674e-11,2.2539057694853424e-11,1.3456652882750631e-11,7.669637637991656e-12,4.296572699333965e-12,2.1833284669248565e-12,1.1228676934926207e-12,5.677057811773492e-13,2.6641408823109e-13,1.346621578786169e-13,7.071975306280035e-09,5.940310173329102e-09,4.6043460715649134e-09,3.7190016368052804e-09,3.0280347290803407e-09,2.4452534176604044e-09,1.8718052397175863e-09,1.5077268935828296e-09,1.2464032797637652e-09,9.597934491958747e-10,7.102606931698669e-10,4.991064228804223e-10,3.40712699836384e-10,2.5535058139612707e-10,1.838903002505278e-10,1.3167322146534567e-10,9.15778512276061e-11,6.178556351812274e-11,4.225912578181909e-11,2.5142036307692928e-11,1.5409295282857572e-11
0.0,45,45.0,0.0,30.0,0.0,0.0,0.0,0.0,-13.0,0.0,2.0,0.0,0.0,0.0,2.3531179929577313e-09,2.2152048467293893e-09,2.040429192302229e-09,1.9161103821367874e-09,1.7973521984497323e-09,1.4759813324751025e-09,1.3653371380610459e-09,1.124026916893779e-09,1.0314351410548939e-09,8.465131882463674e-10,6.619452142680321e-10,5.741290687619168e-10,4.3784259165320324e-10,3.5326196228896124e-10,2.666025889870023e-10,2.0087641683930285e-10,1.5879102485807033e-10,1.1104484532588332e-10,7.754856238787942e-11,5.400212583158451e-11,3.434939680627752e-11,2.2384495624807643e-11,1.2685867287506066e-11,7.682010426926102e-12,4.224579908412578e-12,2.15200633538314e-12,1.0683224304037335e-12,5.543533865831921e-13,2.597413337280073e-13,1.2742016103686118e-13,7.329626995477968e-09,6.004473355896444e-09,4.476231262587812e-09,3.825966430853146e-09,2.908117575453641e-09,2.4701219565140125e-09,1.85755517004306e-09,1.432053838418835e-09,1.2108096109469268e-09,8.663360392002493e-10,7.007127720777279e-10,5.081959189928856e-10,3.569080065582371e-10,2.5681772338664656e-10,1.8531875968465576e-10,1.3277013950326408e-10,8.830924669103089e-11,6.42544179751896e-11,4.007431725823921e-11,2.5880723471445143e-11,1.4630656280488893e-11
0.0,46,46.0,0.0,30.0,0.0,0.0,0.0,0.0,-13.0,0.0,2.0,0.0,0.0,0.0,2.1851436405869163e-09,2.121307606928031e-09,2.0645046014196606e-09,1.9308471999484577e-09,1.6627629141109606e-09,1.5410751125754297e-09,1.3320076901541359e-09,1.1656331641682715e-09,9.887985228983767e-10,8.332924851255922e-10,6.83853356731122e-10,5.709450423179279e-10,4.620021304005334e-10,3.3029094763503577e-10,2.7531822710106516e-10,2.0484754478513722e-10,1.6509345474349952e-10,1.0896701209490873e-10,8.007009894770338e-11,5.562602277622724e-11,3.595368845450724e-11,2.139195013697394e-11,1.3207721177209237e-11,7.456276244632645e-12,4.108180897907906e-12,2.081245595282229e-12,1.0747004737625147e-12,5.235419423877833e-13,2.491124039221624e-13,1.2093331459921369e-13,7.24235075224808e-09,6.03022727466635e-09,4.556084647033972e-09,3.782800129260899e-09,3.012614842189207e-09,2.3919256958121793e-09,1.942327579546006e-09,1.4896751447626467e-09,1.1195902792089825e-09,8.664008774047348e-10,6.665788654177789e-10,4.873468022142125e-10,3.592733425229525e-10,2.5696027866262086e-10,1.737299329426603e-10,1.293421490835252e-10,9.042780679860734e-11,6.119366996140724e-11,4.058787463527339e-11,2.4956113843976934e-11,1.5279413742935632e-11
0.0,47,47.0,0.0,30.0,0.0,0.0,0.0,0.0,-13.0,0.0,2.0,0.0,0.0,0.0,2.1741527718242233e-09,2.2499778032967393e-09,2.0381090849133976e-09,1.902342848841553e-09,1.6879918086546926e-09,1.4810764673013954e-09,1.293612300696453e-09,1.132189891661848e-09,9.950673843495376e-10,8.198008326025804e-10,6.554197193297152e-10,5.582853979920382e-10,4.176713895626529e-10,3.367114437453098e-10,2.700031792812969e-10,1.9643332723575963e-10,1.5398563995736548e-10,1.1931559601526122e-10,8.200994276732813e-11,5.611114723240088e-11,3.6115066331720275e-11,2.315468600920512e-11,1.3575857558213322e-11,7.461930628273861e-12,4.000641055456698e-12,2.0695903222042463e-12,1.076159461376115e-12,5.181982503235694e-13,2.3115077599928843e-13,1.2663264807364385e-13,7.331564397847019e-09,6.005062399051878e-09,4.685562545319242e-09,3.801542289392525e-09,2.9803324715346386e-09,2.499353746783566e-09,1.9529586039582034e-09,1.4875529742770632e-09,1.099490490977057e-09,8.364794070321677e-10,6.39662220244759e-10,5.302537842543797e-10,3.7463411567929117e-10,2.490030300712537e-10,1.9258122625439055e-10,1.3389947091339244e-10,9.032550285714545e-11,6.432945492532365e-11,4.010830667532867e-11,2.5341502645816957e-11,1.5158546080554974e-11
