Line_number,Fiducial,Easting,Northing,Height,Elevation,tx_pitch,tx_roll,tx_yaw,txrx_dx,txrx_dy,txrx_dz,rx_pitch,rx_roll,rx_yaw,S0Z_time_1.431e-04,S0Z_time_1.801e-04,S0Z_time_2.266e-04,S0Z_time_2.846e-04,S0Z_time_3.581e-04,S0Z_time_4.506e-04,S0Z_time_5.671e-04,S0Z_time_7.136e-04,S0Z_time_8.981e-04,S0Z_time_1.131e-03,S0Z_time_1.423e-03,S0Z_time_1.791e-03,S0Z_time_2.255e-03,S0Z_time_2.838e-03,S0Z_time_3.573e-03,S0Z_time_4.498e-03,S0Z_time_5.662e-03,S1Z_time_1.409e-05,S1Z_time_1.610e-05,S1Z_time_1.909e-05,S1Z_time_2.360e-05,S1Z_time_2.960e-05,S1Z_time_3.709e-05,S1Z_time_4.609e-05,S1Z_time_5.759e-05,S1Z_time_7.209e-05,S1Z_time_9.060e-05,S1Z_time_1.141e-04,S1Z_time_1.431e-04,S1Z_time_1.801e-04,S1Z_time_2.266e-04,S1Z_time_2.846e-04,S1Z_time_3.581e-04,S1Z_time_4.506e-04,S1Z_time_5.671e-04,S1Z_time_7.136e-04,S1Z_time_8.981e-04,S1Z_time_1.131e-03
0.0,0,0.0,0.0,30.0,0.0,0.0,0.0,0.0,-13.0,0.0,2.0,0.0,0.0,0.0,1.1064568189326343e-10,7.903660114834083e-11,5.066520850647213e-11,2.802725609659909e-11,1.858942655556712e-11,1.1264879936513797e-11,6.0653602971016715e-12,3.272054269326626e-12,1.7564491918454516e-12,8.146339844915309e-13,3.9214923413379134e-13,2.1296799450457706e-13,8.390496882718464e-14,1.8655788132658605e-14,6.3529388957926865e-15,1.2902279021477226e-14,6.165899067067011e-15,3.838112670124101e-09,3.064079648340176e-09,2.027506510191082e-09,1.2612861961922584e-09,7.860990779558269e-10,4.775939277533323e-10,3.483964811860658e-10,2.497162888417854e-10,2.02564521627275e-10,1.5087733770182517e-10,1.2325715232091134e-10,8.5379698091152e-11,6.442386601804315e-11,3.9759491336836996e-11,2.4928054315826705e-11,1.477972917003311e-11,9.552916144865445e-12,5.042594811998959e-12,2.860218771652622e-12,1.3313603175864716e-12,8.219728856647812e-13
0.0,1,1.0,0.0,30.0,0.0,0.0,0.0,0.0,-13.0,0.0,2.0,0.0,0.0,0.0,1.0854368954146161e-10,7.537669926370032e-11,5.374609651498758e-11,3.34912204349837e-11,2.154092563134372e-11,1.2233943755419212e-11,7.267234838864374e-12,3.97814189200783e-12,2.116032460522338e-12,1.0675093599920334e-12,5.681710779126548e-13,2.411605353282246e-13,1.1059884282599684e-13,7.003460429718115e-14,1.9983325904748212e-14,1.8387849583111122e-14,-9.095896415884864e-15,4.069876065714201e-09,2.8266397422822833e-09,2.0820733284203474e-09,1.2515395159022766e-09,7.475738402840149e-10,4.86927386403231e-10,3.3948991184113023e-10,2.5068494258847224e-10,1.898062119999368e-10,1.459134886981519e-10,1.1055357558076626e-10,8.431248127241315e-11,6.182035921693571e-11,4.2110229925160777e-11,2.7828309455834183e-11,1.7281202326136397e-11,1.044128126368075e-11,5.873753602139834e-12,3.1785972626673036e-12,1.7607144855061694e-12,9.047438992147918e-13
0.0,2,2.0,0.0,30.0,0.0,0.0,0.0,0.0,-13.0,0.0,2.0,0.0,0.0,0.0,1.0616160750658503e-10,7.737154029247407e-11,5.106595527516064e-11,3.472494785846384e-11,2.1924650423782396e-11,1.3510112022815684e-11,8.29389628249472e-12,4.313114266848773e-12,2.1583286881686097e-12,1.217926648851885e-12,6.8950197785177e-13,3.080720753033916e-13,1.5860936207374466e-13,7.18747652324954e-14,3.750860307447632e-14,1.863624073703798e-14,1.016246171437683e-15,4.175245968144914e-09,3.105397578808041e-09,2.090445123620026e-09,1.280857416006138e-09,7.829088838548732e-10,4.824141396872843e-10,3.3785880486891773e-10,2.2725060558643502e-10,1.7454089934717273e-10,1.442742636771238e-10,1.0079123711945448e-10,8.545509016995323e-11,6.242343659314489e-11,4.300948289666649e-11,2.9059448445307218e-11,1.8299072889893005e-11,1.1008212462841614e-11,6.730214815730103e-12,3.6209865971190854e-12,1.672405276007009e-12,7.305814448616982e-13
0.0,3,3.0,0.0,30.0,0.0,0.0,0.0,0.0,-13.0,0.0,2.0,0.0,0.0,0.0,1.0131117309606571e-10,7.27230218409555e-11,5.288358855828472e-11,3.6603697806602204e-11,2.3128280953811616e-11,1.4223084132579068e-11,8.505968311804963e-12,5.0805832066648e-12,2.7991032114658307e-12,1.5178883080025804e-12,7.597864240057309e-13,3.2826389448289655e-13,1.8304283654520695e-13,6.295802816504981e-14,5.318975956404578e-14,2.5986174062267637e-14,1.4873240752695654e-14,4.072801125622394e-09,2.9215865753623524e-09,2.1476239211212534e-09,1.2951037140141907e-09,7.822692713096224e-10,4.772560441860095e-10,3.1466240059906924e-10,2.330622042543833e-10,1.7543175183759243e-10,1.3976785501670283e-10,1.0373404207066898e-10,8.16808198608345e-11,5.7843150344143854e-11,4.1210263645048117e-11,2.894033716685735e-11,1.8808914267045555e-11,1.2134207571522086e-11,6.978418652729707e-12,4.019578110395997e-12,2.255929142047705e-12,9.183096698568064e-13
0.0,4,4.0,0.0,30.0,0.0,0.0,0.0,0.0,-13.0,0.0,2.0,0.0,0.0,0.0,9.944713622021262e-11,6.902929108380431e-11,5.1762477264577356e-11,3.608557890568953e-11,2.3663806545566742e-11,1.5522004112544852e-11,8.846041149768925e-12,5.465188433328645e-12,3.0928554547249324e-12,1.692954053210474e-12,8.805039573231252e-13,3.9886359985604355e-13,2.0775572038380772e-13,1.1140812943704735e-13,5.832704453943337e-14,1.4765292927019273e-14,-1.2268397287363909e-15,4.1105676185294684e-09,2.896649689819715e-09,2.007425505431795e-09,1.2289549042892378e-09,7.277943564111819e-10,4.874979851576996e-10,3.325501786734823e-10,2.2570984812745313e-10,1.7571195135353875e-10,1.264517395355501e-10,1.0010182455733627e-10,7.333129552432252e-11,5.92649929050989e-11,4.301478379118936e-11,2.7285028780666033e-11,2.026240272429331e-11,1.2805274069994323e-11,7.392004620043926e-12,4.280526740678691e-12,2.4795086690832916e-12,1.4334933443525176e-12
0.0,5,5.0,0.0,30.0,0.0,0.0,0.0,0.0,-13.0,0.0,2.0,0.0,0.0,0.0,1.0166836214459862e-10,6.980876029596376e-11,4.821830116860995e-11,3.478519651163213e-11,2.3869081180218748e-11,1.532869070430433e-11,9.329122185216142e-12,5.810386864816609e-12,3.332395549511232e-12,1.821892334131413e-12,9.704035926748288e-13,4.771660098867081e-13,2.2746805303425674e-13,1.1321714263971579e-13,5.1175307036362066e-14,2.5639640621594275e-14,2.3164266886826462e-14,4.148100488441567e-09,3.0269027633187204e-09,2.0390686233283727e-09,1.24308270507734e-09,7.191208969630692e-10,4.795981342691673e-10,3.336896218652249e-10,2.291427480609625e-10,1.709558413553367e-10,1.2996101654969696e-10,9.76810538614006e-11,7.475857969183614e-11,5.8080539149670314e-11,3.9374637043067905e-11,2.9460152439968325e-11,2.046792451961755e-11,1.3097449980161529e-11,7.592516462882126e-12,4.735943825455557e-12,2.745183042314369e-12,1.2212621009297148e-12
0.0,6,6.0,0.0,30.0,0.0,0.0,0.0,0.0,-13.0,0.0,2.0,0.0,0.0,0.0,9.69478931667553e-11,7.045929617466225e-11,4.944538654589494e-11,3.587457365461508e-11,2.4318033050100884e-11,1.6469489242277374e-11,9.72545118205193e-12,6.19842522205378e-12,3.669954455616418e-12,2.0647986007659097e-12,1.1636826705053286e-12,5.501179615688e-13,2.723016368698149e-13,1.347327940064622e-13,5.145009145953893e-14,1.9707803898386558e-14,3.0880200047647014e-14,4.018845677315265e-09,2.9553918153711336e-09,1.9364239752007222e-09,1.2098913670470392e-09,7.53042260470613e-10,4.692324493428592e-10,3.45632192842911e-10,2.3266676743395188e-10,1.608303701981735e-10,1.3802973184340733e-10,9.742156562030956e-11,7.155181157048928e-11,5.543071626272025e-11,4.2381397246605804e-11,2.8110881028740906e-11,2.0202765058159627e-11,1.3278827032055173e-11,8.597351646507284e-12,4.628681345017328e-12,2.927830265845953e-12,1.4373079644930082e-12
0.0,7,7.0,0.0,30.0,0.0,0.0,0.0,0.0,-13.0,0.0,2.0,0.0,0.0,0.0,9.691002752696806e-11,6.695822477553104e-11,4.7846334379558214e-11,3.549487441619367e-11,2.547309353094209e-11,1.705229096192082e-11,1.0175824948208292e-11,6.680437974748633e-12,3.7989896090724304e-12,2.125908978086707e-12,1.150692943970235e-12,5.990311055840126e-13,3.338486603731138e-13,1.4384229035531068e-13,7.165305324314638e-14,5.073686010368405e-14,2.834370771316482e-14,3.9141563381334544e-09,2.893671690036896e-09,1.850003505170404e-09,1.139546968623337e-09,7.407101901588152e-10,4.771427258628759e-10,3.318738201506651e-10,2.492541665566647e-10,1.7650477939991177e-10,1.3188168817185153e-10,9.502574899230376e-11,7.216268112192114e-11,5.1977367371673836e-11,3.903067298925279e-11,3.131265381355429e-11,1.9865403610577534e-11,1.3182486619910878e-11,8.343169812072793e-12,5.373634554050657e-12,2.85479833686539e-12,1.5170407708600253e-12
0.0,8,8.0,0.0,30.0,0.0,0.0,0.0,0.0,-13.0,0.0,2.0,0.0,0.0,0.0,9.096721709614818e-11,6.905575786068088e-11,4.670641388434066e-11,3.48211969011885e-11,2.483985951645745e-11,1.7134341261404132e-11,1.1167553037378695e-11,6.869691122526153e-12,4.233116064933432e-12,2.4512045466562776e-12,1.3264658886462495e-12,7.021982563928109e-13,3.6541391735790425e-13,1.7540200171893294e-13,8.450378144668013e-14,3.2135079732630084e-14,1.9402152799210674e-14,3.876109762588319e-09,2.7892958349628046e-09,1.9531629665346886e-09,1.172261717231869e-09,7.581688665595842e-10,4.59606407834288e-10,3.3398680494683983e-10,2.374571271726206e-10,1.7972147687818935e-10,1.283849874035506e-10,9.722179351127736e-11,6.998365943626391e-11,5.202995349772112e-11,4.0311018171161486e-11,2.851144687441084e-11,1.96911973769919e-11,1.2988649574898704e-11,8.364462551677004e-12,5.171954280826607e-12,2.8116389619653123e-12,1.5790087570526405e-12
0.0,9,9.0,0.0,30.0,0.0,0.0,0.0,0.0,-13.0,0.0,2.0,0.0,0.0,0.0,9.798723283180951e-11,6.71356118870876e-11,4.8589802344739824e-11,3.598349969322731e-11,2.4722059595282572e-11,1.6863420618689633e-11,1.0597301292550955e-11,6.882740503969091e-12,4.277169952974996e-12,2.4406530931335704e-12,1.4395945053512243e-12,7.335903420028925e-13,4.0234005625132247e-13,1.8294722047743784e-13,7.236610892460117e-14,3.870746591133072e-14,9.803869405478513e-15,3.832496678256712e-09,2.717249533977149e-09,1.9740273150929836e-09,1.2631861475430526e-09,7.370808518968454e-10,4.6390187017916787e-10,3.445579587198054e-10,2.3850142144229897e-10,1.767103547786338e-10,1.3357629700666617e-10,9.783244312238495e-11,7.169077272284353e-11,5.308187393877628e-11,3.790021293395026e-11,2.7980741809565964e-11,1.918445854700489e-11,1.3810700879055851e-11,8.189491752513461e-12,5.392260287600396e-12,3.0363215022865887e-12,1.766878032239726e-12
0.0,10,10.0,0.0,30.0,0.0,0.0,0.0,0.0,-13.0,0.0,2.0,0.0,0.0,0.0,9.52816453888526e-11,6.764983606748415e-11,4.988650752781481e-11,3.42713599167094e-11,2.4175775485198212e-11,1.607340282124305e-11,1.2008770066825392e-11,7.1398046005753455e-12,4.263579961965349e-12,2.5729466284113776e-12,1.4738696074035486e-12,8.137664760138693e-13,4.0645940461277907e-13,2.0026668833167916e-13,9.365040276698553e-14,3.3330464033992824e-14,2.3105224868649907e-14,3.892747050423259e-09,2.9995106826761793e-09,1.905623836563931e-09,1.1560917474064873e-09,7.685052989740562e-10,4.851665506362828e-10,3.3574243241765324e-10,2.50280908607177e-10,1.8119040792204934e-10,1.3693676268198958e-10,9.218450233099321e-11,7.194940024973018e-11,5.210282564781407e-11,3.845906715260923e-11,2.797688096913449e-11,1.8908638330758137e-11,1.2763831886838007e-11,9.518916451863169e-12,5.342738205951175e-12,3.28086260003688e-12,1.8464550544115535e-12
0.0,11,11.0,0.0,30.0,0.0,0.0,0.0,0.0,-13.0,0.0,2.0,0.0,0.0,0.0,1.0006719944779698e-10,6.713679470273679e-11,4.612074783659542e-11,3.473788798569636e-11,2.4330922761319294e-11,1.7869361320636995e-11,1.0866374592641348e-11,7.766392358039691e-12,4.557076493043991e-12,2.7047777978592546e-12,1.5367610577486962e-12,8.536697277849438e-13,4.807629646453234e-13,2.319955889432492e-13,1.0673400907793469e-13,6.038452134757866e-14,1.1133526838221967e-14,3.751133981360788e-09,2.9556771594231905e-09,1.9916516978774127e-09,1.1736237223687067e-09,7.434661761104675e-10,4.691693035861127e-10,3.3442549728590214e-10,2.4699436871476664e-10,1.8643434446170895e-10,1.333099627876347e-10,9.503747162416577e-11,7.30251234751611e-11,5.123716253035261e-11,3.778812905535757e-11,2.7410908633711646e-11,1.9145526553926104e-11,1.3408180915331801e-11,9.406034156689613e-12,5.595118362049463e-12,3.343566347155691e-12,1.6081345358810073e-12
0.0,12,12.0,0.0,30.0,0.0,0.0,0.0,0.0,-13.0,0.0,2.0,0.0,0.0,0.0,1.0057858813917284e-10,7.006374897007884e-11,4.7202445671503585e-11,3.508162597973668e-11,2.404833135557962e-11,1.6508450715861224e-11,1.1968227459926858e-11,7.2454421114011555e-12,4.6845133666554696e-12,2.751452684365764e-12,1.6444576703592768e-12,8.419202756046655e-13,5.013636683014816e-13,2.4028119227280254e-13,1.1868541304055147e-13,6.287308680330556e-14,2.3819872706606856e-14,3.835038383788876e-09,2.8882927904497654e-09,1.9035584403388037e-09,1.1583779692909748e-09,7.354448714541961e-10,5.098429902483476e-10,3.569814334511779e-10,2.458764509527443e-10,1.9355406522317696e-10,1.3897603748149354e-10,9.789152265840711e-11,6.898510450664601e-11,5.422205730160967e-11,4.0604436177547186e-11,2.6399613107453007e-11,1.9161964006549394e-11,1.2898335087063986e-11,8.671157064818587e-12,5.84931148806075e-12,3.2522901578447428e-12,2.010489884915687e-12
0.0,13,13.0,0.0,30.0,0.0,0.0,0.0,0.0,-13.0,0.0,2.0,0.0,0.0,0.0,9.932868427520453e-11,6.896041379929899e-11,4.7527704374379653e-11,3.4785834777694335e-11,2.482984572315548e-11,1.6671342478473137e-11,1.142190942089941e-11,7.509261270878037e-12,4.75483326156124e-12,2.798573445910878e-12,1.7421132780686264e-12,9.930970024043963e-13,5.015197581714837e-13,2.6451312983740744e-13,1.3411152562865125e-13,6.677470880766861e-14,2.9663040191451075e-14,3.925182293817234e-09,2.785250398237115e-09,1.8006360866257674e-09,1.1950977596053162e-09,7.339279264413355e-10,5.088015530010635e-10,3.3815191367526034e-10,2.671128614427493e-10,1.8321075672814606e-10,1.371819456899607e-10,9.92622098840625e-11,7.017243735223782e-11,5.118947833503245e-11,3.8733361850546326e-11,2.8390085004333637e-11,1.9430109547394806e-11,1.3138797644532364e-11,8.612034221282087e-12,5.674203682685056e-12,3.5487426652120885e-12,1.9165164614210212e-12
0.0,14,14.0,0.0,30.0,0.0,0.0,0.0,0.0,-13.0,0.0,2.0,0.0,0.0,0.0,1.0584714175877206e-10,7.014437962215965e-11,4.684943288194217e-11,3.39464518253855e-11,2.3203372840164924e-11,1.657238202719685e-11,1.1093055394764003e-11,7.66893242217985e-12,5.0563449429676205e-12,3.006338257563314e-12,1.8267869430649105e-12,1.0792500453514306e-12,5.68120937221567e-13,2.8041731125921353e-13,1.4316476345360436e-13,6.7673270720912e-14,2.7933129739872024e-14,3.9194496371622e-09,2.730274339693061e-09,1.9222057112496998e-09,1.1983496027704011e-09,7.476497301905939e-10,4.938635390120505e-10,3.55058683247515e-10,2.4284236468418384e-10,1.8910827142760236e-10,1.2728918832680464e-10,1.0003168699284043e-10,7.360291344167658e-11,5.603570958576994e-11,3.8139303059709466e-11,2.5598010168992362e-11,1.8401383911188422e-11,1.3033409694008438e-11,8.782715562992991e-12,5.759103503822118e-12,3.557526965970163e-12,1.8362774835855233e-12
0.0,15,15.0,0.0,30.0,0.0,0.0,0.0,0.0,-13.0,0.0,2.0,0.0,0.0,0.0,1.0101910932327773e-10,7.221564784083271e-11,4.7407525613817756e-11,3.435752453516679e-11,2.3957976429351714e-11,1.683024422098215e-11,1.1627713925575618e-11,7.56544090577462e-12,4.784761974935107e-12,3.0289407384826415e-12,1.7750216173383433e-12,1.0345789345652e-12,5.721381810858857e-13,3.01677760148965e-13,1.4650986185365192e-13,7.555049367349859e-14,3.466570948041473e-14,3.8141440487787545e-09,2.679178543123671e-09,1.969955334001826e-09,1.173738534227716e-09,7.830053036568507e-10,5.1404071073593e-10,3.52842860998056e-10,2.540943936807945e-10,1.932842366425226e-10,1.3560683998653776e-10,1.0007075475051169e-10,7.314337534279228e-11,5.466069653211713e-11,3.744197748459174e-11,2.7566408211257947e-11,1.949087516503851e-11,1.2580855899364084e-11,7.924381549253766e-12,5.6393615715349655e-12,3.4620165421148106e-12,1.967695553541021e-12
0.0,16,16.0,0.0,30.0,0.0,0.0,0.0,0.0,-13.0,0.0,2.0,0.0,0.0,0.0,1.0712977181305911e-10,6.630363288130278e-11,4.874506273822103e-11,3.278536806030792e-11,2.41733226008803e-11,1.623659329302439e-11,1.1976704515983646e-11,7.372306666940746e-12,4.851962419921348e-12,2.917909020125528e-12,1.905888723051975e-12,1.1050844435011942e-12,5.784799439585263e-13,3.27414472844274e-13,1.6461547920831458e-13,8.282483703541431e-14,4.16351445522049e-14,3.738710234417988e-09,2.704946567511617e-09,1.872053457240683e-09,1.1773950091755642e-09,7.398367154033955e-10,5.057004310615983e-10,3.5498643395623116e-10,2.6003117238832894e-10,1.875397854217978e-10,1.3737269957581325e-10,1.0327131847352337e-10,7.28186478898596e-11,5.393761336832093e-11,3.8730470381973154e-11,2.6151594981925517e-11,1.905519855382278e-11,1.2972953075403953e-11,8.976312644746217e-12,5.713785012939908e-12,3.5754375260366974e-12,1.9780572849500714e-12
0.0,17,17.0,0.0,30.0,0.0,0.0,0.0,0.0,-13.0,0.0,2.0,0.0,0.0,0.0,1.059784070852306e-10,6.91916881304389e-11,4.8459036534799317e-11,3.4142188179865746e-11,2.231526845141914e-11,1.613468209406471e-11,1.1266130991582839e-11,7.444720117034444e-12,4.968099095278065e-12,3.2401678103262048e-12,1.8702253388395184e-12,1.1400054355134081e-12,5.988842961545293e-13,3.222968416213919e-13,1.761094726268935e-13,7.51662059778095e-14,2.9033956417894475e-14,3.708945566154139e-09,2.715656305466176e-09,1.924382267535971e-09,1.1605174337912853e-09,7.385710604209242e-10,5.357474473164906e-10,3.7272501274342915e-10,2.722721288227965e-10,1.8503710604736533e-10,1.440599127261822e-10,1.0247505663601223e-10,7.45432952943368e-11,5.2864372514700854e-11,3.73502738131255e-11,2.598477459778324e-11,1.809319231335291e-11,1.2494262605178296e-11,8.581815917915392e-12,5.3210081947685515e-12,3.2015874108067217e-12,2.2050706877221222e-12
0.0,18,18.0,0.0,30.0,0.0,0.0,0.0,0.0,-13.0,0.0,2.0,0.0,0.0,0.0,1.0653460040477998e-10,7.023130728589739e-11,4.7298999145921734e-11,3.2700773133973146e-11,2.4321075933331854e-11,1.6305212002548096e-11,1.1521800199440892e-11,7.50303217031852e-12,4.84555185409398e-12,3.357985877727812e-12,2.014076226510106e-12,1.1463189288687832e-12,6.392663242182134e-13,3.3033634627225836e-13,1.7833018401813504e-13,1.2143469503088231e-13,5.229973315840821e-14,3.822887246608431e-09,2.8326426226042768e-09,1.749573783235178e-09,1.1528949363215839e-09,7.34363055390438e-10,5.007789719058094e-10,3.487311702539613e-10,2.659134744298107e-10,1.9252559625346303e-10,1.4509427921450544e-10,1.0387137448767969e-10,7.851206609779857e-11,5.605029919834894e-11,3.937005305349018e-11,2.794876882584528e-11,1.809663437353855e-11,1.3380777807949821e-11,9.209288686604598e-12,5.28443070300105e-12,3.3928614823847537e-12,1.9838127140434134e-12
0.0,19,19.0,0.0,30.0,0.0,0.0,0.0,0.0,-13.0,0.0,2.0,0.0,0.0,0.0,1.0777768468004555e-10,7.173678952739683e-11,4.922803884333575e-11,3.328761548421821e-11,2.3455479178475756e-11,1.6441611702954848e-11,1.1219963272466635e-11,7.192115338991182e-12,4.770774217114143e-12,3.157647675001909e-12,1.9110569551924256e-12,1.1145209608432074e-12,6.737751539453495e-13,3.4574603499847436e-13,1.67126861137566e-13,6.726447991139684e-14,5.3033524239600924e-14,3.7854201199717055e-09,2.7016860620915554e-09,1.846108267812496e-09,1.2132168442022256e-09,7.504156092391795e-10,5.157891460742367e-10,3.693056427814635e-10,2.5909723934661704e-10,1.9840220428200664e-10,1.4623849396983324e-10,1.0497604900174664e-10,7.696437608988547e-11,5.656412126134115e-11,3.483521960506462e-11,2.6019602642820136e-11,1.926488674583315e-11,1.134164636957279e-11,7.823898677181755e-12,5.580089733214578e-12,3.3665103828234425e-12,2.2659073614497016e-12
0.0,20,20.0,0.0,30.0,0.0,0.0,0.0,0.0,-13.0,0.0,2.0,0.0,0.0,0.0,1.0663810864790593e-10,7.432205937466832e-11,5.120636669207815e-11,3.483477296520175e-11,2.5341937902689368e-11,1.686971591592594e-11,1.1019450708169096e-11,7.530794878011415e-12,5.281991938617113e-12,3.211599482587519e-12,2.1022677514176462e-12,1.1884865019917244e-12,6.823634938336662e-13,3.667323622773056e-13,1.983451233510615e-13,9.84811164081642e-14,4.0207869971799944e-14,3.5671744611324754e-09,2.596733807974457e-09,1.8062465673339146e-09,1.1576276169559747e-09,7.599598848351237e-10,5.353865372331508e-10,3.737884636938048e-10,2.681891558590584e-10,1.9834958101714278e-10,1.5424747666562947e-10,1.0578118487466746e-10,7.656266025076768e-11,5.4550268133545526e-11,3.69426328974724e-11,2.6252671296453354e-11,1.901932091759838e-11,1.1928227432107195e-11,8.441610668218502e-12,5.601467616150852e-12,3.3724959616708856e-12,2.0440467287597973e-12
0.0,21,21.0,0.0,30.0,0.0,0.0,0.0,0.0,-13.0,0.0,2.0,0.0,0.0,0.0,1.0517096352469874e-10,7.622776128949318e-11,5.216323060219342e-11,3.529916461324792e-11,2.550717589315338e-11,1.724182535678288e-11,1.1613132209509625e-11,7.208926887082445e-12,5.111266701890807e-12,3.2265407554581793e-12,2.1081697057337164e-12,1.2195208612871144e-12,6.758877226715258e-13,3.896446039939164e-13,2.1405151212954534e-13,1.0230841587546032e-13,5.422688485179786e-14,3.872119076829873e-09,2.5898158434241763e-09,1.7481760390984854e-09,1.1318036770313892e-09,6.834643786592512e-10,5.102532300187395e-10,3.7115949241917e-10,2.77474515641601e-10,2.0175386807587501e-10,1.5289715117733243e-10,1.1293894384682771e-10,7.309931599658746e-11,5.584260583109942e-11,3.9093007402316676e-11,2.6445139818743983e-11,1.803701998020309e-11,1.2258166117716935e-11,8.621589045926638e-12,5.397839488480337e-12,3.2110489367543483e-12,1.9680684147434645e-12
0.0,22,22.0,0.0,30.0,0.0,0.0,0.0,0.0,-13.0,0.0,2.0,0.0,0.0,0.0,1.0886887064802398e-10,7.697033183921632e-11,5.0053943382421617e-11,3.539068247110821e-11,2.409197105560072e-11,1.6349719722674388e-11,1.1070742446652326e-11,7.71515186161246e-12,5.033999833225095e-12,3.0874679582060267e-12,2.003638857291948e-12,1.276563338094851e-12,7.007364573560747e-13,4.217430420279752e-13,1.9217670258202044e-13,1.2393118723872973e-13,6.826717989037175e-14,3.5963726723245096e-09,2.561993760272999e-09,1.7968408897914353e-09,1.1349222052065683e-09,7.496573970285379e-10,5.113064003798589e-10,3.7305026022964694e-10,2.8061600760042216e-10,1.9765799937256272e-10,1.572519864705397e-10,1.0849792864058626e-10,7.929569840242095e-11,5.765350044263707e-11,4.0502840964130335e-11,2.7070623337185815e-11,1.834238209609221e-11,1.283724122964823e-11,8.108771704701107e-12,5.133946843346213e-12,3.011393991483885e-12,2.2797032400644597e-12
0.0,23,23.0,0.0,30.0,0.0,0.0,0.0,0.0,-13.0,0.0,2.0,0.0,0.0,0.0,1.1315750541219125e-10,7.252615096757515e-11,5.179438406129513e-11,3.685853855832269e-11,2.4031952105108146e-11,1.6803339526188155e-11,1.099173154557049e-11,7.191789836817828e-12,4.9824789183871246e-12,3.1307332681507973e-12,2.1754197260869104e-12,1.1858110575747501e-12,7.277596643810802e-13,3.902405202807515e-13,2.168403045896742e-13,1.1472393195241032e-13,6.605914228266566e-14,3.6294440003274385e-09,2.497982653831702e-09,1.8366206039033123e-09,1.135857214570325e-09,7.294543104072916e-10,5.484039044196453e-10,3.926194694163788e-10,2.9069687918813825e-10,2.0873662151520865e-10,1.5537579338458297e-10,1.1249140352723529e-10,8.27365186942886e-11,5.3921984385807656e-11,4.0375108509300144e-11,2.6840703271861458e-11,1.8404985136800268e-11,1.2271093229212636e-11,7.577348313504663e-12,5.3752470583343015e-12,3.560435957095719e-12,2.0268944057855296e-12
0.0,24,24.0,0.0,30.0,0.0,0.0,0.0,0.0,-13.0,0.0,2.0,0.0,0.0,0.0,1.1362302587199059e-10,7.973021447365763e-11,5.063944150822749e-11,3.521460673512775e-11,2.453611352997957e-11,1.700476567876118e-11,1.0963463628496746e-11,7.64244103510914e-12,4.835999813174503e-12,3.4136366324968535e-12,2.1934154192927736e-12,1.2849129148515633e-12,7.412304278649226e-13,4.2140667447621455e-13,2.378864131175756e-13,1.1848007632166757e-13,6.547870888625383e-14,3.513832460949562e-09,2.549872432703649e-09,1.850745937783217e-09,1.1714096272143897e-09,7.9713872999936e-10,5.396588016264935e-10,3.9114368696996633e-10,2.9124285270777946e-10,2.039792740807267e-10,1.5102561747973368e-10,1.1258761169336855e-10,7.877581193463643e-11,5.926929025378504e-11,4.1372891454129203e-11,2.8124298742544266e-11,1.92238260825256e-11,1.2756430455366702e-11,8.608999585076722e-12,5.21672792216706e-12,3.23831561821774e-12,1.922273247913668e-12
0.0,25,25.0,0.0,30.0,0.0,0.0,0.0,0.0,-13.0,0.0,2.0,0.0,0.0,0.0,1.2164723421035966e-10,7.864925228933483e-11,4.7513648416262634e-11,3.5341539149514706e-11,2.522007672914671e-11,1.5788848729480532e-11,1.188695499821972e-11,7.6735251105476e-12,4.933740148265462e-12,3.168225263625951e-12,2.190481302232097e-12,1.3034266629273702e-12,7.593171200074792e-13,4.212390493782633e-13,2.5592645348224607e-13,1.416411379196023e-13,7.82448836952816e-14,3.5415643672031735e-09,2.6885820728101982e-09,1.7494892991543273e-09,1.1011377182348023e-09,7.660510566936725e-10,5.362366461519753e-10,3.909394203468587e-10,2.6625992587535566e-10,2.104121656011967e-10,1.5112301469618985e-10,1.1774630477324786e-10,8.091284441508875e-11,5.701378344952811e-11,3.910786781180625e-11,2.7868582321142218e-11,1.8902087051390854e-11,1.3161584730862193e-11,8.083078618507788e-12,5.128401173139042e-12,3.315450950445275e-12,2.1320300287387713e-12
0.0,26,26.0,0.0,30.0,0.0,0.0,0.0,0.0,-13.0,0.0,2.0,0.0,0.0,0.0,1.1506551384630896e-10,7.923960935528978e-11,5.1470446780704736e-11,3.603079306369353e-11,2.5504729128935623e-11,1.6866920600842324e-11,1.173775109950023e-11,7.351601504078276e-12,5.046283391141566e-12,3.326498706549445e-12,2.1448939585920943e-12,1.3462898029235592e-12,7.576731917474498e-13,4.729831012008316e-13,2.4360310231853456e-13,1.5463786858469506e-13,6.606513072534403e-14,3.5293348985825468e-09,2.5320338907979395e-09,1.7849402398835126e-09,1.1719865057841646e-09,7.88138699271362e-10,5.568248783125228e-10,4.061582536914928e-10,2.68588705999431e-10,2.2156961671760503e-10,1.532106216077439e-10,1.115489613087103e-10,7.93900141033642e-11,5.94884036728084e-11,4.246787704662116e-11,2.938809792277628e-11,1.919712075758475e-11,1.31579648358521e-11,7.45551853978283e-12,4.751874002319054e-12,3.3869463569971226e-12,2.154589612469559e-12
0.0,27,27.0,0.0,30.0,0.0,0.0,0.0,0.0,-13.0,0.0,2.0,0.0,0.0,0.0,1.1860176400528948e-10,7.597317103769395e-11,5.654807888197012e-11,3.812860849439375e-11,2.4222404922229852e-11,1.7367128437903442e-11,1.1717314632580672e-11,8.017026875331643e-12,4.757698462065366e-12,3.2803208236570214e-12,2.073634954217655e-12,1.1762865790558916e-12,8.117285203045182e-13,4.4135088895858336e-13,2.2583040796034623e-13,1.1345251109687755e-13,5.945716648978535e-14,3.3111050495732842e-09,2.5597754031405184e-09,1.6835981641346684e-09,1.17237640159035e-09,7.625646357867977e-10,5.274374064534103e-10,3.9996962220310326e-10,2.83060721816844e-10,2.162320231862229e-10,1.6005170340684683e-10,1.1923178071432123e-10,9.075417639182511e-11,6.042966943618223e-11,4.208539821703265e-11,2.7034673232257248e-11,1.941748897535937e-11,1.3114855215214566e-11,8.102573678850716e-12,5.194000104815249e-12,3.1556216142231206e-12,1.8517993192053375e-12
0.0,28,28.0,0.0,30.0,0.0,0.0,0.0,0.0,-13.0,0.0,2.0,0.0,0.0,0.0,1.1861875098807574e-10,8.244448966025447e-11,5.337949626178411e-11,3.6824196753948595e-11,2.4606325465322157e-11,1.767731095965232e-11,1.1970498313587926e-11,7.693940126782533e-12,5.1999755665002645e-12,3.2691752431119435e-12,2.0481037405000797e-12,1.3022898361435284e-12,8.147040434381585e-13,4.600025510420525e-13,2.5786132440412146e-13,1.2647813977970327e-13,7.178858354079957e-14,3.5260618210012512e-09,2.485598569300412e-09,1.7277416331402077e-09,1.1530269363866922e-09,7.292949917253049e-10,5.436344416310816e-10,3.880641100345444e-10,3.0497428341634705e-10,2.2510654400005116e-10,1.6516696593975977e-10,1.2177278136001662e-10,8.586446521935677e-11,6.156864771189482e-11,4.353443061268912e-11,2.8078628340717935e-11,2.002802606218539e-11,1.2873486539127962e-11,8.152075046879986e-12,5.2883393441237975e-12,3.4279802860666263e-12,2.0781121652882804e-12
0.0,29,29.0,0.0,30.0,0.0,0.0,0.0,0.0,-13.0,0.0,2.0,0.0,0.0,0.0,1.2259985744250147e-10,7.852164155110718e-11,5.5552562205958477e-11,3.6832774476893426e-11,2.5630166669867467e-11,1.7472731727665307e-11,1.1388246389449138e-11,7.845969394409731e-12,5.22310288293209e-12,3.2652634641867486e-12,2.172528631316323e-12,1.3315830554884185e-12,8.442616954280901e-13,4.798974703548666e-13,2.760342521797951e-13,1.334586567815361e-13,6.979096823773644e-14,3.3127455894452097e-09,2.355142223452685e-09,1.7278059742836707e-09,1.1079496903575699e-09,7.997871098481948e-10,5.340226261177932e-10,3.830673962436613e-10,3.1989070972016095e-10,2.1633029262888107e-10,1.613478753091058e-10,1.2633333728728735e-10,8.641905912024733e-11,5.901202211876166e-11,4.1829727630888976e-11,2.925980033801283e-11,1.9334168371664012e-11,1.2467067138329743e-11,8.36726359798672e-12,5.257810096359201e-12,3.1935280924257977e-12,1.9292890965298913e-12
0.0,30,30.0,0.0,30.0,0.0,0.0,0.0,0.0,-13.0,0.0,2.0,0.0,0.0,0.0,1.256512890853019e-10,8.299234870447102e-11,5.5074730703654565e-11,3.806892825852534e-11,2.5238498602337978e-11,1.7548392595619645e-11,1.1611491105973183e-11,7.752831262900352e-12,5.113719900992226e-12,3.2836248129956476e-12,2.0627459469236244e-12,1.3309824557151939e-12,8.683847336604649e-13,4.742195002232638e-13,2.672820982307773e-13,1.2729212510468557e-13,8.39784898958441e-14,3.3382123452606572e-09,2.5596864348935483e-09,1.7315797510362195e-09,1.1560268971485157e-09,8.278250596307132e-10,5.567845247919568e-10,4.195525450112543e-10,2.943134371766104e-10,2.3002686215578646e-10,1.6585218168677556e-10,1.1789066317073873e-10,9.151169617630555e-11,6.248272580712098e-11,4.298285044183927e-11,3.060392406240785e-11,1.981160060665026e-11,1.2623461568065961e-11,8.480259289621999e-12,5.323428474790547e-12,3.0003313750223322e-12,1.906267033210605e-12
0.0,31,31.0,0.0,30.0,0.0,0.0,0.0,0.0,-13.0,0.0,2.0,0.0,0.0,0.0,1.221793140618113e-10,8.433741172744061e-11,5.5507860144741146e-11,3.923902322399709e-11,2.4754426597270115e-11,1.757802953411223e-11,1.1320690463038063e-11,7.535510642313331e-12,5.055483939286425e-12,3.3092305597722224e-12,2.1839173117003643e-12,1.3010824554767852e-12,7.898269622437739e-13,4.681097910472371e-13,2.853643411234716e-13,1.4518449486246045e-13,7.691611351884594e-14,3.1767915063733602e-09,2.43515140352058e-09,1.769920221916111e-09,1.1406370776441844e-09,8.246835089462516e-10,5.736515757489014e-10,4.1444749545505967e-10,3.027510504553144e-10,2.2082772005099297e-10,1.7100120823774342e-10,1.2338000591293248e-10,8.796471042524472e-11,6.411052118852924e-11,4.0989552339648585e-11,2.972476882432046e-11,1.9460132189512143e-11,1.3230921611006266e-11,8.339032754416015e-12,5.228784506635599e-12,3.3397150900578127e-12,2.0103349526506643e-12
0.0,32,32.0,0.0,30.0,0.0,0.0,0.0,0.0,-13.0,0.0,2.0,0.0,0.0,0.0,1.242544325680773e-10,8.405075286330517e-11,5.770477664740924e-11,3.791797592174291e-11,2.7401401130508503e-11,1.8734884343792633e-11,1.1670118534293532e-11,7.897193503738551e-12,5.171631798284758e-12,3.390532098007742e-12,2.19516745650292e-12,1.273575744459841e-12,8.262129172791336e-13,4.998106046284837e-13,2.8756300981731344e-13,1.46099754691653e-13,9.21730458046403e-14,3.358590178144777e-09,2.5010095118901366e-09,1.7465242783913847e-09,1.1631588722810319e-09,7.989476125131546e-10,5.861427751373008e-10,4.378378361178183e-10,3.005931422106526e-10,2.392416456773232e-10,1.7370746452876223e-10,1.2561784527415089e-10,9.1400472960108e-11,6.259733848778158e-11,4.522096358362858e-11,3.036396101313711e-11,2.019099505412416e-11,1.2988329858901382e-11,8.789342163050005e-12,5.390345203866123e-12,3.156542868952925e-12,2.0958033525774386e-12
0.0,33,33.0,0.0,30.0,0.0,0.0,0.0,0.0,-13.0,0.0,2.0,0.0,0.0,0.0,1.270543628775115e-10,8.545284550078804e-11,5.912158437372237e-11,3.8838545984520445e-11,2.5985435210646145e-11,1.85777955742164e-11,1.1217473668718323e-11,7.704352310379123e-12,4.932275129250768e-12,3.217169481341874e-12,2.1250608362538293e-12,1.3191273944797968e-12,8.184244469156639e-13,5.121542192866267e-13,2.805208285399758e-13,1.6618464331361897e-13,8.417961830840867e-14,3.5263757999413904e-09,2.5001802071964755e-09,1.7391542600424208e-09,1.211682456980904e-09,8.12297276413752e-10,5.81298346994341e-10,4.42594277808107e-10,3.0944120380829863e-10,2.390760322928004e-10,1.7215619745198932e-10,1.237240400263426e-10,9.259576041126482e-11,6.385478901490237e-11,4.301683995610083e-11,2.9794368515075534e-11,2.1259551935014836e-11,1.2967752415816961e-11,8.261560883607815e-12,5.40008485626167e-12,3.2763360988122954e-12,1.822331653200208e-12
0.0,34,34.0,0.0,30.0,0.0,0.0,0.0,0.0,-13.0,0.0,2.0,0.0,0.0,0.0,1.2735037726295225e-10,8.539979657407165e-11,5.6854717564603066e-11,4.009893659322949e-11,2.6583311131915997e-11,1.7498540666115938e-11,1.2588323925551579e-11,8.322033515517026e-12,5.1887375715730216e-12,3.4110522431537704e-12,2.1371151928218084e-12,1.3588424020753284e-12,8.521359362572536e-13,5.086150712083579e-13,2.8717609600147113e-13,1.695119182217067e-13,7.900174262175329e-14,3.3162011640695863e-09,2.3848865260448194e-09,1.7258091072207716e-09,1.1592705406542676e-09,7.6650589850441e-10,5.600615160390063e-10,4.1860906834635724e-10,3.1849085707907234e-10,2.385513466657471e-10,1.7767082345692372e-10,1.3236524964693948e-10,9.190943249934681e-11,6.396893298492423e-11,4.4760669285399245e-11,3.055322024017394e-11,2.037085100136983e-11,1.4028372416610879e-11,8.943147125485324e-12,5.4472916465009404e-12,3.5939402862554943e-12,1.9854595328153943e-12
0.0,35,35.0,0.0,30.0,0.0,0.0,0.0,0.0,-13.0,0.0,2.0,0.0,0.0,0.0,1.2111708602084772e-10,8.968019243700541e-11,5.756238323264995e-11,3.978747967992636e-11,2.948890945060199e-11,1.901898416210094e-11,1.1630879373684165e-11,7.872088247030555e-12,5.099993063436627e-12,3.322866045497579e-12,2.1529340656881537e-12,1.3599683774255236e-12,8.325898463406514e-13,4.678106830383598e-13,2.995198366170325e-13,1.4494276885952012e-13,8.325543996799282e-14,3.2132105115020954e-09,2.471470327678165e-09,1.7481016400593825e-09,1.1292659455441089e-09,8.264570979072904e-10,5.869451838638396e-10,4.449140836458757e-10,3.3489043310045737e-10,2.417169966655019e-10,1.8251625712013874e-10,1.3552282460722053e-10,8.561236294458675e-11,6.465762089286338e-11,4.9494796650932895e-11,3.2456858005992903e-11,2.0682345854421476e-11,1.3615770157388033e-11,8.810977370633549e-12,5.473029312293829e-12,3.169833627238455e-12,1.994848086307593e-12
0.0,36,36.0,0.0,30.0,0.0,0.0,0.0,0.0,-13.0,0.0,2.0,0.0,0.0,0.0,1.3360421440016816e-10,8.817251254669412e-11,5.997069064790939e-11,4.133630214982814e-11,2.847701368173293e-11,1.8520194906532023e-11,1.1386068990375514e-11,7.864576665147934e-12,5.265190199469261e-12,3.412552326353892e-12,2.2106444431661174e-12,1.4119988359889918e-12,8.361528321779011e-13,4.902020180400482e-13,2.727801596743903e-13,1.7475207552649215e-13,6.749459564315124e-14,3.3488358400603373e-09,2.4053328849125777e-09,1.664631975207585e-09,1.181764637027403e-09,8.13638458959812e-10,5.81142139470544e-10,4.1751666024480346e-10,3.3214359697193054e-10,2.527348278818343e-10,1.8697367465414543e-10,1.3043473843483473e-10,9.497680989202464e-11,6.584443217117973e-11,4.935625971916296e-11,2.993894084945616e-11,2.0086840543239545e-11,1.385954326014148e-11,9.248510363588301e-12,5.286770616618906e-12,3.3576176831825266e-12,1.8966320277352756e-12
0.0,37,37.0,0.0,30.0,0.0,0.0,0.0,0.0,-13.0,0.0,2.0,0.0,0.0,0.0,1.3307202938227804e-10,9.027775517833924e-11,6.006181840751793e-11,4.121747895862057e-11,2.7842680810480767e-11,1.8079462945545564e-11,1.251388235046635e-11,7.899125750690693e-12,5.134770145023693e-12,3.413811718342467e-12,2.0530062619580713e-12,1.3369065551882196e-12,8.566024139266206e-13,4.943071829824526e-13,2.92868178515781e-13,1.660089173707026e-13,8.574023516321134e-14,3.307582725430731e-09,2.3618980251655657e-09,1.737855231805826e-09,1.1387888716957644e-09,8.288270613607035e-10,5.944548467595568e-10,4.465419228286766e-10,3.4108321332199493e-10,2.5300379670378274e-10,1.874404199799952e-10,1.2706755891330473e-10,9.15550879473874e-11,6.799763222937033e-11,4.740586749884839e-11,3.278953201989071e-11,2.125608756665266e-11,1.3180413551054794e-11,8.74502345976148e-12,5.306130394936837e-12,3.32349964574445e-12,1.9448442829598816e-12
0.0,38,38.0,0.0,30.0,0.0,0.0,0.0,0.0,-13.0,0.0,2.0,0.0,0.0,0.0,1.3885994986826974e-10,9.355917811968067e-11,6.007840288380314e-11,4.2223070366635256e-11,2.941242876773088e-11,1.8498081993856926e-11,1.2534124357263525e-11,8.18731525933672e-12,5.1855656279409425e-12,3.35942047610259e-12,1.9656359151614037e-12,1.396610415515174e-12,8.555364885902981e-13,4.861506450359732e-13,2.7240416881401614e-13,1.4962923847648212e-13,6.33850254321116e-14,3.2102632463198956e-09,2.544684950196095e-09,1.6343996364906218e-09,1.1710546517677202e-09,8.09540910292376e-10,5.934227215794047e-10,4.54740719864356e-10,3.642143967888147e-10,2.5999269313069575e-10,1.7206810113052744e-10,1.3792576856574612e-10,9.699742931690052e-11,6.548918992235316e-11,4.568239885920612e-11,3.2906385420480385e-11,2.1401617315618978e-11,1.418804740612738e-11,8.824546952468484e-12,5.4141400445300535e-12,3.2900575054500164e-12,1.9530588986616152e-12
0.0,39,39.0,0.0,30.0,0.0,0.0,0.0,0.0,-13.0,0.0,2.0,0.0,0.0,0.0,1.3971461967978702e-10,8.63648663357641e-11,6.106605644684522e-11,4.343380541344335e-11,2.979698908221026e-11,1.860005275833397e-11,1.2099485843334922e-11,7.868303750884244e-12,5.166476597529691e-12,3.4228301239285514e-12,2.1647938116890967e-12,1.3784795867819656e-12,8.314661004164047e-13,5.09984871323656e-13,2.853819061289099e-13,1.7995243732605794e-13,1.147421225077242e-13,3.1488303691782026e-09,2.4473059615317463e-09,1.7585920408626588e-09,1.2571147958381823e-09,8.596427676165667e-10,6.277327267784778e-10,4.606150015111444e-10,3.50725624124807e-10,2.5456836810560514e-10,1.852268019839014e-10,1.308684523283771e-10,9.569279077408711e-11,6.899744266633853e-11,4.992573927384294e-11,3.32807659085399e-11,2.2254766024715513e-11,1.2896881208808968e-11,8.744580646597142e-12,5.506704864466902e-12,3.430005218785368e-12,1.9985674312449153e-12
0.0,40,40.0,0.0,30.0,0.0,0.0,0.0,0.0,-13.0,0.0,2.0,0.0,0.0,0.0,1.398470782307114e-10,9.205442647581554e-11,6.28103475415953e-11,4.3554112270088587e-11,2.925203241376376e-11,1.9740253993630902e-11,1.2278471084847738e-11,7.562885037010367e-12,5.417739384172975e-12,3.410522767188903e-12,2.0896852134414315e-12,1.3298217016931198e-12,8.566132795976961e-13,5.026649674632321e-13,3.090656972633808e-13,1.683960903489344e-13,8.504677029738648e-14,3.1708852515527e-09,2.429271582352958e-09,1.6417801751729398e-09,1.1623871450409528e-09,8.135398346173321e-10,6.205698554021014e-10,4.601895632127835e-10,3.596403267523683e-10,2.5876391725543415e-10,1.8123463783325092e-10,1.358439649356193e-10,1.0296615589167213e-10,7.140150687307483e-11,4.791383408431385e-11,3.2146474511762945e-11,2.2671645317606062e-11,1.535028167833661e-11,9.712604254780617e-12,5.715849524155072e-12,3.357909407713752e-12,1.8620745653050553e-12
0.0,41,41.0,0.0,30.0,0.0,0.0,0.0,0.0,-13.0,0.0,2.0,0.0,0.0,0.0,1.4122174773521424e-10,9.035532873261048e-11,6.506424968264049e-11,4.413988915886671e-11,3.000808413326552e-11,1.8949451914903433e-11,1.284106758348902e-11,8.485226529005353e-12,5.204162071992951e-12,3.3069825700004044e-12,2.1872042072217438e-12,1.4192887873083968e-12,8.721895661919371e-13,4.801702028960723e-13,2.7109543848324125e-13,1.8027092015823422e-13,1.0014790408977406e-13,3.2295117823567517e-09,2.374405753393093e-09,1.6293725677506612e-09,1.172879777524582e-09,8.196716077323232e-10,6.223856950685962e-10,4.808044343984944e-10,3.5765077345641133e-10,2.6548065533478695e-10,1.921162793091406e-10,1.3688095882302364e-10,9.689207322455785e-11,7.373738343232598e-11,5.050910629704257e-11,3.324668526228169e-11,2.196064515338898e-11,1.471184540002986e-11,9.20634953969751e-12,6.023641129620112e-12,3.4090313888930756e-12,2.1192787361711028e-12
0.0,42,42.0,0.0,30.0,0.0,0.0,0.0,0.0,-13.0,0.0,2.0,0.0,0.0,0.0,1.4573473166789336e-10,9.606957495677617e-11,6.627825135366616e-11,4.727479111138715e-11,2.9646021929952847e-11,1.9481135679488654e-11,1.2063223438500956e-11,8.210131926157857e-12,5.216117796088892e-12,3.4298159499913563e-12,2.089613096247089e-12,1.376224655572717e-12,8.629721328513512e-13,4.969748259115888e-13,3.037205955680528e-13,1.581463432794205e-13,9.361688065688808e-14,3.0909912651505415e-09,2.5100303146700543e-09,1.7816057964989896e-09,1.2331633239008959e-09,8.637694313578592e-10,6.133713247470488e-10,4.869141750048201e-10,3.6255021907938934e-10,2.7552361015981403e-10,2.0261838813420788e-10,1.4297289037782017e-10,9.396021487438233e-11,7.332292237365229e-11,5.256905074640117e-11,3.739847235572457e-11,2.3663526619811476e-11,1.4879015478741822e-11,9.278348849047326e-12,5.7929855834981424e-12,3.480065802334205e-12,1.9706879071243777e-12
0.0,43,43.0,0.0,30.0,0.0,0.0,0.0,0.0,-13.0,0.0,2.0,0.0,0.0,0.0,1.426227079150225e-10,9.555901544025269e-11,6.552079669658529e-11,4.4757726510038656e-11,2.936899050551308e-11,2.043147867416682e-11,1.2375783617434611e-11,8.243925375407368e-12,5.44500237247238e-12,3.4692774749969725e-12,2.1608466404989075e-12,1.4607974043747322e-12,8.39255759021111e-13,4.94884851877929e-13,3.0418850869388385e-13,1.6582986166435029e-13,1.1105997760721516e-13,3.2365807932622424e-09,2.2565704732458704e-09,1.7557704976836879e-09,1.2652157505202674e-09,9.270399301255546e-10,6.558685679504926e-10,4.734577211960367e-10,3.6269074900149063e-10,2.833397748411496e-10,2.0473644994622327e-10,1.4560769061679314e-10,1.0353391065851213e-10,7.743030135632452e-11,4.905188193682494e-11,3.413548444043418e-11,2.351796366995042e-11,1.4365884997105453e-11,9.846913337821144e-12,5.946479804333616e-12,3.4954836451733854e-12,2.0048725707968243e-12
0.0,44,44.0,0.0,30.0,0.0,0.0,0.0,0.0,-13.0,0.0,2.0,0.0,0.0,0.0,1.488407103872929e-10,9.664296071746029e-11,6.940443183694775e-11,4.4417524757568426e-11,3.093062246761123e-11,2.0003593185065818e-11,1.2731833968749413e-11,8.260028284624188e-12,5.118770105456508e-12,3.343429205057089e-12,2.2256190753818527e-12,1.3863085622668481e-12,8.532301892063277e-13,5.060903213479187e-13,3.090235848634372e-13,1.6167672052191064e-13,8.311001832174744e-14,2.981389181804235e-09,2.336176934831072e-09,1.7479290490599104e-09,1.2143431263040392e-09,8.969293255797006e-10,6.121921984897102e-10,4.948631441310311e-10,3.638330468458648e-10,2.6501889480107146e-10,2.0247076381349065e-10,1.4213507512823757e-10,1.0752104232987631e-10,7.323978613469912e-11,5.0997497432307556e-11,3.241730468825848e-11,2.313872706678373e-11,1.4605195297716452e-11,9.955715777138682e-12,5.66029196398874e-12,3.694971285939506e-12,2.0011782940014376e-12
0.0,45,45.0,0.0,30.0,0.0,0.0,0.0,0.0,-13.0,0.0,2.0,0.0,0.0,0.0,1.4499573590890351e-10,9.428128661265784e-11,7.147051145638752e-11,4.706265782860613e-11,2.8984540890758118e-11,2.0065673023842113e-11,1.302998718115518e-11,8.325408751265295e-12,5.555059583944564e-12,3.3691957452475697e-12,2.1927973292119243e-12,1.4049306772778766e-12,8.538178373588157e-13,5.380970116918547e-13,3.025534199947978e-13,1.758941992124661e-13,9.767459616121627e-14,2.9839467541490615e-09,2.366153380425068e-09,1.772290492339502e-09,1.2321169419663666e-09,8.76180169776946e-10,6.391807495548346e-10,4.979984909148125e-10,3.819157424420898e-10,2.708011881209085e-10,1.9780319819853054e-10,1.5314183356651022e-10,1.110428973423466e-10,7.62002888299804e-11,5.469653400506225e-11,3.576107898637093e-11,2.3676388564632867e-11,1.4846108890093044e-11,9.95441704079681e-12,5.591758653497614e-12,3.79565272774278e-12,2.407605573511601e-12
0.0,46,46.0,0.0,30.0,0.0,0.0,0.0,0.0,-13.0,0.0,2.0,0.0,0.0,0.0,1.570581516238936e-10,1.0198877235888692e-10,6.879219758009433e-11,4.5428372513795834e-11,3.1607295954973087e-11,2.032313401076024e-11,1.2642858037936839e-11,8.630356337999623e-12,5.51118725508407e-12,3.340942652784301e-12,2.3016750126415552e-12,1.3785278858063978e-12,8.159149326789146e-13,5.311684824765173e-13,3.116627770348432e-13,1.6207968660846755e-13,9.133536087125206e-14,2.971332549938839e-09,2.3940967688276333e-09,1.827913277438659e-09,1.256332479002208e-09,8.842841518988317e-10,6.656726502421938e-10,5.085633816273095e-10,4.056204626673778e-10,2.904803873741686e-10,2.1350028708299155e-10,1.5036261900965336e-10,1.1194041308116625e-10,7.78703216500991e-11,5.415837764793788e-11,3.7506427452655184e-11,2.4128333178759322e-11,1.6070236004852432e-11,1.0084692774958264e-11,6.172649353945516e-12,3.6187639752744984e-12,1.9179999135457955e-12
0.0,47,47.0,0.0,30.0,0.0,0.0,0.0,0.0,-13.0,0.0,2.0,0.0,0.0,0.0,1.4973538815851773e-10,1.0655589225809786e-10,6.767075599751526e-11,4.512626220908419e-11,3.0590817941592313e-11,1.9543220286139005e-11,1.3795442288146931e-11,8.860911464999095e-12,5.496060014375684e-12,3.536123111107568e-12,2.1386924660421076e-12,1.3776608503778465e-12,8.589048172005754e-13,5.276968515776334e-13,3.2637265139535253e-13,1.734028376215136e-13,9.44307432698754e-14,2.9775691891571315e-09,2.3507192720103725e-09,1.7462192717113453e-09,1.3255393574766413e-09,9.226160024461655e-10,6.886126527396052e-10,5.032698723433326e-10,3.655689325042215e-10,2.874657344630443e-10,2.1994824589457424e-10,1.469245111997325e-10,1.0780871674683154e-10,7.905928608451563e-11,5.072227533951712e-11,3.6661066931690787e-11,2.3408414838033483e-11,1.5212752694347055e-11,1.0304731597816046e-11,6.317747953839163e-12,3.79838039267584e-12,2.367249474500712e-12
0.0,48,48.0,0.0,30.0,0.0,0.0,0.0,0.0,-13.0,0.0,2.0,0.0,0.0,0.0,1.4975839893082027e-10,1.0851953515355893e-10,7.0088473079233e-11,4.599773924410314e-11,3.154777394726158e-11,2.0648911978935674e-11,1.341988374747007e-11,8.508380394057454e-12,5.696826801111207e-12,3.1930151051301157e-12,2.1494830195476232e-12,1.3217772476842468e-12,8.960708614220688e-13,5.230269905936548e-13,3.134655608458272e-13,1.8885297137474235e-13,9.908969778825406e-14,3.044942668367703e-09,2.3882563427771836e-09,1.727649223145301e-09,1.2501316238694085e-09,9.059476681131021e-10,6.939031143664424e-10,4.933316158628471e-10,4.0033212219255485e-10,3.0078900060055416e-10,2.178455296601794e-10,1.6042835908919894e-10,1.0941414361321155e-10,7.977728781639874e-11,5.468522816614059e-11,3.6791330750510626e-11,2.4757217545475007e-11,1.6625669614791298e-11,1.0425868119975346e-11,6.262895374201705e-12,3.6218444255388698e-12,1.8679815108536843e-12
0.0,49,49.0,0.0,30.0,0.0,0.0,0.0,0.0,-13.0,0.0,2.0,0.0,0.0,0.0,1.5288548478281404e-10,1.037169259468191e-10,7.011006298956992e-11,4.7862776560682946e-11,3.1712663986839317e-11,2.1505523902716626e-11,1.3445636651459871e-11,9.083880404976133e-12,5.7603717693919015e-12,3.674882829300386e-12,2.2056329038567185e-12,1.3656747410293659e-12,8.90262666080316e-13,5.11344844584284e-13,3.240253794449525e-13,1.6379352432278247e-13,1.005548220161577e-13,2.7940572808465656e-09,2.4684331115484324e-09,1.736784278544645e-09,1.2589922334530487e-09,9.317209780758546e-10,7.115437575145638e-10,5.364471159990591e-10,4.2205879976728315e-10,2.976705471525543e-10,2.026426441488639e-10,1.597148499914154e-10,1.1378153813382976e-10,8.39672861105068e-11,5.5555238927528436e-11,3.705706017862294e-11,2.5313114153836606e-11,1.6096312384940193e-11,9.42011699119281e-12,6.21059935010788e-12,3.886625274182233e-12,2.2486054685186827e-12
0.0,50,50.0,0.0,30.0,0.0,0.0,0.0,0.0,-13.0,0.0,2.0,0.0,0.0,0.0,1.567607619385193e-10,1.0488132644547267e-10,6.93535929970008e-11,4.887681613630682e-11,3.1238298646706495e-11,2.0206928732818715e-11,1.3039637319698463e-11,8.650138602973128e-12,5.64627905070624e-12,3.7317614653000644e-12,2.2335502165782634e-12,1.329018150879373e-12,8.674638654115228e-13,5.129873696302937e-13,3.2571848673379224e-13,1.822126094041149e-13,9.965964531519077e-14,2.9974207732560138e-09,2.3833767955935046e-09,1.7012831679351225e-09,1.2474233447954863e-09,9.859704879296213e-10,7.023817847877961e-10,5.393862181691101e-10,3.744206427644771e-10,3.058379898970347e-10,2.2702154869452736e-10,1.543345068360108e-10,1.239627414018619e-10,7.861986985886444e-11,5.49227456024624e-11,3.928383898628322e-11,2.4848925766495253e-11,1.5021289603686904e-11,1.0734738365129159e-11,6.324349830420975e-12,3.796842712402602e-12,2.2245485282341916e-12
0.0,51,51.0,0.0,30.0,0.0,0.0,0.0,0.0,-13.0,0.0,2.0,0.0,0.0,0.0,1.5723153334266968e-10,1.1768092448192105e-10,6.86875204935326e-11,4.364979196781287e-11,3.1840273049758474e-11,2.2763279936801515e-11,1.3758592080078689e-11,8.762457477816786e-12,5.81212413229171e-12,3.461262602726134e-12,2.1876454784150924e-12,1.263042351341771e-12,8.644805125145665e-13,5.091552130348309e-13,3.2113437004055257e-13,1.6342566010484526e-13,1.0697408175972007e-13,3.041000071678899e-09,2.381001541422394e-09,1.7481854441285392e-09,1.3430873761555053e-09,9.521681934495308e-10,7.107314775023449e-10,5.615360059058677e-10,4.258835360980032e-10,3.0931216192531674e-10,2.1848510824741435e-10,1.6920609160165587e-10,1.1847746495986462e-10,8.347624382795019e-11,5.6823901667905306e-11,3.893261879660309e-11,2.3889030365927998e-11,1.644838644955645e-11,9.978808404426338e-12,6.283626913406811e-12,3.8603549724714315e-12,2.280382364587416e-12
0.0,52,52.0,0.0,30.0,0.0,0.0,0.0,0.0,-13.0,0.0,2.0,0.0,0.0,0.0,1.6072348866173623e-10,1.1077644371748267e-10,7.393442629160318e-11,4.626069479977239e-11,3.249859204262229e-11,2.1553744495640628e-11,1.476047658195524e-11,9.290266080443582e-12,5.6224264630702694e-12,3.5972151105595558e-12,2.2536532572244497e-12,1.3987570175621647e-12,8.57455653511266e-13,5.15505078983106e-13,2.8780687805908907e-13,1.7276362196648094e-13,1.0155961990160585e-13,3.0969639609689903e-09,2.4568139647547415e-09,1.8305271455948042e-09,1.2884632470458968e-09,9.557906865085164e-10,7.216113580981044e-10,5.517805571816576e-10,4.208862617174814e-10,3.0826109777381504e-10,2.391278304610017e-10,1.7018360327793738e-10,1.1535637154360413e-10,8.136987423917138e-11,5.607431957465364e-11,3.984248042357707e-11,2.5771584190879056e-11,1.6278362093783452e-11,1.0156723608994026e-11,6.6136276416141365e-12,3.855439178780152e-12,2.2175938039144588e-12
0.0,53,53.0,0.0,30.0,0.0,0.0,0.0,0.0,-13.0,0.0,2.0,0.0,0.0,0.0,1.6955508105138542e-10,1.061342255505975e-10,7.301725310844452e-11,5.0705964976239724e-11,3.190833800488809e-11,2.141116113891405e-11,1.4424771414579813e-11,9.351914032954385e-12,5.905345419274075e-12,3.735708590425745e-12,2.3056736639455525e-12,1.3570020827365568e-12,8.248747591322386e-13,5.293171047427856e-13,3.1864162836876536e-13,1.788309275342019e-13,1.043361151575888e-13,3.0317635813502215e-09,2.4958502914570076e-09,1.8058951691982423e-09,1.2426651585826785e-09,9.648841954306446e-10,7.465378005143806e-10,5.643164853091142e-10,4.1303747806722984e-10,3.075138707344925e-10,2.3042637279620063e-10,1.696952882001624e-10,1.1384546583450924e-10,8.608659346568448e-11,5.963893480681274e-11,3.92872547578425e-11,2.5929326645429e-11,1.744824490483915e-11,1.1159538959531738e-11,6.366980555847605e-12,3.922825023472627e-12,2.2550907952748344e-12
0.0,54,54.0,0.0,30.0,0.0,0.0,0.0,0.0,-13.0,0.0,2.0,0.0,0.0,0.0,1.656273323768225e-10,1.0928196262477053e-10,7.109688564057413e-11,5.1219191477768455e-11,3.3499296934208854e-11,2.12070508211326e-11,1.4333485899898316e-11,8.97739987472958e-12,5.816007249149662e-12,3.635796922248215e-12,2.1937701579994625e-12,1.3814170471566922e-12,8.73754541216981e-13,5.55398081942948e-13,3.1968975049757663e-13,1.9911363736750048e-13,1.170286960475952e-13,3.0719656993932055e-09,2.42376889512009e-09,1.747599625566366e-09,1.3257826047710321e-09,1.0016679006765494e-09,7.749186255058339e-10,5.649129924477616e-10,4.3988459059880236e-10,3.093120061808809e-10,2.430473748803086e-10,1.6821548020578795e-10,1.1855190489834912e-10,8.527241798432504e-11,6.098609500477605e-11,3.800459945992575e-11,2.6098819997073683e-11,1.6681154543402152e-11,1.0391067130168645e-11,6.788715993512847e-12,3.708406978873055e-12,2.4711303667302328e-12
0.0,55,55.0,0.0,30.0,0.0,0.0,0.0,0.0,-13.0,0.0,2.0,0.0,0.0,0.0,1.7304436591281232e-10,1.1554122041324634e-10,7.291304087175173e-11,5.219539218738348e-11,3.3434449228349106e-11,2.3402982620881807e-11,1.3937816683597986e-11,9.659712556001508e-12,6.128169368262989e-12,3.85483828315289e-12,2.3148121387277896e-12,1.3381527033493636e-12,8.690007052561884e-13,5.228974389195316e-13,3.0470723367232415e-13,1.9225869199900524e-13,8.85961645537945e-14,3.0725120208761597e-09,2.3888772254361567e-09,1.8285243277837611e-09,1.4319974228311184e-09,1.0152402110413929e-09,7.578420725106034e-10,5.776320002762323e-10,4.141109565604317e-10,3.167045464811068e-10,2.3777539343661307e-10,1.6901277192651045e-10,1.2551588276465443e-10,8.590165670776032e-11,5.759509051107022e-11,4.053794059746253e-11,2.6631054469729384e-11,1.7722922099646967e-11,1.0810634071920934e-11,6.473635789971407e-12,3.725154575872517e-12,2.0518184668306483e-12
0.0,56,56.0,0.0,30.0,0.0,0.0,0.0,0.0,-13.0,0.0,2.0,0.0,0.0,0.0,1.7518993773715286e-10,1.1336843302559563e-10,7.662362873351826e-11,5.2798601312127435e-11,3.50480104845453e-11,2.303610225391371e-11,1.3962074110268158e-11,9.273520179940652e-12,6.228750005562744e-12,3.667055118526288e-12,2.402213749861665e-12,1.520631535720849e-12,9.007957789406354e-13,5.485364727555247e-13,3.116145190930458e-13,1.885735384932705e-13,1.147825600497493e-13,3.0410384204733897e-09,2.3470167953892e-09,1.8119708901553798e-09,1.4127256914145417e-09,1.068896950084069e-09,7.718382515230767e-10,5.625066634371657e-10,4.1795200025594587e-10,3.1946780992834506e-10,2.4698637780627084e-10,1.6236133667289245e-10,1.2069046928802052e-10,8.468467032986931e-11,6.067464894093399e-11,4.2064225209652136e-11,2.89052516496314e-11,1.702843325972335e-11,1.0916159420032805e-11,6.661192769960901e-12,4.0776870891425255e-12,2.348704658188508e-12
0.0,57,57.0,0.0,30.0,0.0,0.0,0.0,0.0,-13.0,0.0,2.0,0.0,0.0,0.0,1.755993164545533e-10,1.1853505937772376e-10,8.003487562821785e-11,5.229680260975221e-11,3.4688671931530514e-11,2.2447967355933675e-11,1.4165231979415493e-11,9.367325994837047e-12,5.887863918385402e-12,3.598796656030248e-12,2.2911803614643147e-12,1.4399524207014634e-12,8.609523787872783e-13,5.052177497768167e-13,3.211204071533998e-13,1.5446961863732764e-13,9.974849375627491e-14,2.9037514745592907e-09,2.4029357031801834e-09,1.8401825165563987e-09,1.3612855168489316e-09,1.060604417499238e-09,7.838302773143384e-10,5.881708571796891e-10,4.407787480510134e-10,3.230349090085557e-10,2.510805772628053e-10,1.7506361135344046e-10,1.3177542248712678e-10,8.946233277417875e-11,6.438659433032659e-11,4.2221980537875204e-11,2.525335211505055e-11,1.7363518108231472e-11,1.1348899602922996e-11,6.8996791587920695e-12,3.9994099655456255e-12,2.16603484296656e-12
0.0,58,58.0,0.0,30.0,0.0,0.0,0.0,0.0,-13.0,0.0,2.0,0.0,0.0,0.0,1.754490191798659e-10,1.1675731362290902e-10,7.869903440559981e-11,5.284197759285138e-11,3.434323769931354e-11,2.267936771749565e-11,1.5155455309214346e-11,9.768166013079252e-12,6.01267589192517e-12,3.721698649468337e-12,2.3288529919223715e-12,1.4446279430704912e-12,8.995875048489312e-13,5.175234739439354e-13,3.215835134192132e-13,2.071756454769108e-13,1.1249330227485001e-13,2.9909249695905645e-09,2.57107199967951e-09,1.9452941497271773e-09,1.4412429280119127e-09,1.0320740870105558e-09,7.655085047710539e-10,6.285514871410257e-10,4.415894228821938e-10,3.4282537710033024e-10,2.4900090305256596e-10,1.8300168911625501e-10,1.287716582181417e-10,9.3203743205654e-11,6.151956460953474e-11,4.055271101889983e-11,2.7542093812502234e-11,1.7570512781265987e-11,1.1579095635946975e-11,6.809290111942832e-12,3.852613732271954e-12,2.1490928512321672e-12
0.0,59,59.0,0.0,30.0,0.0,0.0,0.0,0.0,-13.0,0.0,2.0,0.0,0.0,0.0,1.811165529425991e-10,1.2046318260611952e-10,8.067884422584385e-11,5.076214303192049e-11,3.4979748906448247e-11,2.4154998347407545e-11,1.4714085130804005e-11,9.680953445047903e-12,6.36399517796107e-12,3.7533912226047785e-12,2.549706310503388e-12,1.4405286119004553e-12,8.504874890233146e-13,5.449680810133006e-13,3.160424412565121e-13,1.8691352315673428e-13,1.0443667367866813e-13,2.9319759541477938e-09,2.3540275719194516e-09,1.905513910179073e-09,1.4918092369453725e-09,1.083857020207586e-09,8.419786422885913e-10,6.00408855292816e-10,4.6135402990078897e-10,3.4233792768307575e-10,2.51671813822892e-10,1.7422769299671313e-10,1.295175899425716e-10,8.880842351502093e-11,6.479183642879556e-11,4.3060168168356404e-11,2.8294287198298505e-11,1.831343948307634e-11,1.1405062459717301e-11,6.964353949446739e-12,3.9576242835616185e-12,2.2504083748990987e-12
0.0,60,60.0,0.0,30.0,0.0,0.0,0.0,0.0,-13.0,0.0,2.0,0.0,0.0,0.0,1.7852020688001897e-10,1.1389172973730367e-10,8.058283837410236e-11,5.459814337081087e-11,3.4528709289929216e-11,2.353374772803296e-11,1.489403634075597e-11,9.98803166823735e-12,6.3970725516884745e-12,3.839641890274477e-12,2.28341263138984e-12,1.4840218127822697e-12,8.95062840837504e-13,5.529633444971638e-13,2.92419181525402e-13,1.653134295299339e-13,1.0449408933654919e-13,3.064112515414556e-09,2.4680967947261007e-09,1.949870889367455e-09,1.4696595927252744e-09,1.1129502103631677e-09,8.270367798626841e-10,6.467210731800065e-10,4.711400320906825e-10,3.343172402426722e-10,2.5949652153899216e-10,1.8257496101723085e-10,1.3709529337193658e-10,9.330126914815029e-11,6.299492397380697e-11,3.9519211145378123e-11,2.851902768647616e-11,1.8802609090593418e-11,1.101700734305015e-11,6.7983624120007475e-12,4.191582367232423e-12,2.360169337206615e-12
0.0,61,61.0,0.0,30.0,0.0,0.0,0.0,0.0,-13.0,0.0,2.0,0.0,0.0,0.0,1.8500665308814038e-10,1.2352172920080806e-10,7.814822040988506e-11,5.278827487554825e-11,3.636646944975665e-11,2.5045341602743163e-11,1.5524734566161994e-11,9.146438918584312e-12,6.343705621883366e-12,3.95150150745749e-12,2.4797006614220564e-12,1.3599099178045832e-12,8.72008603785688e-13,5.408350442711377e-13,3.138746069726899e-13,1.7510103595384883e-13,8.643504494536916e-14,3.12526506818137e-09,2.438922701289334e-09,1.9310641315224525e-09,1.5084671566655028e-09,1.1056137135138315e-09,8.474082654430467e-10,6.082162348951545e-10,4.892178742015493e-10,3.3568032365479605e-10,2.703744278551612e-10,1.8867645886400387e-10,1.3739052672708781e-10,9.583570313754426e-11,6.194040951178831e-11,4.225162593916686e-11,2.8351783629885428e-11,1.7852217725089696e-11,1.0680608681523454e-11,7.033422672930375e-12,4.031824836247904e-12,2.372545020785179e-12
0.0,62,62.0,0.0,30.0,0.0,0.0,0.0,0.0,-13.0,0.0,2.0,0.0,0.0,0.0,1.9594979761641544e-10,1.2598882663594866e-10,8.096282099458905e-11,5.643150822107422e-11,3.5679707002090943e-11,2.490528506428918e-11,1.493820560631279e-11,1.027477403182743e-11,6.256749319491078e-12,3.840067131180152e-12,2.232261704456508e-12,1.4600998976919356e-12,9.147006557108973e-13,5.084070544688878e-13,2.96613503208862e-13,1.8372636042240555e-13,1.2296503810306086e-13,3.124907463373169e-09,2.55662196363142e-09,2.015631143847811e-09,1.4532887936196121e-09,1.1435273338012595e-09,8.193357222007626e-10,6.456740131781559e-10,4.981765803305018e-10,3.665919934599596e-10,2.5249881343211705e-10,1.952864365016703e-10,1.3430670629108695e-10,1.0047985375773391e-10,6.090024532742972e-11,4.411546413715172e-11,2.8228306118755073e-11,1.7042089045257556e-11,1.1201152176186548e-11,6.9894700023903105e-12,4.094402448670257e-12,2.590346696833261e-12
0.0,63,63.0,0.0,30.0,0.0,0.0,0.0,0.0,-13.0,0.0,2.0,0.0,0.0,0.0,1.9632155374161492e-10,1.2524594908142077e-10,8.325885156468072e-11,5.429890714966101e-11,3.892492485176018e-11,2.464975338039526e-11,1.5915188277165653e-11,9.33876977423778e-12,6.2693724524924836e-12,3.825451303958182e-12,2.4406970369637153e-12,1.4515713510660739e-12,9.034114050119846e-13,5.388989967482596e-13,3.1704386246900697e-13,1.6817019537068493e-13,9.371388563134604e-14,2.8539753646254047e-09,2.5061026547396476e-09,1.9615099266413155e-09,1.5109181334379735e-09,1.1317756939945785e-09,9.083413304470949e-10,6.727626104167477e-10,4.999917901230128e-10,3.6517688073398024e-10,2.748944525486768e-10,1.9769498582160412e-10,1.4170319493859296e-10,9.968995938425187e-11,6.818764346055892e-11,4.557734498247315e-11,2.91834888657567e-11,1.8563769110018556e-11,1.1279263224978709e-11,6.7656779223055916e-12,4.295030290272791e-12,2.4116366494925365e-12
