Line_number,Fiducial,Easting,Northing,Height,Elevation,tx_pitch,tx_roll,tx_yaw,txrx_dx,txrx_dy,txrx_dz,rx_pitch,rx_roll,rx_yaw,S0Z_time_1.431e-04,S0Z_time_1.801e-04,S0Z_time_2.266e-04,S0Z_time_2.846e-04,S0Z_time_3.581e-04,S0Z_time_4.506e-04,S0Z_time_5.671e-04,S0Z_time_7.136e-04,S0Z_time_8.981e-04,S0Z_time_1.131e-03,S0Z_time_1.423e-03,S0Z_time_1.791e-03,S0Z_time_2.255e-03,S0Z_time_2.838e-03,S0Z_time_3.573e-03,S0Z_time_4.498e-03,S0Z_time_5.662e-03,S1Z_time_1.409e-05,S1Z_time_1.610e-05,S1Z_time_1.909e-05,S1Z_time_2.360e-05,S1Z_time_2.960e-05,S1Z_time_3.709e-05,S1Z_time_4.609e-05,S1Z_time_5.759e-05,S1Z_time_7.209e-05,S1Z_time_9.060e-05,S1Z_time_1.141e-04,S1Z_time_1.431e-04,S1Z_time_1.801e-04,S1Z_time_2.266e-04,S1Z_time_2.846e-04,S1Z_time_3.581e-04,S1Z_time_4.506e-04,S1Z_time_5.671e-04,S1Z_time_7.136e-04,S1Z_time_8.981e-04,S1Z_time_1.131e-03
0.0,0,0.0,0.0,30.0,0.0,0.0,0.0,0.0,-13.0,0.0,2.0,0.0,0.0,0.0,9.484375057856803e-11,6.702621213491264e-11,4.676958418558198e-11,2.86201080345128e-11,1.934065791040868e-11,1.3005815628254013e-11,7.873825799900578e-12,4.980267418724787e-12,2.9859760945691133e-12,1.642211581097777e-12,1.0249670199038945e-12,5.944737686111656e-13,3.3192902931101834e-13,1.7093537561478372e-13,1.086604816679336e-13,6.15934787133025e-14,3.4868462825343204e-14,4.1711085424588405e-09,2.7383559654644484e-09,2.0927773418328875e-09,1.3161292580428877e-09,7.681669548714347e-10,4.8392791259252e-10,3.3722372658853714e-10,2.401849360690754e-10,1.8064298772945781e-10,1.336798046664351e-10,9.770838383956089e-11,7.162880051127399e-11,5.137687705917742e-11,3.526671786836069e-11,2.4063604563301595e-11,1.7052968924692967e-11,1.042646796222205e-11,6.057944977412389e-12,3.5881068963834847e-12,2.087523325516095e-12,1.0708438589364905e-12
0.0,1,1.0,0.0,30.0,0.0,0.0,0.0,0.0,-13.0,0.0,2.0,0.0,0.0,0.0,9.702473313792348e-11,6.96455519498661e-11,4.640589165201499e-11,3.213039812124712e-11,2.1535175842945564e-11,1.3359074436715289e-11,8.53999508950545e-12,5.119575391728156e-12,3.1183924109873647e-12,1.8110221962678588e-12,1.0664158981733296e-12,6.149443362179509e-13,3.6022010883976514e-13,1.955442574681625e-13,1.1080038286851471e-13,5.0754831926153487e-14,1.8856136435912952e-14,4.116018551776292e-09,3.0548441561794547e-09,2.030677865371738e-09,1.2924576756309403e-09,7.760570130824508e-10,5.179560046356324e-10,3.2598358978280353e-10,2.2747764293680815e-10,1.6982276597171592e-10,1.2861955176872812e-10,9.973634021927575e-11,6.852115709670997e-11,5.5266419196621524e-11,3.7117545956477817e-11,2.5387300123427624e-11,1.6277632243064465e-11,1.0662226762610974e-11,6.55978484857639e-12,3.868802257085094e-12,2.26198741214514e-12,1.1614274104021978e-12
0.0,2,2.0,0.0,30.0,0.0,0.0,0.0,0.0,-13.0,0.0,2.0,0.0,0.0,0.0,9.29670107184146e-11,6.87538985334945e-11,4.683940874654383e-11,3.2557780977359615e-11,2.2284117744178342e-11,1.3587595463166936e-11,8.662312632874301e-12,5.672458955647246e-12,3.168945158230459e-12,1.8727879286988865e-12,1.1859851863582881e-12,6.575722343463969e-13,3.761453534426319e-13,2.0487696148606203e-13,1.1219011526476016e-13,6.051580992888254e-14,4.6147139284250794e-14,3.998180616854506e-09,2.9628823634663493e-09,2.1249179419692226e-09,1.2372790983018712e-09,8.039300219683778e-10,4.776201000505629e-10,3.4102825723352646e-10,2.216340464822446e-10,1.7239162190240293e-10,1.2253535637026885e-10,9.913096714193422e-11,6.975838117686903e-11,5.343482408162233e-11,3.7337893204976276e-11,2.5134447002890805e-11,1.6471068015037935e-11,1.0946624757971811e-11,7.2746678114941085e-12,4.0593517465372425e-12,2.470981646113498e-12,1.2991323683109738e-12
0.0,3,3.0,0.0,30.0,0.0,0.0,0.0,0.0,-13.0,0.0,2.0,0.0,0.0,0.0,9.694134277811154e-11,6.340869110478537e-11,4.613692600099362e-11,3.363380163277689e-11,2.1951198968707124e-11,1.4428703861564528e-11,9.138164327006013e-12,5.934641249589207e-12,3.532583687940827e-12,2.070163468282957e-12,1.251815343351606e-12,7.068892957974515e-13,4.0072262188037666e-13,2.3679528534534275e-13,1.1768673167286795e-13,6.75930753578146e-14,2.7703507547232013e-14,4.0456070134874735e-09,3.1023736054654423e-09,1.9663876305170283e-09,1.1885749269391912e-09,7.742540716908748e-10,4.773913637331475e-10,3.2928430254809405e-10,2.329869942993596e-10,1.7116460023560397e-10,1.3049822503058088e-10,9.2906354470942e-11,6.928314133142045e-11,5.271973110775518e-11,3.586488372349901e-11,2.5225485984999617e-11,1.869239855152747e-11,1.1733369928970358e-11,7.143845709153682e-12,4.501504604361493e-12,2.3551222437156094e-12,1.3479763466093978e-12
0.0,4,4.0,0.0,30.0,0.0,0.0,0.0,0.0,-13.0,0.0,2.0,0.0,0.0,0.0,9.546938914844233e-11,6.831162783872897e-11,4.727088088243803e-11,3.0365038670503046e-11,2.173663228437343e-11,1.503652255011349e-11,9.469080926935649e-12,6.434873229449656e-12,3.7739706786574905e-12,2.2155827770795273e-12,1.251354326064947e-12,7.330240891014099e-13,4.242380962189441e-13,2.4453445473037174e-13,1.34344282089521e-13,7.869990372489188e-14,2.6563540685732137e-14,4.177821606291947e-09,2.8231798930079256e-09,1.9617406594787368e-09,1.2405302212420398e-09,7.468793417606121e-10,4.657591121628603e-10,3.2154824059160584e-10,2.2337039340702158e-10,1.7359149271631967e-10,1.313907477373509e-10,9.405449236418473e-11,6.975595705990768e-11,4.978505813902817e-11,3.858907411011541e-11,2.8203390082742452e-11,1.6940175376663467e-11,1.1332652611492291e-11,7.2057057417689636e-12,4.373407946393888e-12,2.6281876793960847e-12,1.6301716632610549e-12
0.0,5,5.0,0.0,30.0,0.0,0.0,0.0,0.0,-13.0,0.0,2.0,0.0,0.0,0.0,9.617398744433931e-11,6.712935608187714e-11,4.533338154422236e-11,3.181567072854523e-11,2.2065296116076633e-11,1.5804511881857147e-11,9.81660350556802e-12,6.1092057922135994e-12,3.806246705340975e-12,2.340670048196218e-12,1.3073940512615904e-12,8.094595775937729e-13,4.4581882161052903e-13,2.407394758957934e-13,1.36411225481234e-13,7.386044324519172e-14,3.4127216353161325e-14,3.957943973731688e-09,2.852449740706989e-09,2.0215626871442205e-09,1.1996687330454064e-09,7.27411529790828e-10,4.835586496422419e-10,3.445262125835512e-10,2.353655886777787e-10,1.6849608039187255e-10,1.2812101911059298e-10,9.926091260236512e-11,6.689524256234538e-11,5.21879224999826e-11,3.756015576001666e-11,2.736829592653596e-11,1.8611372929335972e-11,1.1842952764239473e-11,7.135061342786502e-12,4.7492035536112715e-12,2.5941950218220863e-12,1.4163133523320624e-12
0.0,6,6.0,0.0,30.0,0.0,0.0,0.0,0.0,-13.0,0.0,2.0,0.0,0.0,0.0,9.655135828421633e-11,6.399250643716335e-11,4.8062128446375074e-11,3.3228018793992147e-11,2.295722494929522e-11,1.545466838798073e-11,9.558282603760085e-12,6.0384762783471785e-12,3.994513184571732e-12,2.4225387255343413e-12,1.4297930906215404e-12,7.90856660635072e-13,4.661602083766904e-13,2.5499726708023734e-13,1.2807413966348993e-13,8.555116334730198e-14,2.194333075741814e-14,4.038027325432016e-09,2.9458373478828314e-09,2.0309855886475335e-09,1.1770927336865772e-09,7.499828241018859e-10,5.13635565814191e-10,3.3974982506600693e-10,2.3816875316758484e-10,1.7561632877810878e-10,1.2738768481104459e-10,9.98426826130138e-11,7.157645918486727e-11,5.10365306469079e-11,3.734736699045983e-11,2.605489599764775e-11,1.880010669077161e-11,1.1517321362623646e-11,7.291430308948162e-12,4.985340260697705e-12,3.072907689204537e-12,1.6325287681886376e-12
0.0,7,7.0,0.0,30.0,0.0,0.0,0.0,0.0,-13.0,0.0,2.0,0.0,0.0,0.0,9.394304196084893e-11,6.697215722895855e-11,4.505211357258483e-11,3.3001913393843826e-11,2.2837035555506285e-11,1.575800088869506e-11,9.751340220876573e-12,6.440176374928429e-12,4.1998381829411675e-12,2.4217653657868997e-12,1.4410250054355964e-12,9.059803894877788e-13,4.887490648843928e-13,2.6115068690206827e-13,1.26804914223592e-13,8.622671471885379e-14,4.822064425771777e-14,3.911945586974717e-09,2.799816994018867e-09,1.9586121609344054e-09,1.1781230660530176e-09,7.255933262530141e-10,4.819345088198364e-10,3.24509176672585e-10,2.4113956131708687e-10,1.7746185282401379e-10,1.2466001648732764e-10,9.004223162391594e-11,7.259624723167046e-11,4.9415809277066834e-11,3.607778588446719e-11,2.6417521987640725e-11,1.8471092058569986e-11,1.2031298338335523e-11,7.921125805122687e-12,4.760558445837793e-12,2.74252325934916e-12,1.7937841477880345e-12
0.0,8,8.0,0.0,30.0,0.0,0.0,0.0,0.0,-13.0,0.0,2.0,0.0,0.0,0.0,1.011906785838655e-10,6.908739995936306e-11,4.603285175222455e-11,3.4563697703596704e-11,2.3082277611827845e-11,1.5351925353856573e-11,1.0516227218557249e-11,6.6580364840563814e-12,4.08412152743705e-12,2.486309331830571e-12,1.5811772753864088e-12,8.336927695764961e-13,5.20845654400078e-13,2.5969947337212844e-13,1.28783829282128e-13,6.339793503171881e-14,6.284508697785349e-14,3.9032133418482646e-09,2.8861949736487383e-09,2.0318629781287517e-09,1.2370416639273436e-09,7.147322322215436e-10,4.974250770226186e-10,3.3900008870230396e-10,2.3892356716507003e-10,1.7604090116108326e-10,1.3389985363531272e-10,9.187790985958604e-11,7.022919285893436e-11,5.0656959880357765e-11,3.46130505260631e-11,2.547945334257453e-11,1.821491586975687e-11,1.2663474563754848e-11,8.139869652151931e-12,5.0173283652005826e-12,2.829437455658656e-12,1.884905676599054e-12
0.0,9,9.0,0.0,30.0,0.0,0.0,0.0,0.0,-13.0,0.0,2.0,0.0,0.0,0.0,9.549545526567103e-11,6.39782182119633e-11,4.5566379928009445e-11,3.3584026062509896e-11,2.284683569031599e-11,1.6063586496199312e-11,1.0828900392569422e-11,6.874288666193274e-12,4.1971609569401245e-12,2.6427147719448133e-12,1.598536318343794e-12,9.75256391176385e-13,5.003421931678229e-13,2.914610447799762e-13,1.5243734521229933e-13,8.9422995446476e-14,2.027932572129928e-14,4.035573709131938e-09,2.862912415027996e-09,1.8305325099995267e-09,1.1854017833291397e-09,7.5884210360482e-10,4.630751274715004e-10,3.3933849458672304e-10,2.357915172128442e-10,1.746895198977608e-10,1.3027982939009679e-10,9.560606170371442e-11,6.865449390461859e-11,5.10425298004711e-11,3.73390878663765e-11,2.5763279494513466e-11,1.8841335880759244e-11,1.2740517180301638e-11,7.825809314230054e-12,4.859116682419755e-12,2.7712018217645424e-12,1.7113029302329837e-12
0.0,10,10.0,0.0,30.0,0.0,0.0,0.0,0.0,-13.0,0.0,2.0,0.0,0.0,0.0,9.469826519525785e-11,6.788640232731184e-11,4.380972589768534e-11,3.2406360036918783e-11,2.3498303410860325e-11,1.534944951415161e-11,1.0324779260345437e-11,6.5894565567195796e-12,4.742207244244764e-12,2.6399615566687916e-12,1.580266508412072e-12,9.29081469647337e-13,5.363855450426558e-13,3.016094307352841e-13,1.7487931105314972e-13,8.649931696291061e-14,3.743292383827631e-14,3.7141582002968856e-09,2.846486886510668e-09,1.9291890830199724e-09,1.2484550932730649e-09,7.468427977124541e-10,4.8650427262197e-10,3.3081791991438137e-10,2.4346193886004995e-10,1.7711196870469199e-10,1.300529924680682e-10,9.316432845743797e-11,7.117800737834583e-11,5.049566197224191e-11,3.6142358359483235e-11,2.453208496844858e-11,1.825818113492474e-11,1.236299402111749e-11,7.75199443929767e-12,5.200462466938403e-12,2.857099035619665e-12,1.7600623201143765e-12
0.0,11,11.0,0.0,30.0,0.0,0.0,0.0,0.0,-13.0,0.0,2.0,0.0,0.0,0.0,9.591428644454997e-11,6.417497936976254e-11,4.630717859498048e-11,3.436242531803843e-11,2.287587681580072e-11,1.5503811661479464e-11,1.077318269910539e-11,6.990186680941739e-12,4.475172590862551e-12,2.7276630794575574e-12,1.7650773817260817e-12,9.986919733228733e-13,5.605191996422061e-13,3.1549368211193674e-13,1.6399571877277133e-13,8.688814156773471e-14,4.216302855255436e-14,3.7297650953643695e-09,2.89333059081326e-09,1.8990487981813864e-09,1.2088428725102763e-09,7.295546639189028e-10,4.888829929532322e-10,3.366385773756066e-10,2.5334994300746896e-10,1.8000591890942883e-10,1.300147099585222e-10,9.210434340925102e-11,7.116348125211822e-11,4.982986897693022e-11,3.634268302223422e-11,2.5414109231774534e-11,1.8444438205072882e-11,1.2362377828054095e-11,8.101927510320937e-12,4.944402894501759e-12,3.143262012530804e-12,1.989179763914077e-12
0.0,12,12.0,0.0,30.0,0.0,0.0,0.0,0.0,-13.0,0.0,2.0,0.0,0.0,0.0,9.52915167957851e-11,6.773220875179331e-11,4.3991021399891584e-11,3.412616033837368e-11,2.2562933560429345e-11,1.611105477207747e-11,1.0125892062347567e-11,7.412198603205245e-12,4.488023187331753e-12,2.865348436344959e-12,1.7416441929085342e-12,1.0054902348272996e-12,6.24100114784822e-13,3.0524844725816855e-13,1.8229455417340256e-13,1.0628051776592168e-13,5.022693391134823e-14,3.825132754465308e-09,2.7980545438417583e-09,1.8347657442961578e-09,1.1860758422764823e-09,7.559194807445797e-10,4.92755211106067e-10,3.436499437328579e-10,2.4667216287206703e-10,1.8176412985076438e-10,1.3947836485939152e-10,9.177605932747116e-11,7.129652325103747e-11,5.0709760888693035e-11,3.8031268502107794e-11,2.5805629771266815e-11,1.8677546900727237e-11,1.1326053876383315e-11,8.109015988251889e-12,5.131484238171768e-12,3.2997884518088052e-12,1.6345558188943901e-12
0.0,13,13.0,0.0,30.0,0.0,0.0,0.0,0.0,-13.0,0.0,2.0,0.0,0.0,0.0,9.835426348859506e-11,6.815617731722873e-11,4.589202276977217e-11,3.4056644944601994e-11,2.2626717924645358e-11,1.6719343733416937e-11,1.1052730351967334e-11,7.286828929958107e-12,4.669782491080298e-12,2.776283627460127e-12,1.7489268393404133e-12,1.0598246191435215e-12,6.21893545923097e-13,3.5808197411613435e-13,1.7999762110330628e-13,9.137456557741141e-14,6.111469797701772e-14,3.7233127851440175e-09,2.8658538731311814e-09,1.9623603931742296e-09,1.1967344493439753e-09,7.366315930008367e-10,4.944836072118388e-10,3.553125620223718e-10,2.528609065305489e-10,1.9752037856973422e-10,1.3188765237739072e-10,9.601702687078184e-11,6.980715563439948e-11,5.0681843080634055e-11,3.417556506113902e-11,2.5279480724306162e-11,1.747413266648457e-11,1.2126450139666432e-11,8.09315835583604e-12,4.869078916129382e-12,3.2559021926349736e-12,2.0504024436933925e-12
0.0,14,14.0,0.0,30.0,0.0,0.0,0.0,0.0,-13.0,0.0,2.0,0.0,0.0,0.0,9.931101655555561e-11,7.19568569515016e-11,4.722655464167019e-11,3.497625956674054e-11,2.3671611674656983e-11,1.5034736784307866e-11,1.0747071813574659e-11,7.351851805982859e-12,4.644128229874165e-12,2.9090213169655753e-12,1.8774492175654236e-12,1.0427942337836735e-12,6.252523285764413e-13,3.5477943929466907e-13,1.8779179688797791e-13,1.0366191978779003e-13,6.215260364292513e-14,3.842195679863335e-09,2.7078975173536307e-09,1.821186889063506e-09,1.148804628114413e-09,7.450090022545189e-10,4.937859111462499e-10,3.430452117524815e-10,2.507129953600144e-10,1.7880595882911767e-10,1.3921883807606143e-10,1.0000910763788677e-10,6.993033036481609e-11,5.2089155698521536e-11,3.826866387807606e-11,2.5243903372186206e-11,1.8527357050562448e-11,1.1948366206343527e-11,8.025721283689639e-12,5.12165091652151e-12,3.3419139620952713e-12,1.881436158765149e-12
0.0,15,15.0,0.0,30.0,0.0,0.0,0.0,0.0,-13.0,0.0,2.0,0.0,0.0,0.0,9.762528413315647e-11,6.671057857300904e-11,4.517683334042762e-11,3.149176055927586e-11,2.300378892783273e-11,1.5344361836789106e-11,1.0737476990805416e-11,7.008334957775652e-12,4.571305059883641e-12,2.907979737093065e-12,1.8788331212729138e-12,1.1221231506062425e-12,6.49098780700607e-13,3.457665615747909e-13,2.0525993847280587e-13,1.1457148022306182e-13,5.895534531175377e-14,3.701330014614739e-09,2.8163721050113212e-09,1.896878684725897e-09,1.0632946552973718e-09,7.599726882734792e-10,4.699926200722722e-10,3.6173045766769275e-10,2.5669099073472083e-10,1.9624275833521082e-10,1.386911488591582e-10,9.86032801715035e-11,7.31615750242574e-11,5.421905959917339e-11,3.706829470359964e-11,2.5825425897677773e-11,1.8223071484737563e-11,1.2129108577318328e-11,7.960345152869397e-12,5.3565130738055455e-12,3.375085753180029e-12,1.948955632025879e-12
0.0,16,16.0,0.0,30.0,0.0,0.0,0.0,0.0,-13.0,0.0,2.0,0.0,0.0,0.0,1.0139024783922212e-10,7.33554860458256e-11,4.949745970135363e-11,3.414334950470204e-11,2.222236507303523e-11,1.589800119988e-11,1.0543512702095604e-11,7.152579031974899e-12,4.74735813916321e-12,2.993572111608662e-12,1.84118390487681e-12,1.1566812637608127e-12,6.188614011860379e-13,3.8109209921200666e-13,1.8196441695167932e-13,1.1476478293459004e-13,4.9020685787686625e-14,3.844663902899674e-09,2.7473076800789615e-09,1.8766670475699115e-09,1.1338069843057158e-09,7.316996328846466e-10,5.043532664417411e-10,3.6388764090707153e-10,2.8344621606038406e-10,1.928997967852855e-10,1.4486819735217372e-10,9.771087332033166e-11,7.1359663535331e-11,5.252023695508933e-11,3.5995035730167554e-11,2.7217560583540422e-11,1.762611921140168e-11,1.2558789102669849e-11,8.334213753984212e-12,5.113544019958275e-12,3.2375988582999387e-12,1.8841712722620544e-12
0.0,17,17.0,0.0,30.0,0.0,0.0,0.0,0.0,-13.0,0.0,2.0,0.0,0.0,0.0,1.0514216184477056e-10,7.201789982820947e-11,4.809815922289679e-11,3.41893464172469e-11,2.4377450194621018e-11,1.621400664041321e-11,1.0911085231848947e-11,7.236669536208551e-12,4.597073503173917e-12,2.9204738307647988e-12,1.9128627980910566e-12,1.084125483358529e-12,6.534604001672795e-13,3.9900805805770076e-13,2.321138806284381e-13,9.64543842875881e-14,7.638124169923244e-14,3.6984600457002495e-09,2.721445821307057e-09,1.8464071787999221e-09,1.2041584778822379e-09,7.113329694284195e-10,5.109173402247479e-10,3.5047212656057527e-10,2.6780147574081727e-10,2.028060750938389e-10,1.4242719322039307e-10,1.0489725583620608e-10,7.612269877896777e-11,5.237344131195086e-11,3.939732153906088e-11,2.7565273035409505e-11,1.828826931145614e-11,1.2070857374362478e-11,7.820826274561402e-12,4.988082484169047e-12,3.40898974611976e-12,2.062685395422365e-12
0.0,18,18.0,0.0,30.0,0.0,0.0,0.0,0.0,-13.0,0.0,2.0,0.0,0.0,0.0,1.0449668230793308e-10,6.839159346674416e-11,4.463361636182874e-11,3.285805886335787e-11,2.3223683774001925e-11,1.6598857492541806e-11,1.0617311556843272e-11,7.339155435918799e-12,4.951946720025845e-12,3.0512110562710946e-12,1.9091606337199565e-12,1.1042258036536578e-12,6.566938427226943e-13,3.949464006274638e-13,2.1268778533355875e-13,1.186137929615083e-13,6.117975823969494e-14,3.771617495460891e-09,2.641479696260963e-09,1.8242450757413537e-09,1.229613869873491e-09,7.306717398800177e-10,5.026869497917286e-10,3.574476900337329e-10,2.6966449980261694e-10,2.0211772593316105e-10,1.4199485640753574e-10,1.0363185818324436e-10,7.545455200701176e-11,5.512977146246957e-11,3.7205120766996483e-11,2.6108312992694373e-11,1.668176942258411e-11,1.1540638170112494e-11,7.905912846185493e-12,5.262777313985456e-12,3.215655392040577e-12,1.7801573323812848e-12
0.0,19,19.0,0.0,30.0,0.0,0.0,0.0,0.0,-13.0,0.0,2.0,0.0,0.0,0.0,1.0149420776455988e-10,7.299866969695486e-11,4.685363642379206e-11,3.53626338242989e-11,2.3515891328005944e-11,1.522499072442338e-11,1.0542024340983002e-11,7.090339474668767e-12,4.6741245168445804e-12,2.9238481101764154e-12,1.8866505204018784e-12,1.1434312162306894e-12,6.802614345301886e-13,4.146283412883461e-13,2.2170612764527037e-13,1.0992349593914326e-13,6.0031043436598e-14,3.5766561199576306e-09,2.663502690325845e-09,1.8812495724956736e-09,1.1695761388048743e-09,8.015604866091159e-10,5.158415133110283e-10,3.571181318611871e-10,2.755469087587168e-10,2.048538221158184e-10,1.5069922644484226e-10,1.0278689310427863e-10,7.666648694200108e-11,5.675717221669321e-11,3.64975625228771e-11,2.6228289644436383e-11,1.729636445725661e-11,1.1737999354551812e-11,7.673998956524585e-12,5.323512353347869e-12,3.1430717087037677e-12,1.8120709804854314e-12
0.0,20,20.0,0.0,30.0,0.0,0.0,0.0,0.0,-13.0,0.0,2.0,0.0,0.0,0.0,1.0388405554780401e-10,7.376982356430777e-11,4.9817718246864057e-11,3.598472520969821e-11,2.3998822527677615e-11,1.5385045999718188e-11,1.0683913658629823e-11,7.49971031917414e-12,4.713219184896453e-12,3.2418664783205152e-12,1.8913488772266638e-12,1.2051157112767685e-12,6.882581655452429e-13,3.9715293068908163e-13,2.388768336056397e-13,1.2221283332024734e-13,7.347015574621453e-14,3.7008605783090427e-09,2.7306819615691856e-09,1.775053673388514e-09,1.1507402840864938e-09,7.614275474432468e-10,5.003020824711616e-10,3.8871586183243485e-10,2.6564492969790295e-10,1.9899279599338402e-10,1.432432127675769e-10,1.006685501508355e-10,8.214941081527488e-11,5.5191889344586095e-11,3.8340141204069856e-11,2.671278145597282e-11,1.899157884227648e-11,1.176770003529816e-11,8.118140567612342e-12,5.015444306137161e-12,3.09275705202782e-12,1.9802409805527247e-12
0.0,21,21.0,0.0,30.0,0.0,0.0,0.0,0.0,-13.0,0.0,2.0,0.0,0.0,0.0,1.1172484098204913e-10,7.316647290272886e-11,4.922207561165629e-11,3.370313539306115e-11,2.4621617491687482e-11,1.588741443387126e-11,1.0321413049459594e-11,7.593636093727381e-12,4.620066110771707e-12,3.1700832819663823e-12,1.984179534257247e-12,1.2089375109777117e-12,7.055095510256756e-13,4.1864644804703835e-13,2.102825669465169e-13,1.3284972090278172e-13,8.277089072539111e-14,3.72046112052563e-09,2.4922472509275105e-09,1.7608738514676127e-09,1.1498772026899307e-09,7.648503858365e-10,5.151896309778046e-10,3.685954780642129e-10,2.7995333991587557e-10,2.1032845115252226e-10,1.4849553780659352e-10,1.1131144484611113e-10,7.278877217707687e-11,5.4608810658786897e-11,3.891738271649634e-11,2.6735802064642012e-11,1.8526644080236388e-11,1.2572486404547163e-11,8.087964372504774e-12,4.979145716021317e-12,2.964314632427551e-12,1.9811180957522806e-12
0.0,22,22.0,0.0,30.0,0.0,0.0,0.0,0.0,-13.0,0.0,2.0,0.0,0.0,0.0,1.0376728761342796e-10,7.665421277381966e-11,5.065796599616042e-11,3.403469905673137e-11,2.424134304226369e-11,1.626663410753857e-11,1.0960374805393507e-11,7.287197017627911e-12,4.893974958132288e-12,3.198568759596444e-12,2.0177478341398683e-12,1.2492344668683605e-12,7.284776002476947e-13,4.460861912098857e-13,2.4228813498742966e-13,1.236243994607684e-13,5.73932821130544e-14,3.6217168360051765e-09,2.5324802626379764e-09,1.7528051043114682e-09,1.1629395117508837e-09,7.422826347631603e-10,5.05909676430754e-10,3.7739176460587923e-10,2.787797572463848e-10,2.0444264742343852e-10,1.496932076248366e-10,1.1312176512052063e-10,8.06932142986035e-11,5.6483725197436845e-11,4.2693546305860806e-11,2.7574917836348064e-11,1.9131228108327577e-11,1.2042944699150888e-11,7.625043755131887e-12,4.950928028303346e-12,3.137301433321248e-12,1.860736211606262e-12
0.0,23,23.0,0.0,30.0,0.0,0.0,0.0,0.0,-13.0,0.0,2.0,0.0,0.0,0.0,1.1561928909850185e-10,7.579103463562283e-11,5.2231745561960745e-11,3.559128218323422e-11,2.393179531759273e-11,1.63982008473098e-11,1.1590255996148896e-11,7.1593545967478845e-12,4.95865347095991e-12,3.0279158464378205e-12,1.9726509995189148e-12,1.2229085481718528e-12,7.468481465785947e-13,4.509477443941953e-13,2.3920291758443254e-13,1.231811417213665e-13,7.683486501150859e-14,3.535486577313373e-09,2.6375020220514546e-09,1.7906456641875976e-09,1.086010360990382e-09,7.701297014705348e-10,5.334772778472711e-10,3.921594199576668e-10,2.96584213166518e-10,2.0078311110783206e-10,1.5569274384469249e-10,1.1305469773742132e-10,7.984565479802648e-11,5.823916105724838e-11,4.080918517684639e-11,2.6684879099663384e-11,1.8798902610764397e-11,1.198460788327974e-11,7.83821670985992e-12,4.777242232098286e-12,3.1093656084374753e-12,1.8951795494230586e-12
0.0,24,24.0,0.0,30.0,0.0,0.0,0.0,0.0,-13.0,0.0,2.0,0.0,0.0,0.0,1.143815720367868e-10,7.69652716531292e-11,4.969037070717793e-11,3.694346101266162e-11,2.4382877585578466e-11,1.6741776910874323e-11,1.1401286693335697e-11,7.667841137597626e-12,5.147335741951978e-12,3.1293714386887777e-12,2.031100447795237e-12,1.1919946384156919e-12,7.736279120208044e-13,4.138088180037144e-13,2.2175305769224467e-13,1.4391680459125552e-13,6.644396060625006e-14,3.632311139004943e-09,2.6337402265881517e-09,1.701152291932055e-09,1.0581729342233903e-09,7.36271803449654e-10,5.28561286038994e-10,3.713146985501774e-10,2.7910048360506907e-10,2.0161306248084592e-10,1.5605340262852205e-10,1.1340685892767938e-10,8.068865861927759e-11,6.069720542379932e-11,4.250835302568671e-11,2.8485051856363147e-11,1.780327633999727e-11,1.2000215021426828e-11,8.150720952657906e-12,4.9964850544876736e-12,3.108967582408199e-12,2.0228151298891783e-12
0.0,25,25.0,0.0,30.0,0.0,0.0,0.0,0.0,-13.0,0.0,2.0,0.0,0.0,0.0,1.1565828140796288e-10,8.094644905030981e-11,5.201476796068307e-11,3.789259625710641e-11,2.4290391796603445e-11,1.7376640789008785e-11,1.1178288140875205e-11,7.191163274364622e-12,4.635770693202437e-12,3.1182088519459295e-12,2.006506821882029e-12,1.275955399913731e-12,7.52784180335338e-13,4.32075879285184e-13,2.6165677717409634e-13,1.3512675582589217e-13,6.742538046114133e-14,3.5851892695830004e-09,2.547243469341026e-09,1.8158599837139778e-09,1.130842819806373e-09,7.592311148428982e-10,5.349126854354546e-10,3.8508385191157057e-10,2.8793130207909563e-10,2.1871287827090644e-10,1.5918250112167938e-10,1.1619350159860983e-10,8.131683512382373e-11,6.047416708037337e-11,4.198368115434161e-11,2.917683554937825e-11,1.860217958508484e-11,1.2458750317089371e-11,8.254098767643224e-12,5.013633182014377e-12,3.1479043561898047e-12,2.1417813228775714e-12
0.0,26,26.0,0.0,30.0,0.0,0.0,0.0,0.0,-13.0,0.0,2.0,0.0,0.0,0.0,1.220767905232112e-10,8.173557008198916e-11,5.479562612432972e-11,3.565306021693375e-11,2.5322948837923122e-11,1.6583415288465276e-11,1.085514685830788e-11,7.299966799822816e-12,4.90687222575003e-12,3.1046966380624e-12,1.9973863785836265e-12,1.2822044883527653e-12,7.664409510309623e-13,4.4872480819034764e-13,2.535217328971251e-13,1.3272943066469505e-13,6.077902375244282e-14,3.5319584673886382e-09,2.5297458723863034e-09,1.6661277927047859e-09,1.1375533940893256e-09,7.424921864531375e-10,5.481016075493999e-10,3.997501226587096e-10,2.9584693131308976e-10,2.1187832515471538e-10,1.6276244370806297e-10,1.171203688528441e-10,8.290931992072347e-11,5.887333162713232e-11,4.2761451679823305e-11,2.8226866134909852e-11,1.939591083959034e-11,1.3038365590508569e-11,8.641532782938075e-12,5.4489426475974974e-12,3.3082479055505663e-12,1.7465114452338043e-12
0.0,27,27.0,0.0,30.0,0.0,0.0,0.0,0.0,-13.0,0.0,2.0,0.0,0.0,0.0,1.1434757161428432e-10,7.843616517619229e-11,5.6579509648191964e-11,3.639115950397806e-11,2.54759112011103e-11,1.695710560722668e-11,1.0968311475982234e-11,7.533230739819466e-12,4.964656579765371e-12,3.046519549374162e-12,2.115490409400968e-12,1.1776417333891945e-12,7.546912587508577e-13,4.663928073116607e-13,2.4076483225030217e-13,1.4626637657913814e-13,6.298156332080294e-14,3.4646132000171266e-09,2.3754930713383363e-09,1.7212628772865067e-09,1.0978517272571722e-09,7.619337146155387e-10,5.346610787330133e-10,3.8981039700939647e-10,3.0210092671547447e-10,2.131252346989632e-10,1.6439700486428077e-10,1.2324637375402391e-10,8.535851045044872e-11,5.886401583237859e-11,4.055476931454679e-11,2.834143729794199e-11,1.9837001358393213e-11,1.2808928882175296e-11,8.442367788261739e-12,5.306739199690603e-12,3.209494336796995e-12,1.9761955120045142e-12
0.0,28,28.0,0.0,30.0,0.0,0.0,0.0,0.0,-13.0,0.0,2.0,0.0,0.0,0.0,1.2480398638719648e-10,8.413386204849099e-11,5.403130423197453e-11,3.8686365944009256e-11,2.5881512534856072e-11,1.763484707000376e-11,1.1592619522391022e-11,7.266582498665408e-12,4.683450796940891e-12,3.2308814688333993e-12,2.165630225986493e-12,1.2357015665898073e-12,7.709380257815281e-13,4.374109786674423e-13,2.7421631600166643e-13,1.1962341478377678e-13,5.4444962512688044e-14,3.4881434039906664e-09,2.5305890773120395e-09,1.7338189905060161e-09,1.1411496827246938e-09,7.875879717802954e-10,5.39372913271742e-10,3.8900133406459573e-10,2.903495692325447e-10,2.2767894806516435e-10,1.6085161199986183e-10,1.1407221584000148e-10,8.634660017039155e-11,6.209519133446505e-11,4.4348573611383774e-11,2.948682295700087e-11,1.923467396165001e-11,1.3056907294031526e-11,8.449379914123556e-12,5.182987981306729e-12,3.1920631229791855e-12,1.953463668322291e-12
0.0,29,29.0,0.0,30.0,0.0,0.0,0.0,0.0,-13.0,0.0,2.0,0.0,0.0,0.0,1.194619898217562e-10,8.229385043023166e-11,5.34656367902593e-11,3.666613341141773e-11,2.5045399121149512e-11,1.7537226324206872e-11,1.1535406484129985e-11,7.761518377223878e-12,4.914242994692224e-12,3.0757966374064102e-12,2.1257279884883323e-12,1.271764472625974e-12,8.140341242359097e-13,4.696505605348976e-13,2.904494740189632e-13,1.4455044633265202e-13,8.830626580136741e-14,3.5160533741800125e-09,2.4793845331631625e-09,1.7437340454698037e-09,1.101837809922821e-09,7.43059123308718e-10,5.531875684304247e-10,4.1643171499715126e-10,3.0815358803890493e-10,2.269350344514155e-10,1.6985064179881164e-10,1.1843288451748927e-10,8.646585173665966e-11,6.329680152327294e-11,4.371731181716162e-11,2.9443502224651045e-11,2.063937567611928e-11,1.247368383277468e-11,8.181964870992932e-12,5.16670487950121e-12,3.321799065036598e-12,1.926372581449011e-12
0.0,30,30.0,0.0,30.0,0.0,0.0,0.0,0.0,-13.0,0.0,2.0,0.0,0.0,0.0,1.166406835010526e-10,8.394664575546956e-11,5.7616869490384616e-11,3.924054377151968e-11,2.6431934584782266e-11,1.6385877906661747e-11,1.1221945550630717e-11,7.679839428849973e-12,4.95411268707367e-12,3.246033006458683e-12,1.9815990831393524e-12,1.2758342328458346e-12,7.508559885263527e-13,4.302067016767273e-13,2.6947604425132074e-13,1.5828043041178026e-13,8.288946279784475e-14,3.396418293901071e-09,2.388832444621432e-09,1.7996735553937651e-09,1.152085766176185e-09,8.298070052362885e-10,5.719590042896219e-10,3.8665327501564055e-10,3.1309500279218884e-10,2.1804225656971053e-10,1.6391932170906545e-10,1.2122061728926383e-10,8.804431607501561e-11,6.344251037754788e-11,4.232984390196507e-11,2.8933010299048684e-11,2.0426458523984433e-11,1.311853714611901e-11,8.439324945095299e-12,4.842600217823009e-12,3.1960613018043256e-12,1.8267210466865906e-12
0.0,31,31.0,0.0,30.0,0.0,0.0,0.0,0.0,-13.0,0.0,2.0,0.0,0.0,0.0,1.1938072534409184e-10,8.59935921472997e-11,5.4590609893026967e-11,3.753494029560883e-11,2.5953946788108728e-11,1.7759624170939e-11,1.131559618191185e-11,7.89921250208962e-12,5.2015112347899746e-12,3.120850601504197e-12,2.0519049117231592e-12,1.2525739931063857e-12,7.477658171227321e-13,4.727987966634233e-13,2.780386159141856e-13,1.7313906418120233e-13,7.239002740230818e-14,3.5106013371032466e-09,2.591941190759371e-09,1.7519171734822774e-09,1.176149155347391e-09,8.091633142792197e-10,5.948327579032726e-10,4.2214699968088485e-10,3.094829166567797e-10,2.2458112659265346e-10,1.7151908752884354e-10,1.2754361935112838e-10,9.008295178924025e-11,6.198707619114825e-11,4.431863149966008e-11,3.020338090818319e-11,2.0445185811843654e-11,1.257657249929292e-11,8.61691224151206e-12,5.3994403844183016e-12,3.2968993333324187e-12,1.9337018192620795e-12
0.0,32,32.0,0.0,30.0,0.0,0.0,0.0,0.0,-13.0,0.0,2.0,0.0,0.0,0.0,1.176056861144878e-10,8.465420949363124e-11,5.892290352848169e-11,3.82193850806293e-11,2.490225921312637e-11,1.6869338484213547e-11,1.1828251065883942e-11,7.752121570783826e-12,5.141254170914623e-12,3.2117234954593596e-12,1.9790315111040996e-12,1.2557510883937167e-12,8.166673873402157e-13,4.736252060019789e-13,2.797445464912899e-13,1.5773958150304717e-13,8.073643890906575e-14,3.333571041711497e-09,2.6154124916324102e-09,1.7583397564732825e-09,1.1529274163838742e-09,8.04432929164088e-10,5.709099666818505e-10,3.938415722026384e-10,3.201399581585855e-10,2.463945542052498e-10,1.6819168488488492e-10,1.308394240927675e-10,8.987878835084032e-11,6.483308809539044e-11,4.617414733436742e-11,3.000724566982934e-11,2.1281822974344443e-11,1.2892891974820187e-11,8.303602522219881e-12,5.2146449701637715e-12,3.3435426617146845e-12,1.9001878804306295e-12
0.0,33,33.0,0.0,30.0,0.0,0.0,0.0,0.0,-13.0,0.0,2.0,0.0,0.0,0.0,1.20198674705093e-10,8.518756325311923e-11,5.6416262378201443e-11,4.053247403032695e-11,2.6479858800483294e-11,1.78920771641389e-11,1.1670805104614053e-11,7.818694059858567e-12,5.005230561656125e-12,3.260418895169563e-12,1.915921067041477e-12,1.2968761710159585e-12,8.101838328684774e-13,4.710687232849136e-13,2.8260894988766767e-13,1.6290991436162112e-13,9.747057484435245e-14,3.3376025565615777e-09,2.3222286212343936e-09,1.6136503667628466e-09,1.1042203177525798e-09,7.98084649001557e-10,5.701642916916128e-10,4.296801531480024e-10,3.121143536062446e-10,2.3151945556693819e-10,1.7743541290931047e-10,1.2952610654502548e-10,9.10400884930726e-11,6.49953839391546e-11,4.58252287748847e-11,3.150258359716816e-11,2.0015280905463792e-11,1.3235329849189647e-11,8.283809695751387e-12,5.271837454406164e-12,3.382878505736374e-12,2.009390136034822e-12
0.0,34,34.0,0.0,30.0,0.0,0.0,0.0,0.0,-13.0,0.0,2.0,0.0,0.0,0.0,1.233671570614973e-10,8.813725521064838e-11,5.860634769874181e-11,3.950487247793063e-11,2.589119643076376e-11,1.7929825518218852e-11,1.2157119001979496e-11,7.2674412303232965e-12,4.999554714953343e-12,3.461509131046083e-12,2.1287379895908175e-12,1.3077157733856872e-12,7.838307138963611e-13,4.657741282593934e-13,2.7528043664697395e-13,1.741926702085184e-13,8.995135859321384e-14,3.217141145837571e-09,2.537023451955474e-09,1.7135339752104147e-09,1.2222249352093459e-09,7.910417813632992e-10,5.61406459158487e-10,4.3360068264338165e-10,3.3173768662815957e-10,2.474043465398958e-10,1.7772222900610653e-10,1.2489494769645114e-10,9.152588898907168e-11,6.189225676452015e-11,4.456425761642149e-11,3.1222561324871723e-11,2.1215539408599837e-11,1.3536000588352362e-11,8.692555549510588e-12,5.336171043277649e-12,3.394411243135103e-12,1.849448943619959e-12
0.0,35,35.0,0.0,30.0,0.0,0.0,0.0,0.0,-13.0,0.0,2.0,0.0,0.0,0.0,1.3247444836941066e-10,9.304939955462631e-11,5.998557020584367e-11,3.990105508976823e-11,2.6872787263341452e-11,1.885795496026667e-11,1.1609572034084472e-11,7.604330399938503e-12,4.910036402241611e-12,3.12887865456202e-12,2.0261555084365614e-12,1.3332149502802805e-12,8.352683093486633e-13,4.682550541752774e-13,2.81328358900795e-13,1.6651788225369125e-13,8.726407860007331e-14,3.186453622781797e-09,2.330388840103003e-09,1.7778885290437102e-09,1.1838933399543174e-09,8.248119632229371e-10,5.655628336193052e-10,4.397541702262095e-10,3.326580755484381e-10,2.4547845375770005e-10,1.7526328388496622e-10,1.3438931771367626e-10,8.982670249858853e-11,6.857619278736603e-11,4.788656858338741e-11,3.3263455901094345e-11,2.0981813208295023e-11,1.3398393115137035e-11,9.018020048005562e-12,5.3234865612275175e-12,3.3165828724085898e-12,1.925369884144756e-12
0.0,36,36.0,0.0,30.0,0.0,0.0,0.0,0.0,-13.0,0.0,2.0,0.0,0.0,0.0,1.2737244194459908e-10,8.983111070236815e-11,5.734891521930078e-11,4.1719945538057756e-11,2.6795883515401278e-11,1.741833866774993e-11,1.2101654801448315e-11,7.988979920244532e-12,5.2067678894919095e-12,3.3490260339022143e-12,1.949177418744559e-12,1.2647323291785761e-12,8.123265583833985e-13,5.098743847544881e-13,2.9099014358530815e-13,1.8074081777826358e-13,8.183294795807677e-14,3.284579399156224e-09,2.345925395650243e-09,1.7021785780454831e-09,1.1447295941903639e-09,8.016300106109581e-10,5.844130412068151e-10,4.4219201900339305e-10,3.310714800163268e-10,2.505251866982087e-10,1.8247335516713822e-10,1.3080855837744326e-10,9.38758898619641e-11,6.693265627970061e-11,4.6307936121604976e-11,3.260317588176039e-11,2.2003049524674156e-11,1.4521252848118694e-11,8.654487765770003e-12,5.596061722092209e-12,3.1361717144943e-12,2.01509619776604e-12
0.0,37,37.0,0.0,30.0,0.0,0.0,0.0,0.0,-13.0,0.0,2.0,0.0,0.0,0.0,1.3694197795874471e-10,8.968302681862897e-11,6.25096371422311e-11,4.003189240245877e-11,2.7141143231930765e-11,1.847560278562048e-11,1.2601022853821952e-11,7.84717423467266e-12,5.079029836756432e-12,3.1850457306288057e-12,2.119209984896102e-12,1.3597919530582005e-12,8.308923302235475e-13,4.978812997596663e-13,2.800077251503007e-13,1.548619634331193e-13,9.525416312329983e-14,3.2325223444030754e-09,2.4021282068805947e-09,1.7676159935729031e-09,1.1681094600756013e-09,8.032013051796987e-10,6.143167727154435e-10,4.488684847495546e-10,3.2487347637110486e-10,2.4154973245596396e-10,1.847236637818718e-10,1.4334601044222325e-10,9.548102630245987e-11,6.771849180308403e-11,4.9690277621815296e-11,3.244603038953456e-11,2.0726551289819383e-11,1.3436935601805882e-11,9.322839078524946e-12,5.684408055719786e-12,3.4751330896271213e-12,1.9755027869171154e-12
0.0,38,38.0,0.0,30.0,0.0,0.0,0.0,0.0,-13.0,0.0,2.0,0.0,0.0,0.0,1.314543455238986e-10,9.062487054890516e-11,6.153465103368063e-11,4.0856250991654215e-11,2.8651247227924375e-11,1.8023918057621e-11,1.221075377066273e-11,7.959384169892407e-12,5.074168853499821e-12,3.0795228974642494e-12,2.142276046267228e-12,1.2824280581383143e-12,8.501966091972384e-13,4.817769835783692e-13,2.7745104352902357e-13,1.6351567196552806e-13,1.0009864831115913e-13,3.1597486178439447e-09,2.4773351616741048e-09,1.7943896188022036e-09,1.2151970945968062e-09,8.715408919985307e-10,6.282974595906987e-10,4.741764757601442e-10,3.5622125765728576e-10,2.5493386623433123e-10,1.8432575848491788e-10,1.265426039142357e-10,9.400274641534443e-11,6.834329362535468e-11,4.7539891630971297e-11,3.273006490647299e-11,2.1256657447564548e-11,1.3570967161777886e-11,9.023586521657846e-12,5.568767511189662e-12,3.2685646024637904e-12,1.9071401659993023e-12
0.0,39,39.0,0.0,30.0,0.0,0.0,0.0,0.0,-13.0,0.0,2.0,0.0,0.0,0.0,1.3232578266649215e-10,9.127136638999946e-11,6.042639319878623e-11,4.398150839427244e-11,2.867848704956392e-11,1.836314920284573e-11,1.2338933012109576e-11,7.785568810667437e-12,5.3743315386163544e-12,3.4537908232466857e-12,2.2018369180722946e-12,1.2703944739715148e-12,8.153520960359025e-13,4.828055895236871e-13,2.9370190566538035e-13,1.525684564330697e-13,8.309447288395848e-14,3.153599587519061e-09,2.40536648733618e-09,1.7554169347161946e-09,1.174030360488321e-09,8.551340197644468e-10,6.269972015747398e-10,4.5655665319289927e-10,3.3164976281054745e-10,2.4785669556690676e-10,1.9267527099423617e-10,1.3563382159126444e-10,9.408116433877934e-11,7.144745329122532e-11,4.886867701725545e-11,3.185552891291638e-11,2.2960948604688074e-11,1.4796968480426643e-11,9.193808100806275e-12,5.406982165781212e-12,3.2099514373263834e-12,1.9700331383635314e-12
0.0,40,40.0,0.0,30.0,0.0,0.0,0.0,0.0,-13.0,0.0,2.0,0.0,0.0,0.0,1.308866340624292e-10,9.467751507930064e-11,6.010970336277403e-11,4.306790781769473e-11,2.8523897909727153e-11,1.950842538279701e-11,1.2201678223655882e-11,8.203061169271954e-12,5.030471197359349e-12,3.4126843900177096e-12,2.1218045937020677e-12,1.3412816112794886e-12,7.851862244062763e-13,5.008035748672176e-13,2.9194863618593267e-13,1.6908371791662588e-13,9.419688144048957e-14,3.154599440924161e-09,2.4742036045951437e-09,1.7118397930853447e-09,1.1654295956071402e-09,8.447418539139882e-10,6.015450257930911e-10,4.591045122477088e-10,3.474373398845387e-10,2.575219460588134e-10,1.9309629796908584e-10,1.476186786936298e-10,1.0221407775763294e-10,7.333755529280848e-11,4.8528067488948665e-11,3.305902498941906e-11,2.2158752004226396e-11,1.496236293662525e-11,8.612990725790922e-12,5.506388357618516e-12,3.453295986043353e-12,1.992734803330667e-12
0.0,41,41.0,0.0,30.0,0.0,0.0,0.0,0.0,-13.0,0.0,2.0,0.0,0.0,0.0,1.4808417577495218e-10,9.600357582531904e-11,6.226275904182416e-11,4.128782802940171e-11,2.8779600750935438e-11,1.8534206395110966e-11,1.284555544752097e-11,8.24173762354506e-12,5.337568183769283e-12,3.560899276061345e-12,2.07879724846207e-12,1.3171894285539652e-12,7.90387077431364e-13,4.923019321873737e-13,3.1050448298772694e-13,1.725356942991989e-13,9.058819222437164e-14,3.1774406500451226e-09,2.2908958363555598e-09,1.700592975140379e-09,1.2016194283757014e-09,8.569470169452598e-10,5.97955169782601e-10,4.764730298552382e-10,3.5714080402949493e-10,2.6118076461502654e-10,1.94657687278249e-10,1.3508945132187968e-10,9.730328254801488e-11,7.224796648599486e-11,4.887677804997205e-11,3.4036602209117834e-11,2.3243689848663332e-11,1.4656747379336098e-11,8.504364357558425e-12,5.7355590534641255e-12,3.398142705476896e-12,2.0052602736845377e-12
0.0,42,42.0,0.0,30.0,0.0,0.0,0.0,0.0,-13.0,0.0,2.0,0.0,0.0,0.0,1.4553743779097942e-10,9.139867371781186e-11,6.476573061292712e-11,4.589411570828556e-11,2.8833047206391974e-11,1.9754825881646216e-11,1.3153372074771743e-11,8.321337638619791e-12,5.214175595639918e-12,3.297647125466558e-12,2.195051098996348e-12,1.3536069979112423e-12,8.040412952134965e-13,4.74391409973827e-13,2.7381017176140975e-13,1.8585968238626398e-13,9.185017547549557e-14,3.357095316703865e-09,2.4095321513224926e-09,1.7454610163938882e-09,1.2168993595300533e-09,8.888030893272167e-10,6.161169353624169e-10,5.092400683496587e-10,3.580850860468263e-10,2.622734590853984e-10,1.991632723435522e-10,1.4802504310442177e-10,1.0006271194187595e-10,7.411929475124973e-11,4.9403008379370785e-11,3.392173785240654e-11,2.2580212055093697e-11,1.5242595451989603e-11,9.102862336577032e-12,5.859586795942577e-12,3.4475887774768214e-12,1.94783668780539e-12
0.0,43,43.0,0.0,30.0,0.0,0.0,0.0,0.0,-13.0,0.0,2.0,0.0,0.0,0.0,1.3840086941492332e-10,9.366701275158259e-11,6.188804014151301e-11,4.551849853443867e-11,2.9481947890023596e-11,1.9765183842553917e-11,1.3354845210026687e-11,8.031935085506055e-12,5.2101113803249036e-12,3.4153393057740392e-12,2.03650968112269e-12,1.309732183332769e-12,8.026179901371346e-13,5.030150518127579e-13,2.86456919630165e-13,1.9078712664957608e-13,1.0303580021561782e-13,3.0377069027722686e-09,2.336299610972212e-09,1.7073930193028156e-09,1.3340621181289114e-09,8.323528817504204e-10,6.4644619337504e-10,4.54510213916029e-10,3.6419677937882274e-10,2.8733822185657183e-10,1.9771070624665897e-10,1.5012233551128176e-10,1.0435606742565829e-10,7.287837446802498e-11,5.0725164976675054e-11,3.42350296782768e-11,2.2737036583168793e-11,1.4436779256973979e-11,9.988449149490572e-12,5.797087155262987e-12,3.5706993496756484e-12,1.9593373984899916e-12
0.0,44,44.0,0.0,30.0,0.0,0.0,0.0,0.0,-13.0,0.0,2.0,0.0,0.0,0.0,1.5046141130690483e-10,9.761867109618682e-11,6.569295525962581e-11,4.237155731344071e-11,3.0370442442693956e-11,2.094656945995074e-11,1.2676874099737994e-11,8.290983630162977e-12,5.21600087406687e-12,3.4228706833789655e-12,2.169831907468969e-12,1.3672710598533412e-12,8.444860781805317e-13,4.840289493557631e-13,2.9634319852411547e-13,1.6557124790503286e-13,8.266441606920334e-14,3.089098157156542e-09,2.6274836003021947e-09,1.848942664034366e-09,1.2272391787897771e-09,9.271207476938665e-10,6.499017657536139e-10,4.907955535218537e-10,3.4788530067060233e-10,2.6774404800525886e-10,1.9823900984543612e-10,1.477971570751025e-10,1.0601222763697747e-10,7.346632637048415e-11,5.082631672766926e-11,3.5084306152895755e-11,2.2455211730627853e-11,1.49263138808044e-11,9.512473066600422e-12,5.678381225615591e-12,3.5108344566052747e-12,1.9797707967026386e-12
0.0,45,45.0,0.0,30.0,0.0,0.0,0.0,0.0,-13.0,0.0,2.0,0.0,0.0,0.0,1.5304174653038928e-10,9.897148891795822e-11,6.630139232831473e-11,4.592596107844181e-11,3.084171046362965e-11,1.901919175030699e-11,1.2986869921699614e-11,8.245589489607039e-12,5.4168040441765e-12,3.3750744057211008e-12,2.1861564998566425e-12,1.3020967913654894e-12,8.167643032339059e-13,4.894758295486337e-13,3.0894447444644447e-13,1.742891528895063e-13,9.850285681621056e-14,3.0588566085756276e-09,2.3271036553563864e-09,1.7623794699326203e-09,1.2598766759606414e-09,8.912508565432919e-10,6.818872582529413e-10,5.17559427273734e-10,3.561212222905878e-10,2.832994906736084e-10,2.0565256811496065e-10,1.5111541205643887e-10,1.1099359232079923e-10,7.36392347023698e-11,4.983048487652579e-11,3.686475215394255e-11,2.298179844999933e-11,1.5050812799549674e-11,9.790073755673517e-12,5.849504044547125e-12,3.3569154576390626e-12,2.0984494679645513e-12
0.0,46,46.0,0.0,30.0,0.0,0.0,0.0,0.0,-13.0,0.0,2.0,0.0,0.0,0.0,1.460918923416593e-10,1.0280846727293088e-10,6.647633164519758e-11,4.491619132067017e-11,3.0466961685628965e-11,2.0904348669317848e-11,1.3617060017155553e-11,8.267655344191759e-12,5.9422830513427845e-12,3.4181913100837795e-12,2.1099013943840936e-12,1.3846742705091097e-12,8.246510703997052e-13,5.404800068747794e-13,3.0690801051692194e-13,1.6877381163686722e-13,1.1168550258937164e-13,3.1491845440235108e-09,2.2644682510108544e-09,1.784778731797976e-09,1.2216025034654243e-09,8.986825118081245e-10,6.707090435858878e-10,4.922718833868551e-10,3.6509713104422427e-10,2.8690756817056546e-10,2.0017791316222465e-10,1.397618253843274e-10,1.0611823224234966e-10,7.747758072658131e-11,5.260071936819821e-11,3.747405094515391e-11,2.4097561921073774e-11,1.517309623792872e-11,9.68891200070073e-12,5.75078780665243e-12,3.783645860396891e-12,1.9476763696262122e-12
0.0,47,47.0,0.0,30.0,0.0,0.0,0.0,0.0,-13.0,0.0,2.0,0.0,0.0,0.0,1.4747608736366493e-10,1.0182371484629733e-10,6.83397150308153e-11,4.429956520304247e-11,3.014797802134332e-11,2.0630088668211026e-11,1.3831386465396143e-11,8.710770378425351e-12,5.518041013978595e-12,3.310633643622232e-12,2.1561875644225004e-12,1.374573429185402e-12,8.660253905544578e-13,5.190627015570193e-13,2.984527150552589e-13,1.8535827605190277e-13,1.2588456081638556e-13,3.003290219327673e-09,2.295380035731869e-09,1.8240728112683673e-09,1.2599612947135653e-09,9.144974724137897e-10,6.850921587606814e-10,5.028204060340209e-10,3.7392448663551703e-10,2.812380793631509e-10,2.1982147023616767e-10,1.4697545286929476e-10,1.1198005741873844e-10,7.641164652793222e-11,5.3119481754399243e-11,3.733955844327144e-11,2.485221565889867e-11,1.5869050941699646e-11,9.337034003740279e-12,6.43463519646087e-12,3.850519223095566e-12,2.1391807148371396e-12
0.0,48,48.0,0.0,30.0,0.0,0.0,0.0,0.0,-13.0,0.0,2.0,0.0,0.0,0.0,1.538146923977431e-10,1.092593435652277e-10,7.11479297659517e-11,4.6884921126159423e-11,3.104945417264381e-11,2.0552555958800817e-11,1.3978227880180799e-11,8.965023306197407e-12,5.294455648921765e-12,3.5458832203025537e-12,2.2666365603639165e-12,1.2948873878580737e-12,8.392095680971201e-13,4.721019708821054e-13,2.9930879665599866e-13,1.4909983248326951e-13,8.937190469456103e-14,2.990026775174384e-09,2.2984214484380175e-09,1.8279700695914774e-09,1.2823323754780078e-09,9.112724323658275e-10,6.672137361207331e-10,5.166340826308099e-10,3.795377012830893e-10,3.007482626163816e-10,2.2786236523758922e-10,1.606903222090611e-10,1.1294725252798602e-10,7.833600764758229e-11,5.369661867985123e-11,3.8896797704286895e-11,2.4077512951339415e-11,1.6630510967824664e-11,9.667247627608053e-12,6.1032896843686405e-12,3.433565935067655e-12,2.1648326008774537e-12
0.0,49,49.0,0.0,30.0,0.0,0.0,0.0,0.0,-13.0,0.0,2.0,0.0,0.0,0.0,1.4999965594468515e-10,1.1026830642947232e-10,7.090899646479659e-11,4.823469173982741e-11,3.193159327774519e-11,2.0195998638546645e-11,1.3676887092741494e-11,9.251177773096285e-12,5.608293991870303e-12,3.4122480794323732e-12,2.0957168542428825e-12,1.3335736989564354e-12,7.939689519063825e-13,5.207712198777744e-13,3.089801856703678e-13,1.6339667524844427e-13,1.0340121045311392e-13,2.982828713489763e-09,2.345579721427603e-09,1.7793841487578603e-09,1.2566766678375804e-09,9.453607172995266e-10,6.608104270604436e-10,5.298835833379349e-10,3.9706903670534e-10,2.7836577679698137e-10,2.0628404281946566e-10,1.4916427803986693e-10,1.1477537280145555e-10,8.005564750717638e-11,5.549055502049679e-11,3.589821164778055e-11,2.5634426500992816e-11,1.652295063347554e-11,9.881987330949904e-12,6.474020571121839e-12,3.685172642048751e-12,1.952040970435994e-12
0.0,50,50.0,0.0,30.0,0.0,0.0,0.0,0.0,-13.0,0.0,2.0,0.0,0.0,0.0,1.5035058647249928e-10,1.0875333127212134e-10,7.069589242647565e-11,4.9290215241755864e-11,3.1921741388143796e-11,2.1260356631251712e-11,1.4628853489823426e-11,9.2133580861995e-12,5.576567467413946e-12,3.5838722981346195e-12,2.266107319030827e-12,1.401552997426596e-12,8.463976241276006e-13,4.980408429055587e-13,2.993263074151234e-13,1.6851562083707124e-13,1.1505447453759885e-13,3.138853494501587e-09,2.3361480042798815e-09,1.791518151059256e-09,1.279500489497939e-09,9.792315829820795e-10,7.280803083713e-10,5.450198496512244e-10,4.1402499736842313e-10,3.0699089458641367e-10,2.2913333424592585e-10,1.6278653906835837e-10,1.154487180202522e-10,7.940660673090742e-11,5.309432022337771e-11,3.780428471585158e-11,2.449677955055894e-11,1.6240407004442586e-11,1.0597714720222136e-11,6.32155289050832e-12,3.6941394882509285e-12,2.080054173716834e-12
0.0,51,51.0,0.0,30.0,0.0,0.0,0.0,0.0,-13.0,0.0,2.0,0.0,0.0,0.0,1.5344090337587196e-10,1.1213538105520553e-10,6.797860968583624e-11,4.721780320957422e-11,3.010945249137508e-11,2.1102068131646303e-11,1.3737746977642194e-11,8.810092500436693e-12,5.683058507125572e-12,3.479705968483145e-12,2.1828926638605777e-12,1.4525018518780457e-12,8.380568864993498e-13,5.249247081943698e-13,2.889602724924389e-13,1.9276785512426307e-13,1.1377890224010685e-13,3.03953434334675e-09,2.275907583540955e-09,1.7834873945288064e-09,1.3006404227244994e-09,9.644454932767284e-10,6.95000532062692e-10,5.190809396154634e-10,4.1160579127873153e-10,3.054779334970185e-10,2.2462471724087466e-10,1.675370181487978e-10,1.1135342159597043e-10,8.4357427682584e-11,5.5166232697788605e-11,3.783063775699402e-11,2.4707807332455832e-11,1.6428132058962283e-11,9.71206572992441e-12,6.2227644831305176e-12,3.7127426115687324e-12,2.3519626801038554e-12
0.0,52,52.0,0.0,30.0,0.0,0.0,0.0,0.0,-13.0,0.0,2.0,0.0,0.0,0.0,1.6332170437702485e-10,1.1154179673701449e-10,7.27220072265192e-11,4.760149565712017e-11,3.359818036761314e-11,2.0974146518089402e-11,1.3788417610362479e-11,9.04417051393875e-12,5.9012782758652906e-12,3.5708022287789376e-12,2.3613512988614042e-12,1.357145715368643e-12,8.682252104536875e-13,5.097953088619734e-13,3.2188071131742207e-13,1.7758090922313575e-13,7.887644288317896e-14,3.110959906247333e-09,2.352175470689426e-09,1.7602308888525496e-09,1.3605426620246114e-09,9.605298295946392e-10,7.39524634120306e-10,5.394641134071001e-10,4.054530083376058e-10,3.2706935233632913e-10,2.2256906085068186e-10,1.6197697316350933e-10,1.1207081171500508e-10,8.701637783282157e-11,5.7820663036486687e-11,3.902037642401096e-11,2.6382812925243522e-11,1.58840963742872e-11,1.0259152252145322e-11,6.385811508678162e-12,3.589605502068209e-12,2.3767984252416797e-12
0.0,53,53.0,0.0,30.0,0.0,0.0,0.0,0.0,-13.0,0.0,2.0,0.0,0.0,0.0,1.6480613586640768e-10,1.0965126000905848e-10,7.414858728109327e-11,4.860178171755465e-11,3.311066274768458e-11,2.3974225457249883e-11,1.4397094657204145e-11,9.526901611073155e-12,5.721449783632932e-12,3.535706650968672e-12,2.2923883730915315e-12,1.330454207588724e-12,7.895329446957966e-13,5.244980064139989e-13,3.1048810312606653e-13,1.851502057563722e-13,9.917552685099522e-14,3.1867827111584457e-09,2.3575638515645057e-09,1.7721180772927992e-09,1.2070186102000923e-09,9.818381376984921e-10,7.555789509788187e-10,5.60777319743531e-10,4.365500289798301e-10,3.366504634884168e-10,2.301580541745871e-10,1.7343457408942798e-10,1.1407137306745508e-10,8.66612411798149e-11,5.796947170248751e-11,3.8944873889005014e-11,2.5788213622816486e-11,1.6654108388609137e-11,1.0439708212113961e-11,6.510158463680463e-12,3.833363109653771e-12,2.098988309562986e-12
0.0,54,54.0,0.0,30.0,0.0,0.0,0.0,0.0,-13.0,0.0,2.0,0.0,0.0,0.0,1.6934475949591512e-10,1.101677981326946e-10,7.690364052855273e-11,5.025843917104062e-11,3.355622154103591e-11,2.060988211429032e-11,1.373465503119136e-11,9.409031153541095e-12,5.700096577323033e-12,3.5845984470148217e-12,2.265255428501827e-12,1.453174384259992e-12,8.662405429714875e-13,5.365389044521554e-13,2.989989052836161e-13,1.7867281935836092e-13,8.673413569154072e-14,3.1118325244314444e-09,2.3787485714428254e-09,1.8176804952415993e-09,1.3552844972961665e-09,1.0400024769391238e-09,7.434034111108543e-10,5.977507285020768e-10,4.179216479982849e-10,3.2386636397168e-10,2.4899793607025634e-10,1.6719282451756776e-10,1.22340063392526e-10,8.742305104416587e-11,5.834939704734922e-11,3.788397640552609e-11,2.5372590269086213e-11,1.721301517220202e-11,1.0946715119594088e-11,6.700978324429937e-12,4.071324454021805e-12,2.2660517724232955e-12
0.0,55,55.0,0.0,30.0,0.0,0.0,0.0,0.0,-13.0,0.0,2.0,0.0,0.0,0.0,1.707120320903874e-10,1.0854727317043103e-10,7.622623347685287e-11,5.183897438247904e-11,3.320543266884916e-11,2.261296931005116e-11,1.3621789603028948e-11,9.438284136087506e-12,5.9276173097529815e-12,3.9020820052887834e-12,2.3966883759837648e-12,1.4664461102206865e-12,8.816563611880181e-13,5.258230047284434e-13,2.874046447355926e-13,1.729811489760109e-13,1.1874120357907717e-13,2.873520079021872e-09,2.347628667227918e-09,1.7516831251571942e-09,1.4164528635259987e-09,9.93557451130093e-10,7.947614410802333e-10,5.710698697557651e-10,4.290150524134983e-10,3.372297084883571e-10,2.451076293343146e-10,1.5813312776294379e-10,1.2481833466529508e-10,8.787385591475717e-11,5.971089073942782e-11,3.935790884867368e-11,2.6529454091520765e-11,1.6885174244506096e-11,1.082687625792166e-11,6.545748965335003e-12,3.834072604930078e-12,2.2965197983914817e-12
0.0,56,56.0,0.0,30.0,0.0,0.0,0.0,0.0,-13.0,0.0,2.0,0.0,0.0,0.0,1.762414347004717e-10,1.1627118014540023e-10,7.520068544261166e-11,5.2025700668090975e-11,3.5266542122234326e-11,2.34842047027787e-11,1.506930607170389e-11,9.460481943924093e-12,5.741580419114158e-12,3.5429864899169212e-12,2.2980681886870852e-12,1.3471516602776445e-12,8.405348054799351e-13,5.122766816646626e-13,2.9758753999385316e-13,1.7355108667521427e-13,8.61750132447116e-14,3.0267005657916783e-09,2.4615133024687047e-09,1.8146588252971082e-09,1.4037041658440516e-09,1.1070485242831268e-09,7.691075814491357e-10,5.988510402242424e-10,4.450986912536894e-10,3.394325938238834e-10,2.2953828149227984e-10,1.6915157278083387e-10,1.254245707492034e-10,8.980687512629722e-11,6.03289097444048e-11,3.8600438638405604e-11,2.6140270655300934e-11,1.6856349627545528e-11,1.0996369781408868e-11,6.483116401681565e-12,3.859876844907896e-12,2.4278981852407677e-12
0.0,57,57.0,0.0,30.0,0.0,0.0,0.0,0.0,-13.0,0.0,2.0,0.0,0.0,0.0,1.8158604808978292e-10,1.1539281677506494e-10,7.843731032612127e-11,4.917617240742322e-11,3.475367986037556e-11,2.3449815701404547e-11,1.4911497675004048e-11,9.419782711803923e-12,5.898444797179296e-12,3.648967721306229e-12,2.3138997022747086e-12,1.3478504734019364e-12,9.104685226761294e-13,5.273305567783726e-13,3.0351133963248116e-13,1.7071312495333465e-13,9.965246913839934e-14,3.0808248417407666e-09,2.4747981457922257e-09,1.8110788193965335e-09,1.3503278319749296e-09,1.104927066773299e-09,8.099301830203295e-10,6.09418864654243e-10,4.476620643302891e-10,3.4430176910704004e-10,2.3633168481141146e-10,1.8541511764076296e-10,1.2651859226460798e-10,9.076125420334638e-11,6.20433381729913e-11,4.0964457539241556e-11,2.6969122866315098e-11,1.8112130086518854e-11,1.1326295885653357e-11,6.317753556385756e-12,3.736969633010102e-12,2.2005985926959073e-12
0.0,58,58.0,0.0,30.0,0.0,0.0,0.0,0.0,-13.0,0.0,2.0,0.0,0.0,0.0,1.7238545166408267e-10,1.1446484191924656e-10,7.908573791834115e-11,5.200548948724039e-11,3.6195673838055115e-11,2.3871525623966853e-11,1.4805413089347187e-11,9.951902492522208e-12,6.020039304694657e-12,3.699211941244704e-12,2.3456475840781057e-12,1.4643487476652159e-12,8.240308876889528e-13,5.146173338790864e-13,3.0969336969553847e-13,1.8231023618312629e-13,9.686773514859666e-14,3.0579966277658402e-09,2.436541051837579e-09,1.8458750947522975e-09,1.5010635943397202e-09,1.0694134289952393e-09,7.87645314236444e-10,5.959310053850193e-10,4.708491291138123e-10,3.4134778717207317e-10,2.68569891493858e-10,1.7754092245560805e-10,1.236645450441992e-10,8.978067354366678e-11,6.196658692969886e-11,3.897146274770739e-11,2.7165825027111897e-11,1.7449278934078312e-11,1.0955599921530169e-11,6.637258908133696e-12,3.8263585199421446e-12,2.428149024990394e-12
0.0,59,59.0,0.0,30.0,0.0,0.0,0.0,0.0,-13.0,0.0,2.0,0.0,0.0,0.0,1.7657703817483893e-10,1.1637815536464585e-10,7.764560306364273e-11,5.2613501853101504e-11,3.543569199758647e-11,2.357377873003508e-11,1.4530664472904816e-11,9.418461318817236e-12,5.818559076176777e-12,3.3897307120001163e-12,2.366936117320766e-12,1.4974661989976161e-12,8.873211680749647e-13,5.106808612501638e-13,3.0773248636767493e-13,1.653066126419725e-13,9.975239979995151e-14,2.982104490181632e-09,2.368294743997338e-09,1.921211176117508e-09,1.538859652941463e-09,1.124940970807421e-09,8.064700961367851e-10,6.325129881271371e-10,4.76138146671028e-10,3.3899810851160887e-10,2.582470189095821e-10,1.7467788238374787e-10,1.27139406561969e-10,9.172790744715157e-11,6.165753542280467e-11,4.435780265025762e-11,2.8278526059785054e-11,1.762918700803507e-11,1.1030416497536294e-11,6.887057749397626e-12,3.906845934456958e-12,2.4284232142471728e-12
0.0,60,60.0,0.0,30.0,0.0,0.0,0.0,0.0,-13.0,0.0,2.0,0.0,0.0,0.0,1.7484238339030954e-10,1.2399605200638543e-10,8.008810293631743e-11,5.468173564909517e-11,3.4629933618402876e-11,2.3520978052224257e-11,1.619361363928167e-11,9.507319974404964e-12,6.170507658382118e-12,3.9753402869206255e-12,2.425516568783359e-12,1.457353545860355e-12,8.478598567929938e-13,4.980017320181505e-13,3.079208984166275e-13,1.738082966104644e-13,1.011302171575069e-13,3.048756996676756e-09,2.3975754995692375e-09,1.9465973008099743e-09,1.52762751111255e-09,1.054894487325954e-09,8.096682959707542e-10,6.253263926594589e-10,4.878215177827914e-10,3.387412458142299e-10,2.490679326058508e-10,1.7327240068326383e-10,1.3040886602579772e-10,9.42008698280004e-11,6.526532118040993e-11,4.3102091095445667e-11,2.7543793857877677e-11,1.8417460888407316e-11,1.1380466217210447e-11,6.4671547678916794e-12,3.914999708719312e-12,2.5611668360116313e-12
0.0,61,61.0,0.0,30.0,0.0,0.0,0.0,0.0,-13.0,0.0,2.0,0.0,0.0,0.0,1.8684886010107787e-10,1.1831661715658037e-10,8.353658480612418e-11,5.640043025609815e-11,3.564344268285536e-11,2.4056935898355243e-11,1.353333947367543e-11,1.0008384291480305e-11,6.378781895397018e-12,3.700948293132867e-12,2.4064066512668862e-12,1.4310732195072153e-12,8.772712033337389e-13,5.155277101914024e-13,2.898391445900602e-13,2.0095972741300255e-13,9.837130988801008e-14,3.051010346547443e-09,2.3910398619767473e-09,1.879091645120902e-09,1.4853244563969297e-09,1.1222283403097171e-09,8.565977774761788e-10,6.576836170869704e-10,4.763967869650799e-10,3.52138882992106e-10,2.6716574938332983e-10,1.8448944311505813e-10,1.3756425179258466e-10,9.463041566995521e-11,6.628323673184061e-11,4.4035143548352004e-11,2.7471381469464417e-11,1.774189831642789e-11,1.1683787482623416e-11,7.416853052529996e-12,3.935533534225171e-12,2.3985173835150552e-12
0.0,62,62.0,0.0,30.0,0.0,0.0,0.0,0.0,-13.0,0.0,2.0,0.0,0.0,0.0,1.893932505043948e-10,1.193948985516296e-10,8.377859162018443e-11,5.516518039980306e-11,3.4223200708130864e-11,2.49964161146956e-11,1.499094032835977e-11,9.432048497374063e-12,6.289178787905358e-12,3.923537932741415e-12,2.4550008548135963e-12,1.4369101224716367e-12,8.837554712935274e-13,5.115604146818588e-13,2.909170941348372e-13,1.921680906306881e-13,1.0081499092470287e-13,3.038382516857677e-09,2.336808130500107e-09,1.9513964497523055e-09,1.4505597866443505e-09,1.116384202210407e-09,8.427843269682377e-10,6.385424469749798e-10,5.010683107203437e-10,3.6753787104862366e-10,2.7439195925877086e-10,1.8333710491465485e-10,1.3334607492078913e-10,9.474808616398406e-11,6.410003487851272e-11,4.3588745289645105e-11,2.7676956310609705e-11,1.8017347083188627e-11,1.0946265652231607e-11,6.832624264499032e-12,4.295038605486777e-12,2.3894617960313203e-12
0.0,63,63.0,0.0,30.0,0.0,0.0,0.0,0.0,-13.0,0.0,2.0,0.0,0.0,0.0,1.9921669134539766e-10,1.2460239620687705e-10,8.397333274504147e-11,5.39517790432068e-11,3.9813042370189666e-11,2.3955887978006222e-11,1.5923436885365732e-11,1.0018914187412628e-11,6.150997405885052e-12,3.731358328710195e-12,2.4284896056923666e-12,1.4373436499541855e-12,8.836422376893561e-13,5.391987083490685e-13,3.1065978325218066e-13,1.8460467741577642e-13,1.0372248122460516e-13,2.935857113756597e-09,2.61290446019645e-09,2.0556514288687242e-09,1.4585239219392763e-09,1.1575766640791645e-09,8.453625437813553e-10,6.433430805762646e-10,4.953812471387448e-10,3.8790743453914326e-10,2.7816658286206456e-10,1.9734260927604143e-10,1.3320419083433548e-10,1.0354387770482519e-10,6.746381521052435e-11,4.1103937838219587e-11,2.938289147640911e-11,1.8341249260383763e-11,1.1803459342762009e-11,7.2016224293147214e-12,4.072685538381289e-12,2.662448624133278e-12
