Line_number,Fiducial,Easting,Northing,Height,Elevation,tx_pitch,tx_roll,tx_yaw,txrx_dx,txrx_dy,txrx_dz,rx_pitch,rx_roll,rx_yaw,S0Z_time_1.431e-04,S0Z_time_1.801e-04,S0Z_time_2.266e-04,S0Z_time_2.846e-04,S0Z_time_3.581e-04,S0Z_time_4.506e-04,S0Z_time_5.671e-04,S0Z_time_7.136e-04,S0Z_time_8.981e-04,S0Z_time_1.131e-03,S0Z_time_1.423e-03,S0Z_time_1.791e-03,S0Z_time_2.255e-03,S0Z_time_2.838e-03,S0Z_time_3.573e-03,S0Z_time_4.498e-03,S0Z_time_5.662e-03,S1Z_time_1.409e-05,S1Z_time_1.610e-05,S1Z_time_1.909e-05,S1Z_time_2.360e-05,S1Z_time_2.960e-05,S1Z_time_3.709e-05,S1Z_time_4.609e-05,S1Z_time_5.759e-05,S1Z_time_7.209e-05,S1Z_time_9.060e-05,S1Z_time_1.141e-04,S1Z_time_1.431e-04,S1Z_time_1.801e-04,S1Z_time_2.266e-04,S1Z_time_2.846e-04,S1Z_time_3.581e-04,S1Z_time_4.506e-04,S1Z_time_5.671e-04,S1Z_time_7.136e-04,S1Z_time_8.981e-04,S1Z_time_1.131e-03
0.0,0,0.0,0.0,30.0,0.0,0.0,0.0,0.0,-13.0,0.0,2.0,0.0,0.0,0.0,1.1025387499879521e-10,5.793808205622009e-11,3.1395740317144995e-11,1.7516903239765985e-11,9.921966877908703e-12,5.6862955796892885e-12,3.3097856814971476e-12,1.92171181242597e-12,1.1169713591867719e-12,6.436624975694318e-13,3.7554836418629716e-13,2.1654962864802246e-13,1.2377863600187388e-13,7.05955981143832e-14,3.8665338596679925e-14,2.152060939283036e-14,1.1344988296853307e-14,7.121953828386016e-09,5.66605685268528e-09,4.2440204761785414e-09,2.9407062767428298e-09,1.977817174150397e-09,1.2948473901291377e-09,8.457068946724596e-10,5.330224666934332e-10,3.2722616170411844e-10,1.9578042567834128e-10,1.1505433052701424e-10,6.771210114753267e-11,3.953766903751176e-11,2.3001121386716128e-11,1.3464561335461481e-11,7.80320178486116e-12,4.5071773795546066e-12,2.5586729734598112e-12,1.4352838898045338e-12,7.951289593014749e-13,4.373085554553821e-13
0.0,1,1.0,0.0,30.0,0.0,0.0,0.0,0.0,-13.0,0.0,2.0,0.0,0.0,0.0,1.0880449815588588e-10,5.667433509535383e-11,3.048050596786802e-11,1.691823818308054e-11,9.55595056567556e-12,5.471504125344305e-12,3.1871812814063083e-12,1.853032271078657e-12,1.0793521814025495e-12,6.232021529403764e-13,3.64594049545796e-13,2.1073650691629572e-13,1.2072375287536756e-13,6.902203157222892e-14,3.7853894370151236e-14,2.1118679491485588e-14,1.1142606507118597e-14,7.127529985669892e-09,5.6737889558162135e-09,4.253996709752237e-09,2.951873890617931e-09,1.9879469236531202e-09,1.3022703887614796e-09,8.500568389324298e-10,5.346450543993254e-10,3.2698903966290445e-10,1.9457658078165404e-10,1.1357784788927026e-10,6.63681925048857e-11,3.8489228327730194e-11,2.2265463242419288e-11,1.2982738768855722e-11,7.5071035345765e-12,4.333749897317058e-12,2.4607579686460527e-12,1.3814597538326278e-12,7.667636484501e-13,4.2313699702214367e-13
0.0,2,2.0,0.0,30.0,0.0,0.0,0.0,0.0,-13.0,0.0,2.0,0.0,0.0,0.0,1.0750334464771586e-10,5.5520579401828616e-11,2.963417389822426e-11,1.6359155521620995e-11,9.211585560428485e-12,5.2682747634786e-12,3.0706361712005116e-12,1.7875069739973725e-12,1.0433247321323272e-12,6.035432019183982e-13,3.54035544556982e-13,2.0511463313435482e-13,1.177620196671478e-13,6.749136772991376e-14,3.7063069248019293e-14,2.0725722000857262e-14,1.0944451521052562e-14,7.133094559819515e-09,5.681305123437526e-09,4.263422747584829e-09,2.9621507454421107e-09,1.9971038476323817e-09,1.3089269850063811e-09,8.539701841048349e-10,5.361407366926444e-10,3.2682313638234223e-10,1.9352625062581644e-10,1.1225740302610322e-10,6.514775885229294e-11,3.7525519887551314e-11,2.1582431909653365e-11,1.2531931891875304e-11,7.228352433685949e-12,4.16967423271395e-12,2.3678029317819413e-12,1.330180143462076e-12,7.396713973031081e-13,4.095167112566331e-13
0.0,3,3.0,0.0,30.0,0.0,0.0,0.0,0.0,-13.0,0.0,2.0,0.0,0.0,0.0,1.0632625612884053e-10,5.44635797024692e-11,2.885015324559093e-11,1.583646049064656e-11,8.887317560870007e-12,5.0758351560417506e-12,2.959774301698078e-12,1.724951166283283e-12,1.0088020148532736e-12,5.846456929502218e-13,3.4385413504971236e-13,1.9967607274932326e-13,1.148897237310309e-13,6.600214185007656e-14,3.629218977267346e-14,2.034148764807098e-14,1.0750413987654347e-14,7.138740068419052e-09,5.688736310708946e-09,4.272469540230324e-09,2.971721696661732e-09,2.005434820848852e-09,1.3148943689823307e-09,8.574607012041632e-10,5.374826849738817e-10,3.266878968931556e-10,1.925928495662767e-10,1.1106709164696943e-10,6.403494126925061e-11,3.66377106366097e-11,2.0947409064459878e-11,1.2109748155850161e-11,6.96571663347124e-12,4.01433223685824e-12,2.279488519633313e-12,1.2812990306117858e-12,7.137785687304878e-13,3.9641946734180264e-13
0.0,4,4.0,0.0,30.0,0.0,0.0,0.0,0.0,-13.0,0.0,2.0,0.0,0.0,0.0,1.0525230851895237e-10,5.3491432244294294e-11,2.8122400206449283e-11,1.534720907478215e-11,8.581716836376668e-12,4.8934773837327674e-12,2.8542501328538505e-12,1.66519435448595e-12,9.757035495107705e-13,5.664723057636181e-13,3.340323198151218e-13,1.94413330679334e-13,1.121033518576733e-13,6.455295753455393e-14,3.554061105942399e-14,1.9965736753954574e-14,1.0560388003769044e-14,7.1445381081500605e-09,5.696182386151352e-09,4.281268392100803e-09,2.9807330360847434e-09,2.013062198959549e-09,1.320243125330655e-09,8.605477060344968e-10,5.386543848019175e-10,3.2655219093566857e-10,1.9174612703253214e-10,1.0998448049705085e-10,6.301555148170375e-11,3.581773855325883e-11,2.0356141974733982e-11,1.171398210112269e-11,6.718066410865127e-12,3.8671572059674795e-12,2.195522180221635e-12,1.2346807967652448e-12,6.890166828818932e-13,3.8381958507793544e-13
0.0,5,5.0,0.0,30.0,0.0,0.0,0.0,0.0,-13.0,0.0,2.0,0.0,0.0,0.0,1.0426347390807226e-10,5.25934789973037e-11,2.7445383092833805e-11,1.488868422730551e-11,8.293463800096568e-12,4.72055016496275e-12,2.7537451209130113e-12,1.6080788501831733e-12,9.439546969573423e-13,5.489881208842187e-13,3.245537093478929e-13,1.8931931690864058e-13,1.0939957685509736e-13,6.314248189291705e-14,3.480771544998806e-14,1.9598238655292565e-14,1.0374271014850427e-14,7.150545799275161e-09,5.7037209179301106e-09,4.2899209969897776e-09,2.989300651315651e-09,2.020087266567572e-09,1.325036276374601e-09,8.63253108250721e-10,5.396467117985454e-10,3.263923842939429e-10,1.9096122744197576e-10,1.0899025499281437e-10,6.207696181339897e-11,3.5058269267883704e-11,1.98047148558875e-11,1.1342595899371763e-11,6.484361572030588e-12,3.727627612186549e-12,2.1156352202614508e-12,1.1901991522777299e-12,6.65322197192729e-13,3.7169339386047e-13
0.0,6,6.0,0.0,30.0,0.0,0.0,0.0,0.0,-13.0,0.0,2.0,0.0,0.0,0.0,1.0334428648494408e-10,5.1760215849106804e-11,2.6814050083608577e-11,1.4458376761003956e-11,8.021337319390787e-12,4.556452324724988e-12,2.657964731118404e-12,1.5534584945794312e-12,9.134860702635232e-13,5.321604156372106e-13,3.1540293359349045e-13,1.843873160887528e-13,1.0677524516129953e-13,6.176944121831039e-14,3.409291120700675e-14,1.923877117939084e-14,1.0191963710483668e-14,7.156810062600238e-09,5.711413203223172e-09,4.298506679828368e-09,2.9975164147059034e-09,2.0265934931786017e-09,1.3293291966827546e-09,8.655995141719163e-10,5.40455740617351e-10,3.261907443909094e-10,1.9021783601696372e-10,1.0806786567065684e-10,6.120798499085564e-11,3.43526521601121e-11,1.928952506184751e-11,1.099370381553407e-11,6.263641181371096e-12,3.5952618579144985e-12,2.039580231937379e-12,1.1477362523052067e-12,6.426362230079763e-13,3.6001886983095913e-13
0.0,7,7.0,0.0,30.0,0.0,0.0,0.0,0.0,-13.0,0.0,2.0,0.0,0.0,0.0,1.0248152532216336e-10,5.098319775516393e-11,2.6223798231583843e-11,1.4053969458918462e-11,7.764205153470427e-12,4.400627307486473e-12,2.566635885336026e-12,1.5011975375697688e-12,8.842330212674814e-13,5.159584826012388e-13,3.0656555803731474e-13,1.79610960472898e-13,1.0422736539336605e-13,6.043261710758648e-14,3.339563125201135e-14,1.8887120165538725e-14,1.001336991767915e-14,7.163370517454791e-09,5.719308469475532e-09,4.3070876625785236e-09,3.005453148555529e-09,2.0326494178016272e-09,1.3331699910268035e-09,8.676090477814257e-10,5.410811257431409e-10,3.259341476378035e-10,1.8949942632549475e-10,1.0720318903096631e-10,6.039874915191948e-11,3.369487541631678e-11,1.880726223484662e-11,1.0665559516682752e-11,6.055015156612004e-12,3.4696138720175947e-12,1.967128835941843e-12,1.1071819577399292e-12,6.209042009466213e-13,3.487753873366728e-13
0.0,8,8.0,0.0,30.0,0.0,0.0,0.0,0.0,-13.0,0.0,2.0,0.0,0.0,0.0,1.0166392165437481e-10,5.0254943795607766e-11,2.567044311224927e-11,1.3673323379964213e-11,7.521016029577087e-12,4.2525585572867756e-12,2.47950477220009e-12,1.4511696497244157e-12,8.561351918254997e-13,5.003534673093858e-13,2.9802800752209004e-13,1.74984205644543e-13,1.0175309774707974e-13,5.91308429693076e-14,3.27153319503201e-14,1.8543079027576435e-14,9.838396494256733e-15,7.170261480103617e-09,5.727446842510429e-09,4.315712925749743e-09,3.013168475652439e-09,2.038311119124717e-09,1.3366000937556522e-09,8.693026532588719e-10,5.415249179603175e-10,3.2561304552397306e-10,1.887926115914825e-10,1.0638421240094991e-10,5.964057282455115e-11,3.307952035178425e-11,1.8354889243999832e-11,1.0356545423928125e-11,5.857657343612098e-12,3.3502694002678188e-12,1.898069703962354e-12,1.0684332030826937e-12,6.000755573923232e-13,3.379435454260264e-13
0.0,9,9.0,0.0,30.0,0.0,0.0,0.0,0.0,-13.0,0.0,2.0,0.0,0.0,0.0,1.0088189437005405e-10,4.956884462022288e-11,2.515018898299607e-11,1.3314465662619934e-11,7.290792972462767e-12,4.111765613739479e-12,2.3963349611937645e-12,1.4032570494513793e-12,8.291361204769878e-13,4.853182225923392e-13,2.897774972001694e-13,1.7050130861218305e-13,9.934974417215256e-14,5.786300086880119e-14,3.2051491945379867e-14,1.8206448352653178e-14,9.666953223666464e-15,7.177513361288606e-09,5.735861468573385e-09,4.324421063974557e-09,3.0207078081613818e-09,2.043624290572354e-09,1.3396549498773762e-09,8.706997155282273e-10,5.417907076639142e-10,3.2522064556314143e-10,1.88086593996552e-10,1.056007478440809e-10,5.892584360640442e-11,3.2501715673987395e-11,1.79296242370334e-11,1.0065163520841554e-11,5.670799752607682e-12,3.2368428682088405e-12,1.8322068281219453e-12,1.0313934441620081e-12,5.801033605928359e-13,3.2750504404985817e-13
0.0,10,10.0,0.0,30.0,0.0,0.0,0.0,0.0,-13.0,0.0,2.0,0.0,0.0,0.0,1.0012731471353607e-10,4.8919074142830723e-11,2.4659599572109357e-11,1.2975578371713158e-11,7.0726275887705936e-12,3.977800795556583e-12,2.316905772582299e-12,1.357349730490822e-12,8.031828965091965e-13,4.708271774127961e-13,2.818019700389492e-13,1.6615680793149998e-13,9.70147392578229e-14,5.662801866589229e-14,3.140361104468163e-14,1.7877035531882936e-14,9.498952712241345e-15,7.1851536533648786e-09,5.744580046280312e-09,4.333242414534374e-09,3.0281066739183062e-09,2.048625964445841e-09,1.3423647000554291e-09,8.718178873463977e-10,5.41883010798321e-10,3.2475226695748626e-10,1.8737270233136867e-10,1.0484417688644635e-10,5.82479031774071e-11,3.195709244915298e-11,1.7528923456186836e-11,9.79002720250173e-12,5.493727698964307e-12,3.1289747152136925e-12,1.769358008082858e-12,9.95972166970423e-13,5.609439897296304e-13,3.1744259303884327e-13
0.0,11,11.0,0.0,30.0,0.0,0.0,0.0,0.0,-13.0,0.0,2.0,0.0,0.0,0.0,9.939329943240045e-11,4.830050673826134e-11,2.4195569719478093e-11,1.2654988104432691e-11,6.865675079279888e-12,3.8502463638525215e-12,2.2410108632505235e-12,1.3133447771371611e-12,7.782258546029662e-13,4.568562183901436e-13,2.7409004030827375e-13,1.6194550558498032e-13,9.474564177386237e-14,5.5424867407334115e-14,3.077120915823165e-14,1.755465441919429e-14,9.334310289143663e-15,7.193207631115289e-09,5.753625940501247e-09,4.3422006554407395e-09,3.0353925337225184e-09,2.0533459358954726e-09,1.344754828653152e-09,8.72673047675893e-10,5.418068335451464e-10,3.2420483635675504e-10,1.8664400694929826e-10,1.0410722568295924e-10,5.760094030323415e-11,3.1441740466200214e-11,1.7150464672131726e-11,9.52985387879328e-12,5.325775645029355e-12,3.026329115425645e-12,1.7093535291664225e-12,9.620844449027582e-13,5.425568254501049e-13,3.077398423841766e-13
0.0,12,12.0,0.0,30.0,0.0,0.0,0.0,0.0,-13.0,0.0,2.0,0.0,0.0,0.0,9.867403055940996e-11,4.7708640673248555e-11,2.3755298106767e-11,1.2351156187971033e-11,6.6691498092626675e-12,3.728712075877756e-12,2.1684569949556593e-12,1.2711457563382354e-12,7.542183043079722e-13,4.433825824958325e-13,2.666309424965727e-13,1.5786245040089434e-13,9.254012681803579e-14,5.4252558940945004e-14,3.015382528966556e-14,1.7239125015674537e-14,9.172943909437167e-15,7.201698848691835e-09,5.763018995603541e-09,4.351314012863406e-09,3.0425862070718743e-09,2.0578079355750166e-09,1.3468467556216697e-09,8.732793409614848e-10,5.415673679237385e-10,3.2357649488071485e-10,1.858950009943526e-10,1.0338376893986426e-10,5.6979892704547425e-11,3.0952166554908876e-11,1.6792131205972335e-11,9.283458140877625e-12,5.1663235848946575e-12,2.9285920155809405e-12,1.6520350072503104e-12,9.296505358356121e-13,5.249039664226208e-13,2.9838132604058e-13
0.0,13,13.0,0.0,30.0,0.0,0.0,0.0,0.0,-13.0,0.0,2.0,0.0,0.0,0.0,9.796459947415474e-11,4.71395280903221e-11,2.3336261284698965e-11,1.2062669376803484e-11,6.482321312074776e-12,3.6128330559360438e-12,2.0990629567812915e-12,1.2306621772378816e-12,7.311162895134982e-13,4.3038475962626974e-13,2.594144851281596e-13,1.5390292283378864e-13,9.039597852759318e-14,5.3110143723721233e-14,2.955101657946778e-14,1.6930273176730403e-14,9.014774060163843e-15,7.210649488468921e-09,5.772776129390833e-09,4.360596178218678e-09,3.0497029958507546e-09,2.0620305945055764e-09,1.3486583654490024e-09,8.736492638753052e-10,5.4116978278005e-10,3.228662929291797e-10,1.8512133764831792e-10,1.0266866020091993e-10,5.638035808006809e-11,3.0485255259483395e-11,1.645199656824586e-11,9.049745367599457e-12,5.014793850998846e-12,2.835469431918333e-12,1.5972543785029112e-12,8.985955132247342e-13,5.079499735635338e-13,2.8935241406011636e-13
0.0,14,14.0,0.0,30.0,0.0,0.0,0.0,0.0,-13.0,0.0,2.0,0.0,0.0,0.0,9.726087268031284e-11,4.658971155808273e-11,2.2936189154951538e-11,1.1788231004266309e-11,6.304510635498227e-12,3.5022679240917143e-12,2.0326586179729827e-12,1.1918090099010993e-12,7.088783738567944e-13,4.1784240394815037e-13,2.5243100898559215e-13,1.5006242095774397e-13,8.831108331581614e-14,5.199670880060131e-14,2.896235739892742e-14,1.662793033987396e-14,8.859723669464537e-15,7.220080600188178e-09,5.782911764864318e-09,4.37005700757686e-09,3.056753574193422e-09,2.0660282383893927e-09,1.3502044732686844e-09,8.737937775722422e-10,5.406190839299853e-10,3.2207395394579336e-10,1.8431961425550796e-10,1.0195758579930848e-10,5.579851415753327e-11,3.003823212153466e-11,1.6128309766585784e-11,8.827705695354284e-12,4.870648251264314e-12,2.7466859588044704e-12,1.544873014280247e-12,8.688489271524071e-13,4.916616416321543e-13,2.806392696757764e-13
0.0,15,15.0,0.0,30.0,0.0,0.0,0.0,0.0,-13.0,0.0,2.0,0.0,0.0,0.0,9.655937673738251e-11,4.605616698772088e-11,2.2553042009312038e-11,1.1526652569846418e-11,6.135086966123939e-12,3.3966971349724045e-12,1.969084091059323e-12,1.1545062559578372e-12,6.874654486491765e-13,4.0573625306301694e-13,2.4567134927839626e-13,1.4633664754718564e-13,8.628342359806313e-14,5.0911375933884216e-14,2.838743849340976e-14,1.633193327148598e-14,8.707718018669118e-15,7.230012257213278e-09,5.793438140462751e-09,4.379703056505559e-09,3.0637446966254065e-09,2.06981154250573e-09,1.3514972318156598e-09,8.737224312378789e-10,5.399200241590575e-10,3.211996921751796e-10,1.83487195395313e-10,1.0124693973097979e-10,5.523104737257321e-11,2.960862970064069e-11,1.5819481335340934e-11,8.616408305967455e-12,4.733385468770063e-12,2.6619834505435634e-12,1.494760943712771e-12,8.403444923251754e-13,4.76007796670351e-13,2.7222880921516367e-13
0.0,16,16.0,0.0,30.0,0.0,0.0,0.0,0.0,-13.0,0.0,2.0,0.0,0.0,0.0,9.585719991460856e-11,4.553625257632642e-11,2.218498917747522e-11,1.127684575724738e-11,5.973464486006626e-12,3.2958214886913215e-12,1.9081889883318262e-12,1.1186785647673132e-12,6.668405604304995e-13,3.940480541679319e-13,2.3912680133861323e-13,1.4272149813736738e-13,8.431107197369349e-14,4.985329986678301e-14,2.7825866172789473e-14,1.6042123830521164e-14,8.558684657240964e-15,7.240463648911101e-09,5.804365528088375e-09,4.389537989533853e-09,3.0706797643999802e-09,2.073388072858882e-09,1.352546484580421e-09,8.734434879099411e-10,5.39077048923137e-10,3.202440726084351e-10,1.8262206814923718e-10,1.0053371681548306e-10,5.467508960872328e-11,2.9194256359956645e-11,1.5524070130796744e-11,8.414996006848615e-12,4.602538673895511e-12,2.5811198452724044e-12,1.4467961686156937e-12,8.13019800670185e-13,4.609591171088695e-13,2.641086635996366e-13
0.0,17,17.0,0.0,30.0,0.0,0.0,0.0,0.0,-13.0,0.0,2.0,0.0,0.0,0.0,9.51519083314472e-11,4.502766335503671e-11,2.183038929111161e-11,1.1037814883670828e-11,5.819099429427349e-12,3.199360783860828e-12,1.8498317574749143e-12,1.0842548894709658e-12,6.469687556952337e-13,3.8276049649412797e-13,2.3278908946387055e-13,1.3921304997100154e-13,8.239218583219876e-14,4.882166670688111e-14,2.7277261547294627e-14,1.5758348748046998e-14,8.41255332063765e-15,7.251453122830972e-09,5.815702380310226e-09,4.399562893405048e-09,3.0775592807296473e-09,2.076762734572464e-09,1.353360071071507e-09,8.729640470286281e-10,5.380942673923941e-10,3.192079038429199e-10,1.8172272388423785e-10,9.981542170730765e-11,5.412816234349112e-11,2.879316776822886e-11,1.524077092109187e-11,8.222680089462505e-12,4.477673312378732e-12,2.5038681060156e-12,1.400864057353416e-12,7.868160565450294e-13,4.464879760752546e-13,2.5626714076127497e-13
0.0,18,18.0,0.0,30.0,0.0,0.0,0.0,0.0,-13.0,0.0,2.0,0.0,0.0,0.0,9.444147457504783e-11,4.452839087938654e-11,2.1487772136873196e-11,1.0808649781230098e-11,5.671487317182535e-12,3.1070525890828667e-12,1.7938790844519294e-12,1.0511681779832711e-12,6.278169406908859e-13,3.7185714939479915e-13,2.2665033856736898e-13,1.35807551749155e-13,8.052500235335671e-14,4.781569241746835e-14,2.6741259806204317e-14,1.548045942089154e-14,8.269255850897125e-15,7.262998186645431e-09,5.827455422556965e-09,4.409776516022943e-09,3.084381218621841e-09,2.0799381446173686e-09,1.3539440900457557e-09,8.722901604787828e-10,5.369754412774827e-10,3.1809215659126215e-10,1.8078806182088976e-10,9.908999155822307e-11,5.358812751242195e-11,2.8403641015132027e-11,1.4968402784265907e-11,8.03873545859937e-12,4.358385042776689e-12,2.4300152590446673e-12,1.356856806112639e-12,7.616778328080082e-13,4.325683024123998e-13,2.4869318868435355e-13
0.0,19,19.0,0.0,30.0,0.0,0.0,0.0,0.0,-13.0,0.0,2.0,0.0,0.0,0.0,9.372421701711427e-11,4.403668758804526e-11,2.1155822044603624e-11,1.0588519109241674e-11,5.530160352403911e-12,3.0186511144170675e-12,1.7402053537248085e-12,1.0193550945777424e-12,6.093537544853826e-13,3.6132240552821943e-13,2.2070304833161349e-13,1.3250141411332203e-13,7.870783387253707e-14,4.683462140635094e-14,2.6217509537604186e-14,1.520831171842886e-14,8.128726119994255e-15,7.275115477209392e-09,5.839629702137134e-09,4.420175447690342e-09,3.091141319710935e-09,2.0829149427455447e-09,1.3543031261977618e-09,8.714269404052582e-10,5.357239859338271e-10,3.168979021581312e-10,1.7981731046882148e-10,9.835573038004183e-11,5.305314440745029e-11,2.802415120037599e-11,1.4705898313212864e-11,7.862496027865946e-12,4.2442978041111134e-12,2.3593615138075147e-12,1.3146729577091742e-12,7.375528461192596e-13,4.191754580241834e-13,2.4137635901576874e-13
0.0,20,20.0,0.0,30.0,0.0,0.0,0.0,0.0,-13.0,0.0,2.0,0.0,0.0,0.0,9.299874827577181e-11,4.355103536503495e-11,2.0833362738321274e-11,1.037666409278407e-11,5.394684966315512e-12,2.933926168353424e-12,1.6886921575515776e-12,9.887557682716643e-13,5.915494537471613e-13,3.51141428646002e-13,2.1494006959639684e-13,1.2929120079463732e-13,7.69390635841402e-14,4.587772520348106e-14,2.570567208666446e-14,1.494176580105344e-14,7.990899955837793e-15,7.287820702244498e-09,5.8522286030689105e-09,4.430754257331903e-09,3.0978333384171475e-09,2.0856920518771304e-09,1.3544404452868707e-09,8.703786580689775e-10,5.343429797513805e-10,3.1562626644619185e-10,1.7880996370031265e-10,9.76112533997822e-11,5.2521631954136255e-11,2.765335033488192e-11,1.4452293613751513e-11,7.693350377617808e-12,4.135061999734436e-12,2.291719452003563e-12,1.2742169695268572e-12,7.143917499528326e-13,4.062861293689682e-13,2.343067713016115e-13
0.0,21,21.0,0.0,30.0,0.0,0.0,0.0,0.0,-13.0,0.0,2.0,0.0,0.0,0.0,9.226393147500568e-11,4.307011786227924e-11,2.0519343565273487e-11,1.0172392679267114e-11,5.264659505191407e-12,2.8526621889642714e-12,1.6392278475114108e-12,9.593135646986682e-13,5.743758078879299e-13,3.4130010554948857e-13,2.0935458274324531e-13,1.2617362037246512e-13,7.52171415569059e-14,4.494430121937633e-14,2.5205420950629637e-14,1.4680685949765924e-14,7.855715071025736e-15,7.3011285588294896e-09,5.865253833630759e-09,4.44150559349717e-09,3.1044492426493068e-09,2.0882668970582998e-09,1.3543581621204574e-09,8.691488336389258e-10,5.328351789473769e-10,3.1427839602506115e-10,1.7776572880856536e-10,9.685543992570171e-11,5.1992235754956724e-11,2.7290048381066358e-11,1.4206719071891272e-11,7.53073767110974e-12,4.030352787121172e-12,2.2269132760129995e-12,1.2353988234905473e-12,6.921479438751225e-13,3.9387823114951035e-13,2.274750779789765e-13
0.0,22,22.0,0.0,30.0,0.0,0.0,0.0,0.0,-13.0,0.0,2.0,0.0,0.0,0.0,9.151884314110447e-11,4.259279616876377e-11,2.021282701130652e-11,9.975074101339733e-12,5.1397120515598386e-12,2.774657340341693e-12,1.5917071225755494e-12,9.309748785885076e-13,5.578060033947136e-13,3.3178500182533365e-13,2.0394007786599923e-13,1.2314551859049212e-13,7.354058103715181e-14,4.4033671577806444e-14,2.471644120816096e-14,1.44249404054264e-14,7.723110994160073e-15,7.315052631921289e-09,5.878705392031254e-09,4.45242025777649e-09,3.1109793798702688e-09,2.0906355903822382e-09,1.3540573852604122e-09,8.677403172025678e-10,5.312030356946677e-10,3.1285543355711507e-10,1.7668448437472839e-10,9.608739344804665e-11,5.146379933579887e-11,2.693319625614052e-11,1.3968390858704693e-11,7.374143823571801e-12,3.929868465846239e-12,2.1647781089679304e-12,1.1981336721053444e-12,6.707773977251298e-13,3.8193082048928425e-13,2.208724302461087e-13
0.0,23,23.0,0.0,30.0,0.0,0.0,0.0,0.0,-13.0,0.0,2.0,0.0,0.0,0.0,9.076274174132534e-11,4.2118087445943285e-11,1.9912977407804803e-11,9.784133831557382e-12,5.0194983737417796e-12,2.6997226672899764e-12,1.546030649021911e-12,9.036889443566649e-13,5.418145563268797e-13,3.225833210103309e-13,1.9869033654254165e-13,1.2020387118437863e-13,7.19079550167801e-14,4.314518201660918e-14,2.423842898122176e-14,1.4174401217217332e-14,7.59302900374196e-15,7.329605275440999e-09,5.892581514483773e-09,4.463487256635918e-09,3.117412615488889e-09,2.0927930878713455e-09,1.3535383418045819e-09,8.661553615043229e-10,5.294487181162143e-10,3.1135850046690823e-10,1.7556624616156004e-10,9.530640788117062e-11,5.093533908564903e-11,2.6581870624925883e-11,1.3736603135794123e-11,7.223097917625415e-12,3.833328957709249e-12,2.105159340370606e-12,1.1623415155558517e-12,6.502384894152985e-13,3.7042402011476566e-13,2.1449044492850716e-13
0.0,24,24.0,0.0,30.0,0.0,0.0,0.0,0.0,-13.0,0.0,2.0,0.0,0.0,0.0,8.999504101515117e-11,4.164514618375185e-11,1.9619050735491587e-11,9.599048911922233e-12,4.90369999838967e-12,2.6276813026638894e-12,1.5021047082946993e-12,8.774076626414631e-13,5.263772320833341e-13,3.1368286687244756e-13,1.9359941504417385e-13,1.173457771786758e-13,7.031789304483643e-14,4.2278200851378435e-14,2.3771090927538786e-14,1.3928944099373614e-14,7.465412064644145e-15,7.3447974779603406e-09,5.906878609148008e-09,4.474693836444681e-09,3.1237364491006097e-09,2.094733323191743e-09,1.3528004851286104e-09,8.64395687042748e-10,5.27574131114741e-10,3.0978868520429413e-10,1.7441113957522513e-10,9.451193901384026e-11,5.040602243197106e-11,2.6235260315273327e-11,1.3510720920817094e-11,7.077168857157202e-12,3.740474374099564e-12,2.047912012426426e-12,1.1279469056899867e-12,6.304918551543457e-13,3.5933894927793293e-13,2.0832117241572912e-13
0.0,25,25.0,0.0,30.0,0.0,0.0,0.0,0.0,-13.0,0.0,2.0,0.0,0.0,0.0,8.921528737441575e-11,4.1173247765921405e-11,1.933038543264593e-11,9.419343639743798e-12,4.792022400963606e-12,2.558367722814281e-12,1.4598408695738132e-12,8.520854409186701e-13,5.11470971655173e-13,3.0507200852498006e-13,1.8866162883897385e-13,1.145684526158465e-13,6.87690782630222e-14,4.143211799741751e-14,2.3314143761767436e-14,1.3688448295547981e-14,7.340204767031832e-15,7.3606387146672915e-09,5.921591178787341e-09,4.486025505527902e-09,3.1299371129731917e-09,2.0964493221606694e-09,1.3518425880610716e-09,8.624625402089901e-10,5.255809373271891e-10,3.0814703581274573e-10,1.732193775018283e-10,9.370358037368283e-11,4.9875148844579675e-11,2.5892654198245887e-11,1.3290173570661316e-11,6.935962250646429e-12,3.651063666407157e-12,1.9929002432197502e-12,1.094878673399747e-12,6.11500250980607e-13,3.4865766133602926e-13,2.0235706571342813e-13
0.0,26,26.0,0.0,30.0,0.0,0.0,0.0,0.0,-13.0,0.0,2.0,0.0,0.0,0.0,8.842314075697276e-11,4.070177406622113e-11,1.904639411907977e-11,9.244585590160342e-12,4.68419330918447e-12,2.4916270474141157e-12,1.4191556843642384e-12,8.27679046581155e-13,4.970738236765709e-13,2.9673964811975723e-13,1.8387153826154565e-13,1.1186922468273533e-13,6.726024464641147e-14,4.0606344045418476e-14,2.2867313803716067e-14,1.3452796450211469e-14,7.217353267739296e-15,7.377136787040269e-09,5.9367117345342525e-09,4.497466046352769e-09,3.1359996562896376e-09,2.0979333012704616e-09,1.3506628236045056e-09,8.603567451568715e-10,5.234705777277194e-10,3.064345557970028e-10,1.7199124254210494e-10,9.288104283148464e-11,4.934213330783046e-11,2.555343038582066e-11,1.307444883921445e-11,6.7991175140063775e-12,3.5648733557299922e-12,1.939996683604335e-12,1.063069676491352e-12,5.93228424585176e-13,3.3836308707767017e-13,1.965909506156341e-13
0.0,27,27.0,0.0,30.0,0.0,0.0,0.0,0.0,-13.0,0.0,2.0,0.0,0.0,0.0,8.761835841145901e-11,4.0230200827995636e-11,1.8766556152019142e-11,9.074381955097446e-12,4.579961114509941e-12,2.4273143805343434e-12,1.3799704008566966e-12,8.041474710917639e-13,4.831648816698505e-13,2.8867519088913056e-13,1.7922393523732737e-13,1.0924552620437427e-13,6.579017443317441e-14,3.9800309387405614e-14,2.2430336551892616e-14,1.3221874486481693e-14,7.096805234011151e-15,7.394297651491972e-09,5.952230702814156e-09,4.508997520393439e-09,3.1419080179623037e-09,2.099176752856879e-09,1.3492588350039399e-09,8.580787500752379e-10,5.212442915730131e-10,3.046522025051256e-10,1.707270728449014e-10,9.204413737358142e-11,4.880649194396773e-11,2.5217046610176082e-11,1.2863087467045864e-11,6.666305182331184e-12,3.481696338379697e-12,1.889082005233859e-12,1.0324565656264148e-12,5.756429964893907e-13,3.2843898302324186e-13,1.9101599697794677e-13
0.0,28,28.0,0.0,30.0,0.0,0.0,0.0,0.0,-13.0,0.0,2.0,0.0,0.0,0.0,8.680078116990739e-11,3.975808660773597e-11,1.8490410935412872e-11,8.908376178268971e-12,4.479093386659281e-12,2.3652941902995067e-12,1.3422106961728477e-12,7.814518040081225e-13,4.697242259540477e-13,2.8086851732958685e-13,1.7471383096155316e-13,1.0669489047622724e-13,6.435769572695574e-14,3.901346338897879e-14,2.200295628085225e-14,1.2995571490029643e-14,6.978509789529059e-15,7.412125238136844e-09,5.968136327220951e-09,4.520600267777805e-09,3.1476450902776914e-09,2.100170519056708e-09,1.3476277966980335e-09,8.556286684974549e-10,5.189031355064111e-10,3.028008874129322e-10,1.6942725088479866e-10,9.119276055804573e-11,4.826782950946807e-11,2.4883031660070116e-11,1.2655678261420641e-11,6.537224419485132e-12,3.4013407638456465e-12,1.840044417589246e-12,1.002979566306525e-12,5.587123497244795e-13,3.188698840469093e-13,1.8562569105237528e-13
0.0,29,29.0,0.0,30.0,0.0,0.0,0.0,0.0,-13.0,0.0,2.0,0.0,0.0,0.0,8.597032183236846e-11,3.928506308913135e-11,1.8217551909878073e-11,8.746244866048195e-12,4.381375486183935e-12,2.3054397247814686e-12,1.305806424900028e-12,7.595551158441125e-13,4.567328697500113e-13,2.7330995733907935e-13,1.7033644444454141e-13,1.0421494641017567e-13,6.296168025866117e-14,3.824527360530182e-14,2.1584925660917528e-14,1.2773779598415964e-14,6.862417462708048e-15,7.430621260780532e-09,5.9844145669468295e-09,4.532252903467977e-09,3.1531927751869325e-09,2.1009048563080545e-09,1.3457664674611784e-09,8.530063162386761e-10,5.164480017253288e-10,3.0088147783430015e-10,1.680921946474366e-10,9.032688224463225e-11,4.772582852102209e-11,2.4550977761077702e-11,1.2451853626691975e-11,6.411600714253539e-12,3.3236289819400977e-12,1.7927792121655413e-12,9.74582275208265e-13,5.424065272449005e-13,3.0964105977806414e-13,1.8041380883975817e-13
0.0,30,30.0,0.0,30.0,0.0,0.0,0.0,0.0,-13.0,0.0,2.0,0.0,0.0,0.0,8.51269553448665e-11,3.881082659725187e-11,1.794762115622076e-11,8.587694954489187e-12,4.286609270071522e-12,2.2476324620479256e-12,1.270691382560141e-12,7.384223488730471e-13,4.441727090714944e-13,2.6599026613902036e-13,1.6608719184516837e-13,1.018034139706391e-13,6.160104129381083e-14,3.749522503730065e-14,2.1176005398858257e-14,1.2556393895761119e-14,6.748480137147774e-15,7.449785019209393e-09,6.001048993223115e-09,4.5439323114427814e-09,3.158532034699796e-09,2.101369491829526e-09,1.3436712368528248e-09,8.502112445034842e-10,5.138796351784498e-10,2.9889479968691557e-10,1.6672235078270318e-10,8.944653525143834e-11,4.718023979879399e-11,2.4220533797229442e-11,1.2251285507110429e-11,6.289183751717372e-12,3.2483965559107643e-12,1.7471883322300673e-12,9.47211469446362e-13,5.266971363826978e-13,3.007384743155512e-13,1.7537439041506611e-13
0.0,31,31.0,0.0,30.0,0.0,0.0,0.0,0.0,-13.0,0.0,2.0,0.0,0.0,0.0,8.427071050051624e-11,3.8335130663196076e-11,1.768030455110429e-11,8.432461113471763e-12,4.1946118853985985e-12,2.1917615924713353e-12,1.2368030828453373e-12,7.180202150974609e-13,4.320264760388656e-13,2.589006018271538e-13,1.6196167652199585e-13,9.945809987990406e-14,6.027473167421788e-14,3.6762819425855165e-14,2.0775963898149482e-14,1.2343312312043143e-14,6.636651004155711e-15,7.469613194870814e-09,6.018020685121336e-09,4.555613638118542e-09,3.163642936548888e-09,2.1015536732569927e-09,1.3413381659285283e-09,8.472427696581252e-10,5.111986498022497e-10,2.968416410263964e-10,1.6531818936496637e-10,8.855180664452865e-11,4.6630874241861716e-11,2.389139928172543e-11,1.2053681706305062e-11,6.169745448645967e-12,3.1754913383235227e-12,1.7031799667366422e-12,9.208169275595605e-13,5.115572597135372e-13,2.9214874887085344e-13,1.70501715198338e-13
0.0,32,32.0,0.0,30.0,0.0,0.0,0.0,0.0,-13.0,0.0,2.0,0.0,0.0,0.0,8.340166293463687e-11,3.785777950792962e-11,1.74153274188693e-11,8.280303369769148e-12,4.1052146460966085e-12,2.137723531551314e-12,1.2040825476126587e-12,6.983171007146465e-13,4.2027769529720795e-13,2.520325044234132e-13,1.579556797399552e-13,9.717689357303718e-14,5.898174198289308e-14,3.6047574581444246e-14,2.0384576937743426e-14,1.2134435527039204e-14,6.526884517315802e-15,7.490099641068702e-09,6.0353081259792025e-09,4.567270286050273e-09,3.1685046960531662e-09,2.101446212408072e-09,1.3387630230314691e-09,8.441000001147139e-10,5.084055438354311e-10,2.947227561268874e-10,1.638801999641177e-10,8.764283041184068e-11,4.607759567476683e-11,2.356331899384222e-11,1.1858782550018994e-11,6.053078141937619e-12,3.1047726065600013e-12,1.6606681671154091e-12,8.953512611976139e-13,4.969613717809888e-13,2.838591270098745e-13,1.6579027815955446e-13
0.0,33,33.0,0.0,30.0,0.0,0.0,0.0,0.0,-13.0,0.0,2.0,0.0,0.0,0.0,8.251992921942826e-11,3.7378622330290566e-11,1.7152450628645904e-11,8.131004931765639e-12,4.018261987984897e-12,2.085421461617389e-12,1.1724741087538799e-12,6.792829764945317e-13,4.089106432555339e-13,2.4537787628291977e-13,1.5406515197652694e-13,9.495776338509038e-14,5.772109882242754e-14,3.534902374694454e-14,2.0001627368108872e-14,1.19296668784168e-14,6.4191363490516995e-15,7.511235168852649e-09,6.052887101651752e-09,4.578873908789743e-09,3.1730957149128774e-09,2.1010355239755664e-09,1.3359413153697613e-09,8.407818607304779e-10,5.055007142685903e-10,2.925388699374946e-10,1.624088887842114e-10,8.671978131074844e-11,4.552031462504598e-11,2.323607820781149e-11,1.166635786106149e-11,5.938992919481765e-12,3.0361102548102114e-12,1.6195724857612063e-12,8.70769756634272e-13,4.828852611734186e-13,2.7585744221426547e-13,1.6123476697192245e-13
0.0,34,34.0,0.0,30.0,0.0,0.0,0.0,0.0,-13.0,0.0,2.0,0.0,0.0,0.0,8.162566189314805e-11,3.689754829846585e-11,1.689146709072206e-11,7.98437019954215e-12,3.933610497339761e-12,2.03476490087428e-12,1.1419252211591442e-12,6.608893135593623e-13,3.9791030989754373e-13,2.3892896376360833e-13,1.5028620477739578e-13,9.279875295413232e-14,5.649186319779765e-14,3.466671499139382e-14,1.9626904823454844e-14,1.1728912273874444e-14,6.313363349017195e-15,7.533007329844682e-09,6.0707306017336196e-09,4.590394407632401e-09,3.1773936175051277e-09,2.1003096598150642e-09,1.332868316990529e-09,8.372871150841696e-10,5.024844704975926e-10,2.902906827840375e-10,1.6090477666987963e-10,8.578286971081234e-11,4.495898290993251e-11,2.2909498447357747e-11,1.1476204217784373e-11,5.827318083236534e-12,2.9693840394910067e-12,1.5798176351248257e-12,8.470302253516199e-13,4.693059575061451e-13,2.681320875270794e-13,1.5683004015899696e-13
0.0,35,35.0,0.0,30.0,0.0,0.0,0.0,0.0,-13.0,0.0,2.0,0.0,0.0,0.0,8.071904528356301e-11,3.641448215678887e-11,1.663219861059445e-11,7.840222945070858e-12,3.851128008412238e-12,1.9856692983269028e-12,1.1123862860788217e-12,6.431090041212849e-13,3.87262362943349e-13,2.3267834004537674e-13,1.4661510311625686e-13,9.069797782512562e-14,5.529312899555296e-14,3.400021063316349e-14,1.9260205449165752e-14,1.1532080106888353e-14,6.209523504316674e-15,7.555400197322693e-09,6.08880872485089e-09,4.601799930855197e-09,3.1813752851119014e-09,2.0992563393825323e-09,1.3295390936838195e-09,8.336143859544917e-10,4.993570472549671e-10,2.879788752168458e-10,1.5936839781630579e-10,8.483233728039076e-11,4.439358892634862e-11,2.2583433706775e-11,1.1288142469681329e-11,5.717897734787985e-12,2.9044828750878946e-12,1.541333166368705e-12,8.240928630386029e-13,4.562016629098046e-13,2.6067198707969746e-13,1.5257110630517291e-13
0.0,36,36.0,0.0,30.0,0.0,0.0,0.0,0.0,-13.0,0.0,2.0,0.0,0.0,0.0,7.980029200645497e-11,3.5929380370753217e-11,1.6374493063251444e-11,7.698404648277933e-12,3.7706927654687455e-12,1.9380556531932034e-12,1.0838104842547276e-12,6.259162867840601e-13,3.769531141646405e-13,2.2661888900851416e-13,1.4304825821856718e-13,8.865362224137734e-14,5.4124021551927267e-14,3.3349086690365605e-14,1.8901331643533608e-14,1.1339081176117009e-14,6.107575901555555e-15,7.578394146960223e-09,6.107088589075947e-09,4.613056875928894e-09,3.1850168883975587e-09,2.0978629767909334e-09,1.3259485252848309e-09,8.297621742911763e-10,4.961186168953469e-10,2.856041129300121e-10,1.578002990479043e-10,8.386845338872534e-11,4.382415355211044e-11,2.2257767085861056e-11,1.1102015485901249e-11,5.610590474160176e-12,2.841304177489631e-12,1.5040531666074983e-12,8.019201164262749e-13,4.43551687662257e-13,2.53466569323889e-13,1.4845310443436205e-13
0.0,37,37.0,0.0,30.0,0.0,0.0,0.0,0.0,-13.0,0.0,2.0,0.0,0.0,0.0,7.886964003775795e-11,3.544222774274673e-11,1.6118221854003933e-11,7.558772975752861e-12,3.692192645105743e-12,1.8918501574671027e-12,1.056153618250204e-12,6.092866760650237e-13,3.669694876801257e-13,2.207437900877675e-13,1.3958222081234988e-13,8.666393611038464e-14,5.298369630292172e-14,3.271293235706261e-14,1.8550091812840115e-14,1.1149828608048637e-14,6.007480690494919e-15,7.601965638702654e-09,6.125534248470676e-09,4.624129895076669e-09,3.188293918355472e-09,2.0961167048865436e-09,1.3220913257904661e-09,8.257288769390782e-10,4.927693011101835e-10,2.831670516964638e-10,1.5620103955484086e-10,8.289151211445328e-11,4.3250726578310386e-11,2.19324077918606e-11,1.0917686114538518e-11,5.505268203171977e-12,2.7797532519812163e-12,1.4679159737870365e-12,7.804765574491333e-13,4.313363896481005e-13,2.465057418220504e-13,1.4447128568354646e-13
0.0,38,38.0,0.0,30.0,0.0,0.0,0.0,0.0,-13.0,0.0,2.0,0.0,0.0,0.0,7.792735027293446e-11,3.495303443944583e-11,1.5863277635611417e-11,7.421200389853581e-12,3.6155244347848306e-12,1.846983860358352e-12,1.02937396345555e-12,5.931968958288434e-13,3.5729899007468687e-13,2.1504650402584556e-13,1.3621367477329706e-13,8.472723213307294e-14,5.187133751042887e-14,3.2091349503594996e-14,1.82063001390543e-14,1.0964237782922432e-14,5.90919904945712e-15,7.62608700133863e-09,6.144106616710814e-09,4.634981904444352e-09,3.191181215861911e-09,2.094004396693185e-09,1.3179620616630116e-09,8.215128033479009e-10,4.893091821439927e-10,2.8066834227815143e-10,1.5457119099641741e-10,8.1901829767891e-11,4.26733836031982e-11,2.1607288466760738e-11,1.073503533253316e-11,5.401815025170021e-12,2.7197427231490653e-12,1.4328639083067899e-12,7.597287642767504e-13,4.1953711735299645e-13,2.397798674602264e-13,1.4062099642097092e-13
0.0,39,39.0,0.0,30.0,0.0,0.0,0.0,0.0,-13.0,0.0,2.0,0.0,0.0,0.0,7.69737044999539e-11,3.4461833379139877e-11,1.5609572254565926e-11,7.285572876908896e-12,3.5405931637275855e-12,1.8033923533818613e-12,1.0034321272867835e-12,5.776248163604743e-13,3.479296822032926e-13,2.09520759457562e-13,1.3293943113387418e-13,8.284188308523843e-14,5.0786157058618065e-14,3.148395219974533e-14,1.7869776359274977e-14,1.0782226263539923e-14,5.812693152220676e-15,7.650726221396973e-09,6.162763398682787e-09,4.645574097044043e-09,3.1936529999068518e-09,2.09151268453344e-09,1.313555168659055e-09,8.171121914757476e-10,4.857383135803529e-10,2.7810863528205205e-10,1.5291133789658516e-10,8.089974284826232e-11,4.2092223326933745e-11,2.1282362802918785e-11,1.0553960567809755e-11,5.3001262334946325e-12,2.661192004065267e-12,1.3988430205108214e-12,7.39645208800309e-13,4.0813615613856656e-13,2.332797419701185e-13,1.3689766298191045e-13
0.0,40,40.0,0.0,30.0,0.0,0.0,0.0,0.0,-13.0,0.0,2.0,0.0,0.0,0.0,7.600900372302373e-11,3.396867793367136e-11,1.535703490221065e-11,7.151788784112895e-12,3.4673114825164046e-12,1.76101547492364e-12,9.782909161270987e-13,5.625493948319872e-13,3.388501525564038e-13,2.0416054026322238e-13,1.2975642242966406e-13,8.100631924145092e-14,4.9727393315410043e-14,3.089036625927754e-14,1.7540345556324714e-14,1.0603713726983807e-14,5.7179261365763564e-15,7.67584673806015e-09,6.181459030871981e-09,4.655865959531259e-09,3.1956828945154778e-09,2.0886279771080936e-09,1.3088649674934483e-09,8.125252230723315e-10,4.820567307609315e-10,2.7548858594162906e-10,1.512220782703258e-10,7.988560636870113e-11,4.1507365194359686e-11,2.095760341414904e-11,1.0374374176995274e-11,5.2001073815610216e-12,2.6040268022288276e-12,1.3658028532177927e-12,7.20196150201248e-13,3.9711667756429567e-13,2.269965726588624e-13,1.33296778197661e-13
0.0,41,41.0,0.0,30.0,0.0,0.0,0.0,0.0,-13.0,0.0,2.0,0.0,0.0,0.0,7.503356678335843e-11,3.3473639905257314e-11,1.5105610448912152e-11,7.019757755552942e-12,3.3955990879455612e-12,1.7197970331610806e-12,9.539152095945007e-13,5.479506189424629e-13,3.300494920732036e-13,1.989600736334745e-13,1.2666169735827346e-13,7.921902593255073e-14,4.869431005442314e-14,3.031022880453406e-14,1.7217837959712873e-14,1.0428621899074802e-14,5.624862074278311e-15,7.701407245831718e-09,6.200144631275379e-09,4.665815292775128e-09,3.1972439543291958e-09,2.085336474797317e-09,1.30388567862571e-09,8.077500385078445e-10,4.782644608954109e-10,2.7280885881006595e-10,1.4950402443063227e-10,7.885979249177989e-11,4.0918947339709066e-11,2.0632999933066342e-11,1.0196202063593793e-11,5.101673427933641e-12,2.5481786598528074e-12,1.3336962184846496e-12,7.013535342567428e-13,3.8646269154701324e-13,2.2092195825419615e-13,1.2981388990846348e-13
0.0,42,42.0,0.0,30.0,0.0,0.0,0.0,0.0,-13.0,0.0,2.0,0.0,0.0,0.0,7.404772923103694e-11,3.297680774333536e-11,1.4855257941783956e-11,6.889399758608783e-12,3.3253821898740534e-12,1.6796845462636835e-12,9.30271841741577e-13,5.338094535319241e-13,3.2151727030382265e-13,1.939138187954463e-13,1.2365241572805834e-13,7.747854122786394e-14,4.768619543304088e-14,2.974318785012044e-14,1.6902088756447585e-14,1.0256874491428161e-14,5.5334659425626394e-15,7.7273615067221e-09,6.218767959470139e-09,4.675378236082088e-09,3.1983086887812466e-09,2.0816241834376023e-09,1.2986114364378893e-09,8.027847512953196e-10,4.743615329146699e-10,2.7007013235687806e-10,1.4775780393494753e-10,7.782268942664767e-11,4.032712479302577e-11,2.0308557308752346e-11,1.001938242293584e-11,5.004747950265567e-12,2.4935845262127467e-12,1.302478987832307e-12,6.83090898066714e-13,3.761590011707272e-13,2.1504786978282416e-13,1.264445916413077e-13
0.0,43,43.0,0.0,30.0,0.0,0.0,0.0,0.0,-13.0,0.0,2.0,0.0,0.0,0.0,7.305184240853887e-11,3.247828497081202e-11,1.460594924851654e-11,6.760644192704532e-12,3.2565930170270368e-12,1.640628998849252e-12,9.07329488817569e-13,5.201077899867121e-13,3.1324351282880343e-13,1.8901645635296668e-13,1.2072584367662625e-13,7.578345373448121e-14,4.670236102262648e-14,2.9188901904349677e-14,1.65929379110312e-14,1.0088397140874969e-14,5.4437035969508576e-15,7.753658173721226e-09,6.237273387351189e-09,4.684509294835236e-09,3.198849084778669e-09,2.0774769268267035e-09,1.2930363030584463e-09,7.976274624378907e-10,4.703479871139531e-10,2.672731034633138e-10,1.4598406063730615e-10,7.677470054590504e-11,3.973206791312878e-11,1.998429428172222e-11,9.843864601519996e-12,4.909262422427868e-12,2.4401863598820374e-12,1.2721098951911488e-12,6.653832799025804e-13,3.661911599724839e-13,2.093666324102458e-13,1.2318451562707277e-13
0.0,44,44.0,0.0,30.0,0.0,0.0,0.0,0.0,-13.0,0.0,2.0,0.0,0.0,0.0,7.204627271211389e-11,3.197818879281097e-11,1.4357667831708226e-11,6.633429073078222e-12,3.1891693588831623e-12,1.602584613718591e-12,8.85058563245287e-13,5.068283982713248e-13,3.052186798535881e-13,1.8426287819879286e-13,1.178793491403658e-13,7.413240050652681e-14,4.574214088733053e-14,2.864703958754249e-14,1.629022999418254e-14,9.923117351445057e-15,5.355541745617298e-15,7.780240627302797e-09,6.255601880913993e-09,4.693161371216038e-09,3.198836627790248e-09,2.0728803582133084e-09,1.28715428207472e-09,7.922762747172397e-10,4.662238846272746e-10,2.644184918149798e-10,1.4418345581857809e-10,7.571624368633052e-11,3.913396101636453e-11,1.966024201572891e-11,9.669608059555858e-12,4.815155549595651e-12,2.387930758806706e-12,1.2425503518566951e-12,6.482071339091339e-13,3.565454315550365e-13,2.0387090817402797e-13,1.2002932831168825e-13
0.0,45,45.0,0.0,30.0,0.0,0.0,0.0,0.0,-13.0,0.0,2.0,0.0,0.0,0.0,7.103140100279778e-11,3.147664886326362e-11,1.4110407639872608e-11,6.507700283004814e-12,3.123054140944893e-12,1.5655086379260062e-12,8.634311134890479e-13,4.939548814356954e-13,2.9743364590217674e-13,1.7964817795942628e-13,1.151103975582741e-13,7.252406505744738e-14,4.4804890708048794e-14,2.8117279266159803e-14,1.5993814019649523e-14,9.760964438411322e-15,5.2689479248724e-15,7.807046826648439e-09,6.2736909933019674e-09,4.701285797582408e-09,3.198242321238707e-09,2.0678199710382565e-09,1.2809593323666564e-09,7.867293070256443e-10,4.6198931676920127e-10,2.615070441922222e-10,1.4235666937209711e-10,7.464775060254546e-11,3.853300117420789e-11,1.933644286825326e-11,9.496581426611189e-12,4.722372656467576e-12,2.336768616280286e-12,1.2137642727749632e-12,6.315402493950416e-13,3.472087513765868e-13,1.9855367954811898e-13,1.1697472849069767e-13
0.0,46,46.0,0.0,30.0,0.0,0.0,0.0,0.0,-13.0,0.0,2.0,0.0,0.0,0.0,7.000762214860474e-11,3.0973806180908365e-11,1.3864172103815345e-11,6.3834108893283025e-12,3.0581950306114753e-12,1.5293611421950007e-12,8.424207295568623e-13,4.814716324725203e-13,2.8987968053177346e-13,1.7516764193550322e-13,1.1241654779576012e-13,7.095717546967012e-14,4.388998694843741e-14,2.7599308701948968e-14,1.5703543288934713e-14,9.601869474641056e-15,5.183890476164802e-15,7.834009177188746e-09,6.291474869163312e-09,4.708832371989984e-09,3.197036704105481e-09,2.062281109208774e-09,1.2744453822858514e-09,7.809847088310952e-10,4.5764441427508156e-10,2.585395386604735e-10,1.4050440102604288e-10,7.356966654699074e-11,3.792939715607375e-11,1.9012949283521878e-11,9.324761641230495e-12,4.630865124178224e-12,2.2866548010064677e-12,1.185717913505789e-12,6.153616744750363e-13,3.3816869059626705e-13,1.9340823378550699e-13,1.1401644815595966e-13
0.0,47,47.0,0.0,30.0,0.0,0.0,0.0,0.0,-13.0,0.0,2.0,0.0,0.0,0.0,6.897534462753102e-11,3.046981214870974e-11,1.3618973219519093e-11,6.260520508980542e-12,2.9945440732249987e-12,1.4941048336008613e-12,8.220024534747682e-13,4.693637932899874e-13,2.8254843007210707e-13,1.7081674052113588e-13,1.0979544826407746e-13,6.943050259325094e-14,4.299682606163072e-14,2.7092824715424775e-14,1.541927524284956e-14,9.445765238901415e-15,5.100338524229399e-15,7.861054415924988e-09,6.3088842601670795e-09,4.715749395263228e-09,3.19518986667859e-09,2.056248977206095e-09,1.2676063443962987e-09,7.750406748528802e-10,4.531893564663018e-10,2.5551678866380484e-10,1.386273715870993e-10,7.248244995308358e-11,3.73233684966006e-11,1.8689822793736333e-11,9.154133166304644e-12,4.540589871822629e-12,2.23754785953161e-12,1.1583797172489303e-12,5.996516438269741e-13,3.2941342185142193e-13,1.884281479850304e-13,1.1115025610564851e-13
0.0,48,48.0,0.0,30.0,0.0,0.0,0.0,0.0,-13.0,0.0,2.0,0.0,0.0,0.0,6.793499028068854e-11,2.9964827666419754e-11,1.337483072389415e-11,6.138994736213245e-12,2.932057352072206e-12,1.459704879059153e-12,8.021526952406354e-13,4.576172159103129e-13,2.754319001905313e-13,1.6659112003707462e-13,1.0724483324465557e-13,6.794285833380127e-14,4.2124823731760626e-14,2.6597532862358556e-14,1.5140871320470366e-14,9.292586166233145e-15,5.0182619564212e-15,7.888103515817984e-09,6.3258465513161856e-09,4.721983708952453e-09,3.192671464408369e-09,2.0497086503481818e-09,1.2604361309856378e-09,7.688954600138196e-10,4.4862438036291124e-10,2.524396470257829e-10,1.3672632419249535e-10,7.138657220144389e-11,3.671514466917324e-11,1.8367133115769413e-11,8.984687272761505e-12,4.451508878844847e-12,2.189409739455717e-12,1.1317201713377754e-12,5.843915103557459e-13,3.209316868587001e-13,1.8360727483837445e-13,1.0837196431026702e-13
0.0,49,49.0,0.0,30.0,0.0,0.0,0.0,0.0,-13.0,0.0,2.0,0.0,0.0,0.0,6.688699408440842e-11,2.9459022360354104e-11,1.3131771337878053e-11,6.018804610476214e-12,2.8706946744949643e-12,1.4261287406198746e-12,7.828491531830859e-13,4.4621842553894744e-13,2.6852243937563274e-13,1.6248659498823505e-13,1.0476251938334892e-13,6.649309401874966e-14,4.12734141513211e-14,2.611314712317816e-14,1.486819682412236e-14,9.142268300197128e-15,4.93763140328122e-15,7.915071610306973e-09,6.3422857974676005e-09,4.727480733455068e-09,3.1894507298826852e-09,2.0426450855533066e-09,1.2529286705481238e-09,7.625473947247027e-10,4.4394978976215093e-10,2.493090098621278e-10,1.3480202555950371e-10,7.028251745155584e-11,3.6104964349641903e-11,1.8044957332015204e-11,8.816421384880364e-12,4.363588744858744e-12,2.1422055319177497e-12,1.1057116726462427e-12,5.695636805516523e-13,3.1271276574132244e-13,1.789397290124642e-13,1.0567743696711889e-13
0.0,50,50.0,0.0,30.0,0.0,0.0,0.0,0.0,-13.0,0.0,2.0,0.0,0.0,0.0,6.583180398616256e-11,2.895257387739855e-11,1.2889828077190339e-11,5.899926128642709e-12,2.8104192801552077e-12,1.3933460209635869e-12,7.640707388823942e-13,4.3515458552445464e-13,2.618127232173306e-13,1.584991407004405e-13,1.0234640235489226e-13,6.50800988404959e-14,4.0442049330781595e-14,2.5639389604507417e-14,1.4601120790627448e-14,8.994749246895756e-15,4.8584182201287414e-15,7.941867938746535e-09,6.358122769229867e-09,4.732184505537379e-09,3.1854964829932253e-09,2.035043132975356e-09,1.2450779254325184e-09,7.559949005466415e-10,4.391659642979794e-10,2.46125820409912e-10,1.32855267222941e-10,6.917078252330576e-11,3.5493074756121464e-11,1.7723379145357835e-11,8.649338481189897e-12,4.276800283736484e-12,2.0959032319615264e-12,1.0803284013765574e-12,5.551515533482558e-13,3.0474644798345166e-13,1.7441987412936119e-13,1.0306260211660228e-13
0.0,51,51.0,0.0,30.0,0.0,0.0,0.0,0.0,-13.0,0.0,2.0,0.0,0.0,0.0,6.476988077921775e-11,2.8445667244266036e-11,1.2649039621956709e-11,5.782339796136067e-12,2.7511975701487505e-12,1.3613283186158948e-12,7.45797506332644e-13,4.2441346408523907e-13,2.55295739453153e-13,1.5462488631771798e-13,9.999445368536021e-14,6.370279837151636e-14,3.9630198438559066e-14,2.5175990252175635e-14,1.4339515868263155e-14,8.849968130756837e-15,4.780594469757478e-15,7.968395813224275e-09,6.373275007159608e-09,4.736037714471173e-09,3.1807771394374555e-09,2.026887548907166e-09,1.2368779108390285e-09,7.492365062677726e-10,4.342733684936865e-10,2.4289107277806353e-10,1.3088686675234792e-10,6.805187681458566e-11,3.487973105241557e-11,1.7402488199334292e-11,8.483446545497427e-12,4.19111814908438e-12,2.050473515476023e-12,1.0555462027260932e-12,5.411394622975803e-13,2.9702300492991446e-13,1.7004231030869846e-13,1.0052346560509577e-13
0.0,52,52.0,0.0,30.0,0.0,0.0,0.0,0.0,-13.0,0.0,2.0,0.0,0.0,0.0,6.370169800454473e-11,2.793849428212281e-11,1.240944973881243e-11,5.666030213465422e-12,2.692998855378465e-12,1.330049092256846e-12,7.280105851187285e-13,4.139834027109505e-13,2.489647737390514e-13,1.5086010813833847e-13,9.770471772319743e-14,6.236015314747465e-14,3.883734716974822e-14,2.4722686575368333e-14,1.408325819905199e-14,8.707865551978628e-15,4.70413290600879e-15,7.994552606844995e-09,6.387656882928058e-09,4.7389817360005664e-09,3.175260717786576e-09,2.0181630103730638e-09,1.2283227153396356e-09,7.422708644223756e-10,4.2927256081700654e-10,2.3960581562364314e-10,1.2889766894119176e-10,6.692632224257539e-11,3.4265195804118e-11,1.7082379455582086e-11,8.318758063130648e-12,4.106520488454269e-12,2.005889531499251e-12,1.0313424759597066e-12,5.275126208825328e-13,2.895331637471042e-13,1.6580186224044482e-13,9.80561271192991e-14
0.0,53,53.0,0.0,30.0,0.0,0.0,0.0,0.0,-13.0,0.0,2.0,0.0,0.0,0.0,6.262774186968511e-11,2.743125306785541e-11,1.2171106749769759e-11,5.5509856949840906e-12,2.6357951227115973e-12,1.299483533535593e-12,7.106921173945328e-13,4.038532861514839e-13,2.428133961054169e-13,1.4720122326913438e-13,9.547530875017519e-14,6.105115731472738e-14,3.806299714200027e-14,2.4279223381319186e-14,1.3832227306134462e-14,8.568383545500889e-15,4.62900695818359e-15,8.020229763140609e-09,6.401179665881977e-09,4.740956663383702e-09,3.1689148454484303e-09,2.0088541318551164e-09,1.219406523084977e-09,7.350967682726441e-10,4.2416420274481524e-10,2.3627115575797246e-10,1.268885469608937e-10,6.579465319753188e-11,3.3649738477714975e-11,1.676315262156043e-11,8.15528955794727e-12,4.022988623865584e-12,1.962126708755519e-12,1.0076960704446598e-12,5.142570707987143e-13,2.8226808277233097e-13,1.616935677589526e-13,9.565679792710508e-14
0.0,54,54.0,0.0,30.0,0.0,0.0,0.0,0.0,-13.0,0.0,2.0,0.0,0.0,0.0,6.1548511175274e-11,2.692414743426211e-11,1.1934063042723925e-11,5.437197916965323e-12,2.579560817565237e-12,1.2696084478395555e-12,6.938251984593511e-13,3.9401251391232945e-13,2.368354480625227e-13,1.4364478357977408e-13,9.330440822430667e-14,5.977483733896191e-14,3.730666531715277e-14,2.3845352520595945e-14,1.3586305985953454e-14,8.43146554151791e-15,4.555190716238407e-15,8.045312825791411e-09,6.413751593188821e-09,4.741901334815031e-09,3.161706763964623e-09,1.998945484618105e-09,1.210123637848498e-09,7.277131692665392e-10,4.189490678424864e-10,2.328882616859959e-10,1.2486040347265891e-10,6.465741649890614e-11,3.303363497418699e-11,1.644491162232048e-11,7.993061166104576e-12,3.940506756419507e-12,1.919162575379292e-12,9.845871882241986e-13,5.013596330450967e-13,2.752193281763697e-13,1.5771266689499718e-13,9.332181988443361e-14
0.0,55,55.0,0.0,30.0,0.0,0.0,0.0,0.0,-13.0,0.0,2.0,0.0,0.0,0.0,6.046451724073636e-11,2.6417386502355046e-11,1.1698374619006644e-11,5.324661592345909e-12,2.5242726416688724e-12,1.2404021425014832e-12,6.773938207403623e-13,3.844509731794513e-13,2.310250303208745e-13,1.401874699382692e-13,9.119026214722515e-14,5.85302507715093e-14,3.656788344730755e-14,2.342083264238827e-14,1.3345380204805382e-14,8.297056327453076e-15,4.482658916535978e-15,8.069681487332213e-09,6.425277941545222e-09,4.741753356631029e-09,3.153603334202219e-09,1.9884216191152123e-09,1.2004685090449787e-09,7.201191949791448e-10,4.1362805086119914e-10,2.2945836708133904e-10,1.228141716899914e-10,6.351517134444571e-11,3.241716718960817e-11,1.6127764110827945e-11,7.832096242953405e-12,3.859061692971203e-12,1.8769765908546806e-12,9.619972927391092e-13,4.8880786166964e-13,2.683788518766742e-13,1.5385459138143907e-13,9.104768519545557e-14
0.0,56,56.0,0.0,30.0,0.0,0.0,0.0,0.0,-13.0,0.0,2.0,0.0,0.0,0.0,5.937628382138169e-11,2.5911184239767512e-11,1.1464100673871195e-11,5.21337416971888e-12,2.4699093648514208e-12,1.2118443219591907e-12,6.613828210005453e-13,3.7515901310162135e-13,2.2537649109522362e-13,1.3682608671152257e-13,8.913117854939671e-14,5.731648507103715e-14,3.584619754437876e-14,2.300542895996591e-14,1.3109338999546442e-14,8.165102011109021e-15,4.411386927904261e-15,8.093209654971089e-09,6.4356610982489794e-09,4.7404491218396765e-09,3.144571042130893e-09,1.977267090968758e-09,1.190435759845643e-09,7.123141675400104e-10,4.082021768548247e-10,2.2598277419826797e-10,1.2075081638458698e-10,6.236848924367143e-11,3.180062259617959e-11,1.5811821011957076e-11,7.672420999780772e-12,3.778642593006713e-12,1.8355499892710795e-12,9.399090233266064e-13,4.765900000240444e-13,2.6173897063649566e-13,1.5011495459483528e-13,8.88310563433918e-14
0.0,57,57.0,0.0,30.0,0.0,0.0,0.0,0.0,-13.0,0.0,2.0,0.0,0.0,0.0,5.828434700970013e-11,2.5405759039975727e-11,1.123130320621406e-11,5.103335554366521e-12,2.4164516497947607e-12,1.183915989415385e-12,6.457778306004553e-13,3.661274203616393e-13,2.1988441496126273e-13,1.3355755651387275e-13,8.712552508686355e-14,5.613265647774661e-14,3.5141167372163484e-14,2.259891302610064e-14,1.2878074382118812e-14,8.035549985273776e-15,4.341350738096135e-15,8.115765531084868e-09,6.444800629303966e-09,4.737923823694888e-09,3.134576006014025e-09,1.965466491026901e-09,1.1800202174960721e-09,7.042976225450087e-10,4.026726103165749e-10,2.2246285722030036e-10,1.1867133482787345e-10,6.12179539277145e-11,3.118429383790622e-11,1.5497196095857093e-11,7.514064167422734e-12,3.699240734018321e-12,1.7948656330607215e-12,9.18306115150927e-13,4.64694939389516e-13,2.552923462901571e-13,1.4648954191689062e-13,8.66687855483286e-14
0.0,58,58.0,0.0,30.0,0.0,0.0,0.0,0.0,-13.0,0.0,2.0,0.0,0.0,0.0,5.7189255114199717e-11,2.4901333317684614e-11,1.1000046654199866e-11,4.994547849312502e-12,2.363881888784907e-12,1.1565993545738705e-12,6.305652286515597e-13,3.5734739597295045e-13,2.1454361223828996e-13,1.3037891518875411e-13,8.517172674329265e-14,5.4977908937492474e-14,3.445236596014231e-14,2.2201062518822597e-14,1.2651481247724569e-14,7.908348893430191e-15,4.272526940160709e-15,8.137211705387627e-09,6.452593342156611e-09,4.7341114642647615e-09,3.123583985984774e-09,1.953004479997635e-09,1.1692169459264848e-09,6.960693284484447e-10,3.9704066433397823e-10,2.1890006554330416e-10,1.165767576599871e-10,6.006416122807385e-11,3.056847833588521e-11,1.518400557687645e-11,7.357056684057354e-12,3.6208492938381736e-12,1.754907876450359e-12,8.971733242404728e-13,4.5311217983410627e-13,2.49031967040565e-13,1.4297430149985094e-13,8.455793307515044e-14
0.0,59,59.0,0.0,30.0,0.0,0.0,0.0,0.0,-13.0,0.0,2.0,0.0,0.0,0.0,5.6091568509534214e-11,2.439813311629954e-11,1.0770397553805374e-11,4.887015114550627e-12,2.3121840515689575e-12,1.1298777470546079e-12,6.157320979101684e-13,3.488105332417206e-13,2.0934910886956867e-13,1.2728730700728142e-13,8.326826363258843e-14,5.3851413074344224e-14,3.377937913849517e-14,2.181166103733582e-14,1.2429457286007995e-14,7.78344859644865e-15,4.2048927184507015e-15,8.157405255214994e-09,6.458933340667209e-09,4.728944858218394e-09,3.1115603971226287e-09,1.939865828154784e-09,1.158021280726708e-09,6.876293064294115e-10,3.9130780975908233e-10,2.152959269887062e-10,1.1446814967737592e-10,5.890771891734621e-11,2.995347789879951e-11,1.4872367734680623e-11,7.201431404729278e-12,3.5434631485088354e-12,1.7156624379165319e-12,8.764963573299074e-13,4.418317931828514e-13,2.4295112977392895e-13,1.3956533542770074e-13,8.249578367532462e-14
0.0,60,60.0,0.0,30.0,0.0,0.0,0.0,0.0,-13.0,0.0,2.0,0.0,0.0,0.0,5.499185945210524e-11,2.3896387723917625e-11,1.0542424217572192e-11,4.780743142761952e-12,2.2613435435079204e-12,1.103735535116811e-12,6.012661832662714e-13,3.405087968376176e-13,2.042961367765281e-13,1.2427998006946806e-13,8.141366889638752e-14,5.2752365209108345e-14,3.312180509390978e-14,2.143049790885529e-14,1.2211902895350327e-14,7.660800140486876e-15,4.138425834217817e-15,8.176197849854655e-09,6.463712070017125e-09,4.722355632381477e-09,3.0984703272885193e-09,1.926035460596311e-09,1.146428866540785e-09,6.789778507257366e-10,3.854756843889068e-10,2.1165205093988275e-10,1.1234661052958633e-10,5.774924650546005e-11,2.933959833480044e-11,1.456240255459375e-11,7.0472228303882436e-12,3.4670786844038535e-12,1.6771162809885826e-12,8.562618062237822e-13,4.3084438797131505e-13,2.370434233444123e-13,1.362588912604992e-13,8.047986045944542e-14
0.0,61,61.0,0.0,30.0,0.0,0.0,0.0,0.0,-13.0,0.0,2.0,0.0,0.0,0.0,5.3890711855674236e-11,2.3396329294732726e-11,1.031619643112595e-11,4.675739249974003e-12,2.211347073283434e-12,1.0781580493443443e-12,5.871558526930977e-13,3.3243450292085194e-13,1.9938012466237841e-13,1.2135428189315701e-13,7.960652669212424e-14,5.167998642225541e-14,3.247925394576695e-14,2.1057368006581723e-14,1.1998721099641688e-14,7.540355725603952e-15,4.073104610180844e-15,8.193435854405941e-09,6.466818349457256e-09,4.714274221984512e-09,3.0842785611141252e-09,1.911498508513895e-09,1.1344356969193703e-09,6.701155494291708e-10,3.795461021487125e-10,2.0797013139171173e-10,1.102132753151228e-10,5.658937498543782e-11,2.8727149061480838e-11,1.425423138452029e-11,6.8944668544242216e-12,3.3916936234369915e-12,1.6392575027943821e-12,8.364570864160404e-13,4.2014107627032337e-13,2.3130271277956467e-13,1.3305135395604646e-13,7.850793550550554e-14
0.0,62,62.0,0.0,30.0,0.0,0.0,0.0,0.0,-13.0,0.0,2.0,0.0,0.0,0.0,5.278872102186393e-11,2.28981924731357e-11,1.0091785165248529e-11,4.5720120797589446e-12,2.1621825294850507e-12,1.0531315109664557e-12,5.733900605295269e-13,3.24580300276398e-13,1.9459668924267652e-13,1.18507655175916e-13,7.784547026740817e-14,5.063352166015482e-14,3.185134734299954e-14,2.0692071579504763e-14,1.1789817467370849e-14,7.422068675350976e-15,4.0089079138747036e-15,8.208960428303773e-09,6.468138391132646e-09,4.704629864947386e-09,3.068949611668743e-09,1.8962403669032784e-09,1.1220381566516968e-09,6.610433057365397e-10,3.735210622678902e-10,2.0425194989998908e-10,1.080693150656356e-10,5.542874652315114e-11,2.8116442711091972e-11,1.3947976606125209e-11,6.743200524866549e-12,3.31730686029231e-12,1.6020752297946753e-12,8.170703797180583e-13,4.0971344226947817e-13,2.2572312436584306e-13,1.2993923816250552e-13,7.657803657205183e-14
0.0,63,63.0,0.0,30.0,0.0,0.0,0.0,0.0,-13.0,0.0,2.0,0.0,0.0,0.0,5.1686493320787074e-11,2.2402214018179068e-11,9.869262301489999e-12,4.4695714196763035e-12,2.113838865465416e-12,1.0286429645109543e-12,5.59958312975578e-13,3.169391524099725e-13,1.8994162688135647e-13,1.157376337151271e-13,7.612918011649114e-14,4.9612238882761736e-14,3.1237718081184e-14,2.0334414094721237e-14,1.158510003256733e-14,7.305893406864942e-15,3.945815139137729e-15,8.222607613428913e-09,6.467555803686055e-09,4.693350596005293e-09,3.0524477614408664e-09,1.8802467591091666e-09,1.1092330665841446e-09,6.517623596530587e-10,3.674027584345419e-10,2.0049937841361473e-10,1.0591593710709575e-10,5.4268014086074865e-11,2.750779472857609e-11,1.3643761318195816e-11,6.59346182057761e-12,3.2439183107317556e-12,1.5655595201894522e-12,7.980905806643486e-13,3.9955351251373805e-13,2.2029903156942642e-13,1.2691918087650201e-13,7.468844936430045e-14
