Line_number,Fiducial,Easting,Northing,Height,Elevation,tx_pitch,tx_roll,tx_yaw,txrx_dx,txrx_dy,txrx_dz,rx_pitch,rx_roll,rx_yaw,S0Z_time_1.431e-04,S0Z_time_1.801e-04,S0Z_time_2.266e-04,S0Z_time_2.846e-04,S0Z_time_3.581e-04,S0Z_time_4.506e-04,S0Z_time_5.671e-04,S0Z_time_7.136e-04,S0Z_time_8.981e-04,S0Z_time_1.131e-03,S0Z_time_1.423e-03,S0Z_time_1.791e-03,S0Z_time_2.255e-03,S0Z_time_2.838e-03,S0Z_time_3.573e-03,S0Z_time_4.498e-03,S0Z_time_5.662e-03,S1Z_time_1.409e-05,S1Z_time_1.610e-05,S1Z_time_1.909e-05,S1Z_time_2.360e-05,S1Z_time_2.960e-05,S1Z_time_3.709e-05,S1Z_time_4.609e-05,S1Z_time_5.759e-05,S1Z_time_7.209e-05,S1Z_time_9.060e-05,S1Z_time_1.141e-04,S1Z_time_1.431e-04,S1Z_time_1.801e-04,S1Z_time_2.266e-04,S1Z_time_2.846e-04,S1Z_time_3.581e-04,S1Z_time_4.506e-04,S1Z_time_5.671e-04,S1Z_time_7.136e-04,S1Z_time_8.981e-04,S1Z_time_1.131e-03
0.0,0,0.0,0.0,30.0,0.0,0.0,0.0,0.0,-13.0,0.0,2.0,0.0,0.0,0.0,1.174744344778846e-10,7.500530062527628e-11,4.96862024915373e-11,3.1157667321631994e-11,1.9567057994404603e-11,1.1023619968019674e-11,6.502146792351761e-12,3.1870348313605637e-12,1.682348974804001e-12,8.081019060635582e-13,4.118770922348518e-13,1.8928689331630045e-13,7.946196685985799e-14,4.002218177707987e-14,1.546096057836307e-14,7.126942802460438e-15,3.60919469535788e-15,4.3370379362006876e-09,3.129917837763098e-09,2.0378049644562473e-09,1.2290310995523499e-09,7.952993983779011e-10,4.784476712933873e-10,3.4750671251257207e-10,2.69644402373146e-10,2.0481881792367361e-10,1.5255084336188863e-10,1.1861204632610215e-10,8.644180504408147e-11,5.856360440043074e-11,3.9480627137186705e-11,2.651510007518848e-11,1.5323023058533312e-11,9.838357863591903e-12,5.138508418974292e-12,2.7026471733631683e-12,1.3212889212316817e-12,6.614277447677864e-13
0.0,1,1.0,0.0,30.0,0.0,0.0,0.0,0.0,-13.0,0.0,2.0,0.0,0.0,0.0,1.0866872852842951e-10,7.763506769445918e-11,5.216653741985146e-11,3.503116575095722e-11,2.1683988041406692e-11,1.2179017641575634e-11,7.33825517896497e-12,4.0019319412784124e-12,2.0555223610408157e-12,1.0125368313589225e-12,4.922505128802972e-13,2.424671375704022e-13,1.1664233102453318e-13,5.264053040118827e-14,2.496525223237142e-14,9.977183627348504e-15,3.889541882824658e-15,4.1117392356091496e-09,2.992070672567043e-09,2.079704016038472e-09,1.2873646190507324e-09,7.921043855852301e-10,5.053895899063699e-10,3.3310951041230475e-10,2.3968666805179003e-10,1.8900878122132687e-10,1.500204602975239e-10,1.1466506263810613e-10,8.30955894339259e-11,6.037042522132944e-11,4.053052124035757e-11,2.6524561627197536e-11,1.8223541253080627e-11,1.0426130263369032e-11,6.0439601024407225e-12,3.2116131723508787e-12,1.7247095819978759e-12,7.958536336657809e-13
0.0,2,2.0,0.0,30.0,0.0,0.0,0.0,0.0,-13.0,0.0,2.0,0.0,0.0,0.0,1.040222595814e-10,7.455316775973028e-11,5.226682157200005e-11,3.5038765912824994e-11,2.359683702839114e-11,1.4073372708149605e-11,8.068757473102855e-12,4.664293360082392e-12,2.4033902460416545e-12,1.227482622497821e-12,6.386974741903312e-13,3.18564523403464e-13,1.5030891946213559e-13,6.823890463632444e-14,2.7598337170744197e-14,1.3774791958661012e-14,4.7041529716959e-15,4.344330466218494e-09,3.24588713121301e-09,1.957246463104148e-09,1.2506790253490272e-09,7.787856404874231e-10,4.872978315366353e-10,3.1746353204714423e-10,2.343924366791797e-10,1.7502640308238113e-10,1.3749456675351172e-10,1.0706972687305891e-10,7.977218858069911e-11,5.972988393293113e-11,4.049527707558894e-11,2.9921779209416286e-11,1.9154780989769682e-11,1.0396135290614055e-11,6.32371696995544e-12,3.653063157019636e-12,1.7517279220578606e-12,9.437402460780131e-13
0.0,3,3.0,0.0,30.0,0.0,0.0,0.0,0.0,-13.0,0.0,2.0,0.0,0.0,0.0,1.021665995241608e-10,7.296125267838068e-11,5.442672047570828e-11,3.4685460603445565e-11,2.4367817985649718e-11,1.4500734666937406e-11,8.807073310595841e-12,4.978713816771601e-12,2.872341022685119e-12,1.5064253109398154e-12,7.1289028843541e-13,3.7506925719318185e-13,1.7809039584103214e-13,8.203301955827304e-14,3.8948286535432587e-14,1.7732963773697778e-14,8.444312297290401e-15,4.209158005300759e-09,2.962378855873477e-09,1.962256719874817e-09,1.2724155791764505e-09,7.383962683061966e-10,5.021319742987774e-10,3.324594697955219e-10,2.40493504266071e-10,1.7070951217437743e-10,1.323564525789841e-10,1.0326437962670751e-10,8.077565185679644e-11,6.095623190649234e-11,4.033958141774787e-11,2.815628163660707e-11,1.838950121325763e-11,1.2010921689262392e-11,7.125389085169009e-12,4.239891250913463e-12,2.1112506768956757e-12,1.1067626741560342e-12
0.0,4,4.0,0.0,30.0,0.0,0.0,0.0,0.0,-13.0,0.0,2.0,0.0,0.0,0.0,1.0213343928369668e-10,7.497670314763724e-11,5.392234262449361e-11,3.7552400718452146e-11,2.4610965815917425e-11,1.5085595387349265e-11,8.90094990166493e-12,5.60629290925373e-12,2.9609619303927614e-12,1.6380038397094613e-12,9.033644880644622e-13,4.2747435234492065e-13,2.0745304220805108e-13,1.0407921233746727e-13,4.382983690697731e-14,1.7525290035088724e-14,9.387235777272653e-15,4.056273454988612e-09,3.113317716924297e-09,2.0048434729285823e-09,1.2842920546538376e-09,7.562212447147998e-10,5.197705201065816e-10,3.344226130123025e-10,2.412036728865855e-10,1.7561233774333989e-10,1.369417433222536e-10,1.0103444522179112e-10,8.02144406844109e-11,5.7466657890535577e-11,4.1911152919777815e-11,3.0814502490204165e-11,2.0407405678028628e-11,1.2775106261845843e-11,7.498699125645974e-12,4.302645840447161e-12,2.4150165863389486e-12,1.184017471480066e-12
0.0,5,5.0,0.0,30.0,0.0,0.0,0.0,0.0,-13.0,0.0,2.0,0.0,0.0,0.0,1.0053689630527795e-10,7.067007114267093e-11,5.193359057497672e-11,3.67255782735135e-11,2.5995559309233384e-11,1.663474707787889e-11,9.999893657472096e-12,5.905126228734357e-12,3.380220308905602e-12,1.8316622238300455e-12,9.786446139256924e-13,4.958324465584067e-13,2.558129998950272e-13,1.2362747491505683e-13,5.466518612567014e-14,2.5503020617910034e-14,8.76535146861016e-15,4.246863445339346e-09,2.9846996207936457e-09,1.9067536217793377e-09,1.2412633036294947e-09,7.535064923359868e-10,4.890783656248807e-10,3.3567359020463234e-10,2.453211218890235e-10,1.7109611075996216e-10,1.3186628877373126e-10,9.836101920577604e-11,7.179725291909024e-11,5.5709138924049744e-11,4.0578917539390776e-11,2.9374788937958303e-11,2.0186958351189677e-11,1.2652580805304215e-11,7.97764206995554e-12,4.601192960813326e-12,2.525008204432282e-12,1.3667505100210858e-12
0.0,6,6.0,0.0,30.0,0.0,0.0,0.0,0.0,-13.0,0.0,2.0,0.0,0.0,0.0,1.0159194946220931e-10,6.740531510690506e-11,5.181023874983276e-11,3.3531643458492356e-11,2.4208517549300188e-11,1.661051165881291e-11,1.060723753778695e-11,6.3091864045523465e-12,3.717606216527693e-12,2.0360987589308945e-12,1.09803143130736e-12,5.79516342151222e-13,2.8768461717723393e-13,1.3733480714273259e-13,6.074493100875101e-14,2.6476802430716984e-14,1.273715757074814e-14,4.320354987164397e-09,2.9374963057408145e-09,2.001947937089085e-09,1.2786421635967665e-09,7.421210849115345e-10,4.896468974228656e-10,3.3066437407445507e-10,2.377299614242478e-10,1.7202410666465632e-10,1.2944691868294032e-10,1.0063751928562462e-10,7.519006755541012e-11,5.514711637000134e-11,3.902843857457578e-11,2.8721649201457706e-11,1.990616292797595e-11,1.3600392641025091e-11,8.371434572229778e-12,4.93304434237646e-12,2.717872017571912e-12,1.4837215622313636e-12
0.0,7,7.0,0.0,30.0,0.0,0.0,0.0,0.0,-13.0,0.0,2.0,0.0,0.0,0.0,9.508116888706567e-11,6.95066918286311e-11,4.8820194409761566e-11,3.536014190323765e-11,2.476917290837173e-11,1.6837502710828237e-11,1.0859270902012864e-11,6.672717392978199e-12,3.73937949288899e-12,2.2669839230102687e-12,1.1685283967487377e-12,6.192736084808572e-13,3.0824741608701384e-13,1.535492475965733e-13,7.112059044883165e-14,3.2641335335306634e-14,1.4032071252751328e-14,3.8821427083756955e-09,2.965185612310943e-09,1.9769426556715763e-09,1.2191358885787729e-09,7.793299700521126e-10,4.850669815707141e-10,3.550201608157044e-10,2.4019681242983717e-10,1.6859447339344505e-10,1.2934623358811437e-10,1.0068066709293128e-10,7.493145668449642e-11,5.5951716486003603e-11,4.1272520596635357e-11,2.878098773202202e-11,1.9121220180510055e-11,1.3685593369669343e-11,8.56695765198496e-12,5.08463317367434e-12,2.9315240553362883e-12,1.5423830778339782e-12
0.0,8,8.0,0.0,30.0,0.0,0.0,0.0,0.0,-13.0,0.0,2.0,0.0,0.0,0.0,9.863093548655117e-11,6.894646645831536e-11,4.84490206762082e-11,3.595484596685991e-11,2.3599005317355066e-11,1.715921279403498e-11,1.131571683233462e-11,6.572633727288438e-12,4.072916780857151e-12,2.264158517660846e-12,1.3682827410125472e-12,6.891568136988297e-13,3.4094491133833334e-13,1.7931864013084302e-13,8.284526643452779e-14,3.679463557064308e-14,1.837680888742305e-14,4.34502453221027e-09,3.0804926731528747e-09,1.926067732364545e-09,1.1735611778754942e-09,7.602160623615261e-10,5.122891692162014e-10,3.1669411421818983e-10,2.455343871532202e-10,1.8958420192493084e-10,1.2361048476324006e-10,9.511710438054294e-11,7.309427428764564e-11,4.996507360072128e-11,4.132138735619373e-11,2.869317192549362e-11,1.9655841894154205e-11,1.3493011912055705e-11,8.692761309175923e-12,4.75956949178707e-12,3.004974439667641e-12,1.7194148156780239e-12
0.0,9,9.0,0.0,30.0,0.0,0.0,0.0,0.0,-13.0,0.0,2.0,0.0,0.0,0.0,9.906857850864402e-11,6.808561520216154e-11,4.7762807587579525e-11,3.519844964019445e-11,2.3751597456907603e-11,1.6418501430711944e-11,1.1130268034756083e-11,7.236347124308954e-12,4.308413914115076e-12,2.2479966939325545e-12,1.4031745653171718e-12,6.981952045190317e-13,4.050458653698519e-13,1.9368536311677152e-13,8.862450192664842e-14,4.194587511668895e-14,1.7900554296733617e-14,4.214872154360354e-09,2.9689631876204193e-09,1.940544771696927e-09,1.1802795049157717e-09,7.48113997268995e-10,4.6133273599766965e-10,3.562182800084593e-10,2.582781151062653e-10,1.7484523416202922e-10,1.3077267585642554e-10,1.0014486261628905e-10,6.926738668267372e-11,5.135847996482568e-11,3.854357643016664e-11,2.8865853093662656e-11,2.0072057337402668e-11,1.3097972470708253e-11,8.889386210030092e-12,5.382456347954975e-12,3.1482695321587647e-12,1.7696385795547851e-12
0.0,10,10.0,0.0,30.0,0.0,0.0,0.0,0.0,-13.0,0.0,2.0,0.0,0.0,0.0,1.0145632603562835e-10,6.842678362112133e-11,4.7813466558063945e-11,3.34592297796782e-11,2.5127572922841888e-11,1.6895105119163548e-11,1.1236009478873791e-11,7.41645864172641e-12,4.296642300481738e-12,2.614750875986281e-12,1.4283360635819521e-12,8.341365170258502e-13,4.2886414801394755e-13,2.1147788524612576e-13,9.749375548978773e-14,4.790617733586595e-14,2.0657325613190173e-14,4.068096366230693e-09,2.8321723345344155e-09,1.996346108256048e-09,1.2382721449556663e-09,7.420875884485448e-10,4.869884585264232e-10,3.5848902088242506e-10,2.3435344689317485e-10,1.7925126469921032e-10,1.3328721669255168e-10,9.774114994548261e-11,6.828663799689748e-11,5.3735121955758124e-11,3.874995532234574e-11,2.759114651813301e-11,1.9598114818058263e-11,1.3308740957795388e-11,8.538316294845617e-12,5.57309985867992e-12,3.332350413711772e-12,1.7526574216165084e-12
0.0,11,11.0,0.0,30.0,0.0,0.0,0.0,0.0,-13.0,0.0,2.0,0.0,0.0,0.0,9.547555883986031e-11,6.644562793757915e-11,4.6943377162131484e-11,3.512844011367689e-11,2.3819039647536767e-11,1.716408179629875e-11,1.1090702901882341e-11,7.45551253486282e-12,4.429359005698265e-12,2.736457261846681e-12,1.5043306016335279e-12,8.675158687453611e-13,4.429909845941144e-13,2.3526178726760205e-13,1.0549957460231563e-13,5.366365911453875e-14,2.5518075289160235e-14,3.93520324993029e-09,2.7322615618869877e-09,1.9376557950230433e-09,1.2291043027407577e-09,7.840145712912179e-10,4.726347054176838e-10,3.453237074084032e-10,2.58221203422035e-10,1.7524854967437181e-10,1.306791571746176e-10,9.910382857015061e-11,6.70111587054116e-11,5.3431757371630765e-11,3.767252638477996e-11,2.600814207951852e-11,1.9588128395771474e-11,1.3033996165287544e-11,8.849604370303384e-12,5.762988483134627e-12,3.4714144394722766e-12,1.8700879654606848e-12
0.0,12,12.0,0.0,30.0,0.0,0.0,0.0,0.0,-13.0,0.0,2.0,0.0,0.0,0.0,9.860820135641048e-11,6.667909974409745e-11,4.494532548458737e-11,3.434250317418182e-11,2.375712130598191e-11,1.6260868866677916e-11,1.1349564150106015e-11,7.510530569408862e-12,4.6436867861952516e-12,2.8973763368673056e-12,1.6300611779602426e-12,8.83672080029376e-13,4.740893428937801e-13,2.4057374241803236e-13,1.2502006891428317e-13,6.117368690634614e-14,2.5465719197712494e-14,4.0209311688265005e-09,2.8008279448149055e-09,1.9480635129008125e-09,1.1750180332233928e-09,7.496844273975966e-10,5.103401438215872e-10,3.557365177247225e-10,2.6011922161890906e-10,1.8016323621948403e-10,1.3162575463755055e-10,9.701743931744186e-11,7.423217826418822e-11,5.215462697423132e-11,3.536033622862363e-11,2.6942079148963448e-11,1.9161853589417544e-11,1.270392930478277e-11,8.973317316603843e-12,5.663689952067675e-12,3.2791710610264794e-12,1.797723686868695e-12
0.0,13,13.0,0.0,30.0,0.0,0.0,0.0,0.0,-13.0,0.0,2.0,0.0,0.0,0.0,9.84284518308868e-11,6.739070671783197e-11,5.019932953540046e-11,3.4430545158282796e-11,2.3866538077788558e-11,1.668501910381327e-11,1.1327408146602748e-11,7.7757147660089e-12,4.684920532418794e-12,2.9682728035767034e-12,1.7076900671778158e-12,9.694695521250971e-13,5.140201285458533e-13,2.7357851867429983e-13,1.3098752527193516e-13,6.19529237402655e-14,2.9931068188066556e-14,3.8558486331258105e-09,2.9401742058871138e-09,1.8404213688272242e-09,1.2263340174583616e-09,7.640369940957978e-10,5.058583272277131e-10,3.4190971769487904e-10,2.5081790996541016e-10,1.816048507651405e-10,1.3500554944285843e-10,9.913503311668757e-11,7.24085219917336e-11,4.9955010155023414e-11,3.673118994151302e-11,2.6796758167995975e-11,1.87692999941081e-11,1.318550124212271e-11,8.96684441089115e-12,5.59132229064417e-12,3.263196694922821e-12,1.97332406146737e-12
0.0,14,14.0,0.0,30.0,0.0,0.0,0.0,0.0,-13.0,0.0,2.0,0.0,0.0,0.0,1.0306017496423117e-10,7.124984378463171e-11,5.045238077556629e-11,3.539953380392492e-11,2.3375067088948925e-11,1.740475954870318e-11,1.1374004337285941e-11,7.356231738173261e-12,4.887129832007679e-12,2.9810572371500754e-12,1.7707842306768168e-12,1.0329671570574884e-12,5.33330797383934e-13,2.79005400755681e-13,1.4474561518165702e-13,7.152331764810102e-14,3.368947784441298e-14,4.07552320723612e-09,2.9450716718501994e-09,1.8787849196997425e-09,1.2111966762755713e-09,7.145521962739488e-10,4.888808387971647e-10,3.362846206487474e-10,2.571021996006986e-10,1.9047519284540957e-10,1.3756267776556445e-10,1.0224070358967372e-10,7.415597924015951e-11,5.285656565944645e-11,3.7576239251644655e-11,2.7040662819942823e-11,1.9087923775041178e-11,1.3345962873067486e-11,8.869168325293625e-12,5.762644063701027e-12,3.5102513758972073e-12,1.9986741372690752e-12
0.0,15,15.0,0.0,30.0,0.0,0.0,0.0,0.0,-13.0,0.0,2.0,0.0,0.0,0.0,1.0209102521124238e-10,6.82848953135324e-11,5.1308747319918877e-11,3.336789724080985e-11,2.3503855658282437e-11,1.688577985495281e-11,1.14080771603059e-11,7.832188448024265e-12,5.052296324203475e-12,3.0219046936442412e-12,1.9532131969458458e-12,1.067209193456698e-12,5.499607753632415e-13,3.0679822885188547e-13,1.5901357772163e-13,7.643635639286935e-14,3.4325013688299825e-14,3.876238399276148e-09,2.8500853328008142e-09,1.9932162156658354e-09,1.2369993945379105e-09,7.736252262129467e-10,5.221218533292889e-10,3.558974962600951e-10,2.531953016421315e-10,1.948486579550557e-10,1.3263708734511945e-10,1.0066379361378707e-10,7.076791588246931e-11,5.345464389142313e-11,3.5471777725832854e-11,2.5614015236597098e-11,1.8593606897445665e-11,1.2608323222458654e-11,9.033146725778773e-12,5.5592450459500915e-12,3.253290660310131e-12,2.0780594464393165e-12
0.0,16,16.0,0.0,30.0,0.0,0.0,0.0,0.0,-13.0,0.0,2.0,0.0,0.0,0.0,1.0422443455093774e-10,6.870485170726942e-11,4.8455483366301085e-11,3.4057548906976597e-11,2.2118339740011093e-11,1.5925992629892088e-11,1.1454909894437749e-11,7.270287836240761e-12,4.838937882531162e-12,3.0784535121821737e-12,1.7144879599515492e-12,1.071915097575567e-12,6.307701675419028e-13,3.2293967785912384e-13,1.5777582727051473e-13,8.223699187987959e-14,3.678748364317937e-14,3.81412925043159e-09,2.7981510162958797e-09,1.8040654065960802e-09,1.191309517445221e-09,7.685368419030215e-10,5.288010189368733e-10,3.5969984293354607e-10,2.698054468677752e-10,1.976915735050254e-10,1.3918157627796304e-10,9.832077310454966e-11,7.155802394444361e-11,5.524374239871279e-11,3.556178861639585e-11,2.6092089537991984e-11,1.8318191166518415e-11,1.2786401759011671e-11,8.127130824769069e-12,5.519582332478701e-12,3.324174198311017e-12,2.0913136017045522e-12
0.0,17,17.0,0.0,30.0,0.0,0.0,0.0,0.0,-13.0,0.0,2.0,0.0,0.0,0.0,1.0253101013502323e-10,7.28533723728581e-11,5.1213201197848383e-11,3.425473729449843e-11,2.3085591776591492e-11,1.695503916821634e-11,1.1825051238888346e-11,7.479903581533106e-12,4.894597955247544e-12,3.065571388931972e-12,1.924499126869353e-12,1.0640483159991232e-12,5.758911382429157e-13,3.320420728764613e-13,1.7125788035379036e-13,8.573061945784428e-14,4.18347169909649e-14,3.824887856570288e-09,2.8049045756904848e-09,1.9444732501396548e-09,1.1085780894881147e-09,8.009674602631148e-10,5.002446681440911e-10,3.733145424235428e-10,2.6270576417143393e-10,1.881448742358418e-10,1.3813629842849064e-10,1.0065193191987907e-10,7.32676536384796e-11,5.575867257561738e-11,3.742995387167318e-11,2.6191944743594684e-11,1.7712457175072902e-11,1.2586646488225418e-11,8.457121383619995e-12,5.592939388380987e-12,3.2851006579803794e-12,2.009181401457214e-12
0.0,18,18.0,0.0,30.0,0.0,0.0,0.0,0.0,-13.0,0.0,2.0,0.0,0.0,0.0,1.0715180264299126e-10,7.066576059024034e-11,5.053065542783705e-11,3.3582967816684345e-11,2.3183661736862052e-11,1.6293477497608605e-11,1.1428444656719967e-11,7.968405400964597e-12,5.294367300087775e-12,3.249635208178116e-12,2.002129399406807e-12,1.1633625511975033e-12,6.465579571854231e-13,3.504342981473639e-13,1.8342832189137031e-13,9.227956191724333e-14,4.573742300647038e-14,3.7601502191225366e-09,2.892715532411236e-09,1.903196001242441e-09,1.1113080064125293e-09,7.460509526381607e-10,5.164003260884252e-10,3.637706197977698e-10,2.834747741865394e-10,1.92728765173893e-10,1.4005466589699685e-10,1.0463114568274873e-10,7.893083413876761e-11,5.26837387429267e-11,3.795039604244567e-11,2.7174808608418956e-11,1.83539731353515e-11,1.2147738784965396e-11,8.213176973472568e-12,5.419499302644144e-12,3.477737090527975e-12,2.0390311749165468e-12
0.0,19,19.0,0.0,30.0,0.0,0.0,0.0,0.0,-13.0,0.0,2.0,0.0,0.0,0.0,1.099456444217216e-10,7.256759245389725e-11,4.740277297721318e-11,3.5650892179890334e-11,2.402745048816778e-11,1.7009815544761633e-11,1.0876224380818995e-11,8.032759446874502e-12,5.049745117628274e-12,3.3693977043437028e-12,1.943169399172049e-12,1.2026073362031084e-12,6.409453192408214e-13,3.755154537645442e-13,2.001959990435643e-13,1.0267119350890382e-13,4.6141540148997845e-14,3.649836969080115e-09,2.773677055944115e-09,1.8296911330331956e-09,1.1672805846396042e-09,7.870063230965847e-10,5.39991159170733e-10,3.742251886128702e-10,2.4711586104246454e-10,2.1099931442714653e-10,1.5460938655999757e-10,1.0519222379383699e-10,7.109123212074128e-11,5.494962701059617e-11,3.979042378017096e-11,2.7806936813075785e-11,1.8574676178513048e-11,1.2681935807460172e-11,7.97006922634075e-12,5.65295028236989e-12,3.737527095294501e-12,2.0799459873289363e-12
0.0,20,20.0,0.0,30.0,0.0,0.0,0.0,0.0,-13.0,0.0,2.0,0.0,0.0,0.0,1.0766852963040228e-10,7.599187846640974e-11,5.022466805130358e-11,3.384481449297708e-11,2.3042700432695154e-11,1.6602896220579e-11,1.128505323081641e-11,7.80424700064585e-12,5.290100096824278e-12,3.3120747755257625e-12,2.0021896267425676e-12,1.1598145773882495e-12,7.438523968963204e-13,3.805078529084163e-13,1.989425163521429e-13,9.851061702553212e-14,4.483997872250881e-14,3.769168507651867e-09,2.824278179854305e-09,1.9140121075147137e-09,1.1652241331637423e-09,7.785921604791709e-10,4.883517177351633e-10,3.6220787603153504e-10,2.796038721680935e-10,2.0171235142130003e-10,1.510212623750913e-10,1.1001639119119122e-10,7.713558369817092e-11,5.3916606792519824e-11,3.9213817308317724e-11,2.6154590808632708e-11,1.795004588657504e-11,1.2849570844526976e-11,8.366072042223126e-12,5.2216200390288884e-12,3.296263678158474e-12,2.0699300077745707e-12
0.0,21,21.0,0.0,30.0,0.0,0.0,0.0,0.0,-13.0,0.0,2.0,0.0,0.0,0.0,1.1429990501333385e-10,7.361725252133004e-11,5.284108320049963e-11,3.6114084229631035e-11,2.3862513962059383e-11,1.5758223447617674e-11,1.1075767849581392e-11,7.644492840709443e-12,5.002700946420584e-12,3.2746424440454318e-12,1.9412364067241696e-12,1.2359864928275079e-12,7.145547612076247e-13,3.866081277190759e-13,1.9689858969148328e-13,1.0415973561026456e-13,5.274159311123809e-14,3.680790830852574e-09,2.7723362729207442e-09,1.7897857358182828e-09,1.1111179737829044e-09,8.011688068990894e-10,5.223031819788356e-10,3.535017275844408e-10,2.9450776390833146e-10,1.9699380317264178e-10,1.4187345864570064e-10,1.0566508161833901e-10,7.850136015007394e-11,5.352652148815213e-11,3.7930420834076806e-11,2.7504777740311255e-11,1.831001985298101e-11,1.2777533102839234e-11,8.341917773579957e-12,5.400127468279186e-12,3.494315083887658e-12,2.177733451150564e-12
0.0,22,22.0,0.0,30.0,0.0,0.0,0.0,0.0,-13.0,0.0,2.0,0.0,0.0,0.0,1.1410789875830442e-10,7.607238654788613e-11,5.087822091224681e-11,3.305453848280498e-11,2.5691844384711582e-11,1.652944669900303e-11,1.1074252890212868e-11,7.232681697726261e-12,5.065719333741914e-12,3.3271575729659604e-12,2.11609929401038e-12,1.2385491794425911e-12,6.943476059765275e-13,3.9796689408428047e-13,2.1944034861797476e-13,1.084381903100288e-13,4.825269776825436e-14,3.785104718159376e-09,2.7594764095416344e-09,1.8427694232104018e-09,1.148101114456612e-09,7.574719787569925e-10,5.16625657884379e-10,3.7066209543000727e-10,2.7973407212223186e-10,1.9741803883315386e-10,1.4817164642111131e-10,1.096596114914288e-10,7.671831849582989e-11,5.737232843682616e-11,3.937468751149267e-11,2.7048725644287932e-11,1.9103349428325054e-11,1.2695434446553953e-11,8.092081564197734e-12,5.05317871373159e-12,3.2698398462220432e-12,2.1053546089751006e-12
0.0,23,23.0,0.0,30.0,0.0,0.0,0.0,0.0,-13.0,0.0,2.0,0.0,0.0,0.0,1.1631992736344178e-10,7.642486053788106e-11,5.225412276328371e-11,3.7821154998331195e-11,2.4862329996874475e-11,1.5912095906974934e-11,1.0966676469569406e-11,7.405540011213377e-12,5.064814706441176e-12,3.3027981671434004e-12,2.1592991072131783e-12,1.2369414902338075e-12,7.015146821955153e-13,4.037761664138149e-13,2.2474836400886835e-13,1.1236613836767297e-13,5.704859968582662e-14,3.797205294101694e-09,2.6900759048677704e-09,1.7948785125960506e-09,1.1457043889778041e-09,7.732662769280751e-10,5.134739729081679e-10,3.767321981290346e-10,2.7210301029863644e-10,2.0371155924820685e-10,1.517979910148425e-10,1.1139425361770848e-10,8.544854143136893e-11,5.7580513368058035e-11,4.080866479907266e-11,2.6776616882392787e-11,1.904663297362606e-11,1.2512482076824817e-11,8.528760326447154e-12,5.224621734367164e-12,3.2458263212983183e-12,1.9860220507210733e-12
0.0,24,24.0,0.0,30.0,0.0,0.0,0.0,0.0,-13.0,0.0,2.0,0.0,0.0,0.0,1.0889791169656809e-10,7.680318442011401e-11,5.5002861793760203e-11,3.681468669494167e-11,2.506882044298088e-11,1.6413736797862035e-11,1.1477133281883004e-11,7.950139639085089e-12,4.786775873487136e-12,3.201244868497223e-12,2.1767395564118966e-12,1.2856555935933225e-12,7.343144099117581e-13,4.259546281684106e-13,2.3161749511058386e-13,1.1665316115997763e-13,5.971204274943281e-14,3.6734526589808525e-09,2.8098979205132038e-09,1.8569014726005055e-09,1.1640157460398463e-09,7.652782458188276e-10,5.330882018315146e-10,3.9011957268151863e-10,2.8937563366643635e-10,2.0464105635290425e-10,1.563379770257283e-10,1.1045301099733697e-10,8.195553930739687e-11,5.669853139005421e-11,4.171723856794797e-11,2.8283537205570064e-11,1.9328256182386796e-11,1.2458082851056982e-11,8.218823543951122e-12,5.323356337177332e-12,3.4568079944057183e-12,1.9887741516121356e-12
0.0,25,25.0,0.0,30.0,0.0,0.0,0.0,0.0,-13.0,0.0,2.0,0.0,0.0,0.0,1.1567222630018567e-10,7.737161404786121e-11,5.3966900158263526e-11,3.7295885090664345e-11,2.4378846798944098e-11,1.731726539751399e-11,1.1933546370399534e-11,7.918379365236392e-12,5.165066151531093e-12,3.3469810445646638e-12,2.086783112551596e-12,1.2594247556517923e-12,7.932437856819648e-13,4.091853929239053e-13,2.3235370477676294e-13,1.2697483875564987e-13,6.276468934482319e-14,3.2200695403164165e-09,2.5730697783342244e-09,1.84124930111972e-09,1.1412973076955563e-09,7.712146859955245e-10,5.543347705596641e-10,3.849556442416962e-10,2.750081769497085e-10,2.2900350968856671e-10,1.5431115416847871e-10,1.080018851045674e-10,8.063005273600582e-11,5.984029868536025e-11,4.141950839863184e-11,2.6479952706394023e-11,1.9287277523020227e-11,1.2446784581504605e-11,8.237937960511925e-12,5.425756810570662e-12,3.2492570998822538e-12,2.0679716489092948e-12
0.0,26,26.0,0.0,30.0,0.0,0.0,0.0,0.0,-13.0,0.0,2.0,0.0,0.0,0.0,1.1344351186977432e-10,8.133701637623443e-11,5.340707460380606e-11,3.9305882527398673e-11,2.5048844578573446e-11,1.8125650760976562e-11,1.1239520647385454e-11,7.35096418779216e-12,4.75350865723057e-12,3.4380297098561137e-12,2.1010294109359792e-12,1.3574110541818396e-12,7.708855335257523e-13,4.659965817878023e-13,2.4091387317159813e-13,1.251147600877144e-13,6.751874453219696e-14,3.6084311974416574e-09,2.716393772639284e-09,1.772220689464467e-09,1.183374506117405e-09,7.923899924227446e-10,5.52885931573981e-10,4.067698389500386e-10,3.108941859238035e-10,2.16009910924747e-10,1.5606445870750265e-10,1.2265665633720879e-10,8.362011650229799e-11,6.110365257888125e-11,3.988298647740549e-11,2.8522651917242013e-11,1.805550638779233e-11,1.2936000104634383e-11,8.236045623535346e-12,5.178962609210008e-12,3.3376121570997792e-12,2.0573713923948123e-12
0.0,27,27.0,0.0,30.0,0.0,0.0,0.0,0.0,-13.0,0.0,2.0,0.0,0.0,0.0,1.2020346998072505e-10,8.122583131842922e-11,5.486679851176951e-11,3.689311180336325e-11,2.532118191090545e-11,1.7343974606373635e-11,1.153350741670892e-11,7.7230148397472e-12,5.0800359174100685e-12,3.3585360071423694e-12,2.1311874825736516e-12,1.3177924288179446e-12,8.13111081715089e-13,4.658068325504596e-13,2.49490996194746e-13,1.3431833671709304e-13,6.527937691371737e-14,3.5846555764932857e-09,2.584519803832308e-09,1.7866737953827113e-09,1.2076599076925985e-09,7.526047399237439e-10,4.853199030106769e-10,3.913407509575183e-10,3.145429765466116e-10,2.2204242953375198e-10,1.6610345361118403e-10,1.198029672821303e-10,8.744389313109858e-11,6.136867064113024e-11,4.1480313528709215e-11,2.973438061405313e-11,2.0143294025975497e-11,1.3158547787553796e-11,8.501061728762387e-12,5.438453115469441e-12,3.307552633626314e-12,2.06104027059146e-12
0.0,28,28.0,0.0,30.0,0.0,0.0,0.0,0.0,-13.0,0.0,2.0,0.0,0.0,0.0,1.130365236024156e-10,7.853761561716229e-11,5.7345766947328984e-11,3.5335744033257924e-11,2.6551955879912788e-11,1.774024698955136e-11,1.1647517088377671e-11,7.777415428830025e-12,5.061002470218627e-12,3.2606998421915753e-12,2.1937298773885435e-12,1.327921079909579e-12,7.485914448462255e-13,4.308947797612801e-13,2.512916727020501e-13,1.32280890773522e-13,7.026278461403196e-14,3.676144047354425e-09,2.5969931087322503e-09,1.7556346868196062e-09,1.135464403220177e-09,7.979749843115956e-10,5.562456856685228e-10,4.22579193527513e-10,2.991413889733549e-10,2.0544103694758665e-10,1.6469833477536063e-10,1.1272584285511142e-10,9.067022461143274e-11,6.285982778123523e-11,4.35661534280858e-11,2.948265150393101e-11,1.925435816378507e-11,1.3708198975351399e-11,8.678689809216308e-12,5.450685135006393e-12,3.2643587554706605e-12,1.9146413249917952e-12
0.0,29,29.0,0.0,30.0,0.0,0.0,0.0,0.0,-13.0,0.0,2.0,0.0,0.0,0.0,1.186738510972962e-10,8.184968362625032e-11,5.819639023238964e-11,3.814832555573424e-11,2.6397862674345744e-11,1.682828320856562e-11,1.1196300415500944e-11,7.602924947134766e-12,4.9950640647300376e-12,3.3759002188074354e-12,2.110418731971932e-12,1.3382958586163968e-12,8.267952040476736e-13,4.4397812021424566e-13,2.58769340822373e-13,1.316987817038276e-13,7.148722910970927e-14,3.565227075746227e-09,2.5668219006763924e-09,1.8187192465011797e-09,1.1036319510312544e-09,7.896036116632051e-10,5.56652406795659e-10,4.196835512498841e-10,3.042752376345808e-10,2.122108896041793e-10,1.6297483801745033e-10,1.2519353312897315e-10,9.104153793556802e-11,6.087217379442555e-11,4.180649897487784e-11,3.025380491282878e-11,1.940406725406777e-11,1.300213722761858e-11,8.322868202767042e-12,5.0905783803346685e-12,3.3252609524674055e-12,2.013830764428772e-12
0.0,30,30.0,0.0,30.0,0.0,0.0,0.0,0.0,-13.0,0.0,2.0,0.0,0.0,0.0,1.1663719589142834e-10,8.400454899981723e-11,5.45776095560623e-11,3.8414677315273065e-11,2.467797609976418e-11,1.7760058074287323e-11,1.1841177684574323e-11,7.130156653371609e-12,5.242137371514216e-12,3.408241628873886e-12,2.104145296985292e-12,1.3263086571100292e-12,8.342312094212448e-13,5.013591052380057e-13,2.753758015408608e-13,1.396212340141454e-13,6.910008163964941e-14,3.4082476264784767e-09,2.527997964739835e-09,1.727423709836753e-09,1.1044218672748115e-09,7.855800041338681e-10,5.534481442667365e-10,4.103640215499492e-10,3.009121348442803e-10,2.2131088795896218e-10,1.591239829999989e-10,1.2119353040196638e-10,8.804144717055346e-11,6.290744103332726e-11,4.526721220802161e-11,3.104717616404571e-11,2.0617364612871285e-11,1.3409892657357038e-11,8.515512165760864e-12,5.05457754212158e-12,3.262901047793579e-12,2.006509820051749e-12
0.0,31,31.0,0.0,30.0,0.0,0.0,0.0,0.0,-13.0,0.0,2.0,0.0,0.0,0.0,1.1956326397705447e-10,8.302440282882702e-11,5.75635634624368e-11,3.883067022622744e-11,2.6134923196228127e-11,1.7982630815262602e-11,1.1064135335147574e-11,7.725685183477829e-12,5.223873123786839e-12,3.3819099714513924e-12,2.0670733835368625e-12,1.3726805669256345e-12,8.537665457469906e-13,4.623845350605793e-13,2.7087094498626876e-13,1.4703399243677011e-13,7.429448671743113e-14,3.50556937225099e-09,2.5355377407964053e-09,1.803556856744993e-09,1.1058716113611993e-09,7.951900042991842e-10,5.709830039562273e-10,4.2913207961606015e-10,3.277760976723658e-10,2.2789703794621955e-10,1.6532499317810539e-10,1.2383326843835775e-10,8.68162497072674e-11,6.174159372316359e-11,4.657932869237578e-11,3.059454280722509e-11,2.047389115570187e-11,1.2936123590685516e-11,8.389176971762989e-12,5.3241285835847924e-12,3.186009035371079e-12,2.063832523084262e-12
0.0,32,32.0,0.0,30.0,0.0,0.0,0.0,0.0,-13.0,0.0,2.0,0.0,0.0,0.0,1.222532301823802e-10,7.88902087058987e-11,6.222667098557685e-11,3.9801368925499335e-11,2.5869588540493685e-11,1.773563170838354e-11,1.2202526294945886e-11,7.457387338138886e-12,5.134727268794939e-12,3.36149182503877e-12,2.246544739411719e-12,1.2976677601674959e-12,8.607872742426034e-13,4.816136365538564e-13,2.7719210684188025e-13,1.4471045903333168e-13,7.481771918491768e-14,3.4718052892079648e-09,2.631201538478236e-09,1.8296950253880133e-09,1.1223970982045427e-09,8.224860427740269e-10,5.60826577818252e-10,4.1377416911795397e-10,3.0088990483538255e-10,2.2652009504455512e-10,1.7747726274157225e-10,1.2210047468214134e-10,9.076747890368994e-11,6.757875858387307e-11,4.652458932192016e-11,3.0312167444743874e-11,2.0392794934815807e-11,1.2558662710716022e-11,8.002036469372091e-12,5.2709862553207615e-12,3.23612108132954e-12,1.966143210063799e-12
0.0,33,33.0,0.0,30.0,0.0,0.0,0.0,0.0,-13.0,0.0,2.0,0.0,0.0,0.0,1.3170745443097223e-10,8.714070396182938e-11,6.014805456976841e-11,3.960993714630948e-11,2.6828571255807603e-11,1.715296382215426e-11,1.1544094350862226e-11,8.437971424286269e-12,5.064170966796969e-12,3.3007635270793986e-12,2.1351306561941114e-12,1.426497539189422e-12,8.233225547086053e-13,4.837306538237479e-13,2.6443633606056966e-13,1.5390674358770949e-13,7.582409990224326e-14,3.4157920934110015e-09,2.5538222086186265e-09,1.8134096461091096e-09,1.2045487078196212e-09,8.194193944739743e-10,5.990225056167135e-10,4.513449425988027e-10,3.23884519463392e-10,2.432497392415443e-10,1.7826124346088062e-10,1.2798612829274796e-10,9.272951189235627e-11,6.387773389783952e-11,4.5576173164817443e-11,3.054011301161944e-11,2.0000206018369062e-11,1.3477433069222515e-11,8.340850888145413e-12,5.43415509958029e-12,3.1149123064207183e-12,1.965144817738224e-12
0.0,34,34.0,0.0,30.0,0.0,0.0,0.0,0.0,-13.0,0.0,2.0,0.0,0.0,0.0,1.2609612619874633e-10,8.912885907788456e-11,5.898816298547705e-11,4.109630622493636e-11,2.6597525876923603e-11,1.764618045618291e-11,1.2244327398935813e-11,7.84026723561564e-12,5.0620079983513376e-12,3.2390651172599998e-12,2.1064282745611966e-12,1.3504207458745365e-12,7.960598086916591e-13,4.845990030926378e-13,2.881822033508642e-13,1.5313665431409354e-13,8.197622241091774e-14,3.5418414733651705e-09,2.5382288839605145e-09,1.7697774504484157e-09,1.1253743956580659e-09,8.016841236819507e-10,5.854919948860594e-10,4.299245623648164e-10,3.3229899676089697e-10,2.380480103301701e-10,1.8125707859554461e-10,1.2575497086277822e-10,8.793956349127023e-11,6.498714619536404e-11,4.449236474858483e-11,3.07260172325114e-11,1.982612161670403e-11,1.3848312179236945e-11,9.11018616396681e-12,5.323383063868258e-12,3.1444790298334488e-12,2.0151020699165653e-12
0.0,35,35.0,0.0,30.0,0.0,0.0,0.0,0.0,-13.0,0.0,2.0,0.0,0.0,0.0,1.272291963417274e-10,8.793498760876254e-11,6.16613278512657e-11,4.174281810968288e-11,2.7698303981286378e-11,1.842252482199289e-11,1.1809849755595308e-11,7.861314326965639e-12,4.994657229035508e-12,3.440921002102911e-12,2.0448576470061632e-12,1.3753239009988138e-12,8.21899046546034e-13,5.03298353840103e-13,2.8209131251019654e-13,1.5718421860722173e-13,8.690723253359292e-14,3.3827399183906526e-09,2.4839712271916535e-09,1.6797715284456386e-09,1.2624985716437665e-09,8.174560898488535e-10,5.688094284346251e-10,4.369371681467241e-10,3.249076762382863e-10,2.4822364887370237e-10,1.7362103317080976e-10,1.2691777589770562e-10,9.21145958912709e-11,6.372137744785452e-11,4.653913687288753e-11,3.176011524151376e-11,2.2272909893601665e-11,1.359268957695359e-11,8.452269170665867e-12,5.595818280490394e-12,3.291579422324717e-12,1.9510742559916166e-12
0.0,36,36.0,0.0,30.0,0.0,0.0,0.0,0.0,-13.0,0.0,2.0,0.0,0.0,0.0,1.3408684290367106e-10,9.041678161204976e-11,6.34040228263129e-11,3.957078102758361e-11,2.8127699344509352e-11,1.8422952855378386e-11,1.2260110542179745e-11,8.032263978243481e-12,4.998669135985449e-12,3.2041789943408996e-12,2.3418053394263888e-12,1.3479358959283091e-12,8.538631463011459e-13,5.085633489391125e-13,2.9741737972559535e-13,1.5808669602895296e-13,8.19005176052702e-14,3.433434722447386e-09,2.504445287894539e-09,1.865529503154205e-09,1.1363504036808154e-09,8.789434610966262e-10,5.961858285245807e-10,4.459867822190469e-10,3.2580035332600185e-10,2.4778888820932054e-10,1.8962513979475388e-10,1.3291543605220703e-10,9.409888659754586e-11,6.889325252107176e-11,4.5069103430763996e-11,3.11485037913934e-11,2.2337234140461947e-11,1.4446025285124545e-11,8.700084350353282e-12,5.458795649927332e-12,3.1862546836942502e-12,1.9326131408536996e-12
0.0,37,37.0,0.0,30.0,0.0,0.0,0.0,0.0,-13.0,0.0,2.0,0.0,0.0,0.0,1.3286613528295998e-10,9.326010841549771e-11,6.185086697448019e-11,4.094505910627361e-11,2.8777969182304087e-11,1.837920781292142e-11,1.2286806965069307e-11,8.036661708997629e-12,5.145482233880915e-12,3.3896534844997983e-12,2.3136167166741708e-12,1.3905978091019028e-12,8.552893894551979e-13,4.725011229091971e-13,2.992812577429722e-13,1.667121181789669e-13,8.570491296297131e-14,3.465355083660631e-09,2.4804201096894337e-09,1.7257645990447109e-09,1.2496374370782355e-09,8.145620369904456e-10,6.043493158266584e-10,4.43332799924047e-10,3.373100803366202e-10,2.350400969163818e-10,1.8847161655756181e-10,1.3139226741040545e-10,9.580820193653601e-11,6.918807147724021e-11,4.705028194088324e-11,3.241466768868059e-11,2.221700872367612e-11,1.4040100299928823e-11,8.707121590690965e-12,5.446467690686669e-12,3.4695358716371685e-12,2.054464012033048e-12
0.0,38,38.0,0.0,30.0,0.0,0.0,0.0,0.0,-13.0,0.0,2.0,0.0,0.0,0.0,1.3277707674596967e-10,9.70330757143072e-11,6.457121964560347e-11,4.226446961788968e-11,2.7328557464153287e-11,1.9654275903193548e-11,1.341612515634309e-11,7.892327983091592e-12,5.23951707556332e-12,3.3004762416771514e-12,2.1492140497719322e-12,1.4378394859072988e-12,8.315697170772781e-13,5.223917716887457e-13,2.953164663050202e-13,1.6508104196735824e-13,8.774443465082858e-14,3.4265833077274115e-09,2.565153596395438e-09,1.747849022336207e-09,1.1945364340977656e-09,8.419890822040312e-10,6.077942478174296e-10,4.429949968640479e-10,3.478291438173974e-10,2.653222698035442e-10,1.817921134892861e-10,1.3520777233550127e-10,9.851461388624712e-11,6.976566634070984e-11,4.8081214321335654e-11,3.37734219719574e-11,2.18072455145131e-11,1.3505020504812294e-11,9.108904061282757e-12,5.482859543141885e-12,3.4693130498571312e-12,1.9357950472766915e-12
0.0,39,39.0,0.0,30.0,0.0,0.0,0.0,0.0,-13.0,0.0,2.0,0.0,0.0,0.0,1.4477414298257482e-10,9.203148240648768e-11,6.380506718831453e-11,4.290510832743007e-11,2.788421148039057e-11,1.869502248006877e-11,1.2967234084842138e-11,8.627991528373215e-12,5.4027772524803755e-12,3.4023779743669685e-12,2.146656595866635e-12,1.3979563597997484e-12,8.797179070690105e-13,5.071164999438073e-13,3.1412474814488364e-13,1.6861793429288159e-13,8.748789173642475e-14,3.327214082093686e-09,2.398847942654245e-09,1.7441181901506093e-09,1.16489169702018e-09,8.606168672060244e-10,6.429738443875294e-10,4.695384024255621e-10,3.5691144663583604e-10,2.78993224418634e-10,1.9570829057383602e-10,1.3655506431199225e-10,9.954212964832508e-11,6.973082698410011e-11,4.802391686758133e-11,3.433433708661723e-11,2.1759669548872956e-11,1.4659991292340297e-11,9.260737721517157e-12,5.634729553858109e-12,3.3746792191177287e-12,2.0256152721830737e-12
0.0,40,40.0,0.0,30.0,0.0,0.0,0.0,0.0,-13.0,0.0,2.0,0.0,0.0,0.0,1.3207962742277767e-10,9.516609569784433e-11,5.925238104316632e-11,4.325926934393495e-11,2.9292716247996555e-11,2.0560870741754497e-11,1.2895753760880784e-11,7.89895055001239e-12,5.203782180289435e-12,3.421243635165544e-12,2.202358871566461e-12,1.4166648926648898e-12,8.781903540424728e-13,4.943644213072785e-13,2.9869919523543247e-13,1.7401072806400643e-13,8.942868553382989e-14,3.343719768605861e-09,2.4756595184153867e-09,1.7786857014040378e-09,1.2282970729784507e-09,8.522302162470086e-10,6.076044023702296e-10,4.688772103683594e-10,3.4131165441057856e-10,2.6160489180947473e-10,1.9149228774953925e-10,1.397978149266186e-10,9.907346997711473e-11,7.114831789897419e-11,4.919988161777536e-11,3.401994109234405e-11,2.173551470861453e-11,1.527648660212172e-11,9.195473620503328e-12,5.9533882998015556e-12,3.522019507067388e-12,2.00538786938199e-12
0.0,41,41.0,0.0,30.0,0.0,0.0,0.0,0.0,-13.0,0.0,2.0,0.0,0.0,0.0,1.386563115404259e-10,9.742842735657338e-11,6.316114334215305e-11,4.327964536638096e-11,2.9126656435052763e-11,2.011526439375419e-11,1.2751602568866535e-11,8.60277783912678e-12,5.587914895390841e-12,3.351142501370621e-12,2.0190674111220463e-12,1.3948213698051132e-12,8.597585425638497e-13,5.103684522828951e-13,3.1549963652113354e-13,1.5953233939236275e-13,9.273181171629364e-14,3.162350218537575e-09,2.493376610350065e-09,1.7230665904284724e-09,1.2744213840564916e-09,8.356560711313852e-10,6.171025442413796e-10,4.4942972370185416e-10,3.615185760161369e-10,2.7307547801387693e-10,1.8869741826980127e-10,1.4462018881400388e-10,1.0274314129444494e-10,7.247259518235631e-11,5.043066334860753e-11,3.395752504389067e-11,2.233882285707313e-11,1.475962567201606e-11,9.349792893174988e-12,5.673368903265739e-12,3.4737973662824906e-12,2.0110670449862145e-12
0.0,42,42.0,0.0,30.0,0.0,0.0,0.0,0.0,-13.0,0.0,2.0,0.0,0.0,0.0,1.4234182698727264e-10,9.467586373862362e-11,6.401197579036335e-11,4.465388897267433e-11,2.8993594514497037e-11,1.9877504153844834e-11,1.3252583376141064e-11,8.24103755366777e-12,5.535254591141648e-12,3.4977078157861272e-12,2.289766995944584e-12,1.4165836622467477e-12,8.801169864577685e-13,5.10881975694818e-13,3.104675334557521e-13,1.664399699793527e-13,9.256434419909519e-14,3.2588808613206533e-09,2.294474722835955e-09,1.7187088458756357e-09,1.2087162148720717e-09,8.50761099587823e-10,6.345434024226862e-10,4.977443378649667e-10,3.5168966745290677e-10,2.768125482474313e-10,1.9048933561556911e-10,1.402310234023807e-10,1.0469322716828042e-10,7.066905672404936e-11,4.874055529741496e-11,3.4307336034162226e-11,2.2830548330514302e-11,1.5424263021520017e-11,9.339372890112316e-12,5.7118222830242795e-12,3.691179766656667e-12,2.1066366404532174e-12
0.0,43,43.0,0.0,30.0,0.0,0.0,0.0,0.0,-13.0,0.0,2.0,0.0,0.0,0.0,1.4948785097989866e-10,9.354076955765912e-11,6.714796786039837e-11,4.429150091385458e-11,2.9661292540661224e-11,1.948873095796837e-11,1.2819816935539122e-11,8.246334868855797e-12,5.317436182505269e-12,3.414465065476077e-12,2.2183080001382285e-12,1.3401788387816594e-12,8.14494721455756e-13,5.407788702530559e-13,3.102522572642795e-13,1.6861839686793585e-13,9.045151687290414e-14,3.0849420619466298e-09,2.4896439695951755e-09,1.7424054929133894e-09,1.2469567430425835e-09,8.657628749039204e-10,6.229972332141539e-10,5.161477274388026e-10,3.761428906980257e-10,2.74742238397653e-10,1.9827012438383737e-10,1.4017625913734638e-10,1.0418537372577396e-10,8.037790740427204e-11,5.246375145358833e-11,3.601595059328359e-11,2.4242603379711695e-11,1.4254073030607455e-11,9.400374270725893e-12,5.726352202085599e-12,3.4586682738986216e-12,1.9640028784171156e-12
0.0,44,44.0,0.0,30.0,0.0,0.0,0.0,0.0,-13.0,0.0,2.0,0.0,0.0,0.0,1.464130909231014e-10,9.744721575755696e-11,6.764273464664073e-11,4.486913813140275e-11,3.1209300872506424e-11,2.065096325502782e-11,1.3529927568972818e-11,8.908409711790952e-12,5.365618680958258e-12,3.689333243759203e-12,2.393731132990517e-12,1.341012508491683e-12,8.509634190555713e-13,5.114590546731559e-13,3.1181771112191207e-13,1.717615969002016e-13,9.44847785986568e-14,3.1008200936187326e-09,2.3877711854073684e-09,1.7613475424501134e-09,1.2251770208455534e-09,8.389697540067669e-10,6.186329102844734e-10,4.871008358792962e-10,3.561012677486323e-10,2.648258809588904e-10,2.047889105021006e-10,1.4261073060546437e-10,1.0006034069510098e-10,6.861628813285681e-11,5.2803299804514377e-11,3.632675982298423e-11,2.353781655204708e-11,1.5286873965897487e-11,1.0020464966071127e-11,5.898828805119045e-12,3.5724057608909658e-12,2.0763680668514148e-12
0.0,45,45.0,0.0,30.0,0.0,0.0,0.0,0.0,-13.0,0.0,2.0,0.0,0.0,0.0,1.4304837061705085e-10,1.005352738926424e-10,6.818151487544837e-11,4.531454648092652e-11,3.055846237364143e-11,2.0818094201820008e-11,1.1980582901368253e-11,8.324221480602632e-12,5.7457947508436905e-12,3.1756578086257382e-12,2.07755037458505e-12,1.4147350722793386e-12,8.492114806776378e-13,5.497021315177313e-13,3.062722284197581e-13,1.7736124205389147e-13,9.849976595884091e-14,3.2020321301080378e-09,2.5631495289966133e-09,1.8103591109720488e-09,1.2140049090955627e-09,8.887461013487172e-10,6.917155924760696e-10,4.98084624813336e-10,3.9104936555514973e-10,2.797465786698217e-10,2.0469909267439882e-10,1.4695053247144354e-10,1.0779928801441653e-10,7.525001531121231e-11,5.104025105627059e-11,3.487284675811172e-11,2.303043053560722e-11,1.5199348044051948e-11,9.682059265560593e-12,6.020357267735342e-12,3.71835788300887e-12,2.0971516012705837e-12
0.0,46,46.0,0.0,30.0,0.0,0.0,0.0,0.0,-13.0,0.0,2.0,0.0,0.0,0.0,1.484526182942745e-10,1.0061268075664878e-10,7.191352241199443e-11,4.5625388026687756e-11,3.0358003828440916e-11,2.004914851560856e-11,1.269471728199234e-11,8.412217140516507e-12,5.7025933144527215e-12,3.3613222762915147e-12,2.2499255653444384e-12,1.4298772636097032e-12,8.538492882060933e-13,5.209968510880293e-13,2.996811260107847e-13,1.8113568042993992e-13,1.0032748701899526e-13,3.2004891320552895e-09,2.561357912886635e-09,1.852195231372342e-09,1.290471920772842e-09,8.61240221126587e-10,6.77073366757474e-10,5.040828320813242e-10,3.928528135696262e-10,2.855236033519427e-10,2.0106158957883223e-10,1.5208814182138882e-10,1.1137109941901786e-10,7.601508187805087e-11,5.346128314369413e-11,3.8566113020410114e-11,2.338216973757932e-11,1.4946968510265168e-11,9.582925799304843e-12,5.453791611207812e-12,3.5517797606578105e-12,2.0778111706166365e-12
0.0,47,47.0,0.0,30.0,0.0,0.0,0.0,0.0,-13.0,0.0,2.0,0.0,0.0,0.0,1.539743394518151e-10,1.024360950676774e-10,7.12770601926742e-11,4.866788740591791e-11,2.894315746531306e-11,2.0487743040686834e-11,1.3413876774820933e-11,8.477335282377874e-12,5.431372058067032e-12,3.4741238054888037e-12,2.3138447939047053e-12,1.395727410825704e-12,8.285677698736179e-13,5.12035460651015e-13,3.077042802266979e-13,1.8194991179531992e-13,9.584565959024394e-14,3.1643859643319327e-09,2.400658541903597e-09,1.7570593976519816e-09,1.2404491354231202e-09,9.332348793530504e-10,6.751919077159661e-10,4.868309042088926e-10,3.7506718653519945e-10,2.977889293767192e-10,2.0626648533768427e-10,1.6016696989225988e-10,1.045845014224638e-10,8.076463809959909e-11,5.594237281633271e-11,3.6496625728227394e-11,2.3546600158211373e-11,1.5607507588866922e-11,9.725085434315379e-12,6.025460985117362e-12,3.5672473416418555e-12,2.0843107900436827e-12
0.0,48,48.0,0.0,30.0,0.0,0.0,0.0,0.0,-13.0,0.0,2.0,0.0,0.0,0.0,1.5608912654942494e-10,1.004437765428894e-10,7.329409335322739e-11,4.670997817187486e-11,3.134477681910878e-11,2.1110157275368906e-11,1.387165852876165e-11,8.672010965183359e-12,5.53305869592057e-12,3.651391082541344e-12,2.202056778952068e-12,1.3474324500886627e-12,7.963706910397214e-13,5.553717343960554e-13,3.170881203737708e-13,1.7024166210485772e-13,9.90822947016044e-14,3.2498990629846174e-09,2.3754886039192876e-09,1.8055092288245792e-09,1.241303392325454e-09,8.809878976351053e-10,6.77171704978209e-10,4.987792401924423e-10,4.091273895671428e-10,2.7732423976353687e-10,2.1243753696261507e-10,1.4973118514313269e-10,1.1090425375187116e-10,7.873967908815065e-11,5.5868315683186136e-11,3.753169180486954e-11,2.3370233617947385e-11,1.6204052010151835e-11,9.847150614565361e-12,5.902494898614165e-12,3.835061834916319e-12,2.190687835824926e-12
0.0,49,49.0,0.0,30.0,0.0,0.0,0.0,0.0,-13.0,0.0,2.0,0.0,0.0,0.0,1.6206665514355787e-10,1.0615727768736106e-10,7.240283904017056e-11,4.837873241905385e-11,3.264977091811791e-11,1.9705268642091358e-11,1.3799119164043665e-11,8.58821279268499e-12,5.556197989452e-12,3.5088283844357235e-12,2.081474221085511e-12,1.4103835277786775e-12,9.007463046937895e-13,5.230246654693237e-13,3.1546779786681667e-13,1.8623003182629732e-13,9.639993986814736e-14,3.0621857111284153e-09,2.4055189515484964e-09,1.8260679530282371e-09,1.2472977513822003e-09,9.478951555960453e-10,6.664051246617315e-10,5.499467370913049e-10,4.1550520557695066e-10,3.002644715021473e-10,2.153970283253885e-10,1.5802225290583956e-10,1.1636629816531828e-10,7.963414251495255e-11,5.606121632505366e-11,3.702915866427982e-11,2.428306999594409e-11,1.6582497453724237e-11,1.0271092878224386e-11,6.492263842655629e-12,3.780550871729999e-12,2.1780773186916618e-12
0.0,50,50.0,0.0,30.0,0.0,0.0,0.0,0.0,-13.0,0.0,2.0,0.0,0.0,0.0,1.6272879089909976e-10,1.038141782149307e-10,7.035592251567059e-11,4.836786174705091e-11,3.103496364985435e-11,2.1608942692785725e-11,1.4105875002975416e-11,8.979588343129944e-12,5.798418180251547e-12,3.6517554071236055e-12,2.354327804651973e-12,1.3836857425137892e-12,8.461747832108122e-13,5.106520937781847e-13,3.3462835846698906e-13,1.8236268317291099e-13,8.972788175367262e-14,3.031540226053942e-09,2.45239033709012e-09,1.6939968835468887e-09,1.3617339311282652e-09,9.635052759736388e-10,6.895004948011936e-10,5.170612565901972e-10,4.1861026672487714e-10,3.055765672293484e-10,2.1996729838237762e-10,1.573313251510271e-10,1.2113841774676322e-10,8.499423630361227e-11,5.845898384689472e-11,3.803611783713569e-11,2.6061718428901527e-11,1.591559036114906e-11,9.761097031950782e-12,6.27626528707818e-12,3.762359313512714e-12,2.172602283978241e-12
0.0,51,51.0,0.0,30.0,0.0,0.0,0.0,0.0,-13.0,0.0,2.0,0.0,0.0,0.0,1.4908630747975415e-10,1.0716016199560143e-10,7.0377787547153e-11,5.052635016278748e-11,3.182022576889864e-11,2.0741400400866528e-11,1.3302616312148857e-11,8.878590752759513e-12,5.697080415567729e-12,3.768779484948765e-12,2.2293906982124745e-12,1.3714801290079494e-12,8.645231846362718e-13,5.408454290360619e-13,3.132771477817641e-13,1.823614096762066e-13,9.717036355608351e-14,3.0496742746460196e-09,2.4601607702095545e-09,1.807675126788343e-09,1.3534472867450952e-09,9.342553822201928e-10,7.153477572853082e-10,5.500523503533448e-10,4.1413437098596116e-10,3.16978615615732e-10,2.1966796999803e-10,1.7215922021036704e-10,1.1745312163714024e-10,8.815342019692714e-11,5.676612831456934e-11,3.863329019254394e-11,2.4981415466284842e-11,1.6483919404601032e-11,1.0500340504611834e-11,6.493838087245722e-12,3.912400699200823e-12,2.2535448377253252e-12
0.0,52,52.0,0.0,30.0,0.0,0.0,0.0,0.0,-13.0,0.0,2.0,0.0,0.0,0.0,1.506974851836462e-10,1.1291232612090556e-10,7.132315072726029e-11,4.781271981836039e-11,3.1165939018107315e-11,2.1590698674153533e-11,1.4403593701500095e-11,9.335455133519743e-12,5.775042395696397e-12,3.768867768349656e-12,2.0750554226512696e-12,1.2928918469628646e-12,8.817312458786932e-13,5.457883951235742e-13,3.196408938469104e-13,1.7331273163022475e-13,1.066968301048639e-13,3.1856396452634154e-09,2.318295845665968e-09,1.8591188031699426e-09,1.3594311403863068e-09,1.0306648398347522e-09,6.842742761227215e-10,5.500847518788086e-10,4.05023305544684e-10,2.8002873155444726e-10,2.345663285189772e-10,1.626714257892814e-10,1.1228803913299977e-10,7.884988047271463e-11,5.5978531769093084e-11,3.6943222950978934e-11,2.5703499098051967e-11,1.5779680251593096e-11,1.061204538815594e-11,6.315747843869727e-12,3.708837887488055e-12,2.214084311798752e-12
0.0,53,53.0,0.0,30.0,0.0,0.0,0.0,0.0,-13.0,0.0,2.0,0.0,0.0,0.0,1.5912971902758182e-10,1.1025628383681111e-10,7.447681685774481e-11,5.104382201140011e-11,3.555870741784221e-11,2.1880933578459014e-11,1.4235603845427492e-11,8.568901393870858e-12,5.8276699750173045e-12,3.7547738051840244e-12,2.244669673472867e-12,1.3983164655365766e-12,8.425981754565779e-13,5.06459729721181e-13,3.1631133731662986e-13,1.8673689156383323e-13,9.981470388530648e-14,3.0383492201254186e-09,2.3374960261462844e-09,1.890186947936838e-09,1.3969355419359272e-09,1.0003760663962715e-09,7.584962243716329e-10,5.561905348696912e-10,4.0495934470722174e-10,3.114824594419536e-10,2.362242597382069e-10,1.682319295232683e-10,1.2145708707649298e-10,8.208958587769099e-11,5.840247427794449e-11,4.0102270567816006e-11,2.539976904457413e-11,1.6431159416015127e-11,1.0540410894035724e-11,6.0690729464796875e-12,3.825836459977186e-12,2.1426079500719945e-12
0.0,54,54.0,0.0,30.0,0.0,0.0,0.0,0.0,-13.0,0.0,2.0,0.0,0.0,0.0,1.7177419529229985e-10,1.1484222625903377e-10,7.682307238044145e-11,5.2068287982788253e-11,3.3582419835943825e-11,2.224056105691704e-11,1.4683622415554128e-11,8.871396719377334e-12,5.992885213824295e-12,3.683107798986316e-12,2.2592643376002677e-12,1.424111402413564e-12,8.965311259209074e-13,5.39029964718472e-13,3.2345191034884315e-13,1.761301355383266e-13,1.0341482610005756e-13,3.0026833289645936e-09,2.4176048645990818e-09,1.8664428742054117e-09,1.3364857247093071e-09,1.0312928938152644e-09,7.727054143325514e-10,5.637793504600271e-10,4.3482136929631963e-10,3.2120706065419926e-10,2.453712453020594e-10,1.7441044208575247e-10,1.2684164347459798e-10,8.399944755209668e-11,5.842301527567736e-11,3.8406088092070375e-11,2.4489760999841684e-11,1.6668825783711162e-11,1.0224789886081882e-11,6.6860976017664226e-12,3.759402889687897e-12,2.109659858679195e-12
0.0,55,55.0,0.0,30.0,0.0,0.0,0.0,0.0,-13.0,0.0,2.0,0.0,0.0,0.0,1.805060163569206e-10,1.1041989393011258e-10,7.501237910516914e-11,5.395140405714953e-11,3.373657892257106e-11,2.1268226780173067e-11,1.407105519024528e-11,9.214093970293011e-12,5.771635982322629e-12,3.5638382810501324e-12,2.3145445139104546e-12,1.4203716684961972e-12,8.558148115609722e-13,5.20381537509909e-13,3.2788956884398853e-13,1.8460636976360832e-13,1.0176263604494652e-13,3.067936971050428e-09,2.3650084040799015e-09,1.8730212141967207e-09,1.370097787077108e-09,1.029839614549581e-09,7.671562875229739e-10,5.754671109668067e-10,4.187413328226667e-10,3.2436407207871996e-10,2.5344996915885555e-10,1.73211027978683e-10,1.245783103013631e-10,8.284733575623364e-11,6.126849431661892e-11,3.9452332549185745e-11,2.7082109155762136e-11,1.694184286186788e-11,1.0766348346596372e-11,6.948775651283316e-12,3.920551987412037e-12,2.3070476602470716e-12
0.0,56,56.0,0.0,30.0,0.0,0.0,0.0,0.0,-13.0,0.0,2.0,0.0,0.0,0.0,1.6636867124022023e-10,1.1746366362576087e-10,7.706853925489473e-11,5.028479638345194e-11,3.5656709042584825e-11,2.2464092503032958e-11,1.4417316228175961e-11,9.604921245350197e-12,5.8940435555847105e-12,3.5986199396257437e-12,2.341899570712857e-12,1.437473610885115e-12,8.221450367878906e-13,5.187602322868303e-13,3.152038837659849e-13,1.8584776002551546e-13,1.0184020506766009e-13,3.127810592432677e-09,2.30558174416504e-09,1.8751789899267382e-09,1.342934206154674e-09,1.0112386376900306e-09,7.688600515969509e-10,5.887155928855891e-10,4.493270201369388e-10,3.208491662049866e-10,2.338336283353008e-10,1.7205731426687722e-10,1.3023433086957445e-10,8.750192169788741e-11,6.044611369053573e-11,3.8273706228961805e-11,2.621159200181663e-11,1.7557498379834234e-11,1.0715970679279816e-11,6.9476184944634824e-12,4.038796248585716e-12,2.2724915766752345e-12
0.0,57,57.0,0.0,30.0,0.0,0.0,0.0,0.0,-13.0,0.0,2.0,0.0,0.0,0.0,1.714309761118461e-10,1.1281387554952969e-10,7.942030165594787e-11,5.2559410323981655e-11,3.421157791327102e-11,2.2994136488525822e-11,1.3712181119743532e-11,9.301517326094037e-12,5.7723503469886824e-12,3.756078696367765e-12,2.3025369165082004e-12,1.4168842815992905e-12,8.877428311093248e-13,5.344346840750145e-13,3.169374815475341e-13,1.8337188332407534e-13,1.052438157298569e-13,2.9913938650771446e-09,2.5380060066793606e-09,1.998132493989937e-09,1.3917020516341384e-09,1.0702393192059514e-09,7.970597155141805e-10,6.122441145925652e-10,4.582240026763851e-10,3.180506809257397e-10,2.458341885389171e-10,1.8249687458941748e-10,1.313894916416351e-10,8.815579126049557e-11,6.358687400069305e-11,4.125006622643284e-11,2.7384063295033275e-11,1.7560881392108914e-11,1.1018943071737673e-11,6.752432922289765e-12,4.1247857321043435e-12,2.3951361566471237e-12
0.0,58,58.0,0.0,30.0,0.0,0.0,0.0,0.0,-13.0,0.0,2.0,0.0,0.0,0.0,1.7049056456512347e-10,1.2226685718647287e-10,8.063420642341288e-11,5.344479413256767e-11,3.5480340971780966e-11,2.2399245732457445e-11,1.5081154052284537e-11,9.470524252039118e-12,5.966414671157123e-12,3.678319655804203e-12,2.4136365830490246e-12,1.453995271772118e-12,8.549658210744588e-13,5.474611239222402e-13,3.203845756204524e-13,1.845805862449887e-13,1.0706472718881592e-13,3.034355727614567e-09,2.394950561509396e-09,1.9816618706765715e-09,1.344847492850214e-09,1.0542020577133037e-09,7.702315324695385e-10,5.898564292409253e-10,4.5040031892134634e-10,3.332691331859486e-10,2.4596251351849133e-10,1.873590788696239e-10,1.2991065187389312e-10,9.356806421384775e-11,6.262031327727762e-11,4.415160852602133e-11,2.784205623288739e-11,1.7719093750294512e-11,1.1570031685277013e-11,6.885026885362521e-12,4.087077295355132e-12,2.413918423044709e-12
0.0,59,59.0,0.0,30.0,0.0,0.0,0.0,0.0,-13.0,0.0,2.0,0.0,0.0,0.0,1.757888800491725e-10,1.2222490040653278e-10,7.987023192870224e-11,5.257233998355692e-11,3.58766415947734e-11,2.279485688084896e-11,1.4308161501852247e-11,9.264789709288301e-12,6.257013243491377e-12,3.6609895945784065e-12,2.273165443961188e-12,1.455484368900894e-12,8.786574651843052e-13,5.109313793429125e-13,3.1739887103727465e-13,1.825364673483975e-13,1.0187348667198273e-13,3.1044933977417222e-09,2.4393642835652897e-09,1.867550946143532e-09,1.5172353569603057e-09,1.149370191398151e-09,8.205826835484133e-10,6.345714184033585e-10,4.5981311941179764e-10,3.4758885800623253e-10,2.579690540064851e-10,1.8758065107952637e-10,1.3260116375877173e-10,9.496655273027874e-11,6.215215110127996e-11,4.232483189857762e-11,2.700654008540626e-11,1.781103918221893e-11,1.1152725667323563e-11,6.512494416105655e-12,3.932689510783219e-12,2.27430119502154e-12
0.0,60,60.0,0.0,30.0,0.0,0.0,0.0,0.0,-13.0,0.0,2.0,0.0,0.0,0.0,1.8120830010150787e-10,1.2199512257689425e-10,8.238111642775625e-11,5.617070468263083e-11,3.5544064787794544e-11,2.278200226227226e-11,1.484533439069854e-11,9.4697082098876e-12,5.978454662693194e-12,3.938279566944784e-12,2.441171351298818e-12,1.464794404024959e-12,9.39292369479281e-13,5.343554560863854e-13,2.9823867489831256e-13,1.8978549724417655e-13,1.0227878148303153e-13,3.054546914761242e-09,2.695795548032439e-09,2.0317093771053835e-09,1.4095573741677732e-09,1.0973271253927142e-09,8.166781938267372e-10,6.273859203618024e-10,4.702937282168314e-10,3.5270097573432585e-10,2.552435039113603e-10,1.7640354298919427e-10,1.3714443138734465e-10,8.942896517056272e-11,6.341966004131247e-11,4.180328426048798e-11,2.8454262672929595e-11,1.8268914684350624e-11,1.0941230207988672e-11,7.037135529611878e-12,4.1160810169315645e-12,2.410221136474522e-12
0.0,61,61.0,0.0,30.0,0.0,0.0,0.0,0.0,-13.0,0.0,2.0,0.0,0.0,0.0,1.9082163958615516e-10,1.2364865783637959e-10,8.45772960618533e-11,5.7435902652449485e-11,3.30481679363828e-11,2.2973117806025674e-11,1.636609846949276e-11,1.0025177484181217e-11,6.048204569049423e-12,3.8126581018795076e-12,2.4005276151341436e-12,1.4685216952874435e-12,8.596492064500901e-13,5.36446935933397e-13,3.2528395688557204e-13,1.8451261647926728e-13,1.0578065298085134e-13,3.1489672000645e-09,2.5950922344242253e-09,1.9811472140836857e-09,1.3876515480291669e-09,1.1062611447888833e-09,8.533970759101495e-10,6.536297517052331e-10,4.902121674926548e-10,3.7104913734693065e-10,2.592612528833992e-10,1.849232200754536e-10,1.2992334049201508e-10,9.759506811811686e-11,6.099180773480105e-11,4.440734198584498e-11,2.8149073474444652e-11,1.7609927772099626e-11,1.1526728157348438e-11,6.939680052829482e-12,4.068081516346263e-12,2.25198255594487e-12
0.0,62,62.0,0.0,30.0,0.0,0.0,0.0,0.0,-13.0,0.0,2.0,0.0,0.0,0.0,1.89527677642982e-10,1.293162434650212e-10,8.658934248777294e-11,5.5208174641115266e-11,3.659161186822564e-11,2.333973292684303e-11,1.6275800642296175e-11,9.223122953659447e-12,5.856424426810822e-12,3.8655866009078585e-12,2.5043301236155365e-12,1.4231864301236382e-12,8.950870408524846e-13,5.234909655569482e-13,3.2014305684732344e-13,1.8689447104914602e-13,1.0493167571699493e-13,3.117845039581718e-09,2.5308440863007657e-09,1.9375036708383517e-09,1.5338727486192406e-09,1.1211272542764807e-09,8.422760725777814e-10,6.632593731780822e-10,4.6270483940898666e-10,3.570306851637483e-10,2.684325008495831e-10,1.8795387793549698e-10,1.3707245939744418e-10,9.608697457254922e-11,6.493214038219148e-11,4.470168714932487e-11,2.808966130599377e-11,1.8603489397627133e-11,1.1176976815435421e-11,7.078781748754014e-12,4.1530452566782896e-12,2.4006876149072496e-12
0.0,63,63.0,0.0,30.0,0.0,0.0,0.0,0.0,-13.0,0.0,2.0,0.0,0.0,0.0,1.9489710121228951e-10,1.2948154960665435e-10,8.675031084629865e-11,5.371274494486169e-11,3.520768878587901e-11,2.4046016576045384e-11,1.5591688517101536e-11,1.0065471505086405e-11,6.172305658966135e-12,3.668542284575066e-12,2.368758713682219e-12,1.424477808712233e-12,8.882801361106397e-13,5.306433418091758e-13,3.301732973105174e-13,1.916160589847391e-13,1.0392406268657468e-13,3.1736804617496526e-09,2.6683618752421317e-09,1.986812077210163e-09,1.5455432668103067e-09,1.1723998998983291e-09,8.605904625474884e-10,6.619639973782888e-10,4.5010069730403335e-10,3.78087850802226e-10,2.7158615090927917e-10,1.8724059296298312e-10,1.3180910728721636e-10,9.259567867471722e-11,6.12203257237619e-11,4.4214025584964576e-11,3.074739537182417e-11,1.7697339027377426e-11,1.1560885658360373e-11,6.920532192408756e-12,4.136135738059876e-12,2.4350735818153084e-12
