Line_number,Fiducial,Easting,Northing,Height,Elevation,tx_pitch,tx_roll,tx_yaw,txrx_dx,txrx_dy,txrx_dz,rx_pitch,rx_roll,rx_yaw,S0Z_time_1.431e-04,S0Z_time_1.801e-04,S0Z_time_2.266e-04,S0Z_time_2.846e-04,S0Z_time_3.581e-04,S0Z_time_4.506e-04,S0Z_time_5.671e-04,S0Z_time_7.136e-04,S0Z_time_8.981e-04,S0Z_time_1.131e-03,S0Z_time_1.423e-03,S0Z_time_1.791e-03,S0Z_time_2.255e-03,S0Z_time_2.838e-03,S0Z_time_3.573e-03,S0Z_time_4.498e-03,S0Z_time_5.662e-03,S1Z_time_1.409e-05,S1Z_time_1.610e-05,S1Z_time_1.909e-05,S1Z_time_2.360e-05,S1Z_time_2.960e-05,S1Z_time_3.709e-05,S1Z_time_4.609e-05,S1Z_time_5.759e-05,S1Z_time_7.209e-05,S1Z_time_9.060e-05,S1Z_time_1.141e-04,S1Z_time_1.431e-04,S1Z_time_1.801e-04,S1Z_time_2.266e-04,S1Z_time_2.846e-04,S1Z_time_3.581e-04,S1Z_time_4.506e-04,S1Z_time_5.671e-04,S1Z_time_7.136e-04,S1Z_time_8.981e-04,S1Z_time_1.131e-03
0.0,0,0.0,0.0,30.0,0.0,0.0,0.0,0.0,-13.0,0.0,2.0,0.0,0.0,0.0,1.0452435138293971e-10,6.079091140959698e-11,3.072505834061621e-11,1.725853728554007e-11,1.0163286174234275e-11,5.855628409348485e-12,3.299333056691708e-12,1.9166342603340148e-12,1.1393900786897747e-12,6.150436125892814e-13,3.674752594767203e-13,2.1405596895204416e-13,1.231618235522905e-13,7.225119693427442e-14,4.052919669711933e-14,2.1032321332384105e-14,1.1850511122341848e-14,7.1967541882242445e-09,5.739582491002221e-09,4.157227670259192e-09,2.9635423713644298e-09,1.8365818953385044e-09,1.2978559035584878e-09,8.324459132799382e-10,5.27447634445189e-10,3.2850984279547316e-10,1.9325013613454375e-10,1.1861752058990969e-10,6.919681506491253e-11,3.8291088474373165e-11,2.2745381927580863e-11,1.2877606271500873e-11,7.980869155876938e-12,4.492094499111327e-12,2.5751095343364753e-12,1.427754079063105e-12,8.098331945467875e-13,4.585541349905684e-13
0.0,1,1.0,0.0,30.0,0.0,0.0,0.0,0.0,-13.0,0.0,2.0,0.0,0.0,0.0,1.1042212699043889e-10,5.83341380795237e-11,3.102633656496371e-11,1.7440713004107305e-11,9.440816671362106e-12,5.707126014494457e-12,3.1439097332988086e-12,1.9044298600720073e-12,1.0206717284167248e-12,5.884812016780105e-13,3.7197116549727405e-13,2.0968836284932016e-13,1.1662350814429231e-13,7.141002352985657e-14,3.477837541290778e-14,2.1917792442206595e-14,1.1338650997997892e-14,7.434488690527043e-09,5.831621001119215e-09,4.298431262599444e-09,2.794553794398563e-09,2.026479454836064e-09,1.315333103652806e-09,8.19628060678995e-10,5.2323449994668e-10,3.160932483800231e-10,1.959276823969486e-10,1.1247495187221793e-10,6.595389730605226e-11,3.681662281758123e-11,2.2581211738326744e-11,1.3477773454442385e-11,7.517520562229995e-12,4.2268763597525396e-12,2.427990549101589e-12,1.3566728694603613e-12,7.670371720381608e-13,4.173533540250381e-13
0.0,2,2.0,0.0,30.0,0.0,0.0,0.0,0.0,-13.0,0.0,2.0,0.0,0.0,0.0,1.062138292145304e-10,5.777725687545152e-11,2.7918958166680427e-11,1.6049033126073185e-11,8.99663283944442e-12,4.943174370477272e-12,3.001549704071907e-12,1.8387961707390307e-12,1.066894524639074e-12,6.101795236923994e-13,3.303299243727391e-13,2.019943142435279e-13,1.1786994852204532e-13,6.759323148051416e-14,3.749348798606109e-14,2.2030196793197063e-14,8.279447002307408e-15,6.575596340262238e-09,5.773832439189142e-09,4.2208767960188565e-09,2.9356923532094684e-09,1.973820108701996e-09,1.3239947572348047e-09,7.749493096076875e-10,5.356154695733423e-10,3.462763772038675e-10,1.9295093759761916e-10,1.0524812043165959e-10,6.697801402533189e-11,3.583475349790582e-11,2.1120900126847174e-11,1.2374565950964165e-11,6.8791737317193054e-12,4.097985801468733e-12,2.39054749975771e-12,1.3865506583548263e-12,7.456944747863667e-13,4.3602315688924814e-13
0.0,3,3.0,0.0,30.0,0.0,0.0,0.0,0.0,-13.0,0.0,2.0,0.0,0.0,0.0,1.0728939541735265e-10,5.3629275547458084e-11,2.743966614725375e-11,1.5875755049974682e-11,8.82293711879137e-12,5.077619941747836e-12,2.9244581632180667e-12,1.680690825052887e-12,1.02694599997511e-12,5.919575209888334e-13,3.6026074917967296e-13,1.9885972087768394e-13,1.1198982629932295e-13,6.783667720172234e-14,3.597028615749892e-14,2.1186496231351527e-14,1.3644390578077624e-14,6.73102255093731e-09,5.487937927108454e-09,4.3951956060735556e-09,2.7722842460315753e-09,1.995560930452242e-09,1.255452484414855e-09,8.44547832180741e-10,5.414755530600965e-10,3.1343512905398173e-10,2.0182638484220771e-10,1.1106168164940364e-10,6.417462523475992e-11,3.5012526076884236e-11,2.0411159217652184e-11,1.2616779733034107e-11,6.74261058174917e-12,4.068015756162547e-12,2.2513860097723383e-12,1.2918378505256533e-12,7.387742499645824e-13,3.9316714004586906e-13
0.0,4,4.0,0.0,30.0,0.0,0.0,0.0,0.0,-13.0,0.0,2.0,0.0,0.0,0.0,1.0555700266845078e-10,5.3682058902018856e-11,2.801815246344386e-11,1.5403042722967437e-11,8.425610869130996e-12,4.629570647582176e-12,2.829034999601774e-12,1.69225081790831e-12,9.925618976850602e-13,5.584953948548348e-13,3.265169114011454e-13,1.9236310185082088e-13,1.1288587257339997e-13,6.670080220690657e-14,3.5652868767610816e-14,1.9397531126499647e-14,1.0432461924753055e-14,7.323026253404393e-09,5.666857127656349e-09,4.230597358621576e-09,2.8752870580044735e-09,1.9861716436153916e-09,1.3742240211159328e-09,8.3197807524184e-10,5.444287819072549e-10,3.327473844782708e-10,1.8997954011615952e-10,1.1539965259515379e-10,6.464952263781193e-11,3.557647281188122e-11,2.122935792726779e-11,1.2194624137677761e-11,6.764238493494904e-12,3.6232253090121023e-12,2.2562933598020913e-12,1.2391321499148521e-12,6.884259596218985e-13,3.876472771317181e-13
0.0,5,5.0,0.0,30.0,0.0,0.0,0.0,0.0,-13.0,0.0,2.0,0.0,0.0,0.0,1.037629776284057e-10,5.164131602066034e-11,2.733134839033596e-11,1.4851194994754474e-11,8.120647782864383e-12,4.995662574240427e-12,2.7574840528245177e-12,1.6238416779374474e-12,9.795891418583655e-13,5.672918823773005e-13,3.329454053854545e-13,1.8217410604346952e-13,1.0223458405301272e-13,6.768945615777912e-14,3.647279539686435e-14,1.990858790815989e-14,1.0021407859675142e-14,7.048530135995742e-09,5.500195568136614e-09,4.2529344019171845e-09,2.9760478884093794e-09,2.0087833935613738e-09,1.3632541597210064e-09,8.661591721949146e-10,5.372063191684429e-10,3.1905246587553254e-10,1.8599823498387939e-10,1.1490979482593805e-10,6.240689305661514e-11,3.427039125620728e-11,1.982649308688063e-11,1.2056938359680068e-11,6.283912321871438e-12,3.6622060532628185e-12,2.190540226400661e-12,1.2365735091311123e-12,6.612526431551382e-13,3.7208994477182913e-13
0.0,6,6.0,0.0,30.0,0.0,0.0,0.0,0.0,-13.0,0.0,2.0,0.0,0.0,0.0,9.92224726532636e-11,5.2048668732726885e-11,2.6963680610488264e-11,1.4753878760348794e-11,8.002919786972196e-12,4.480567526988637e-12,2.6753757120240414e-12,1.6018562716348278e-12,8.928505372262105e-13,5.125376680997933e-13,3.1049814067229154e-13,1.7878987461979933e-13,1.0398900510459886e-13,6.414319476016873e-14,3.295837821538252e-14,1.9272345399632732e-14,8.230830523655042e-15,7.298755439886917e-09,5.8405648683240724e-09,4.485544721175547e-09,3.0364408418688197e-09,2.0180012954836326e-09,1.3144592698669437e-09,8.819484008105195e-10,5.358733291964845e-10,3.271864296122639e-10,1.9079128112482585e-10,1.0560410116682825e-10,6.333555520548472e-11,3.3927585090756474e-11,1.8731478764299738e-11,1.1322687815005801e-11,6.3852038806843194e-12,3.542917539393242e-12,1.997162560115977e-12,1.1466495491987444e-12,6.547263331544345e-13,3.7850687603207557e-13
0.0,7,7.0,0.0,30.0,0.0,0.0,0.0,0.0,-13.0,0.0,2.0,0.0,0.0,0.0,1.0639206955752968e-10,5.0942948147778365e-11,2.6229341524366373e-11,1.3715655970854957e-11,7.789561944722086e-12,4.151245637580896e-12,2.698128031108337e-12,1.5226564881859614e-12,9.079215300407717e-13,5.13504818243139e-13,3.096139556031911e-13,1.7631988839149927e-13,1.0167700593483891e-13,5.951207205830816e-14,3.626507437058171e-14,2.044641525256242e-14,1.0106781806979565e-14,6.618775997882108e-09,6.127535465613998e-09,4.274708402963935e-09,2.882251320992561e-09,1.9982302425587247e-09,1.2454560750198678e-09,8.982428823135462e-10,5.57900577182673e-10,3.435989929926376e-10,1.9737488417347054e-10,1.0987590206510987e-10,5.918130924874934e-11,3.377973361087446e-11,1.9142053613578222e-11,1.0560624284034605e-11,6.1319184950714365e-12,3.3653148929133243e-12,1.9746195263138714e-12,1.0933002249989106e-12,6.269639619045002e-13,3.238042212948128e-13
0.0,8,8.0,0.0,30.0,0.0,0.0,0.0,0.0,-13.0,0.0,2.0,0.0,0.0,0.0,1.0312262542729064e-10,5.14318859526522e-11,2.523086269273425e-11,1.3875910371296204e-11,8.003053514715062e-12,4.171074855681393e-12,2.3162273622323725e-12,1.5045701182063353e-12,8.54822890212637e-13,4.841893917352806e-13,3.0293239199816674e-13,1.6441462365337192e-13,1.0472216446945194e-13,5.864963118496339e-14,3.15295580897584e-14,1.804648582532893e-14,1.1425175910241653e-14,7.116564016606667e-09,5.520988949540517e-09,4.3720164386060855e-09,2.943542132237555e-09,2.0161994870600456e-09,1.297832378216719e-09,8.490258604918093e-10,5.684683498250389e-10,3.3748937277528176e-10,1.8846292635257342e-10,1.0793979867751035e-10,5.88619752686169e-11,3.1791226239785505e-11,1.8585991160439984e-11,9.998933792660106e-12,5.616267079564278e-12,3.2337382993428124e-12,1.9102906193679093e-12,1.1018363060052591e-12,5.988608270432673e-13,3.3494541613063417e-13
0.0,9,9.0,0.0,30.0,0.0,0.0,0.0,0.0,-13.0,0.0,2.0,0.0,0.0,0.0,1.0049914293855243e-10,4.804853793239705e-11,2.5067559973775018e-11,1.343579095615782e-11,7.240399546771534e-12,4.067797286158314e-12,2.375349974920303e-12,1.416911545754851e-12,8.648170103057362e-13,5.123593342381132e-13,2.9164833862191704e-13,1.8065333196781884e-13,1.0142770751373182e-13,5.828521839888808e-14,3.1927944401526516e-14,1.6994094180118724e-14,1.1291293274962813e-14,6.939820888601045e-09,5.519904626269432e-09,4.338483277319989e-09,3.0697053163012064e-09,2.0281675704825137e-09,1.3596563965619211e-09,8.310869136836116e-10,5.541871789275482e-10,3.2733561990513604e-10,1.9184680460531602e-10,1.0693166222884221e-10,5.796522838799905e-11,3.280137903330034e-11,1.83341839722757e-11,9.901930366156454e-12,5.756560814246545e-12,3.1651658759635963e-12,1.7794391100080021e-12,1.0151902716823135e-12,6.066555271034784e-13,3.2546132997695124e-13
0.0,10,10.0,0.0,30.0,0.0,0.0,0.0,0.0,-13.0,0.0,2.0,0.0,0.0,0.0,1.0164822807777296e-10,4.9678185120116146e-11,2.5775875416785667e-11,1.3707517652203055e-11,6.831815197533643e-12,3.995540662873318e-12,2.294943625469005e-12,1.3184050900951936e-12,7.996043133242426e-13,4.623278033638591e-13,2.887686355497619e-13,1.7085779061354385e-13,9.6181063776624e-14,5.636298684625965e-14,3.08573669763097e-14,1.8170723639258643e-14,8.570311309720922e-15,6.825468214901988e-09,5.6425546341981354e-09,4.329839168079782e-09,2.9369067134507208e-09,2.081348421412375e-09,1.3115143289572053e-09,8.318856013184565e-10,5.41152889099681e-10,3.1931764188339717e-10,1.898527525174341e-10,1.1376484495880558e-10,5.635241002755589e-11,3.2527660897468685e-11,1.7871521523367317e-11,9.951378832550067e-12,5.533180330924e-12,3.065322349151089e-12,1.7844983538934313e-12,9.777419786688675e-13,5.520494053337749e-13,3.0854894475791723e-13
0.0,11,11.0,0.0,30.0,0.0,0.0,0.0,0.0,-13.0,0.0,2.0,0.0,0.0,0.0,9.665651027916215e-11,4.879808371928682e-11,2.4138852944306175e-11,1.2650787073272859e-11,7.077858155412727e-12,3.884022559763801e-12,2.3045537567914287e-12,1.2844045772123526e-12,7.668840285377426e-13,4.566468251754272e-13,2.768213759315178e-13,1.5718783775707692e-13,9.6714901899026e-14,5.671957981661216e-14,3.151614920443329e-14,1.7476633932397033e-14,1.1127332978690598e-14,7.0457391061884684e-09,5.740317251484487e-09,4.515804019147469e-09,3.0966654497679217e-09,2.1062081307173733e-09,1.3125011692321818e-09,9.196184768290921e-10,5.377616834566698e-10,3.150277513739421e-10,1.7905684310971123e-10,1.0358950838226914e-10,6.072931919270064e-11,3.299083107223545e-11,1.6877314090707396e-11,9.620757024170559e-12,5.1933118882637814e-12,2.886816995904933e-12,1.7626427440867377e-12,9.347770908147443e-13,5.212212428879188e-13,3.261673073269876e-13
0.0,12,12.0,0.0,30.0,0.0,0.0,0.0,0.0,-13.0,0.0,2.0,0.0,0.0,0.0,9.944633763914102e-11,4.5558107629353236e-11,2.373032194062424e-11,1.2957726585978726e-11,6.628663225180184e-12,3.61813416335568e-12,2.1172087343074573e-12,1.2827060786050085e-12,7.348683182600667e-13,4.1569109984456153e-13,2.731401489196275e-13,1.579071832390487e-13,9.033107069405435e-14,5.6030260799832294e-14,3.2207349798446897e-14,1.8435415414876528e-14,8.069513932549448e-15,7.396155613525686e-09,5.931989330986302e-09,4.54601176648383e-09,2.9554909462830767e-09,2.050473609602849e-09,1.3489480931721584e-09,8.543357416533454e-10,5.489112360531465e-10,3.1756590883534815e-10,1.8057180912246092e-10,1.0396827201760604e-10,5.750326032285846e-11,3.136787247111934e-11,1.6813198000472058e-11,9.246962674023808e-12,5.2312513207136085e-12,3.0401281613851763e-12,1.6135620770517575e-12,9.40571160715018e-13,5.211493437362139e-13,2.9175644582356406e-13
0.0,13,13.0,0.0,30.0,0.0,0.0,0.0,0.0,-13.0,0.0,2.0,0.0,0.0,0.0,1.0137320081357982e-10,4.7668011996418875e-11,2.3236726188402064e-11,1.215296529585688e-11,6.315868470998804e-12,3.537345130245896e-12,2.0841063124952845e-12,1.1964740421774959e-12,6.932057621781251e-13,4.338756434576666e-13,2.4837132908663183e-13,1.5771437465184102e-13,9.226661261793204e-14,5.199574926514189e-14,2.970033883627e-14,1.7195642126406593e-14,7.519988708234542e-15,7.39910218969451e-09,6.035582343975419e-09,4.324455861137103e-09,2.9310549473104107e-09,1.985944900344815e-09,1.3882721263441667e-09,8.574049009437991e-10,5.445079166460795e-10,3.3437978396281613e-10,1.8884087993242163e-10,1.0300350624050439e-10,5.852242784970304e-11,3.066002092167665e-11,1.6303604549470022e-11,9.214153054150453e-12,5.034967603637569e-12,3.0323531387575022e-12,1.5826225861983663e-12,9.001295109145002e-13,5.340815116071014e-13,2.9412314795204577e-13
0.0,14,14.0,0.0,30.0,0.0,0.0,0.0,0.0,-13.0,0.0,2.0,0.0,0.0,0.0,9.291396497100684e-11,4.9338882175584726e-11,2.4138592665382225e-11,1.2039348400252479e-11,6.360299738418783e-12,3.4968629545961315e-12,2.010835461705684e-12,1.2046217323117822e-12,6.801885007284998e-13,4.1816341260033014e-13,2.465786706629233e-13,1.5298195436823177e-13,9.236967834602228e-14,5.3695738676620064e-14,3.01333364862558e-14,1.7468220025291018e-14,8.7311741943562e-15,7.140129899635266e-09,5.639288216216806e-09,4.415086399343552e-09,3.1927640550752677e-09,2.1178862349770928e-09,1.39370501835046e-09,9.00196484878068e-10,5.30603691719326e-10,3.092145835832372e-10,1.9046908361483785e-10,9.94601226588214e-11,5.7277595756326734e-11,2.914252966976891e-11,1.6612191955384573e-11,8.950044029548494e-12,4.704117226643297e-12,2.8219108780546303e-12,1.598246431754244e-12,8.152632925696656e-13,4.96588908906306e-13,2.8813951898006844e-13
0.0,15,15.0,0.0,30.0,0.0,0.0,0.0,0.0,-13.0,0.0,2.0,0.0,0.0,0.0,1.0080877006673524e-10,4.8027466891794274e-11,2.3235122068308895e-11,1.1786650923405219e-11,6.30762479126578e-12,3.458066754319007e-12,2.0260194267301855e-12,1.1756594252467423e-12,7.123345545639357e-13,4.175559631092313e-13,2.4147102301999504e-13,1.5088678121782226e-13,8.541701842849654e-14,5.152020813695557e-14,2.5887393789601292e-14,1.525950881911416e-14,8.98184245520389e-15,7.342779702430944e-09,5.592853542194282e-09,4.4764220447745805e-09,3.1808248154461533e-09,2.0814900405566965e-09,1.2583515486040833e-09,8.875923610232709e-10,5.399351720034387e-10,3.1539468525880405e-10,1.822579266105121e-10,1.0590363597680823e-10,5.359315714399012e-11,3.0948039531212746e-11,1.617067359902291e-11,9.234344887916312e-12,4.688969410571158e-12,2.705713962163586e-12,1.4960885613319405e-12,8.348873050339092e-13,4.944240709738363e-13,2.728169528050383e-13
0.0,16,16.0,0.0,30.0,0.0,0.0,0.0,0.0,-13.0,0.0,2.0,0.0,0.0,0.0,9.554834532469099e-11,4.424723633730655e-11,2.2749015596888892e-11,1.1992396819856373e-11,5.879988748461937e-12,3.357359045585902e-12,1.880500822175045e-12,1.1197662203572756e-12,6.695094808514938e-13,3.867908533333073e-13,2.4841389791371507e-13,1.4572446488059014e-13,8.91939544262318e-14,5.250436216318548e-14,2.7789205896317892e-14,1.641326761919334e-14,8.610196116641526e-15,7.082910435691119e-09,5.7715809625140035e-09,4.488304620873027e-09,3.0990959950881115e-09,1.995038271329144e-09,1.3728278179330003e-09,8.656180496002007e-10,5.517670320371215e-10,3.1523365486817605e-10,1.8488318786180094e-10,9.624082791111811e-11,5.526425012009089e-11,2.990379832247343e-11,1.5834959253331027e-11,8.042148699968516e-12,4.284182038210546e-12,2.5393160404712508e-12,1.4189118024334176e-12,8.146224585522835e-13,4.45251505792796e-13,2.592657283418112e-13
0.0,17,17.0,0.0,30.0,0.0,0.0,0.0,0.0,-13.0,0.0,2.0,0.0,0.0,0.0,9.50817851268567e-11,4.5654828011514994e-11,2.1689113914728184e-11,1.1317818952757246e-11,6.2048845622995544e-12,3.1606578970149947e-12,1.9195735931298487e-12,1.0940546146095672e-12,6.381932094062339e-13,3.568021559524254e-13,2.348884872361581e-13,1.3637450347404364e-13,8.56784647362514e-14,4.836060969243004e-14,2.8181118045757457e-14,1.4709474958722595e-14,8.36695548154905e-15,7.214840340926469e-09,6.125886497116522e-09,4.599241383260445e-09,3.1806464646021762e-09,2.0170845895992366e-09,1.377158978623862e-09,8.857362475315578e-10,5.376776434506313e-10,3.27083247034528e-10,1.8730063638530494e-10,1.0442546670363381e-10,5.503490051405363e-11,2.8341490541562908e-11,1.564449578783856e-11,8.342058207407444e-12,4.539329493744422e-12,2.5427146891713532e-12,1.368834788412777e-12,7.403122288056385e-13,4.238471971802979e-13,2.6725223619343094e-13
0.0,18,18.0,0.0,30.0,0.0,0.0,0.0,0.0,-13.0,0.0,2.0,0.0,0.0,0.0,9.73230411446705e-11,4.586567971607921e-11,2.1047573256506045e-11,1.0776767942909195e-11,5.711122933138295e-12,3.052992077141777e-12,1.742843985016082e-12,1.0950468549864066e-12,6.399138717028152e-13,3.7613979461808085e-13,2.3343373385819577e-13,1.3382524324726803e-13,7.639826036973401e-14,4.668425348000723e-14,2.5582593598807375e-14,1.559062645779838e-14,7.6340425228189e-15,7.141690526465595e-09,5.940727908803115e-09,4.484318497677405e-09,3.1265676767390827e-09,2.036146988990064e-09,1.3742841333190357e-09,8.518084592464192e-10,5.426408042747044e-10,3.1280070840847793e-10,1.860387041792014e-10,9.714838590435103e-11,5.350881924858795e-11,2.8063797791245336e-11,1.49338962609684e-11,8.329068093344995e-12,4.477103006312645e-12,2.3167262071547357e-12,1.293101456893716e-12,7.619164265384995e-13,4.3914682206194927e-13,2.548725051818265e-13
0.0,19,19.0,0.0,30.0,0.0,0.0,0.0,0.0,-13.0,0.0,2.0,0.0,0.0,0.0,8.818635915399396e-11,4.272818192105695e-11,2.1158581338915552e-11,1.0466762420475648e-11,5.7943527003489335e-12,3.0333110586484087e-12,1.798886596744215e-12,1.0087780167331058e-12,6.232486177026932e-13,3.585377694041445e-13,2.1996441376235208e-13,1.3387375662652173e-13,7.815245996346381e-14,4.38755735994379e-14,2.3371404939057808e-14,1.6002656019078092e-14,8.277573448792332e-15,7.197597716134816e-09,5.97828745177169e-09,4.282294252265642e-09,3.125466516245995e-09,2.1786996183968825e-09,1.3612580450071996e-09,8.737808745360329e-10,5.332597897683063e-10,3.238101657146518e-10,1.8074120457708753e-10,1.0202374996051992e-10,5.3492307764121586e-11,2.6783831688142746e-11,1.4783725632213413e-11,8.720931506258275e-12,4.049612845917445e-12,2.357361657712383e-12,1.2755964301495958e-12,7.662042111974997e-13,4.2355682536500773e-13,2.384985271525794e-13
0.0,20,20.0,0.0,30.0,0.0,0.0,0.0,0.0,-13.0,0.0,2.0,0.0,0.0,0.0,9.109410947153628e-11,4.4919132336565556e-11,2.158268760058554e-11,1.0250692441162154e-11,5.273860991734191e-12,3.007483901968517e-12,1.6347597068003502e-12,9.785960800720547e-13,6.15638695398067e-13,3.517105682631581e-13,2.0480341998463737e-13,1.2690549192553644e-13,7.981508662861584e-14,4.626320853710982e-14,2.5446182748134703e-14,1.6529469950508988e-14,7.02138132242181e-15,7.3424020217519215e-09,5.758595179281265e-09,4.553006935294456e-09,3.099388328357843e-09,2.0524733834055127e-09,1.3382622558824817e-09,8.755177833139167e-10,5.544854199173692e-10,3.1420593222151395e-10,1.882074955660866e-10,9.593887554597244e-11,5.132292410453441e-11,2.7185410556316733e-11,1.3540893653561647e-11,7.74738667363954e-12,4.179375429819198e-12,2.2768947893058483e-12,1.3392735330572091e-12,7.35162752215098e-13,4.1724551857550533e-13,2.23390998369113e-13
0.0,21,21.0,0.0,30.0,0.0,0.0,0.0,0.0,-13.0,0.0,2.0,0.0,0.0,0.0,9.083192482496411e-11,4.168750533163076e-11,2.0140943267042458e-11,9.39313891328965e-12,5.337221783104989e-12,2.60230773326044e-12,1.6055638301076035e-12,9.564032048265878e-13,5.577642529157229e-13,3.308674680566266e-13,2.0887290351374513e-13,1.30708772210596e-13,7.388810366800882e-14,4.335282338285382e-14,2.642077952547e-14,1.3187076330771971e-14,6.5501188741740384e-15,7.46750398853849e-09,6.0270309094800414e-09,4.310696229010766e-09,3.0306540516218168e-09,2.028653031036753e-09,1.3620920386813457e-09,8.519667739645192e-10,5.373814490554938e-10,3.134614643136911e-10,1.856162416353216e-10,9.651949951670047e-11,4.70330210649786e-11,2.8553498434292263e-11,1.393952703113569e-11,7.408435555771685e-12,3.859605310729456e-12,2.2270508984668102e-12,1.1985272109032936e-12,6.936541900011494e-13,3.93765995229441e-13,2.2499563341246745e-13
0.0,22,22.0,0.0,30.0,0.0,0.0,0.0,0.0,-13.0,0.0,2.0,0.0,0.0,0.0,8.91141373792844e-11,4.34610379277521e-11,1.9892644978180947e-11,9.886360457923101e-12,5.034775198845805e-12,2.8395485973366646e-12,1.6829819503192048e-12,8.923820027629157e-13,5.56984606500895e-13,3.4579782365716144e-13,2.0647186379355701e-13,1.2401078796364147e-13,7.196673171436586e-14,4.222221827289828e-14,2.44287053003601e-14,1.5664798180853573e-14,6.902914979340661e-15,7.143770205608783e-09,6.259540838460106e-09,4.464075665904744e-09,3.0823467893479544e-09,2.053827674062841e-09,1.372954573397823e-09,8.684635089564507e-10,5.369331685958795e-10,2.9611748046859554e-10,1.7178933243439624e-10,9.571117423066093e-11,5.338156699829709e-11,2.7547497122502063e-11,1.4553293491511795e-11,7.441680141192746e-12,3.864111666674592e-12,2.0951210789879236e-12,1.1405493702460737e-12,6.598819288987883e-13,3.922149458692876e-13,2.2564182899668139e-13
0.0,23,23.0,0.0,30.0,0.0,0.0,0.0,0.0,-13.0,0.0,2.0,0.0,0.0,0.0,9.468252812085329e-11,4.2978771346433184e-11,1.9012181283559013e-11,9.707014841491223e-12,5.0851797698339435e-12,2.6996504824096525e-12,1.593290439917444e-12,8.755420645936907e-13,5.156806734087033e-13,3.2175887465768813e-13,1.9053889701647218e-13,1.1309714297772023e-13,7.016048245143262e-14,4.297093053929492e-14,2.5062589515899324e-14,1.4741042798057797e-14,7.586714427413684e-15,7.54200360195359e-09,6.025602260556159e-09,4.4515455405662e-09,3.129320112035728e-09,2.1447071444695276e-09,1.3487607606440075e-09,8.477260976931254e-10,5.34138302433547e-10,3.0921053665077205e-10,1.7007540149219986e-10,9.902000260069446e-11,5.176451946753275e-11,2.6959877601942783e-11,1.406886453117626e-11,7.56689066838576e-12,3.831540784612181e-12,1.9798546335261647e-12,1.1645494960806426e-12,6.322104109623848e-13,3.7349966736038724e-13,2.1051255194565268e-13
0.0,24,24.0,0.0,30.0,0.0,0.0,0.0,0.0,-13.0,0.0,2.0,0.0,0.0,0.0,8.805127194924932e-11,4.0377219642837375e-11,2.0358891436716448e-11,1.0098170751151681e-11,5.30191507148111e-12,2.669742733170331e-12,1.411299686450766e-12,9.138913542737648e-13,5.127816346935708e-13,3.1992927079722134e-13,1.9111321248900075e-13,1.1730658432989806e-13,6.881030922470737e-14,4.3822325053877913e-14,2.4482248849302705e-14,1.3995920865468468e-14,7.796081008865379e-15,7.580246835888635e-09,5.683233741104028e-09,4.4431840307623775e-09,3.101043556670389e-09,2.0106515556989067e-09,1.3915182941320091e-09,8.783351731066998e-10,5.246380536397081e-10,3.0220879812377406e-10,1.809143206550953e-10,8.942372569737842e-11,5.02666780752063e-11,2.5099081368816796e-11,1.356853331331085e-11,7.0832995694923605e-12,3.656148241309236e-12,1.9854659228188924e-12,1.1533132631024526e-12,6.098590986233837e-13,3.7623050069093986e-13,2.16625298534361e-13
0.0,25,25.0,0.0,30.0,0.0,0.0,0.0,0.0,-13.0,0.0,2.0,0.0,0.0,0.0,9.191978630461317e-11,3.956516574674864e-11,2.0322287676199942e-11,9.34487697294988e-12,4.596753237147114e-12,2.4429236950932445e-12,1.4148529111784223e-12,8.361905945833699e-13,5.142890882542405e-13,3.01513941935931e-13,1.9100154749541957e-13,1.162529824366586e-13,6.779771297955351e-14,4.114471789433855e-14,2.423301392182138e-14,1.4646117400411578e-14,7.61646459648071e-15,7.672406244156954e-09,6.3430082631349576e-09,4.36232386051844e-09,3.0425380051202094e-09,2.1155026165932857e-09,1.392009367068244e-09,8.942602905654361e-10,5.320287212044034e-10,3.0042787649377596e-10,1.7603577707955133e-10,9.214720943310406e-11,5.002897623248178e-11,2.6175509144819424e-11,1.2128154755985954e-11,6.686473572186073e-12,3.84099760826352e-12,2.0568402769067645e-12,1.1290663083480492e-12,5.81244259346423e-13,3.168207478068448e-13,2.0790995633912502e-13
0.0,26,26.0,0.0,30.0,0.0,0.0,0.0,0.0,-13.0,0.0,2.0,0.0,0.0,0.0,8.762372167451052e-11,4.3868197738923e-11,1.914838853738072e-11,8.993808833985914e-12,4.7856582335296165e-12,2.532591215731486e-12,1.4536062428060661e-12,8.346993611365758e-13,5.214380266418436e-13,2.884181258350822e-13,1.8822089976056998e-13,1.1812834120721736e-13,6.337503943216394e-14,3.650529966188604e-14,2.3487659224945474e-14,1.695718420892286e-14,6.686081572926915e-15,7.146446866523354e-09,5.942495592182513e-09,4.555317372288862e-09,3.2205075983992464e-09,2.1819514371159828e-09,1.3633109536448707e-09,8.501942293338152e-10,5.55869456105405e-10,2.932839135668257e-10,1.6520150528793877e-10,9.281372254274249e-11,4.826243553548256e-11,2.5273210386863628e-11,1.3624837754229395e-11,6.8247745868542894e-12,3.5555651925557614e-12,2.0386058149718398e-12,1.0836161170125243e-12,6.371476044825505e-13,3.371375483516048e-13,2.033486933439828e-13
0.0,27,27.0,0.0,30.0,0.0,0.0,0.0,0.0,-13.0,0.0,2.0,0.0,0.0,0.0,8.430541160700217e-11,4.027432528020162e-11,1.882815584313428e-11,8.78760861701269e-12,4.6295268571760165e-12,2.354792220234397e-12,1.3206875368163448e-12,8.229656550968491e-13,4.852877541664341e-13,2.872558062472861e-13,1.809234546581085e-13,1.1393564270279654e-13,6.706740836459523e-14,3.912488033120675e-14,2.3777288115222008e-14,1.2929862220763156e-14,6.991034710527766e-15,7.3331987453996175e-09,6.114180856236002e-09,4.5051645471911585e-09,3.124939398770549e-09,2.0887757791288172e-09,1.3255312884044456e-09,8.462333599331091e-10,5.20295815397131e-10,3.1905965160764106e-10,1.6520324309012433e-10,9.468534896722176e-11,5.019094888986436e-11,2.580442372806043e-11,1.305235240349001e-11,6.61494525448442e-12,3.376607686763932e-12,1.9098211782888385e-12,1.0084298224111629e-12,5.798425495136353e-13,3.2461191513468583e-13,1.7411174132228155e-13
0.0,28,28.0,0.0,30.0,0.0,0.0,0.0,0.0,-13.0,0.0,2.0,0.0,0.0,0.0,8.144488784013372e-11,4.1082675809469327e-11,1.8698365684976326e-11,8.672902245308063e-12,4.470901165972779e-12,2.2806112031199696e-12,1.3427325764259262e-12,7.941964758841654e-13,4.79009543936133e-13,2.75453300725205e-13,1.7835678013624005e-13,1.0738422498293543e-13,6.33238464019811e-14,4.3146691915638685e-14,2.3190241151819744e-14,1.3448840297466175e-14,6.004567333534481e-15,7.093785109459208e-09,6.0448313134882136e-09,4.335059085545838e-09,3.13859163021067e-09,2.1344561842558583e-09,1.39133421959491e-09,8.545632196676326e-10,5.588986162973166e-10,2.9986892115518835e-10,1.7158292707859015e-10,9.511549897607222e-11,4.767205548281935e-11,2.4883915591377926e-11,1.278469459968697e-11,6.39912213433244e-12,3.4051306543707105e-12,1.9520460030519766e-12,9.706482430767322e-13,5.634167314184549e-13,3.096733605449757e-13,1.6292510886316836e-13
0.0,29,29.0,0.0,30.0,0.0,0.0,0.0,0.0,-13.0,0.0,2.0,0.0,0.0,0.0,9.146038260475719e-11,3.895310093324182e-11,1.8556450888237716e-11,8.082472149789218e-12,4.4179573588716e-12,2.1491862766482033e-12,1.3646953423722903e-12,7.440645014579902e-13,4.676504542277993e-13,2.7793086638365513e-13,1.6817307881544357e-13,1.0449998839273151e-13,6.04543032059166e-14,3.6576342118335695e-14,2.214101918964419e-14,1.3146408465817779e-14,7.466549681855495e-15,7.403679775245026e-09,5.627219115666731e-09,4.542686163929636e-09,3.161023280511543e-09,2.00328562609302e-09,1.365802616281884e-09,8.708264841790941e-10,5.069774785432599e-10,2.83210077726497e-10,1.729708674384628e-10,9.236949945495959e-11,5.1242828964163505e-11,2.4532389691764077e-11,1.1886355436316444e-11,6.6469228081304714e-12,3.2465584255481673e-12,1.7811242067049822e-12,9.368122820068662e-13,5.321478966435508e-13,2.95617357636207e-13,1.9377781936154127e-13
0.0,30,30.0,0.0,30.0,0.0,0.0,0.0,0.0,-13.0,0.0,2.0,0.0,0.0,0.0,8.52768761985271e-11,3.736994757795169e-11,1.8206021217156296e-11,8.36900511288514e-12,4.208890001861623e-12,2.3238608822910052e-12,1.258358928208306e-12,7.236800627644531e-13,4.569205400618848e-13,2.632295509577327e-13,1.6331400245097922e-13,1.0595804924136103e-13,6.298419191935382e-14,3.698841047236129e-14,2.1320597713437836e-14,1.0896566173717612e-14,4.994055981160474e-15,7.218666705469325e-09,6.0550404008046515e-09,4.6536246238884816e-09,3.205549203065143e-09,2.059228480740604e-09,1.2831681861132702e-09,8.816308540031987e-10,5.194962785874828e-10,3.029819407111511e-10,1.629862321868511e-10,8.916079200910355e-11,4.558542448780172e-11,2.4413189708884145e-11,1.2110561443643893e-11,6.136395471044345e-12,3.2529224100114825e-12,1.822555114276314e-12,9.517779146184576e-13,5.558160345898314e-13,3.1857204807264206e-13,1.5800428028907973e-13
0.0,31,31.0,0.0,30.0,0.0,0.0,0.0,0.0,-13.0,0.0,2.0,0.0,0.0,0.0,8.360111901034054e-11,3.6511030374570244e-11,1.769726679336037e-11,8.200343979125021e-12,4.090834008181135e-12,2.17542895947654e-12,1.2414628078410515e-12,7.053891415680477e-13,4.0610224753757166e-13,2.590436704415053e-13,1.532298614871163e-13,1.005040317480041e-13,5.733321667191798e-14,3.664822365700372e-14,2.0016123594958015e-14,1.3599777819172686e-14,5.817017648487446e-15,7.600080836030966e-09,5.758876552310009e-09,4.5716056638981575e-09,3.085918321481937e-09,2.0229563366583525e-09,1.3673721919213173e-09,8.720244179652738e-10,5.299760503741143e-10,2.9441877207570754e-10,1.6486409992784452e-10,8.692081887270513e-11,5.0458148767022316e-11,2.4344543435935452e-11,1.1892036393814912e-11,6.182177399726251e-12,3.1740291424002085e-12,1.7760761285141662e-12,9.448023140725478e-13,5.169255565888442e-13,2.840625556917033e-13,1.6017682550367483e-13
0.0,32,32.0,0.0,30.0,0.0,0.0,0.0,0.0,-13.0,0.0,2.0,0.0,0.0,0.0,8.308996204762114e-11,4.0571439494678084e-11,1.6120772137354263e-11,8.428766510098724e-12,3.929292464905843e-12,2.1643692742093248e-12,1.187985032382546e-12,7.064832887835986e-13,4.228652061403966e-13,2.529455580352853e-13,1.5760359571800811e-13,9.69019604992223e-14,5.947542152558975e-14,3.6973725288217827e-14,1.936081044450456e-14,1.2299191451775621e-14,5.711479680118992e-15,7.176728051187869e-09,6.143770375853807e-09,4.406466289021025e-09,3.410845686800838e-09,2.0535916448027794e-09,1.346557330343299e-09,8.328773839660424e-10,4.868138546407029e-10,2.775089282385819e-10,1.655768983989146e-10,8.920959703317134e-11,4.7647613508235275e-11,2.4147189875664203e-11,1.1657314023541192e-11,6.4150329612837e-12,3.234064126205098e-12,1.5700458814659458e-12,9.20118689142902e-13,4.5405081727520834e-13,2.919563118337383e-13,1.5401297940462543e-13
0.0,33,33.0,0.0,30.0,0.0,0.0,0.0,0.0,-13.0,0.0,2.0,0.0,0.0,0.0,8.409574664922737e-11,3.661806344988982e-11,1.7438718267993523e-11,8.31063264788075e-12,3.790520427686705e-12,2.086766107053865e-12,1.1449416238014784e-12,6.750779601620884e-13,4.135427175474225e-13,2.5630393555397317e-13,1.5597560494953808e-13,9.699353594065805e-14,5.651559549893585e-14,3.7203087537996026e-14,1.9139702445407848e-14,9.356744527999161e-15,5.184518426309281e-15,8.034516802147853e-09,5.969266266483859e-09,5.0095529069300534e-09,3.1996955165786945e-09,2.066410773700524e-09,1.3780748131276047e-09,8.433377652837928e-10,5.100924463973768e-10,2.9887358537270403e-10,1.6385070062349462e-10,8.831201470363883e-11,4.2315404905464383e-11,2.242296389877203e-11,1.1381084831605146e-11,5.8570488496117975e-12,3.1587993411534123e-12,1.6191600945971293e-12,8.725073100375301e-13,5.04710905992371e-13,2.608009987697306e-13,1.6145811455575208e-13
0.0,34,34.0,0.0,30.0,0.0,0.0,0.0,0.0,-13.0,0.0,2.0,0.0,0.0,0.0,8.552977939149761e-11,3.5242297807498606e-11,1.693355177123935e-11,8.043536622509303e-12,3.7079637143308476e-12,2.027722177877712e-12,1.1274382637722196e-12,6.769680476412736e-13,3.987806250093004e-13,2.4529032213967795e-13,1.5330672517724006e-13,9.077885512865226e-14,5.5655912596917955e-14,3.5235393068732295e-14,1.8854870279981768e-14,1.1807006916074734e-14,6.820858444991785e-15,7.821671506266543e-09,6.029264708271306e-09,4.355676774755857e-09,3.085616343280061e-09,2.2484059333942066e-09,1.2965393683413184e-09,8.338465288492273e-10,5.100215253143157e-10,2.689443159552329e-10,1.6014467996804967e-10,8.266044175297025e-11,4.591051246256896e-11,2.234296441728025e-11,1.1799431056135225e-11,5.831205434322172e-12,3.0217987941485163e-12,1.6651510424221994e-12,8.263818242089952e-13,4.676319933320299e-13,2.9444905394180393e-13,1.496223452364821e-13
0.0,35,35.0,0.0,30.0,0.0,0.0,0.0,0.0,-13.0,0.0,2.0,0.0,0.0,0.0,7.944820910690926e-11,3.5451445960078886e-11,1.6524691521614946e-11,7.481953890762144e-12,3.8646819720051845e-12,2.0391940684431435e-12,1.0591285688993533e-12,6.095059972415127e-13,3.8228158173510464e-13,2.344192171863218e-13,1.4351311073723676e-13,8.817589833345407e-14,5.457768418669901e-14,3.2529080445423623e-14,1.972505465639517e-14,1.1026811563552781e-14,5.3813126250519435e-15,7.892991751885561e-09,6.213900003151718e-09,4.509543391107179e-09,3.2305890751511927e-09,2.0939898973204908e-09,1.323173948089618e-09,8.103958749814504e-10,5.238461824931789e-10,2.8331392443278146e-10,1.6423233478340575e-10,8.549989761447307e-11,4.3811072402742905e-11,2.3462397013311607e-11,1.16184372598873e-11,5.884682291031846e-12,2.9610202018430097e-12,1.5799671969652314e-12,8.536548406435854e-13,4.542505307016602e-13,2.5943977936113103e-13,1.3398002606954154e-13
0.0,36,36.0,0.0,30.0,0.0,0.0,0.0,0.0,-13.0,0.0,2.0,0.0,0.0,0.0,8.296642265754925e-11,3.5094404075116195e-11,1.528335923084369e-11,7.960792236988261e-12,3.6197081897066718e-12,1.9657212377870754e-12,1.0523314533069809e-12,6.172088124990862e-13,3.777423455831509e-13,2.3581969822443236e-13,1.4243868833330177e-13,8.486906137914414e-14,5.534544216138062e-14,3.509467956295354e-14,1.8111667076461874e-14,1.0836491448723386e-14,4.1280373584950904e-15,7.285414476160079e-09,6.328486371672943e-09,4.539562740909642e-09,3.0586270954279003e-09,2.048951080766003e-09,1.3244826893320756e-09,8.401146394641056e-10,5.017952473246916e-10,2.9489539801823373e-10,1.73953102336708e-10,8.823266804289829e-11,4.369579923974601e-11,2.2073603160801168e-11,1.0823506356494257e-11,5.6334476869117295e-12,2.904115470204119e-12,1.487208897339313e-12,8.102818293925459e-13,4.481890928858233e-13,2.63430724196207e-13,1.4241918465706742e-13
0.0,37,37.0,0.0,30.0,0.0,0.0,0.0,0.0,-13.0,0.0,2.0,0.0,0.0,0.0,7.783704408189371e-11,3.412956240169315e-11,1.6289005911779977e-11,7.530234682225369e-12,3.910701071982262e-12,1.9773917664659806e-12,1.0902156505292212e-12,6.230387536746102e-13,3.7330026003712106e-13,2.2105174347581e-13,1.422727044169278e-13,9.143945383112391e-14,5.468285930209356e-14,3.243903504947117e-14,1.85682727495861e-14,1.0660209027172318e-14,4.8203446397323865e-15,7.093936268310841e-09,6.275004266234276e-09,4.548146484794521e-09,3.2962591613830103e-09,2.122956634475568e-09,1.3048585379378502e-09,8.405035276458597e-10,4.843314544571056e-10,2.8405263671653374e-10,1.5507995828818762e-10,8.191315922597344e-11,4.6239803869939914e-11,2.1306944414240227e-11,1.070567716956637e-11,5.330852278155963e-12,2.782585980056953e-12,1.4326443700910726e-12,8.051470015727545e-13,4.624597483715969e-13,2.4964642788073636e-13,1.46475131773988e-13
0.0,38,38.0,0.0,30.0,0.0,0.0,0.0,0.0,-13.0,0.0,2.0,0.0,0.0,0.0,7.736729994583325e-11,3.440378609465698e-11,1.531442613459528e-11,7.524479638631582e-12,3.668143846439121e-12,1.963702875568476e-12,9.80298052619712e-13,6.052699119988594e-13,3.6709480948286024e-13,2.180990255930027e-13,1.3379383667128877e-13,8.712090792371478e-14,5.324803542447528e-14,3.2147754453931367e-14,1.562096623689471e-14,1.1710437273292226e-14,6.121045429458e-15,7.2494993186086765e-09,5.919518135058001e-09,4.5215990257956144e-09,3.1643140477617873e-09,2.1089800263338543e-09,1.3487233853228634e-09,8.394301708292892e-10,4.69407727215311e-10,2.9136869329654636e-10,1.5392534613131916e-10,8.094920394809282e-11,4.0858646689288275e-11,2.1827735529075362e-11,1.0450553911637796e-11,5.0864581951223295e-12,2.8356915118546974e-12,1.4513923254359277e-12,7.678071011218927e-13,4.195891995573487e-13,2.347245994136808e-13,1.3887087345338816e-13
0.0,39,39.0,0.0,30.0,0.0,0.0,0.0,0.0,-13.0,0.0,2.0,0.0,0.0,0.0,7.60745250011006e-11,3.5074372678951306e-11,1.56455583600419e-11,7.3422164778093e-12,3.459706849730996e-12,1.7773189208300221e-12,1.0151069496552096e-12,5.462554625045778e-13,3.5469117161612993e-13,2.063441367784598e-13,1.3416919147622154e-13,8.488089815816793e-14,5.1274595211779894e-14,3.423426508298811e-14,1.8282868335131835e-14,1.0509557846510455e-14,4.682785179404989e-15,7.462066014463854e-09,6.3826090578532265e-09,4.618550222070454e-09,3.029111512789457e-09,2.1042003786239986e-09,1.2905842296540835e-09,8.302407291447455e-10,4.639582567372323e-10,2.863399801428533e-10,1.489126565847202e-10,7.862373030256539e-11,4.258380108204996e-11,2.1708606311398457e-11,1.1199015518970506e-11,5.446947453380369e-12,2.4922922555116775e-12,1.3549883408810633e-12,7.887098648965604e-13,4.148487126839458e-13,2.1661942746157362e-13,1.4573799033443104e-13
0.0,40,40.0,0.0,30.0,0.0,0.0,0.0,0.0,-13.0,0.0,2.0,0.0,0.0,0.0,7.632997713731582e-11,3.315415063584488e-11,1.5233891285619235e-11,7.315750465647509e-12,3.4321949196374953e-12,1.7738595994232678e-12,9.720353254484897e-13,5.545343186610918e-13,3.558675746462674e-13,2.1389688026078624e-13,1.3049648844222462e-13,8.222553913910264e-14,4.875309394163654e-14,3.290130584399243e-14,1.600272303691476e-14,9.961734234735631e-15,4.412664233702184e-15,7.841023604970012e-09,6.029270440426642e-09,4.541805343826509e-09,3.08830662865529e-09,2.078794223414991e-09,1.3273346928086279e-09,7.953033390847528e-10,4.882405154355098e-10,2.726165201575952e-10,1.47965914613816e-10,8.284088141441937e-11,4.166903897723161e-11,2.0384754042407465e-11,1.0338235146906683e-11,5.184365195078729e-12,2.6156317342134717e-12,1.3646829946200259e-12,7.174956217509626e-13,3.872625999668989e-13,2.395394088609447e-13,1.462414393790161e-13
0.0,41,41.0,0.0,30.0,0.0,0.0,0.0,0.0,-13.0,0.0,2.0,0.0,0.0,0.0,7.568720579981512e-11,3.436455551992078e-11,1.450692695577641e-11,6.753621424879239e-12,3.360159350947993e-12,1.8555794448276026e-12,9.516837802835223e-13,5.478955970507798e-13,3.233199594275427e-13,1.9748351639003036e-13,1.298749516032242e-13,8.29845691880966e-14,4.591848666330493e-14,3.012913594960428e-14,1.7034192486570164e-14,1.2078642530140411e-14,5.734894811970673e-15,8.025757486047487e-09,5.896259588797964e-09,4.668300901612224e-09,3.294772206910704e-09,1.9792985095059893e-09,1.306847683442052e-09,8.426910228590742e-10,4.819318639371602e-10,2.674124765261668e-10,1.4836075728954853e-10,7.662648299615532e-11,3.8631171062593485e-11,2.082369260403169e-11,1.0328684533366146e-11,4.9799937774155845e-12,2.5297325672310093e-12,1.3520727144664679e-12,6.755146405191454e-13,3.969246265855315e-13,2.1953761359276236e-13,1.1446800099702474e-13
0.0,42,42.0,0.0,30.0,0.0,0.0,0.0,0.0,-13.0,0.0,2.0,0.0,0.0,0.0,6.864819486472768e-11,3.252281570282493e-11,1.441998153001172e-11,6.651183651011378e-12,3.2144996161412372e-12,1.6482988186601339e-12,9.192681456162729e-13,5.147619116739615e-13,3.249508261248717e-13,1.9876178883710803e-13,1.2562097427407937e-13,7.745382590996737e-14,4.900016100060474e-14,3.037690847443289e-14,1.8343581360751793e-14,8.668370345823082e-15,6.278218377799505e-15,7.684541598366022e-09,6.084127694481811e-09,4.861810114911522e-09,3.3063817674890706e-09,2.0348872895867967e-09,1.2883387136250388e-09,8.033082379279781e-10,4.610190173957354e-10,2.641981822116194e-10,1.4757383403529992e-10,7.793770223501003e-11,3.942465061071447e-11,2.099229020178019e-11,9.864365217245556e-12,4.932867272340396e-12,2.612868333258833e-12,1.3349081082694972e-12,7.342872084960988e-13,4.022967124041987e-13,1.8644666399755036e-13,1.2333491434938874e-13
0.0,43,43.0,0.0,30.0,0.0,0.0,0.0,0.0,-13.0,0.0,2.0,0.0,0.0,0.0,7.537938639325343e-11,3.3430017948552796e-11,1.472129278202715e-11,6.866874172978883e-12,3.204249807214113e-12,1.6645938601954555e-12,8.412216831501006e-13,5.397615173529435e-13,3.151437034480109e-13,1.926066108593685e-13,1.2338282702746402e-13,7.275927654957857e-14,4.581543756990364e-14,2.971810336575197e-14,1.6878509353337972e-14,9.482721582976962e-15,4.808684447397049e-15,7.52838247271326e-09,6.276650843804614e-09,4.570331265694139e-09,3.2743496144312046e-09,2.1088046167570304e-09,1.290778855774984e-09,8.364247210879843e-10,4.691790990885739e-10,2.827709606528357e-10,1.5384719740540434e-10,7.733708089343515e-11,4.0299900198331706e-11,1.8406056751886722e-11,9.825857151996044e-12,4.970352409348889e-12,2.231651488492051e-12,1.3058179078400572e-12,6.729887082384595e-13,3.4655775853031047e-13,2.0798937702914894e-13,1.2384017914314842e-13
0.0,44,44.0,0.0,30.0,0.0,0.0,0.0,0.0,-13.0,0.0,2.0,0.0,0.0,0.0,7.00518027536252e-11,3.123217155040833e-11,1.4627367129093197e-11,6.761723648148036e-12,3.1618762319193243e-12,1.6259884693693015e-12,8.393360606676544e-13,5.114488434214596e-13,2.98323286381695e-13,1.8563248678956854e-13,1.1689767767280858e-13,7.318156478703527e-14,4.5878044400142936e-14,3.0199228499296825e-14,1.306491224910406e-14,1.0488390557053275e-14,5.947302466495766e-15,7.897313774731388e-09,6.162880182281755e-09,4.492265579364893e-09,3.368595259736409e-09,2.181039627569071e-09,1.27228847104555e-09,7.693487769955344e-10,4.638726543791165e-10,2.658643671733781e-10,1.469063454441208e-10,7.46696804019114e-11,3.8638785864374755e-11,1.9925184927719438e-11,9.095971189863955e-12,4.695896159423437e-12,2.3437745844448472e-12,1.228365689260096e-12,6.319054779459352e-13,3.9179551710646325e-13,2.168394789097208e-13,1.456531522868134e-13
0.0,45,45.0,0.0,30.0,0.0,0.0,0.0,0.0,-13.0,0.0,2.0,0.0,0.0,0.0,7.165028326155045e-11,3.144650002277286e-11,1.4030060906360536e-11,6.281133368589458e-12,3.226524300942809e-12,1.5456708509384973e-12,8.668037577427802e-13,4.99835233127435e-13,2.9598127765242203e-13,1.8530617353278688e-13,1.0883648429655256e-13,7.31182148103514e-14,4.5644246534310045e-14,2.6691775392363637e-14,1.7426649824391177e-14,9.891645459058e-15,4.313409041703426e-15,7.92878103697336e-09,6.426838129883637e-09,4.625459187044147e-09,3.221915840676361e-09,2.0245666833869562e-09,1.3156869641354425e-09,7.465766169940636e-10,4.6405465237907546e-10,2.7446306191780386e-10,1.410742065745284e-10,7.605460319391688e-11,3.8441697764128165e-11,1.9008681703813677e-11,9.820500787234588e-12,4.702351368370689e-12,2.389407903692264e-12,1.1961610792760997e-12,6.532024233334048e-13,3.453103709042291e-13,1.9530072153197813e-13,1.1106158800242857e-13
0.0,46,46.0,0.0,30.0,0.0,0.0,0.0,0.0,-13.0,0.0,2.0,0.0,0.0,0.0,6.353737130269268e-11,3.158971516602691e-11,1.3660029688375636e-11,6.438937326943011e-12,3.049417228175631e-12,1.5494275436152033e-12,8.160204891431398e-13,4.794233589677333e-13,2.9026781371285123e-13,1.7486796272247332e-13,1.108127379145559e-13,6.642990839504908e-14,4.0488407383122917e-14,2.7555920704226162e-14,1.580641349983335e-14,1.1011114157526688e-14,5.170510972817372e-15,7.858552486936557e-09,6.343034183184738e-09,4.558141022590877e-09,3.0665382988442578e-09,2.0388667234030954e-09,1.3314346632368823e-09,8.124496532198802e-10,4.469227949814139e-10,2.5611605201712275e-10,1.4118010603060283e-10,7.515070288872294e-11,3.7328762163555487e-11,1.8521332391779632e-11,9.344560667982079e-12,4.701597842055842e-12,2.323698231773875e-12,1.288885428980356e-12,6.38625374252531e-13,3.471036806779438e-13,1.9023887906293564e-13,1.2006161474158072e-13
0.0,47,47.0,0.0,30.0,0.0,0.0,0.0,0.0,-13.0,0.0,2.0,0.0,0.0,0.0,7.053769300108596e-11,3.128730055151313e-11,1.3669193690961773e-11,6.1334594193537856e-12,3.1315898793710198e-12,1.6014238953543322e-12,8.423314781176644e-13,4.670219199682166e-13,2.777938421923669e-13,1.7157240029964571e-13,1.0975466117294117e-13,6.997844013591481e-14,4.342240886030285e-14,2.6658140040553857e-14,1.545613655555372e-14,9.88488684831517e-15,7.485710839638123e-15,7.804247457320676e-09,5.9350325466609005e-09,4.569123506165127e-09,3.562488781621595e-09,1.999490928984538e-09,1.2422059860771474e-09,7.359927110944338e-10,4.693012701512361e-10,2.5556460661939835e-10,1.4248866865838546e-10,7.214626556184727e-11,3.6420229072267835e-11,1.8472582554809304e-11,9.330676935868456e-12,4.568838200335082e-12,2.2479840865148463e-12,1.0835840374399957e-12,5.630271645383307e-13,3.1664997223509e-13,1.9219216791813118e-13,1.1148495288861667e-13
0.0,48,48.0,0.0,30.0,0.0,0.0,0.0,0.0,-13.0,0.0,2.0,0.0,0.0,0.0,6.606758248004881e-11,2.912139200217029e-11,1.3719576537681403e-11,6.142788187327468e-12,2.9598637312252902e-12,1.48069113865016e-12,8.589603430065383e-13,4.745018998146318e-13,2.759937367426732e-13,1.662311669781515e-13,1.076937748927173e-13,6.519001139313029e-14,4.3634100703174896e-14,2.674310442836241e-14,1.537384644871591e-14,1.0246338139639e-14,4.086822284704967e-15,7.565838530293522e-09,6.1704905778895954e-09,4.757847261674154e-09,3.289119798765296e-09,2.1015669191737294e-09,1.305733074483577e-09,7.560856242099823e-10,4.63123264638507e-10,2.548963672002504e-10,1.4247282353229906e-10,6.984200448014179e-11,3.695361686467741e-11,1.845726176265363e-11,8.853097053082815e-12,4.478515434188798e-12,2.233956261209881e-12,1.1364758587540561e-12,6.033393961440062e-13,3.21618590768362e-13,1.8242135064931423e-13,1.233106338324632e-13
0.0,49,49.0,0.0,30.0,0.0,0.0,0.0,0.0,-13.0,0.0,2.0,0.0,0.0,0.0,6.720447202166426e-11,2.7976688301628086e-11,1.3924953197160393e-11,6.044196791771508e-12,2.8331517391891316e-12,1.5115451522940121e-12,7.834200310371667e-13,4.330269540424568e-13,2.616249387162221e-13,1.673324650562786e-13,1.0175324023652447e-13,6.99095550061895e-14,4.3168658720102996e-14,2.7233408181534293e-14,1.4593111291594005e-14,8.72734757662046e-15,3.3058128117590587e-15,8.085128292439209e-09,6.3632090576262166e-09,4.618451210982155e-09,3.203428725188649e-09,1.9654711870317355e-09,1.2094114958727756e-09,7.425545483498268e-10,4.4130963996174305e-10,2.462620514103938e-10,1.29536168611002e-10,7.004298563099376e-11,3.438192094251143e-11,1.7426156163829026e-11,8.848539323763408e-12,4.404183778157595e-12,2.1443780234128665e-12,1.0218664486788859e-12,6.353684844304816e-13,3.2900126551539517e-13,2.0099248586785573e-13,1.0881697668602857e-13
0.0,50,50.0,0.0,30.0,0.0,0.0,0.0,0.0,-13.0,0.0,2.0,0.0,0.0,0.0,6.913178049430379e-11,2.8668210274040462e-11,1.3466060891936967e-11,5.790916787649655e-12,2.8879477186603363e-12,1.3200050164375078e-12,7.75171337656391e-13,4.519530752605891e-13,2.6599001962661593e-13,1.6283583250509838e-13,1.009232566804523e-13,6.505845033585103e-14,4.286498499004168e-14,2.5991026758938445e-14,1.528871399818219e-14,7.67963824553386e-15,4.687575330042136e-15,7.61950941070698e-09,6.439199314402678e-09,5.008312214762507e-09,3.2802422421278405e-09,1.9350256446894065e-09,1.2282645165656747e-09,7.549184278084064e-10,4.171667613941027e-10,2.558322624329891e-10,1.2959892956412644e-10,6.748746578419968e-11,3.434472906432469e-11,1.7539561832640254e-11,8.7791679925008e-12,4.2169746411220484e-12,2.04921165197981e-12,1.0832068997860726e-12,5.239120097001602e-13,3.049817299804382e-13,1.7430299900900647e-13,1.1192637251312959e-13
0.0,51,51.0,0.0,30.0,0.0,0.0,0.0,0.0,-13.0,0.0,2.0,0.0,0.0,0.0,6.255228351601196e-11,2.8758130791559345e-11,1.2480164775224971e-11,5.92616522744209e-12,2.849983839060139e-12,1.383697318446984e-12,7.477277602634157e-13,4.315679044053844e-13,2.435465401647395e-13,1.5207659808817255e-13,9.810856501134182e-14,6.257824643222823e-14,4.119249739798099e-14,2.5571208298641744e-14,1.3360643165889645e-14,8.291597159274948e-15,5.748553133937037e-15,7.830753595318444e-09,6.172258001421144e-09,4.9010114374962715e-09,3.358594996839847e-09,2.05411346314226e-09,1.2277877983809216e-09,7.846828976346395e-10,4.3125706492248353e-10,2.4019279161452477e-10,1.3090902404373883e-10,6.703218386130532e-11,3.49106598390219e-11,1.7400306118562697e-11,8.69466873979566e-12,4.190242522053309e-12,2.081350080415508e-12,1.0314773585027745e-12,5.634137502136583e-13,2.9802145295343945e-13,1.7109954393364284e-13,9.302816806342614e-14
0.0,52,52.0,0.0,30.0,0.0,0.0,0.0,0.0,-13.0,0.0,2.0,0.0,0.0,0.0,6.528407400153293e-11,2.6548649093745526e-11,1.2648844422454872e-11,5.689282755165393e-12,2.7499554447613217e-12,1.3323296872519574e-12,7.534401785728229e-13,4.218288936628462e-13,2.4847700197028116e-13,1.4492884676136698e-13,9.587897774784657e-14,6.418676545168042e-14,3.941217115020407e-14,2.371770769769802e-14,1.5501168191461352e-14,7.797988769008932e-15,4.696142839595936e-15,7.859434949872262e-09,6.4626230248426395e-09,4.713160390687139e-09,3.160065431846172e-09,1.967777717388326e-09,1.239246868715324e-09,7.628239453536255e-10,4.482054717868786e-10,2.4444808077136e-10,1.3103706541224596e-10,6.670396224233574e-11,3.6042981285470215e-11,1.681821838771542e-11,8.149821347950564e-12,4.13546115712672e-12,1.9750597681392236e-12,1.02651218329371e-12,5.500501803970906e-13,2.952688038934078e-13,1.8442352831648795e-13,1.0201565693379907e-13
0.0,53,53.0,0.0,30.0,0.0,0.0,0.0,0.0,-13.0,0.0,2.0,0.0,0.0,0.0,6.375395828886568e-11,2.7127152078395543e-11,1.2393489135015831e-11,5.2369533039443664e-12,2.717702177298335e-12,1.274487782248317e-12,7.215389489234816e-13,4.1398754248904084e-13,2.4462527851699767e-13,1.4805802195967956e-13,9.068983445718231e-14,6.264452594622487e-14,4.059942048325093e-14,2.3818563478560082e-14,1.3730985142662446e-14,8.981867951400799e-15,6.296487798103362e-15,8.014475619298088e-09,6.6596630035754715e-09,4.7330471323189385e-09,3.2356025606467313e-09,1.9400911380890864e-09,1.1467930084366612e-09,7.524373761723577e-10,4.2548833851714495e-10,2.3264688342051415e-10,1.245482099618288e-10,6.55312625121098e-11,3.278376585939905e-11,1.5913259264317604e-11,8.162717665992157e-12,4.1483220435527085e-12,1.8792073062629722e-12,1.0537557120482918e-12,5.408460625368957e-13,2.9497284913147316e-13,1.508057937381372e-13,1.0668384387139674e-13
0.0,54,54.0,0.0,30.0,0.0,0.0,0.0,0.0,-13.0,0.0,2.0,0.0,0.0,0.0,6.084355274285406e-11,2.7386634880534942e-11,1.1547084994461647e-11,5.5512780551045896e-12,2.5840860894618264e-12,1.2499766397890496e-12,6.859612968568233e-13,3.8306151188387934e-13,2.363997400212074e-13,1.5450761705857166e-13,8.674197775429887e-14,6.286520164307316e-14,3.546653734691737e-14,2.3558926070318897e-14,1.2250836145785467e-14,8.098331330760485e-15,3.12244880354713e-15,8.001105570090764e-09,6.758290513235217e-09,4.774557047826843e-09,3.182380816234295e-09,2.0197639562803453e-09,1.2185241142910136e-09,7.263831795362692e-10,4.175935486832263e-10,2.361475620024704e-10,1.290722074047046e-10,6.643713541646693e-11,3.324114218748415e-11,1.7253676340493468e-11,7.676361778225664e-12,3.920571559255534e-12,1.8889308459371447e-12,1.0042210746957946e-12,5.210998191843095e-13,2.556805983647017e-13,1.717431348273395e-13,8.951071691325408e-14
0.0,55,55.0,0.0,30.0,0.0,0.0,0.0,0.0,-13.0,0.0,2.0,0.0,0.0,0.0,6.035050895751268e-11,2.613298951471349e-11,1.1407009277463886e-11,5.365274622023432e-12,2.4974481804745064e-12,1.272070654225613e-12,6.647868169721484e-13,3.717077485601199e-13,2.34536409169577e-13,1.364669152710346e-13,9.250060223568926e-14,5.897315961890503e-14,3.441164546482848e-14,2.322854772797386e-14,1.295001681685375e-14,9.528502401290158e-15,5.772264661635446e-15,7.978426820706557e-09,6.25181555268826e-09,4.7228272433840745e-09,2.9538185819572164e-09,1.964861636896517e-09,1.251404891080311e-09,7.204194568400278e-10,4.3901251808951783e-10,2.17243552429096e-10,1.227804336507258e-10,5.840272439471528e-11,3.2141909886395534e-11,1.6410123972303698e-11,8.383815214520233e-12,3.7505674570030754e-12,1.8166725846346537e-12,9.924745771158926e-13,5.032500541680624e-13,2.795556305498482e-13,1.4890881918818103e-13,8.642402216304252e-14
0.0,56,56.0,0.0,30.0,0.0,0.0,0.0,0.0,-13.0,0.0,2.0,0.0,0.0,0.0,5.7876591626826807e-11,2.611209619816053e-11,1.1551671443082134e-11,5.226347809676427e-12,2.484525918115892e-12,1.129514533794351e-12,6.548270636961698e-13,3.5336818779058627e-13,2.32396044204879e-13,1.3027458772913315e-13,8.777003307561476e-14,5.808764397645974e-14,3.728669941537854e-14,2.2216644513350663e-14,1.3327629924878847e-14,9.051904065967344e-15,5.347413638064885e-15,8.170080659405796e-09,6.505093534697846e-09,4.748364714267685e-09,3.3955519813031776e-09,1.956151686552883e-09,1.1613632794972925e-09,7.392607824701894e-10,4.1678610533048077e-10,2.3684587456183415e-10,1.1464096910030651e-10,6.170620836530353e-11,3.1996531426001854e-11,1.575615001267008e-11,7.692263875866312e-12,3.3815357510148506e-12,1.8077491859882048e-12,9.39474493737098e-13,4.831230789118761e-13,2.5007301981977515e-13,1.341376577282696e-13,9.698320116686085e-14
0.0,57,57.0,0.0,30.0,0.0,0.0,0.0,0.0,-13.0,0.0,2.0,0.0,0.0,0.0,5.950285555702197e-11,2.4517018927228493e-11,1.1728357188615098e-11,5.073658734655039e-12,2.414532248454732e-12,1.1367905171496593e-12,6.462389528665255e-13,3.3954211509993665e-13,2.155629050754769e-13,1.3564712815075348e-13,8.810803697901599e-14,5.689160640024158e-14,3.6912050379440096e-14,2.2307977867859777e-14,1.3530833036186348e-14,7.695135798182704e-15,6.189514933843116e-15,8.173468080201134e-09,6.381341967781252e-09,4.7055914117934644e-09,3.1150790436774364e-09,1.901556126526257e-09,1.1027022243141124e-09,6.944440967407707e-10,4.27096811725942e-10,2.28769564596673e-10,1.151186652899241e-10,6.372716084284149e-11,3.2788741756999974e-11,1.5371569780986842e-11,7.32336176765051e-12,3.517561504454992e-12,1.7512674936971039e-12,9.542876400836528e-13,4.3406577861558457e-13,2.710131349340853e-13,1.4214010577836813e-13,7.905678837189066e-14
0.0,58,58.0,0.0,30.0,0.0,0.0,0.0,0.0,-13.0,0.0,2.0,0.0,0.0,0.0,5.6479781428456284e-11,2.528076163781352e-11,1.1029767833937634e-11,4.799891704131319e-12,2.314510835283928e-12,1.1697218957747952e-12,6.487881349039613e-13,3.808388487562325e-13,2.1730342472126237e-13,1.3314040926885753e-13,8.708830532009259e-14,5.4492957550658954e-14,3.196526395949378e-14,2.2641741218774565e-14,1.3862836760290876e-14,8.698054541899686e-15,3.1101159251297847e-15,8.242763174938363e-09,6.900761469215145e-09,4.777869688151135e-09,3.0650261728648683e-09,1.9825798653913235e-09,1.1920097381208226e-09,7.336127448600967e-10,4.0168576993316185e-10,2.1561805658119555e-10,1.160248588006184e-10,5.651927546420042e-11,3.0277205608381447e-11,1.5144988338333995e-11,7.154065920701966e-12,3.724075645383358e-12,1.7447780884601742e-12,8.98683758426922e-13,4.660588384945654e-13,2.490970372813572e-13,1.4961154091407028e-13,9.024035628749374e-14
0.0,59,59.0,0.0,30.0,0.0,0.0,0.0,0.0,-13.0,0.0,2.0,0.0,0.0,0.0,5.3843972656967e-11,2.521682260703645e-11,1.0417769655300315e-11,5.064292972750323e-12,2.3635185664877925e-12,1.1336932270046014e-12,5.769513519040743e-13,3.4614459097413853e-13,1.9986296026262453e-13,1.3004585341361645e-13,8.609441305209622e-14,5.2514601865871394e-14,3.311739065971094e-14,2.2265112362562797e-14,1.3247154591816759e-14,7.170156678496707e-15,3.1341337454334503e-15,8.150447561134723e-09,6.711195449202898e-09,4.595188790327009e-09,3.0905367438472322e-09,1.91767376784168e-09,1.125008492173247e-09,6.892128241022859e-10,4.0033480577927083e-10,2.1478293794227865e-10,1.1529930950616494e-10,6.144135487804849e-11,3.1324022268586265e-11,1.4267627329236944e-11,7.318656980355214e-12,3.6245583008897708e-12,1.7253651699411217e-12,9.025404077900773e-13,4.4631822601844275e-13,2.5742510002398036e-13,1.4835351026720822e-13,7.133026898663558e-14
0.0,60,60.0,0.0,30.0,0.0,0.0,0.0,0.0,-13.0,0.0,2.0,0.0,0.0,0.0,5.5772917790674614e-11,2.3569076039497272e-11,1.0955405175689658e-11,4.988434320436353e-12,2.225522723782451e-12,1.125160195065715e-12,6.311614752328691e-13,3.3990490357138067e-13,1.9515449008496832e-13,1.2080414542834746e-13,8.166816772240203e-14,5.153650638980666e-14,3.1357280245162996e-14,1.9596085050864402e-14,1.3990386762041896e-14,7.443362260481945e-15,3.753733043395634e-15,8.272800296629623e-09,6.9274615192254125e-09,4.569559736381498e-09,3.2270539128310986e-09,1.8930289156364918e-09,1.1495654921722147e-09,6.993872806692655e-10,3.905441876395235e-10,2.1893762659885e-10,1.162879564148641e-10,5.792802041573034e-11,3.003983328354404e-11,1.5148194418369897e-11,7.0516472688345885e-12,3.6369828336565373e-12,1.6973579051223805e-12,8.45697103390051e-13,4.4379462172711896e-13,2.37426639026101e-13,1.439321975205681e-13,6.233909761533495e-14
0.0,61,61.0,0.0,30.0,0.0,0.0,0.0,0.0,-13.0,0.0,2.0,0.0,0.0,0.0,5.163635693962616e-11,2.2850978115643093e-11,9.617651326957308e-12,4.507484003150041e-12,2.2806839573164838e-12,1.088734185381539e-12,5.749991791236931e-13,3.121075368826281e-13,1.9683035603897686e-13,1.230650743704055e-13,7.992745276819685e-14,4.973364421685396e-14,3.1894197714332355e-14,2.2353000180709508e-14,1.2213272783372199e-14,8.359329949847345e-15,3.7779833950502695e-15,8.152225887802618e-09,6.582645724166954e-09,4.533618262391934e-09,3.197499286779266e-09,1.967928430221494e-09,1.138607268572727e-09,6.941759359467781e-10,3.7565664136068817e-10,2.039738462592943e-10,1.1273891834865607e-10,5.921004040508945e-11,2.7864728516110316e-11,1.4302929996300968e-11,6.672032374341453e-12,3.2341198218406506e-12,1.6003631675700491e-12,8.099194304565582e-13,4.3656750527242943e-13,2.405011546148892e-13,1.4438285956090737e-13,8.111292225412346e-14
0.0,62,62.0,0.0,30.0,0.0,0.0,0.0,0.0,-13.0,0.0,2.0,0.0,0.0,0.0,5.2295731459435894e-11,2.413009338061008e-11,9.724262671912084e-12,4.8593281298336975e-12,2.161595620047631e-12,1.0735121086339248e-12,5.603042697333976e-13,3.2325398706141544e-13,1.9498801205076156e-13,1.1457060109432436e-13,7.992546641728696e-14,4.9981033087811006e-14,3.2469868754911675e-14,2.1682073815421938e-14,1.2393703795549268e-14,5.904117471849171e-15,3.234448863672133e-15,8.017155997370247e-09,6.289378150495719e-09,4.811557972883315e-09,2.954883130196691e-09,1.9306655576353024e-09,1.0824648244488387e-09,6.356605251244437e-10,3.532033226060517e-10,2.0391801212977967e-10,1.0289895590512455e-10,5.5750536157063446e-11,2.780088020112205e-11,1.3450484058493462e-11,6.7271512864365345e-12,3.428586029002145e-12,1.6206995613821146e-12,8.32534032345657e-13,4.1061940150617364e-13,2.2435012582291874e-13,1.2387200542874032e-13,8.456052125409746e-14
0.0,63,63.0,0.0,30.0,0.0,0.0,0.0,0.0,-13.0,0.0,2.0,0.0,0.0,0.0,5.235748308970629e-11,2.1674857528941797e-11,1.01731382951458e-11,4.404326436985027e-12,2.1169310594934535e-12,1.021406390425564e-12,5.559931177268269e-13,3.1718660804564633e-13,1.8097452772768398e-13,1.1676374211261323e-13,7.616541822220974e-14,4.9353326594210884e-14,3.281292996185165e-14,1.9600830782285303e-14,9.764567446906926e-15,5.5517136180351705e-15,4.378336737012907e-15,7.885576588425734e-09,6.3725620187290156e-09,4.7284528756413986e-09,2.7493161503990516e-09,1.903961739028911e-09,1.072925951292165e-09,6.326812202152601e-10,3.658191357959518e-10,1.8727295320821243e-10,1.0686971657560992e-10,5.143139302333444e-11,2.7041308753795772e-11,1.422529114101044e-11,6.66188354751657e-12,3.1609354449342388e-12,1.5174868405067973e-12,8.203312670335057e-13,3.917601045762077e-13,2.293527599872873e-13,1.1760571851463255e-13,8.232739837448929e-14
