Line_number,Fiducial,Easting,Northing,Height,Elevation,tx_pitch,tx_roll,tx_yaw,txrx_dx,txrx_dy,txrx_dz,rx_pitch,rx_roll,rx_yaw,S0Z_time_1.431e-04,S0Z_time_1.801e-04,S0Z_time_2.266e-04,S0Z_time_2.846e-04,S0Z_time_3.581e-04,S0Z_time_4.506e-04,S0Z_time_5.671e-04,S0Z_time_7.136e-04,S0Z_time_8.981e-04,S0Z_time_1.131e-03,S0Z_time_1.423e-03,S0Z_time_1.791e-03,S0Z_time_2.255e-03,S0Z_time_2.838e-03,S0Z_time_3.573e-03,S0Z_time_4.498e-03,S0Z_time_5.662e-03,S1Z_time_1.409e-05,S1Z_time_1.610e-05,S1Z_time_1.909e-05,S1Z_time_2.360e-05,S1Z_time_2.960e-05,S1Z_time_3.709e-05,S1Z_time_4.609e-05,S1Z_time_5.759e-05,S1Z_time_7.209e-05,S1Z_time_9.060e-05,S1Z_time_1.141e-04,S1Z_time_1.431e-04,S1Z_time_1.801e-04,S1Z_time_2.266e-04,S1Z_time_2.846e-04,S1Z_time_3.581e-04,S1Z_time_4.506e-04,S1Z_time_5.671e-04,S1Z_time_7.136e-04,S1Z_time_8.981e-04,S1Z_time_1.131e-03
0.0,0,0.0,0.0,30.0,0.0,0.0,0.0,0.0,-13.0,0.0,2.0,0.0,0.0,0.0,1.128180982719952e-10,7.737914211757842e-11,5.0933686434322665e-11,3.216942033272938e-11,1.9382543022033348e-11,1.1191146123587575e-11,6.221239393273375e-12,3.3219659856848038e-12,1.7000883684430655e-12,8.406190809610934e-13,4.052733900581889e-13,1.898374012227466e-13,8.654326395531283e-14,3.87198324708949e-14,1.6363603819272822e-14,6.755628882200566e-15,2.6022696506707038e-15,4.234831017426147e-09,3.104124786403115e-09,2.088194120716241e-09,1.269329923265058e-09,7.729452510938682e-10,4.925215057711879e-10,3.449141801673444e-10,2.562540388190071e-10,1.9813789807018177e-10,1.536167609736725e-10,1.165489128450042e-10,8.567375866085502e-11,6.02368076454521e-11,4.038554920917047e-11,2.5988449969920038e-11,1.5861536395131553e-11,9.21440112557107e-12,5.09141917659457e-12,2.6933503688844532e-12,1.3543883958004682e-12,6.415148779690621e-13
0.0,1,1.0,0.0,30.0,0.0,0.0,0.0,0.0,-13.0,0.0,2.0,0.0,0.0,0.0,1.0963057000292054e-10,7.718253011945818e-11,5.230639618931445e-11,3.4033964415838536e-11,2.1129515744338785e-11,1.256576470938599e-11,7.1875161581047535e-12,3.942326595950095e-12,2.070963853308511e-12,1.0489309058856536e-12,5.16148277431242e-13,2.4636326553508307e-13,1.1395192205696099e-13,5.1679436331014916e-14,2.2222611072137618e-14,9.32903510413387e-15,3.706397371783808e-15,4.216080347028086e-09,3.087998639950081e-09,2.076473700079201e-09,1.2625503274756761e-09,7.684910175061537e-10,4.869150475005042e-10,3.364962955238358e-10,2.4584562613629194e-10,1.8816793710352501e-10,1.4625175680387016e-10,1.1254790161647102e-10,8.446845963146568e-11,6.08356866568665e-11,4.185109781142241e-11,2.7641711464777163e-11,1.732734046731757e-11,1.0339438743635654e-11,5.86101274052263e-12,3.176557899714529e-12,1.635053098239861e-12,7.928706629278498e-13
0.0,2,2.0,0.0,30.0,0.0,0.0,0.0,0.0,-13.0,0.0,2.0,0.0,0.0,0.0,1.0613225836542562e-10,7.610634083901186e-11,5.2815333948335326e-11,3.524221806764644e-11,2.245081688878851e-11,1.3701247271489305e-11,8.03809667664937e-12,4.517338464266759e-12,2.4303482088895325e-12,1.2585547839964725e-12,6.316235743336992e-13,3.0693319306050796e-13,1.441125994463858e-13,6.624450887096607e-14,2.893117051484881e-14,1.2336308905205778e-14,5.006741692805821e-15,4.19694068408084e-09,3.071653832750459e-09,2.064706541544648e-09,1.2562278611841687e-09,7.658574620792865e-10,4.850309508146162e-10,3.329691117754873e-10,2.399971823708912e-10,1.811483469629466e-10,1.3994689874529123e-10,1.0828124696733953e-10,8.242064907712523e-11,6.050837470330358e-11,4.253181391654789e-11,2.8719596956369084e-11,1.842293329098313e-11,1.1253399339340131e-11,6.526840186412768e-12,3.6156193169953158e-12,1.9008422170219887e-12,9.42759626256332e-13
0.0,3,3.0,0.0,30.0,0.0,0.0,0.0,0.0,-13.0,0.0,2.0,0.0,0.0,0.0,1.0286552943194352e-10,7.456796022103443e-11,5.2719667057959746e-11,3.5939128470841404e-11,2.3412761502805277e-11,1.4616678407473117e-11,8.770613361725957e-12,5.038788817456441e-12,2.7706817666985594e-12,1.464475125879536e-12,7.488841980820236e-13,3.701776141780486e-13,1.7643644141896997e-13,8.218180572200116e-14,3.641326490417144e-14,1.5752934411713453e-14,6.49960399069235e-15,4.177400847342612e-09,3.0551251723981816e-09,2.052926470742538e-09,1.2500398349489753e-09,7.638216673832639e-10,4.84783609486604e-10,3.3220876050650863e-10,2.374119748794228e-10,1.7684896560192765e-10,1.351436752135947e-10,1.0434370743447017e-10,8.001449956769326e-11,5.958492271852382e-11,4.2635306017806865e-11,2.9340873205381403e-11,1.9202497314661333e-11,1.1972371424076564e-11,7.087709811388388e-12,4.004479020787926e-12,2.1464754733322227e-12,1.0873749582093539e-12
0.0,4,4.0,0.0,30.0,0.0,0.0,0.0,0.0,-13.0,0.0,2.0,0.0,0.0,0.0,1.0015414551253608e-10,7.28855027680162e-11,5.222670214028738e-11,3.624522908203221e-11,2.4077957255664792e-11,1.5336999442782578e-11,9.389730514516553e-12,5.503379972208105e-12,3.0871334093075784e-12,1.662932402390655e-12,8.655832224841665e-13,4.348543080489969e-13,2.1034385154269007e-13,9.924652368834097e-14,4.4579790787573154e-14,1.9547108527417504e-14,8.177698999153144e-15,4.157448348749143e-09,3.038411439640818e-09,2.04116651975822e-09,1.2439788707565504e-09,7.620233799928048e-10,4.852016958672263e-10,3.3285638477572244e-10,2.369046681501286e-10,1.747073773449937e-10,1.3189879659587432e-10,1.0108910994050438e-10,7.761197522415743e-11,5.832693997735749e-11,4.232903368091091e-11,2.9606897038712544e-11,1.9719413886642996e-11,1.2518617019512537e-11,7.548693349495145e-12,4.341252647999736e-12,2.3693338840317603e-12,1.2235978020339736e-12
0.0,5,5.0,0.0,30.0,0.0,0.0,0.0,0.0,-13.0,0.0,2.0,0.0,0.0,0.0,9.814104660830526e-11,7.129114208032908e-11,5.150710685412893e-11,3.626184382462056e-11,2.4501728713196483e-11,1.5888162663676866e-11,9.903990201160057e-12,5.911166998773893e-12,3.3769831499173573e-12,1.851259779043976e-12,9.798425056410794e-13,4.998802877915338e-13,2.452896921798917e-13,1.1719395529379824e-13,5.3334129265834576e-14,2.3681990837940916e-14,1.0030759801248686e-14,4.137083483888972e-09,3.0215110939463488e-09,2.029435597086376e-09,1.2380733607465887e-09,7.60399147020297e-10,4.859103123331757e-10,3.341720541632043e-10,2.376045851875738e-10,1.741003212587971e-10,1.3002893359362752e-10,9.86650121625806e-11,7.546351689641535e-11,5.694466872703185e-11,4.175241210457452e-11,2.960283916609479e-11,2.0021807306006913e-11,1.29158797352499e-11,7.918269494828652e-12,4.627023306967469e-12,2.5684401203503673e-12,1.349238532389349e-12
0.0,6,6.0,0.0,30.0,0.0,0.0,0.0,0.0,-13.0,0.0,2.0,0.0,0.0,0.0,9.683558859987102e-11,6.993613776309565e-11,5.0700085009781386e-11,3.607640905992186e-11,2.4732427017054322e-11,1.6294755787681786e-11,1.0323642076368363e-11,6.264359684654354e-12,3.639096604157791e-12,2.0276928128222505e-12,1.0902134628786908e-12,5.643426931999772e-13,2.807792362165923e-13,1.3578816054130802e-13,6.257662975051082e-14,2.8117601197260378e-14,1.204616833359695e-14,4.116313055622765e-09,3.0044307224696644e-09,2.0177376217461463e-09,1.2323381191088874e-09,7.589573936175499e-10,4.867966452656089e-10,3.358070607263158e-10,2.38961024956029e-10,1.744970257696867e-10,1.2924731224623083e-10,9.706567192968682e-11,7.371500509319364e-11,5.560017228084365e-11,4.102365581134189e-11,2.94017077172371e-11,2.015184088413497e-11,1.3186816650649889e-11,8.206319621418184e-12,4.864872885081719e-12,2.7436720765619102e-12,1.4631501760977383e-12
0.0,7,7.0,0.0,30.0,0.0,0.0,0.0,0.0,-13.0,0.0,2.0,0.0,0.0,0.0,9.616470751006462e-11,6.88998596265641e-11,4.991326944457069e-11,3.576501529806926e-11,2.4813006104236967e-11,1.6579286521552153e-11,1.0659282017601996e-11,6.566422679163434e-12,3.873493968382377e-12,2.191188734238442e-12,1.1956215677081121e-12,6.274948879445567e-13,3.1637645498463746e-13,1.5480819246077761e-13,7.220815833368207e-14,3.2812360506052193e-14,1.4209577202041547e-14,4.095144718422077e-09,2.987181731229366e-09,2.006079925468643e-09,1.226779011265813e-09,7.577113405300208e-10,4.878411008996009e-10,3.3762069797676754e-10,2.4066521888567223e-10,1.7551033226583166e-10,1.2926059928640872e-10,9.619298441493624e-11,7.24238561952703e-11,5.440703832671305e-11,4.0241173995806247e-11,2.9067458596973526e-11,2.0146712253857867e-11,1.335201770659727e-11,8.422843374990695e-12,5.059032404532314e-12,2.8953916397184592e-12,1.5650783863238597e-12
0.0,8,8.0,0.0,30.0,0.0,0.0,0.0,0.0,-13.0,0.0,2.0,0.0,0.0,0.0,9.60172014500717e-11,6.82047667186508e-11,4.922247584436879e-11,3.539246431426937e-11,2.478226663988469e-11,1.67623412588786e-11,1.0921151039928053e-11,6.821432151866094e-12,4.080995447414302e-12,2.341267536378359e-12,1.2953093137718458e-12,6.887436891414496e-13,3.5170630745635347e-13,1.7405222172332133e-13,8.213286254569563e-14,3.772431819563911e-14,1.6505480719078046e-14,4.0735852900600865e-09,2.9697768183825384e-09,1.9944734110643566e-09,1.2214006212851502e-09,7.566677782506543e-10,4.890477952883988e-10,3.395670164599409e-10,2.425623202476199e-10,1.768878469924737e-10,1.2982034315177277e-10,9.590945517004638e-11,7.15827661990704e-11,5.343308586619377e-11,3.948254600060839e-11,2.8656109870920263e-11,2.003985175667182e-11,1.3430006889050195e-11,8.577294581854152e-12,5.214167868466561e-12,3.0243693890166813e-12,1.65535125407856e-12
0.0,9,9.0,0.0,30.0,0.0,0.0,0.0,0.0,-13.0,0.0,2.0,0.0,0.0,0.0,9.6275204358963e-11,6.783412079970512e-11,4.867384756827656e-11,3.501134223212089e-11,2.4675242490871082e-11,1.6862981918289574e-11,1.1118901827187175e-11,7.033660473320354e-12,4.262933486847293e-12,2.477875184571429e-12,1.3887837763748144e-12,7.476325679690965e-13,3.8645292623677583e-13,1.9333983310050677e-13,9.226023414225025e-14,4.28121308707842e-14,1.891770645128287e-14,4.051641154695301e-09,2.9522286206490013e-09,1.982930781470257e-09,1.2162091738119952e-09,7.55829547268921e-10,4.904221997394201e-10,3.4163623540677046e-10,2.445833966216322e-10,1.7847964629921222e-10,1.307397294164446e-10,9.60750082167123e-11,7.114479577973172e-11,5.270737403004017e-11,3.88038799922832e-11,2.8215410947665615e-11,1.986158873339967e-11,1.3437640865253239e-11,8.678384351061097e-12,5.33486933548397e-12,3.1317979864969378e-12,1.734574059306571e-12
0.0,10,10.0,0.0,30.0,0.0,0.0,0.0,0.0,-13.0,0.0,2.0,0.0,0.0,0.0,9.683253488593846e-11,6.774863050404756e-11,4.828849894773744e-11,3.466141799661267e-11,2.452290700527746e-11,1.6899009010925826e-11,1.1261620626894382e-11,7.207350357070388e-12,4.420931368680184e-12,2.601266960631558e-12,1.4757695956379045e-12,8.038239586300752e-13,4.2035551039628666e-13,2.125128128847197e-13,1.0250651540161952e-13,4.803584426917095e-14,2.142982051333088e-14,4.029319110611004e-09,2.9345497434592615e-09,1.9714653346814056e-09,1.2112126109896265e-09,7.551986540928657e-10,4.919668736913339e-10,3.43828975239921e-10,2.4670202628281156e-10,1.8020400586468303e-10,1.318901951655733e-10,9.656737572288531e-11,7.10446568862496e-11,5.222987965472862e-11,3.824086293996824e-11,2.7784084005677023e-11,1.963918960145463e-11,1.3390491916268752e-11,8.734155592982687e-12,5.425374693818599e-12,3.2192605171025966e-12,1.8034264340064632e-12
0.0,11,11.0,0.0,30.0,0.0,0.0,0.0,0.0,-13.0,0.0,2.0,0.0,0.0,0.0,9.760273101702838e-11,6.789966379313815e-11,4.806857130720909e-11,3.43699905691701e-11,2.435162525740316e-11,1.6886975455406297e-11,1.1357927314240049e-11,7.346625006995589e-12,4.556747902433036e-12,2.711910423570535e-12,1.5561664387119432e-12,8.570822041493629e-13,4.532032966315891e-13,2.314348105028933e-13,1.1279551103043359e-13,5.335750630286018e-14,2.4025456224093308e-14,4.0066270099747155e-09,2.916753219611966e-09,1.9600905668613747e-09,1.2064199001589918e-09,7.547776973602154e-10,4.936823243507059e-10,3.4614698820796167e-10,2.489101661295896e-10,1.8202012173791476e-10,1.3318951582710887e-10,9.728994704432249e-11,7.121391648258026e-11,5.198157478341583e-11,3.781150355750967e-11,2.73914153671939e-11,1.9396510588338877e-11,1.330302519287615e-11,8.752148009504287e-12,5.489496864252699e-12,3.2886256984514196e-12,1.8625710974013794e-12
0.0,12,12.0,0.0,30.0,0.0,0.0,0.0,0.0,-13.0,0.0,2.0,0.0,0.0,0.0,9.852037553047186e-11,6.823830598976862e-11,4.800344868217991e-11,3.4153205011894516e-11,2.418272478146409e-11,1.6842001981571575e-11,1.1416044101135104e-11,7.455476380471295e-12,4.672181878654544e-12,2.8104085658074715e-12,1.6300103458844893e-12,9.072576205520015e-13,4.848304099314086e-13,2.4999026498689274e-13,1.230589065943272e-13,5.874162167022118e-14,2.6688581403995676e-14,3.983574104336187e-09,2.8988529218614574e-09,1.9488202175733024e-09,1.2018404636694682e-09,7.545701050361568e-10,4.955683865379335e-10,3.4859089076723625e-10,2.512063233346994e-10,1.8390953051376714e-10,1.3458844908947023e-10,9.817182151367796e-11,7.159013794915504e-11,5.193321296491023e-11,3.751991112610307e-11,2.7057531889864816e-11,1.9153576753137136e-11,1.3188557551523356e-11,8.739531370302288e-12,5.530682239329311e-12,3.341904679463353e-12,1.912637296623659e-12
0.0,13,13.0,0.0,30.0,0.0,0.0,0.0,0.0,-13.0,0.0,2.0,0.0,0.0,0.0,9.953881753489255e-11,6.872064587277606e-11,4.8075223149015384e-11,3.4018029042316145e-11,2.4032387528258844e-11,1.6777510026132138e-11,1.1443791030723243e-11,7.537782364028376e-12,4.769023509520094e-12,2.897443205007916e-12,1.6974392497460096e-12,9.542717243339903e-13,5.151109153239245e-13,2.6808292690763866e-13,1.332362220468642e-13,6.415545462841653e-14,2.940371707143437e-14,3.960171192634315e-09,2.8808638096840966e-09,1.9376684417431037e-09,1.19748389706327e-09,7.545799072100802e-10,4.976250195212704e-10,3.511602596770139e-10,2.5359054101439074e-10,1.858648037839312e-10,1.360592998876777e-10,9.91639911925218e-11,7.212118700217211e-11,5.205200736390238e-11,3.736033819530394e-11,2.6794339644443635e-11,1.8926316848310213e-11,1.3059078979564557e-11,8.70315350571993e-12,5.552122114785845e-12,3.3811159041048257e-12,1.9542376590356543e-12
0.0,14,14.0,0.0,30.0,0.0,0.0,0.0,0.0,-13.0,0.0,2.0,0.0,0.0,0.0,1.0062646617342154e-10,6.931017365412622e-11,4.8262955764578255e-11,3.3964497164033343e-11,2.3911902849304053e-11,1.6704982188552193e-11,1.1448514128103733e-11,7.5973200367833e-12,4.849036927241291e-12,2.9737370382501556e-12,1.7586634639853545e-12,9.981036325262446e-13,5.439541071652022e-13,2.8563420876527855e-13,1.4327453054199473e-13,6.956919231641492e-14,3.2156114689339764e-14,3.9364306768302505e-09,2.862802041037097e-09,1.926649959275254e-09,1.193359892308893e-09,7.548114524987508e-10,4.998525638090821e-10,3.5385419230852525e-10,2.5606270031978133e-10,1.8788331782455537e-10,1.3758742944366504e-10,1.0023428146577289e-10,7.276625518410388e-11,5.230609180749404e-11,3.7320889737354016e-11,2.6606912837572257e-11,1.8726559509410043e-11,1.292503905753976e-11,8.649502673318788e-12,5.55685749826885e-12,3.4081878325995613e-12,1.987990947450309e-12
0.0,15,15.0,0.0,30.0,0.0,0.0,0.0,0.0,-13.0,0.0,2.0,0.0,0.0,0.0,1.0176295009334674e-10,6.997825132257206e-11,4.85456492936714e-11,3.3987889363089347e-11,2.38282154135137e-11,1.6633821592966096e-11,1.1436975533281399e-11,7.63775941325146e-12,4.9139585701494046e-12,3.040031128214277e-12,1.8139418512997688e-12,1.0387777566848816e-12,5.712999727924339e-13,3.025814988953847e-13,1.5312805113765234e-13,7.495598964114837e-14,3.493189441587544e-14,3.912366591628173e-09,2.8446850105796492e-09,1.9157801458201375e-09,1.1894782582344432e-09,7.552692125433893e-10,5.022517159475161e-10,3.5667173316303043e-10,2.586222102800554e-10,1.8996416046849929e-10,1.3916554486243945e-10,1.0136251530115053e-10,7.349498500371688e-11,5.2667073127280666e-11,3.738655885063541e-11,2.6495074316849025e-11,1.856229270635058e-11,1.2795179848066808e-11,8.584613030225569e-12,5.547844944922261e-12,3.424907193187798e-12,2.0145379384420004e-12
0.0,16,16.0,0.0,30.0,0.0,0.0,0.0,0.0,-13.0,0.0,2.0,0.0,0.0,0.0,1.0293577847332217e-10,7.070347098642401e-11,4.8904077139362325e-11,3.4080626061851616e-11,2.3784656341598674e-11,1.6571337900126527e-11,1.141523925472632e-11,7.662635534473812e-12,4.9654997377773976e-12,3.097073603099293e-12,1.8635638841873428e-12,1.0763529979231178e-12,5.971147867329974e-13,3.188765002925629e-13,1.6275769065139906e-13,8.029192283178747e-14,3.77181447348904e-14,3.887994639735112e-09,2.8265313617261266e-09,1.905075076184779e-09,1.1858489692431334e-09,7.55957688059374e-10,5.048234164522221e-10,3.5961208380538374e-10,2.6126815269808133e-10,1.921067901792781e-10,1.4079016125895974e-10,1.025365433252934e-10,7.428572327022459e-11,5.311114936060846e-11,3.754147557511094e-11,2.645494701070257e-11,1.8438126433956818e-11,1.2676460587503292e-11,8.513949939147076e-12,5.5279751546721375e-12,3.4329050269152e-12,2.034547175014081e-12
0.0,17,17.0,0.0,30.0,0.0,0.0,0.0,0.0,-13.0,0.0,2.0,0.0,0.0,0.0,1.0413772134178181e-10,7.147049753404293e-11,4.932171529212858e-11,3.4233774701592e-11,2.3781743800786968e-11,1.652285373418806e-11,1.1388579370869085e-11,7.67530489101634e-12,5.005346050463096e-12,3.1456152394970545e-12,1.9078372020839277e-12,1.1109136411341139e-12,6.213868569074393e-13,3.3448361394953494e-13,1.721305764876565e-13,8.555588007626403e-14,4.050298423746973e-14,3.8633322429245986e-09,2.808360998591941e-09,1.8945515420978823e-09,1.18248221138357e-09,7.568813867186293e-10,5.075687485796427e-10,3.626746641653687e-10,2.639994963601349e-10,1.943105779440528e-10,1.424595762539448e-10,1.0374928788176822e-10,7.51235631305172e-11,5.361927162241056e-11,3.7770409811765125e-11,2.6480327118758353e-11,1.8355875264687342e-11,1.2574085992862224e-11,8.442306552207692e-12,5.50005178525786e-12,3.433666521273036e-12,2.0487118848532566e-12
0.0,18,18.0,0.0,30.0,0.0,0.0,0.0,0.0,-13.0,0.0,2.0,0.0,0.0,0.0,1.0536489828767608e-10,7.226878091127055e-11,4.978504030412852e-11,3.443815062819012e-11,2.3817961057021476e-11,1.6491905145831487e-11,1.1361426534808094e-11,7.678895388315845e-12,5.035150673316295e-12,3.186408198497028e-12,1.947079772585837e-12,1.1425620512097879e-12,6.441225031187014e-13,3.493783715052411e-13,1.8121959633065851e-13,9.072941453026777e-14,4.3275588145036134e-14,3.8383986083698625e-09,2.790195107532762e-09,1.8842270609565996e-09,1.1793884171018383e-09,7.580448401021052e-10,5.104888791565284e-10,3.6585910406484705e-10,2.6681525803500386e-10,1.9657473997817478e-10,1.441728087649743e-10,1.0499670101717206e-10,7.599854041149407e-11,5.4176748478205905e-11,3.8059652069065033e-11,2.656380211566756e-11,1.8315180470486542e-11,1.24916264569061e-11,8.373732141150248e-12,5.46674508513616e-12,3.4285510653860564e-12,2.057740847834535e-12
0.0,19,19.0,0.0,30.0,0.0,0.0,0.0,0.0,-13.0,0.0,2.0,0.0,0.0,0.0,1.0661546283216255e-10,7.309135573149248e-11,5.028342474493401e-11,3.468505025702518e-11,2.3890450055742146e-11,1.6480501918718884e-11,1.1337358024737172e-11,7.676258838709179e-12,5.056521241137757e-12,3.2202051835379257e-12,1.981615493302866e-12,1.1714131358299092e-12,6.653423756327322e-13,3.635459238593732e-13,1.9000294497768894e-13,9.579657914857044e-14,4.602618425629939e-14,3.813214804951807e-09,2.772056188184536e-09,1.874119883871603e-09,1.1765782891423398e-09,7.594526362239634e-10,5.135850398378887e-10,3.691652166575354e-10,2.697145956278583e-10,1.9889840969678157e-10,1.459291059476243e-10,1.0627644355987509e-10,7.690414493230846e-11,5.477258638812367e-11,3.839742408055563e-11,2.669759396224347e-11,1.8314108326479702e-11,1.2431205929182392e-11,8.311501242237883e-12,5.430535762894248e-12,3.4188126512105432e-12,2.0623460460209597e-12
0.0,20,20.0,0.0,30.0,0.0,0.0,0.0,0.0,-13.0,0.0,2.0,0.0,0.0,0.0,1.078887421464937e-10,7.393382874740248e-11,5.080881072496646e-11,3.496668210513727e-11,2.3995587437218252e-11,1.648941436541056e-11,1.131912852644555e-11,7.669932839522022e-12,5.071002267444474e-12,3.2477573762101353e-12,2.011772031336205e-12,1.1975904044501186e-12,6.850782146595334e-13,3.7697960064056237e-13,1.98463672420821e-13,1.0074375617558724e-13,4.8746024544866944e-14,3.787803843014868e-09,2.753968089429783e-09,1.864249004793505e-09,1.1740628159978166e-09,7.611094538395035e-10,5.168585358750721e-10,3.725929781856451e-10,2.726968521659285e-10,2.0128073520854668e-10,1.4772775808157247e-10,1.0758708442066115e-10,7.78361819667789e-11,5.539875995117942e-11,3.87739654271364e-11,2.6874146037209443e-11,1.8349682451668348e-11,1.2393729697363311e-11,8.258123604120229e-12,5.393661716726235e-12,3.4056150830612593e-12,2.06322942614078e-12
0.0,21,21.0,0.0,30.0,0.0,0.0,0.0,0.0,-13.0,0.0,2.0,0.0,0.0,0.0,1.0918470166680223e-10,7.479358139547851e-11,5.1355289413435693e-11,3.527636893589181e-11,2.4129432895089863e-11,1.6518458979327477e-11,1.1308733898465658e-11,7.66211611425146e-12,5.0800555904426946e-12,3.269810465134264e-12,2.0378798356138995e-12,1.2212233533961011e-12,7.033701192973746e-13,3.896795626564272e-13,2.0658922782792025e-13,1.0555948825081707e-13,5.142733926556486e-14,3.762190751848812e-09,2.7359560447910548e-09,1.854634168968096e-09,1.17185328056267e-09,7.630200916074751e-10,5.203107688120244e-10,3.7614252075419336e-10,2.7576157214367046e-10,2.037209599765628e-10,1.4956806357302767e-10,1.0892764926149574e-10,7.879195262774206e-11,5.604952523452039e-11,3.918141893314225e-11,2.7086493038354102e-11,1.8418327869376843e-11,1.2379126494141259e-11,8.215389028869322e-12,5.358076079008327e-12,3.3900400544021716e-12,2.061070448598096e-12
0.0,22,22.0,0.0,30.0,0.0,0.0,0.0,0.0,-13.0,0.0,2.0,0.0,0.0,0.0,1.105036288013246e-10,7.566917418632775e-11,5.1918668961090704e-11,3.560858960622253e-11,2.4288055689231265e-11,1.656676294665186e-11,1.1307498006685496e-11,7.654658758363996e-12,5.0850414010941684e-12,3.287098800777386e-12,2.0602714982841262e-12,1.2424458560662343e-12,7.202643503602123e-13,4.0165157199762297e-13,2.1437099816151752e-13,1.10234313756823e-13,5.406328015107089e-14,3.736402650844998e-09,2.718046702711957e-09,1.8452958779007317e-09,1.169961262587797e-09,7.651894892731112e-10,5.239432627928948e-10,3.7981413609311925e-10,2.7890850535388894e-10,2.0621847714724762e-10,1.5144935551691452e-10,1.1029738880345189e-10,7.976969437884009e-11,5.6720831579726935e-11,3.9613608422719034e-11,2.7328460702780888e-11,1.851622016858375e-11,1.238658455332669e-11,8.184438247148805e-12,5.325420921036026e-12,3.373088556623106e-12,2.0565154565717496e-12
0.0,23,23.0,0.0,30.0,0.0,0.0,0.0,0.0,-13.0,0.0,2.0,0.0,0.0,0.0,1.11845957006868e-10,7.655992137147568e-11,5.249607808741066e-11,3.595891831504373e-11,2.4467754508290414e-11,1.6632995123644608e-11,1.131617260339866e-11,7.649066754724833e-12,5.087201928211219e-12,3.3003381597479113e-12,2.0792809155375083e-12,1.2613952337080703e-12,7.358116475057027e-13,4.129059016140211e-13,2.2180384514638e-13,1.1476060646227268e-13,5.664785832376844e-14,3.7104688119617306e-09,2.7002681487505462e-09,1.8362553883640011e-09,1.1683986349586576e-09,7.676227402615254e-10,5.277576880545668e-10,3.836082854139477e-10,2.8213760637015236e-10,2.0877286068549852e-10,1.533710444242167e-10,1.1169567589093643e-10,8.076821804472788e-11,5.740984957336031e-11,4.0065774341012504e-11,2.7594741196248783e-11,1.8639544022900807e-11,1.2414767365634311e-11,8.165850263675652e-12,5.297017634106725e-12,3.355677371878868e-12,2.050169351863205e-12
0.0,24,24.0,0.0,30.0,0.0,0.0,0.0,0.0,-13.0,0.0,2.0,0.0,0.0,0.0,1.1321217531919244e-10,7.746559938375442e-11,5.308562776272429e-11,3.6323906016141024e-11,2.4665190124144536e-11,1.6715557579412178e-11,1.1335041403206241e-11,7.646518735162636e-12,5.087649183839079e-12,3.3102178153379197e-12,2.0952419545295713e-12,1.2782117155234686e-12,7.500660054253621e-13,4.234563991077547e-13,2.2888564838032963e-13,1.191324184668831e-13,5.9175881221547e-14,3.6844207124167397e-09,2.6826499181452705e-09,1.827534703868959e-09,1.167177553732704e-09,7.703250961964847e-10,5.317558783908371e-10,3.8752561065321697e-10,2.854490329677006e-10,2.113838796381452e-10,1.5533265667191507e-10,1.1312197178203894e-10,8.178668434884815e-11,5.811461089031284e-11,4.0534309144979656e-11,2.7880884236734605e-11,1.8784671809979415e-11,1.2462000661293732e-11,8.159737362338406e-12,5.2738726823103544e-12,3.3386328465391303e-12,2.04258964971201e-12
0.0,25,25.0,0.0,30.0,0.0,0.0,0.0,0.0,-13.0,0.0,2.0,0.0,0.0,0.0,1.1460278706039472e-10,7.838625482195699e-11,5.368613731860177e-11,3.670093631669484e-11,2.4877450930331848e-11,1.6812736762065375e-11,1.1364021331878988e-11,7.64789222147403e-12,5.087357482660967e-12,3.31739264305022e-12,2.108486541619242e-12,1.2930380529953862e-12,7.630838305313986e-13,4.3331971016249397e-13,2.3561686470616296e-13,1.2334532550275842e-13,6.164289143093731e-14,3.658292077354667e-09,2.6652229982652196e-09,1.8191565579236951e-09,1.1663104420654003e-09,7.733019643836213e-10,5.359398416028563e-10,3.9156694375936496e-10,2.8884314411547236e-10,2.1405150130077782e-10,1.5733386155065123e-10,1.1457582511667684e-10,8.282447411145546e-11,5.883374481511548e-11,4.101651632300491e-11,2.8183236231935166e-11,1.8948276091808385e-11,1.2526426923729862e-11,8.165840496889121e-12,5.256696052652173e-12,3.322684042010104e-12,2.0342827137651837e-12
0.0,26,26.0,0.0,30.0,0.0,0.0,0.0,0.0,-13.0,0.0,2.0,0.0,0.0,0.0,1.1601829495300966e-10,7.932208320720578e-11,5.42969218833344e-11,3.7088077526444386e-11,2.5102069878665763e-11,1.692281674427997e-11,1.1402755924909943e-11,7.653796355096565e-12,5.087160851277591e-12,3.3224759023337506e-12,2.119342236205479e-12,1.3060191189278701e-12,7.749233890948616e-13,4.425146574166713e-13,2.4200011435842507e-13,1.2739627430948012e-13,6.404510905208299e-14,3.63211891272962e-09,2.6480198211393037e-09,1.8111443891257767e-09,1.1658099684434277e-09,7.765588995075146e-10,5.403117633008038e-10,3.957333122055118e-10,2.923204971059758e-10,2.1677588750481609e-10,1.593744862033765e-10,1.1605688269028386e-10,8.388111783453273e-11,5.956629245995502e-11,4.151040416653183e-11,2.8498851725850226e-11,1.9127390282601246e-11,1.2606127301000948e-11,8.183619615519178e-12,5.245929124786409e-12,3.308456961792008e-12,2.025701832181845e-12
0.0,27,27.0,0.0,30.0,0.0,0.0,0.0,0.0,-13.0,0.0,2.0,0.0,0.0,0.0,1.174591990885646e-10,8.027335600569148e-11,5.491763328247125e-11,3.7483944112740315e-11,2.5337008592075337e-11,1.7044159039544293e-11,1.1450697729187682e-11,7.664608269120272e-12,5.087754987699408e-12,3.326033183685713e-12,2.1281294451855603e-12,1.3173013861570291e-12,7.856444583995636e-13,4.510617622171429e-13,2.480398031614155e-13,1.312834326693879e-13,6.637937821549658e-14,3.605939528923045e-09,2.6310742466694646e-09,1.803522308643275e-09,1.1656890199221496e-09,7.801015908474502e-10,5.448740051274995e-10,4.00025940156487e-10,2.958818432286704e-10,2.1955738677376614e-10,1.6145452036674823e-10,1.1756490120490668e-10,8.49562605780132e-11,6.031158003695136e-11,4.201451712700232e-11,2.882539428005042e-11,1.9319430852544618e-11,1.2699213175379795e-11,8.21233525208659e-12,5.241778629678577e-12,3.2964710344063197e-12,2.0172467577110902e-12
0.0,28,28.0,0.0,30.0,0.0,0.0,0.0,0.0,-13.0,0.0,2.0,0.0,0.0,0.0,1.18926000167675e-10,8.124037924843902e-11,5.5548144827829354e-11,3.788757461717715e-11,2.558062129180266e-11,1.7175254440780505e-11,1.1507178150510658e-11,7.680510628412706e-12,5.089703128445004e-12,3.3285778361643464e-12,2.1351584741782707e-12,1.3270322371751106e-12,7.95308101287572e-13,4.58982890480725e-13,2.537417876957219e-13,1.3500604346930593e-13,6.864311767590384e-14,3.5797945557572584e-09,2.61442153735412e-09,1.7963150609594064e-09,1.1659606712818519e-09,7.839358462963645e-10,5.496290987590193e-10,4.0444624556720054e-10,2.99528121633222e-10,2.2239652403894192e-10,1.6357411352729362e-10,1.1909975521475294e-10,8.604964611882908e-11,6.106913494069141e-11,4.252780270107893e-11,2.916103801478156e-11,1.95221926067862e-11,1.28038910541497e-11,8.251119280250538e-12,5.244253666270168e-12,3.2871385065767563e-12,2.0092643633408254e-12
0.0,29,29.0,0.0,30.0,0.0,0.0,0.0,0.0,-13.0,0.0,2.0,0.0,0.0,0.0,1.2041920410133608e-10,8.222347195322401e-11,5.6188470507592576e-11,3.829832881014713e-11,2.5831608114714274e-11,1.7314752517279328e-11,1.1571464427538753e-11,7.701528348259055e-12,5.093445016133149e-12,3.3305680232933686e-12,2.140726615113181e-12,1.335359100296923e-12,8.039764983438786e-13,4.663010001988842e-13,2.5911308742850457e-13,1.385642846770828e-13,7.083427500927155e-14,3.5537269495903336e-09,2.598098325424365e-09,1.789547978916079e-09,1.1666381511500115e-09,7.880675744058325e-10,5.545797370712894e-10,4.0899583397576345e-10,3.032604513693269e-10,2.2529398894752762e-10,1.657335669493802e-10,1.2066143986664412e-10,8.716111037085015e-11,6.18386315446161e-11,4.3049509306926365e-11,2.9504376498756396e-11,1.9733826450539086e-11,1.2918505080355356e-11,8.29903398788093e-12,5.25320323849383e-12,3.2807669380927785e-12,2.002050127703557e-12
0.0,30,30.0,0.0,30.0,0.0,0.0,0.0,0.0,-13.0,0.0,2.0,0.0,0.0,0.0,1.2193932619988947e-10,8.322295634473169e-11,5.6838710123272186e-11,3.8715804115492396e-11,2.608896468084794e-11,1.746147408018921e-11,1.164280430019718e-11,7.727563014188961e-12,5.099308108314168e-12,3.3324054125530318e-12,2.145115447834934e-12,1.3424284394281962e-12,8.117127880772259e-13,4.730399668547642e-13,2.641616448092648e-13,1.4195913732178927e-13,7.29512837842945e-14,3.5277819931025075e-09,2.582142573258978e-09,1.7832469341236362e-09,1.167734806180107e-09,7.925027655859934e-10,5.59728763756971e-10,4.136764899638524e-10,3.070801218799513e-10,2.282506234302876e-10,1.6793332257714193e-10,1.2225006874777373e-10,8.829057822380123e-11,6.26198567571844e-11,4.357910972060823e-11,2.9854342395829024e-11,1.9952806935496292e-11,1.3041561550874744e-11,8.355119572899115e-12,5.26835234437963e-12,3.277564623780485e-12,1.995850235296349e-12
0.0,31,31.0,0.0,30.0,0.0,0.0,0.0,0.0,-13.0,0.0,2.0,0.0,0.0,0.0,1.2348689433714378e-10,8.423915466250163e-11,5.749901333670035e-11,3.9139769742236785e-11,2.6351932521174346e-11,1.7614411306271194e-11,1.1720459515769835e-11,7.758424009019268e-12,5.107520198923708e-12,3.3344353931113156e-12,2.1485884968237324e-12,1.3483846437368598e-12,8.185808815764494e-13,4.792244638046787e-13,2.6889613163539097e-13,1.4519226346011448e-13,7.499302310058154e-14,3.5020072882230855e-09,2.566593527818828e-09,1.7774382837350156e-09,1.1692640643389367e-09,7.97247473467525e-10,5.650791625029497e-10,4.1849016727732814e-10,3.109885824101558e-10,2.312674090080057e-10,1.7017395031915894e-10,1.2386586787678904e-10,8.943806072231114e-11,6.341268814303776e-11,4.4116244705815344e-11,3.0210139048202555e-11,2.0177894972236715e-11,1.3171739561190942e-11,8.418430812375251e-12,5.289335214604757e-12,3.2776485103581085e-12,1.9908641394630436e-12
0.0,32,32.0,0.0,30.0,0.0,0.0,0.0,0.0,-13.0,0.0,2.0,0.0,0.0,0.0,1.2506245104925246e-10,8.527238931338611e-11,5.8169557056811056e-11,3.9570116174679466e-11,2.6619953211703022e-11,1.777271945504701e-11,1.1803729634611875e-11,7.793855774521799e-12,5.118222709157865e-12,3.3369486395983935e-12,2.151389341576789e-12,1.353368872422534e-12,8.246452327194882e-13,4.848798769871391e-13,2.733257978235258e-13,1.4826589576092725e-13,7.695877901395743e-14,3.4764527424324277e-09,2.551491669662857e-09,1.7721488144493993e-09,1.1712393982534394e-09,8.023077972870243e-10,5.706340466356181e-10,4.234389785057991e-10,3.1498743087233826e-10,2.3434545421856185e-10,1.7245613479647577e-10,1.2550916705368162e-10,9.060365122901587e-11,6.421707964936855e-11,4.4660682045471175e-11,3.057118376981606e-11,2.0408099479307736e-11,1.3307891423070345e-11,8.488064058248333e-12,5.315724810213266e-12,3.281054022634903e-12,1.987247483231134e-12
0.0,33,33.0,0.0,30.0,0.0,0.0,0.0,0.0,-13.0,0.0,2.0,0.0,0.0,0.0,1.266665547652987e-10,8.632298445415865e-11,5.885053193235677e-11,4.000681742171078e-11,2.6892627745929658e-11,1.793570333717974e-11,1.18919677193735e-11,7.833560979253594e-12,5.131484020984231e-12,3.3401837939181293e-12,2.1537402368317433e-12,1.3575179106306173e-12,8.299705571820613e-13,4.900322366135054e-13,2.7746035719054486e-13,1.5118273982831002e-13,7.884820754565438e-14,3.45117054843451e-09,2.536878656907281e-09,1.767405684446765e-09,1.1736742894305437e-09,8.076898659984712e-10,5.763966499337425e-10,4.285251850654202e-10,3.190784027013628e-10,2.374859824863852e-10,1.747806622979619e-10,1.2718038969297483e-10,9.178752021558699e-11,6.503305168188811e-11,4.521228697388287e-11,3.0937061823760255e-11,2.0642640446340152e-11,1.3449035935234104e-11,8.563175916315947e-12,5.347058121958727e-12,3.287746150904566e-12,1.985115303125018e-12
0.0,34,34.0,0.0,30.0,0.0,0.0,0.0,0.0,-13.0,0.0,2.0,0.0,0.0,0.0,1.2829978042749223e-10,8.739126795100113e-11,5.954213484455112e-11,4.044990350354484e-11,2.716968174822159e-11,1.8102800962513376e-11,1.1984589472853199e-11,7.87721962814481e-12,5.1473123553312654e-12,3.3443310174672914e-12,2.15584126067222e-12,1.3609630877082371e-12,8.346215028515931e-13,4.947081522599532e-13,2.813099039609375e-13,1.5394588979721007e-13,8.066129915076176e-14,3.4262151569638577e-09,2.5227972642969806e-09,1.7632363637899306e-09,1.1765821940135406e-09,8.133998246532761e-10,5.823703191128658e-10,4.337511880532755e-10,3.2326336016805896e-10,2.4069032070466e-10,1.7714840843555075e-10,1.2888004206228599e-10,9.298990884842034e-11,6.586068350956871e-11,4.577100083104761e-11,3.130748967987403e-11,2.0880914899367715e-11,1.3594347005648734e-11,8.642995020087269e-12,5.382857156957079e-12,3.2976311608508666e-12,1.9845454564619392e-12
0.0,35,35.0,0.0,30.0,0.0,0.0,0.0,0.0,-13.0,0.0,2.0,0.0,0.0,0.0,1.2996271973736015e-10,8.847757319584237e-11,6.024456519520247e-11,4.089944091062384e-11,2.7450936511728552e-11,1.8273566153986003e-11,1.2081077278185049e-11,7.924504338562379e-12,5.165667824776664e-12,3.3495361669817337e-12,2.157869976879138e-12,1.3638293005722277e-12,8.386622808029757e-13,4.989347416087038e-13,2.848848534141595e-13,1.5655875714871185e-13,8.239834467231716e-14,3.4016432422845387e-09,2.5092913173935822e-09,1.759668573687332e-09,1.1799765105966099e-09,8.194438234413663e-10,5.885585083105189e-10,4.3911952036910305e-10,3.2754428252309523e-10,2.4395988874698834e-10,1.795603268088074e-10,1.306087026208391e-10,9.421112176079389e-11,6.670010682980092e-11,4.633682551589335e-11,3.1682286047009e-11,2.112246653349905e-11,1.3743139576688044e-11,8.726828262291487e-12,5.422645753367824e-12,3.310568348583182e-12,1.9855822176099028e-12
0.0,36,36.0,0.0,30.0,0.0,0.0,0.0,0.0,-13.0,0.0,2.0,0.0,0.0,0.0,1.3165598121233343e-10,8.958224057213308e-11,6.095802347656868e-11,4.135551910492081e-11,2.7736285463695825e-11,1.8447651375464417e-11,1.2180980429627187e-11,7.975092131346252e-12,5.1864734083711035e-12,3.355905362893248e-12,2.159981573576631e-12,1.3662341747118008e-12,8.42156269992293e-13,5.027395466689161e-13,2.8819590026573564e-13,1.5902501216271984e-13,8.405990291552602e-14,3.37751365976914e-09,2.496405621758182e-09,1.7567302248987817e-09,1.1838705504980524e-09,8.258280096542268e-10,5.949647757535762e-10,4.44632840345922e-10,3.319232572363963e-10,2.4729619006791716e-10,1.8201743885635586e-10,1.3236701194223191e-10,9.545151945447492e-11,6.755149988506036e-11,4.690981195634763e-11,3.206134923960568e-11,2.13669592747873e-11,1.3894854319062971e-11,8.814062731572944e-12,5.4659625388902225e-12,3.3263813572338013e-12,1.9882399876922848e-12
0.0,37,37.0,0.0,30.0,0.0,0.0,0.0,0.0,-13.0,0.0,2.0,0.0,0.0,0.0,1.3338019018130248e-10,9.070561853280795e-11,6.168271111934366e-11,4.1818241484636536e-11,2.802567545495092e-11,1.862479158928923e-11,1.2283912652032768e-11,8.028673155296035e-12,5.20962469886649e-12,3.3635097444539506e-12,2.1623094232101128e-12,1.3682873846385716e-12,8.451656106695523e-13,5.061504344411531e-13,2.9125398891794385e-13,1.61348536991341e-13,8.564677003566498e-14,3.3538873948163026e-09,2.4841858869225357e-09,1.754449355492492e-09,1.1882775107978401e-09,8.325585227217506e-10,6.015927826696709e-10,4.502939270025151e-10,3.36402472494567e-10,2.507008034936493e-10,1.8452082497696556e-10,1.3415566352988587e-10,9.671151073302984e-11,6.84150818681085e-11,4.749005132870435e-11,3.2444639592681574e-11,2.1614154702800033e-11,1.4049042149501411e-11,8.904164449623616e-12,5.5123704558729296e-12,3.3448686811010864e-12,1.9925070590362832e-12
0.0,38,38.0,0.0,30.0,0.0,0.0,0.0,0.0,-13.0,0.0,2.0,0.0,0.0,0.0,1.35135988799669e-10,9.184806433547254e-11,6.24188309797042e-11,4.228771956234731e-11,2.8319092186011098e-11,1.880478962556316e-11,1.2389547813008009e-11,8.084956791534995e-12,5.234998357687692e-12,3.3723902366995817e-12,2.164965998544371e-12,1.3700901453958103e-12,8.477508016617431e-13,5.091954815626593e-13,2.9407029050142803e-13,1.6353338901682233e-13,8.715995094777285e-14,3.3308275022737824e-09,2.4726786448981698e-09,1.7528540681233945e-09,1.1932104503774524e-09,8.396414923888829e-10,6.084462944123073e-10,4.5610567692981506e-10,3.4098421102913074e-10,2.541753762495212e-10,1.8707161693527175e-10,1.3597539569582486e-10,9.79915454877398e-11,6.92911075502854e-11,4.807766815350282e-11,3.2832165831046455e-11,2.1863893065441132e-11,1.4205349292674437e-11,8.99667483680572e-12,5.561463328161058e-12,3.3658130952378105e-12,1.9983493729698887e-12
0.0,39,39.0,0.0,30.0,0.0,0.0,0.0,0.0,-13.0,0.0,2.0,0.0,0.0,0.0,1.369240361278956e-10,9.30099445107996e-11,6.316658807836896e-11,4.276406939531724e-11,2.861654907818757e-11,1.8987503297686832e-11,1.2497614547639304e-11,8.143675581035548e-12,5.262459280149383e-12,3.3825621872039696e-12,2.1680440746887903e-12,1.3717348776691047e-12,8.499703155837839e-13,5.119028444472708e-13,2.9665618254793265e-13,1.6558377295820659e-13,8.860063294352527e-14,3.3083990354783604e-09,2.4619311629656148e-09,1.7519724669964813e-09,1.1986822691563217e-09,8.470830400333588e-10,6.155291837016523e-10,4.620711027488702e-10,3.456708452759053e-10,2.577216182226274e-10,1.896709915190072e-10,1.3782698457092602e-10,9.929210806531876e-11,7.01798621667887e-11,4.8672814686097916e-11,3.322397449485744e-11,2.2116077511866518e-11,1.43635033451889e-11,9.091205667752474e-12,5.612869955554847e-12,3.3889898529492357e-12,2.0057142090349985e-12
0.0,40,40.0,0.0,30.0,0.0,0.0,0.0,0.0,-13.0,0.0,2.0,0.0,0.0,0.0,1.3874500829218552e-10,9.419163514334697e-11,6.392619037299294e-11,4.3247409548085515e-11,2.8918078942906228e-11,1.9172834323083843e-11,1.2607890349810976e-11,8.204587393896079e-12,5.291866523678002e-12,3.39401976302055e-12,2.1716181470412478e-12,1.37330504146395e-12,8.518802441149515e-13,5.143006178290622e-13,2.9902322809491965e-13,1.6750402010320303e-13,8.997016165111618e-14,3.2866689639999676e-09,2.451991350510956e-09,1.75183259469944e-09,1.2047056906958402e-09,8.548892830790944e-10,6.228454358356393e-10,4.681933330267493e-10,3.5046483381137034e-10,2.613412974185731e-10,1.9232016538128932e-10,1.3971123824218657e-10,1.0061371136096341e-10,7.108165663081156e-11,4.927566622659001e-11,3.362014170566502e-11,2.237066112860867e-11,1.4523300600405355e-11,9.187433122727594e-12,5.666256202918141e-12,3.414173584652231e-12,2.0145337459490458e-12
0.0,41,41.0,0.0,30.0,0.0,0.0,0.0,0.0,-13.0,0.0,2.0,0.0,0.0,0.0,1.405995987298812e-10,9.539352203397952e-11,6.469784945337423e-11,4.3737860061941024e-11,2.922372787368918e-11,1.9360718990228835e-11,1.2720195540683952e-11,8.267476220601279e-12,5.323078086990748e-12,3.4067400284830472e-12,2.175745998367908e-12,1.3748751273564723e-12,8.535339830821282e-13,5.16416685490395e-13,3.0118315195550034e-13,1.692985730524265e-13,9.127001940893907e-14,3.2657060791834265e-09,2.4429076597308914e-09,1.7524623691312428e-09,1.211293248333556e-09,8.630663424274147e-10,6.30399155695568e-10,4.744756135049105e-10,3.5536871897432067e-10,2.6503623654144097e-10,1.9502039097949162e-10,1.416289919637776e-10,1.0195689170808971e-10,7.199682315086891e-11,4.988641711474964e-11,3.402076671563878e-11,2.262763636567492e-11,1.4684594747579485e-11,9.285091401620367e-12,5.7213255127620414e-12,3.441143905668431e-12,2.0247284397638042e-12
0.0,42,42.0,0.0,30.0,0.0,0.0,0.0,0.0,-13.0,0.0,2.0,0.0,0.0,0.0,1.424885185130693e-10,9.66160007982986e-11,6.54817811151994e-11,4.4235542057814185e-11,2.9533550867308405e-11,1.955112043988287e-11,1.2834387405061158e-11,8.332151919716703e-12,5.355954650534331e-12,3.4206866515543254e-12,2.1804703539846765e-12,1.3765107899763154e-12,8.5498196450474e-13,5.18278567374515e-13,3.0314781273938455e-13,1.7097197445260594e-13,9.250180605235068e-14,3.2455808866156425e-09,2.434728980107741e-09,1.7538895208138958e-09,1.2184572750133235e-09,8.716203528065297e-10,6.381945763526263e-10,4.809213094779792e-10,3.603851255580883e-10,2.6880831060535713e-10,1.9777295350893657e-10,1.435811043583108e-10,1.0332220457988302e-10,7.29257113098749e-11,5.0505277267752047e-11,3.442596681454967e-11,2.2887026466559486e-11,1.484728695736317e-11,9.383966248150403e-12,5.777818220832572e-12,3.4696897968978605e-12,2.036210172156006e-12
0.0,43,43.0,0.0,30.0,0.0,0.0,0.0,0.0,-13.0,0.0,2.0,0.0,0.0,0.0,1.44412496739671e-10,9.785947694049274e-11,6.627820580604053e-11,4.4740577714514305e-11,2.9847608763439336e-11,1.9744022388481565e-11,1.2950354689360884e-11,8.398449207970907e-12,5.390362400351898e-12,3.4358132095954953e-12,2.185820571281259e-12,1.3782691055198461e-12,8.56271440194687e-13,5.199132673390271e-13,3.049291699512811e-13,1.725288583432235e-13,9.366722204316696e-14,3.2263654847083286e-09,2.427504526659675e-09,1.756141530948523e-09,1.2262098969872207e-09,8.805574759259343e-10,6.462360690740491e-10,4.875339091560063e-10,3.655167604474839e-10,2.726594454738394e-10,2.0057916872322283e-10,1.45568454507939e-10,1.0471022107679426e-10,7.386868464154234e-11,5.113246917586024e-11,3.483587327497579e-11,2.3148878556817735e-11,1.5011317298685396e-11,9.483888632666916e-12,5.8355100002159495e-12,3.4996128617162798e-12,2.048885130996641e-12
0.0,44,44.0,0.0,30.0,0.0,0.0,0.0,0.0,-13.0,0.0,2.0,0.0,0.0,0.0,1.463722809801698e-10,9.912436592899364e-11,6.708734895700415e-11,4.525309044967045e-11,3.01659661696184e-11,1.993942410545451e-11,1.3068012578781773e-11,8.46622613083641e-12,5.426175061196612e-12,3.452066084592009e-12,2.191814317893255e-12,1.3801989335364646e-12,8.574463191193577e-13,5.213471255820856e-13,3.065392461055373e-13,1.73973942928456e-13,9.476805381015447e-14,3.2081334286773017e-09,2.421283722097944e-09,1.7592455706618936e-09,1.2345630315791488e-09,8.898839163136192e-10,6.545281545271011e-10,4.943170278471894e-10,3.707664130727487e-10,2.7659161721783866e-10,2.0344038153178804e-10,1.475919398280114e-10,1.0612152514654098e-10,7.482611771599173e-11,5.176822530453716e-11,3.525062809865898e-11,2.341325809186492e-11,1.5176657391181633e-11,9.584728761894794e-12,5.894209705355363e-12,3.530729586767945e-12,2.0626563955115693e-12
0.0,45,45.0,0.0,30.0,0.0,0.0,0.0,0.0,-13.0,0.0,2.0,0.0,0.0,0.0,1.4836863776885438e-10,1.0041109329000665e-10,6.79094412217322e-11,4.5773205192350734e-11,3.0488690107200374e-11,2.0137336456334597e-11,1.3187298213373652e-11,8.53536220680274e-12,5.463275262206026e-12,3.4693869531080256e-12,2.1984592010988176e-12,1.382341362772094e-12,8.585470586290112e-13,5.226056793505141e-13,3.079900842742976e-13,1.7531202379334818e-13,9.580616111818575e-14,3.1909595793190133e-09,2.4161160731695855e-09,1.763228441981597e-09,1.2435283892149388e-09,8.996059397084431e-10,6.630755149839132e-10,5.012744128080373e-10,3.7613695655765863e-10,2.8060685218383427e-10,2.0635796526814606e-10,1.4965247461589929e-10,1.0755671146643004e-10,7.579839372556491e-11,5.241278586909075e-11,3.567038138952462e-11,2.3680244410705328e-11,1.5343304175695553e-11,9.686390521244512e-12,5.953756836265303e-12,3.5628727460628276e-12,2.0774262087650067e-12
0.0,46,46.0,0.0,30.0,0.0,0.0,0.0,0.0,-13.0,0.0,2.0,0.0,0.0,0.0,1.5040235313009923e-10,1.017200947274199e-10,6.874471864612663e-11,4.6301048679608737e-11,3.081584917300828e-11,2.0337778833997764e-11,1.3308166760298693e-11,8.60575639792154e-12,5.50155535159183e-12,3.4877148878281224e-12,2.2057543190577167e-12,1.3847302212696762e-12,8.596106078734129e-13,5.237135349862422e-13,3.0929370183731163e-13,1.7654796679763982e-13,9.678346624798566e-14,3.1749199361358193e-09,2.4120510416310524e-09,1.7681165211750956e-09,1.2531174799371114e-09,9.097298938756787e-10,6.718830073385634e-10,5.084099486221906e-10,3.8163134944859527e-10,2.8470722766795344e-10,2.0933332152788587e-10,1.5175098917212697e-10,1.0901638390954686e-10,7.678590254533911e-11,5.3066396955826705e-11,3.609528922524872e-11,2.3949927185211163e-11,1.5511274677262914e-11,9.788806407534428e-12,6.014018797041421e-12,3.5958920896227663e-12,2.0930979302386904e-12
0.0,47,47.0,0.0,30.0,0.0,0.0,0.0,0.0,-13.0,0.0,2.0,0.0,0.0,0.0,1.5247423313217346e-10,1.0305181627237394e-10,6.959342279029941e-11,4.6836749738703856e-11,3.11475130603906e-11,2.0540776816895872e-11,1.3430588029788663e-11,8.677325023607584e-12,5.540917767087389e-12,3.5069880958763644e-12,2.213691712011089e-12,1.3873926320094751e-12,8.606704003102461e-13,5.246942537468015e-13,3.104620414340089e-13,1.7768670008740163e-13,9.770194474552921e-14,3.1600914545437304e-09,2.4091379104824996e-09,1.7739357051859357e-09,1.2633416246315502e-09,9.202622317097186e-10,6.809556767589485e-10,5.157276629859701e-10,3.872526379239387e-10,2.8889487309970637e-10,2.1236788048328767e-10,1.53888429398354e-10,1.1050115451424427e-10,7.778903923103677e-11,5.37293089659833e-11,3.652551193286505e-11,2.4222403592691394e-11,1.5680601635964775e-11,9.891932974767366e-12,6.074888082446289e-12,3.6296544524327254e-12,2.1095776704802676e-12
0.0,48,48.0,0.0,30.0,0.0,0.0,0.0,0.0,-13.0,0.0,2.0,0.0,0.0,0.0,1.5458510446302352e-10,1.0440671446247678e-10,7.045580082077328e-11,4.738043953614831e-11,3.148375232312525e-11,2.074636041258634e-11,1.3554543602598478e-11,8.749999704306577e-12,5.5812750575405375e-12,3.5271453246285605e-12,2.2222576983207435e-12,1.3903495969285223e-12,8.617563911334342e-13,5.255702531932847e-13,3.1150692024893694e-13,1.7873320485743012e-13,9.856361749162864e-14,3.1465518471135216e-09,2.4074256462941768e-09,1.7807113619975473e-09,1.2742119711965957e-09,9.31209536482709e-10,6.902987708083911e-10,5.232317327969891e-10,3.930039583974343e-10,2.931719716483611e-10,2.1546310159031434e-10,1.560657567858549e-10,1.1201164287864999e-10,7.880820290961316e-11,5.440177535820658e-11,3.696121269781452e-11,2.4497776072229138e-11,1.5851329887728515e-11,9.995746790573379e-12,6.136279492200627e-12,3.664043409003324e-12,2.1267756177983574e-12
0.0,49,49.0,0.0,30.0,0.0,0.0,0.0,0.0,-13.0,0.0,2.0,0.0,0.0,0.0,1.5673581474914788e-10,1.0578525655300491e-10,7.133210563171456e-11,4.793225177659962e-11,3.182463829090521e-11,2.095456276703584e-11,1.3680024425860801e-11,8.823725396040148e-12,5.622549638820729e-12,3.5481269689730987e-12,2.2314340861644432e-12,1.3936165940129997e-12,8.628951346969012e-13,5.26362725314809e-13,3.1243997880617174e-13,1.7969250466745695e-13,9.937054384508591e-14,3.1343793690482356e-09,2.4069627586727143e-09,1.788468285847967e-09,1.2857395158806119e-09,9.425785490912085e-10,6.999177538854588e-10,5.309264904608885e-10,3.988885404439544e-10,2.975407621753861e-10,2.186204746133901e-10,1.5828394871801417e-10,1.1354847590699977e-10,7.984379601416717e-11,5.5084051663802746e-11,3.74025564525431e-11,2.477615055259161e-11,1.6023513387075984e-11,1.010024088394458e-11,6.1981274444117674e-12,3.698958585374481e-12,2.1446070735990327e-12
0.0,50,50.0,0.0,30.0,0.0,0.0,0.0,0.0,-13.0,0.0,2.0,0.0,0.0,0.0,1.5892723397844906e-10,1.0718792073613343e-10,7.222259578432011e-11,4.8492322903505926e-11,3.2170243106268335e-11,2.1165419227724753e-11,1.3807028822123163e-11,8.89845855827336e-12,5.6646733561725165e-12,3.5698759149406006e-12,2.2411992565425998e-12,1.397204174245172e-12,8.641098965839184e-13,5.270915719648296e-13,3.13272630418285e-13,1.805696532640658e-13,1.0012481562498582e-13,3.1236525883914313e-09,2.407797158144993e-09,1.7972306583041146e-09,1.2979351300001973e-09,9.54376197144391e-10,7.098183218445018e-10,5.388164303498082e-10,4.049097099905754e-10,3.0200354146700274e-10,2.218415209031073e-10,1.605439990204293e-10,1.1511228784145815e-10,8.089622381413697e-11,5.577639474747696e-11,3.7849709002272676e-11,2.5057635061894313e-11,1.6197212775230752e-11,1.0205421654097251e-11,6.260383436863758e-12,3.7343147254962405e-12,2.1629932180982474e-12
0.0,51,51.0,0.0,30.0,0.0,0.0,0.0,0.0,-13.0,0.0,2.0,0.0,0.0,0.0,1.611602543423869e-10,1.0861519640667982e-10,7.312753570722237e-11,4.906079220494433e-11,3.252063978069862e-11,2.1378966696074514e-11,1.3935560869474141e-11,8.974165476420901e-12,5.707586911125441e-12,3.5923381552491833e-12,2.2515291178073367e-12,1.4011185471299377e-12,8.654207946976284e-13,5.277753576871259e-13,3.140160123698929e-13,1.8136972097362275e-13,1.008285517190318e-13,3.1144501417906015e-09,2.409976013977855e-09,1.8070220162800711e-09,1.3108095922275337e-09,9.666096257265697e-10,7.200064166735742e-10,5.469062153640085e-10,4.110708927296671e-10,3.0656266669118804e-10,2.251277948715387e-10,1.628469187019621e-10,1.1670372052071978e-10,8.196589419329377e-11,5.647906228530114e-11,3.8302836353511495e-11,2.534233864718452e-11,1.6372493408711245e-11,1.0311306204103141e-11,6.323013687023943e-12,3.770040593779765e-12,2.181861631823558e-12
0.0,52,52.0,0.0,30.0,0.0,0.0,0.0,0.0,-13.0,0.0,2.0,0.0,0.0,0.0,1.6343579110015876e-10,1.1006758443115698e-10,7.404719573998347e-11,4.9637801928771116e-11,3.2875902299931716e-11,2.1595243182128003e-11,1.4065629092231965e-11,9.050820754094017e-12,5.751239203630412e-12,3.6154632099677233e-12,2.2623979346491153e-12,1.4053621457558025e-12,8.668449638531616e-13,5.284312795260894e-13,3.1468093978423605e-13,1.820977798331695e-13,1.0148389312932318e-13,3.1068504770122124e-09,2.4135456137001272e-09,1.8178652281451131e-09,1.3243736266002125e-09,9.792862296548264e-10,7.304882411211e-10,5.552006835648013e-10,4.1737561772304535e-10,3.1122055803308594e-10,2.2848088561887232e-10,1.651937368393098e-10,1.1832342381461903e-10,8.305321763116266e-11,5.719231243146446e-11,3.876210421632427e-11,2.5630370546383245e-11,1.6549423774813895e-11,1.0417920060096105e-11,6.385996967877547e-12,3.8060777810775805e-12,2.201146600627339e-12
0.0,53,53.0,0.0,30.0,0.0,0.0,0.0,0.0,-13.0,0.0,2.0,0.0,0.0,0.0,1.657547832495668e-10,1.1154559743636668e-10,7.498185221971974e-11,5.022349736780935e-11,3.3236105732996484e-11,2.1814287516122148e-11,1.419724541881448e-11,9.128405976200654e-12,5.7955866280952085e-12,3.639204384191006e-12,2.273779037396613e-12,1.4099341641583392e-12,8.683967384618244e-13,5.290751530649961e-13,3.152778629925199e-13,1.8275888768812996e-13,1.0209299829588592e-13,3.1009315838180978e-09,2.418551226346292e-09,1.829782479113008e-09,1.3386379463606084e-09,9.924136870388566e-10,7.412702731773819e-10,5.637048548624576e-10,4.238275211773069e-10,3.159797014714566e-10,2.3190241867342486e-10,1.6758550156616495e-10,1.199720561916575e-10,8.415860734754911e-11,5.791640364595085e-11,3.9227677655299506e-11,2.5921839566276378e-11,1.672807423078952e-11,1.0525295236356263e-11,6.449322646402733e-12,3.8423794679753885e-12,2.2207892330128572e-12
0.0,54,54.0,0.0,30.0,0.0,0.0,0.0,0.0,-13.0,0.0,2.0,0.0,0.0,0.0,1.6811819419480888e-10,1.1304976011251712e-10,7.593178758135008e-11,5.081802692826518e-11,3.360132633818985e-11,2.203613917303464e-11,1.4330424362392466e-11,9.206908538913405e-12,5.840592354348228e-12,3.66351889175183e-12,2.285645419163869e-12,1.414831061599026e-12,8.700878482313019e-13,5.297214136296344e-13,3.158168290679987e-13,1.8335807153429018e-13,1.026580385687552e-13,3.096770715268032e-09,2.4250369716930287e-09,1.8427952671289354e-09,1.3536133036739809e-09,1.0059999939364617e-09,7.523592803324169e-10,5.724239377567276e-10,4.3043035037975163e-10,3.2084265166635836e-10,2.353940578146179e-10,1.700232811356619e-10,1.2165028538360578e-10,8.528247957448442e-11,5.865159465660125e-11,3.9699720867033634e-11,2.621685362900538e-11,1.6908516012835054e-11,1.0633468607631737e-11,6.512988923984444e-12,3.878909187366737e-12,2.2407374185943773e-12
0.0,55,55.0,0.0,30.0,0.0,0.0,0.0,0.0,-13.0,0.0,2.0,0.0,0.0,0.0,1.7052701243034988e-10,1.1458060952895873e-10,7.689729046880234e-11,5.142154218731719e-11,3.397164166032359e-11,2.2260838177154317e-11,1.4465182385316165e-11,9.28632063765274e-12,5.886225617101566e-12,3.688367871145295e-12,2.2979702296317266e-12,1.420047029983996e-12,8.719276222055779e-13,5.303831313719881e-13,3.1630744802992203e-13,1.8390031040611797e-13,1.0318119372877097e-13,3.0944441020075107e-09,2.433045698005635e-09,1.856924410471739e-09,1.369310545205066e-09,1.020053499884882e-09,7.637623335476052e-10,5.813633361401705e-10,4.3718796779204445e-10,3.258120349348241e-10,2.3895750695520875e-10,1.7250816503159313e-10,1.2335878911791738e-10,8.642525392464218e-11,5.939814453085795e-11,4.017839706426683e-11,2.6515519456398542e-11,1.7090820469188835e-11,1.0742480552112526e-11,6.5770012727607064e-12,3.915639617983932e-12,2.260945655680189e-12
0.0,56,56.0,0.0,30.0,0.0,0.0,0.0,0.0,-13.0,0.0,2.0,0.0,0.0,0.0,1.7298225224210676e-10,1.1613869546135121e-10,7.787865585681578e-11,5.203419794419224e-11,3.434713061650952e-11,2.24884250617599e-11,1.460153741328638e-11,9.366638401238639e-12,5.932461031247884e-12,3.713716316837427e-12,2.3107271749822525e-12,1.4255744220700022e-12,8.739231969325142e-13,5.310720387933542e-13,3.167588640675215e-13,1.8439051812210843e-13,1.0366464748580883e-13,3.0940266626306485e-09,2.442618871044194e-09,1.8721900682634456e-09,1.3857406734530252e-09,1.0345829440762516e-09,7.754868208957704e-10,5.905286561854396e-10,4.4410435530487645e-10,3.308905522966657e-10,2.425945120648561e-10,1.750412651097707e-10,1.2509825589456698e-10,8.758735382998873e-11,6.01563128347378e-11,4.0663868448782235e-11,2.6817942366845892e-11,1.727505847867744e-11,1.0852373831074446e-11,6.6413710583142135e-12,3.952551431862176e-12,2.2813747744454347e-12
0.0,57,57.0,0.0,30.0,0.0,0.0,0.0,0.0,-13.0,0.0,2.0,0.0,0.0,0.0,1.7548495442732843e-10,1.1772458072946819e-10,7.887618518261854e-11,5.2656152268107154e-11,3.4727873569886864e-11,2.2718940865334844e-11,1.473950847004384e-11,9.447861158697528e-12,5.979277945146105e-12,3.739532946133523e-12,2.323890833822928e-12,1.431404139329238e-12,8.760797250477744e-13,5.317985691713801e-13,3.1717973198853356e-13,1.8483352619213818e-13,1.0411058290900226e-13,3.095591713768424e-09,2.453796477290223e-09,1.8886117750210583e-09,1.402914913655006e-09,1.049597491936833e-09,7.875404608421034e-10,5.999257133469498e-10,4.5118361866141863e-10,3.3608098257704487e-10,2.4630686312214796e-10,1.7762371675597655e-10,1.2686938578903913e-10,8.876920702885501e-11,6.092635985905261e-11,4.115629625696936e-11,2.7124226163677542e-11,1.7461300022089097e-11,1.0963192674107337e-11,6.70611433684982e-12,3.9896322115391565e-12,2.3019915801661307e-12
0.0,58,58.0,0.0,30.0,0.0,0.0,0.0,0.0,-13.0,0.0,2.0,0.0,0.0,0.0,1.78036187034652e-10,1.1933884154512605e-10,7.989018648657233e-11,5.328756654561481e-11,3.511395239198884e-11,2.295242715074045e-11,1.48791154078511e-11,9.529990824530674e-12,6.026659839831426e-12,3.765790018893731e-12,2.3374368989216635e-12,1.4375259793714158e-12,8.784005810770065e-13,5.325719043154256e-13,3.175781989629709e-13,1.85234067174931e-13,1.0452117776666255e-13,3.099210684136175e-09,2.46661694453514e-09,1.9062084902942297e-09,1.4208447859705109e-09,1.0651067718645275e-09,7.999313151578051e-10,6.095605395150518e-10,4.58429992060561e-10,3.413861855560724e-10,2.5009639608641857e-10,1.802566800511851e-10,1.2867289126755144e-10,8.997124608368454e-11,6.170854689546634e-11,4.1655840863661214e-11,2.74344730974083e-11,1.7649613878866258e-11,1.1074982041786729e-11,6.77125081370392e-12,4.026875447012074e-12,2.322768438655346e-12
0.0,59,59.0,0.0,30.0,0.0,0.0,0.0,0.0,-13.0,0.0,2.0,0.0,0.0,0.0,1.8063704612590425e-10,1.2098206787e-10,8.092097456083968e-11,5.392860552916104e-11,3.5505450515139166e-11,2.318892603765359e-11,1.5020378713139957e-11,9.61303138828729e-12,6.074593778709373e-12,3.792463124671756e-12,2.351342354302851e-12,1.4439289436631045e-12,8.808875617669724e-13,5.334000300779973e-13,3.1796189151429314e-13,1.8559675874857662e-13,1.0489859977326514e-13,3.1049528373678194e-09,2.4811170831100076e-09,1.9249986643038717e-09,1.4395421825548414e-09,1.0811209118796129e-09,8.126678014787767e-10,6.194393903668145e-10,4.658478429527681e-10,3.4680910515854587e-10,2.5396499488422546e-10,1.8294134093831296e-10,1.3050949800430385e-10,9.11939089153431e-11,6.250313654752144e-11,4.2162661931488984e-11,2.7748783886967414e-11,1.7840067425936856e-11,1.118778704054431e-11,6.836802949455569e-12,4.064279617898677e-12,2.3436828235320807e-12
0.0,60,60.0,0.0,30.0,0.0,0.0,0.0,0.0,-13.0,0.0,2.0,0.0,0.0,0.0,1.8328865656124044e-10,1.2265486378322235e-10,8.196887110516026e-11,5.4579437388080436e-11,3.5902452976576204e-11,2.3428480241536117e-11,1.516331937033939e-11,9.696988494828605e-12,6.123069909662019e-12,3.819530949363565e-12,2.3655855967907926e-12,1.4506015069504957e-12,8.835410787465957e-13,5.342897980928846e-13,3.1833790760813786e-13,1.8592608872609365e-13,1.0524500175700331e-13,3.112885009055021e-09,2.4973320511198784e-09,1.9450003203270093e-09,1.459019449021852e-09,1.0976505759504934e-09,8.25758705543378e-10,6.295687529615705e-10,4.734416770421489e-10,3.5235277267939916e-10,2.5791459340831196e-10,1.856789123875667e-10,1.323799456935298e-10,9.243763934306544e-11,6.331039306423249e-11,4.26769185945906e-11,2.8067257787321218e-11,1.8032726519153197e-11,1.1301652467249448e-11,6.902795199844476e-12,4.101847362726635e-12,2.3647168423870835e-12
0.0,61,61.0,0.0,30.0,0.0,0.0,0.0,0.0,-13.0,0.0,2.0,0.0,0.0,0.0,1.85992172809264e-10,1.2435784785881123e-10,8.303420488892276e-11,5.524023376279431e-11,3.630504645604847e-11,2.3671133114629838e-11,1.5307958770073815e-11,9.78186910254143e-12,6.172081019488295e-12,3.846975031208613e-12,2.3801465104893854e-12,1.4575318503030878e-12,8.863603417790623e-13,5.352469922807868e-13,3.1871281360321394e-13,1.8622640121298827e-13,1.0556251677411169e-13,3.1230713639786477e-09,2.515295347063007e-09,1.9662311543624617e-09,1.4792894696880448e-09,1.1147069997705993e-09,8.392131931658658e-10,6.39955353631781e-10,4.812161435080977e-10,3.580203100422892e-10,2.6194717752924166e-10,1.884706355598023e-10,1.342849888516249e-10,9.370288762184105e-11,6.413058268610391e-11,4.319876966704004e-11,2.8389992692820002e-11,1.8227655440897753e-11,1.141662246357919e-11,6.9692533759949795e-12,4.139584734623963e-12,2.3858567563694905e-12
0.0,62,62.0,0.0,30.0,0.0,0.0,0.0,0.0,-13.0,0.0,2.0,0.0,0.0,0.0,1.8874877978374158e-10,1.2609165355301842e-10,8.411731191883309e-11,5.591116982263354e-11,3.6713319308522444e-11,2.3916928686108553e-11,1.545431865064293e-11,9.867681207835513e-12,6.221622139126695e-12,3.874779513998137e-12,2.3950065020011538e-12,1.4647080600654195e-12,8.893435312912163e-13,5.362763987576296e-13,3.1909264576077284e-13,1.8650188406757022e-13,1.0585325320592006e-13,3.135573180045441e-09,2.5350388331499566e-09,1.988708652357192e-09,1.5003657558845268e-09,1.1323020257855208e-09,8.530408220253182e-10,6.506061662200139e-10,4.891760404588448e-10,3.638149330905428e-10,2.6606478712184093e-10,1.9131778096900497e-10,1.3622539760653706e-10,9.499011097134356e-11,6.496397399552502e-11,4.372837386781812e-11,2.8717085267253402e-11,1.842491690002553e-11,1.153274026262744e-11,7.036204111983355e-12,4.177500540748049e-12,2.4070925052866452e-12
0.0,63,63.0,0.0,30.0,0.0,0.0,0.0,0.0,-13.0,0.0,2.0,0.0,0.0,0.0,1.915596937085416e-10,1.2785692960173653e-10,8.521853561160921e-11,5.6592424327456666e-11,3.712736159345328e-11,2.4165911699698723e-11,1.5602421063989925e-11,9.954433625432533e-12,6.2716901970698375e-12,3.902930903611193e-12,2.4101485034540188e-12,1.4721182952546722e-12,8.924879592501651e-13,5.373818778910007e-13,3.194829159564086e-13,1.8675655778729695e-13,1.061192898805794e-13,3.150448665898745e-09,2.55659279247627e-09,2.0124502249767087e-09,1.5222625365257637e-09,1.1504481373018629e-09,8.672515533731703e-10,6.615284207112426e-10,4.973263206276067e-10,3.6973995491122787e-10,2.702695181101261e-10,1.9422164964632806e-10,1.3820195847313398e-10,9.629977409241614e-11,6.58108382653212e-11,4.426589005550692e-11,2.9048631093017582e-11,1.8624572072538578e-11,1.165004801236155e-11,7.10367442747813e-12,4.215605761431869e-12,2.428417248034129e-12
