Line_number,Fiducial,Easting,Northing,Height,Elevation,tx_pitch,tx_roll,tx_yaw,txrx_dx,txrx_dy,txrx_dz,rx_pitch,rx_roll,rx_yaw,S0Z_time_1.431e-04,S0Z_time_1.801e-04,S0Z_time_2.266e-04,S0Z_time_2.846e-04,S0Z_time_3.581e-04,S0Z_time_4.506e-04,S0Z_time_5.671e-04,S0Z_time_7.136e-04,S0Z_time_8.981e-04,S0Z_time_1.131e-03,S0Z_time_1.423e-03,S0Z_time_1.791e-03,S0Z_time_2.255e-03,S0Z_time_2.838e-03,S0Z_time_3.573e-03,S0Z_time_4.498e-03,S0Z_time_5.662e-03,S1Z_time_1.409e-05,S1Z_time_1.610e-05,S1Z_time_1.909e-05,S1Z_time_2.360e-05,S1Z_time_2.960e-05,S1Z_time_3.709e-05,S1Z_time_4.609e-05,S1Z_time_5.759e-05,S1Z_time_7.209e-05,S1Z_time_9.060e-05,S1Z_time_1.141e-04,S1Z_time_1.431e-04,S1Z_time_1.801e-04,S1Z_time_2.266e-04,S1Z_time_2.846e-04,S1Z_time_3.581e-04,S1Z_time_4.506e-04,S1Z_time_5.671e-04,S1Z_time_7.136e-04,S1Z_time_8.981e-04,S1Z_time_1.131e-03
0.0,0,0.0,0.0,30.0,0.0,0.0,0.0,0.0,-13.0,0.0,2.0,0.0,0.0,0.0,1.1448625540320972e-10,6.046006992906684e-11,3.053979341253304e-11,1.705705422691818e-11,9.729860184114659e-12,5.24877037566174e-12,3.3339896636735058e-12,1.954778530883317e-12,1.1539394870241629e-12,6.292076422902188e-13,3.992481826223392e-13,2.0771568952355944e-13,1.1878928925732028e-13,7.331150789980574e-14,3.720983185644717e-14,2.1522392344582933e-14,1.1537977131636248e-14,7.162221003032997e-09,5.733640828039544e-09,4.159405574313025e-09,2.9289436139031677e-09,1.809214876421338e-09,1.3110885783218345e-09,7.752647836932409e-10,5.372729875504097e-10,3.294601733532787e-10,2.0401118198025652e-10,1.2042563198536506e-10,6.942637487987928e-11,4.061242210008663e-11,2.3225096448680623e-11,1.3215010087544364e-11,7.542470403988728e-12,4.403613926267889e-12,2.7720623197460258e-12,1.46454482905365e-12,7.540580882571144e-13,4.069936570880817e-13
0.0,1,1.0,0.0,30.0,0.0,0.0,0.0,0.0,-13.0,0.0,2.0,0.0,0.0,0.0,1.0952795245683164e-10,5.62994528682592e-11,3.111170548510748e-11,1.6199042805945745e-11,9.322252720002558e-12,5.144770446424032e-12,3.229483602344869e-12,1.8903220595885762e-12,1.1026295677408268e-12,6.176362908882592e-13,3.767952933547651e-13,2.0550265885702548e-13,1.1856151523615912e-13,7.177625776877528e-14,3.387710771556319e-14,2.2997073755661385e-14,1.263573514833263e-14,7.291570564245553e-09,5.702016864330185e-09,4.358016227523953e-09,2.807727940875169e-09,2.0058574844791093e-09,1.3543748787024123e-09,8.712054692508233e-10,5.268675325097993e-10,3.2857658079368164e-10,1.911613881310494e-10,1.1120283837868672e-10,6.40814814690825e-11,3.93232793055045e-11,2.1630870735115587e-11,1.2480689160979369e-11,7.747915730788836e-12,4.17383335669365e-12,2.3464722870415504e-12,1.3982668404976408e-12,6.291824520302398e-13,5.296882519396262e-13
0.0,2,2.0,0.0,30.0,0.0,0.0,0.0,0.0,-13.0,0.0,2.0,0.0,0.0,0.0,1.072522088501826e-10,5.835850869361602e-11,2.9390651278914745e-11,1.620689356596831e-11,8.72662267258523e-12,5.334521563070364e-12,3.1887944367230697e-12,1.7590985515587894e-12,1.0755629690614792e-12,6.063135285309434e-13,3.44881904934546e-13,2.0802016108598616e-13,1.1875723561091223e-13,6.57811258024585e-14,3.961812997454666e-14,2.1031120828056864e-14,1.1231507494357806e-14,7.1396234030600724e-09,5.792826577182449e-09,4.355211061535222e-09,2.937935094385918e-09,2.066880663297228e-09,1.3015203157157397e-09,8.707466301662017e-10,5.481797779949726e-10,3.4211547367083497e-10,1.8620473781108394e-10,1.10133401221847e-10,6.638480650896094e-11,3.7854651097340624e-11,2.1037829419070953e-11,1.2450589254170159e-11,7.059971255135183e-12,3.920297389298021e-12,2.5812441476184e-12,1.2037018973277004e-12,7.015151955372463e-13,3.728634053092386e-13
0.0,3,3.0,0.0,30.0,0.0,0.0,0.0,0.0,-13.0,0.0,2.0,0.0,0.0,0.0,1.0787408933447137e-10,5.1738365489410954e-11,2.8495949396707582e-11,1.6068051180733586e-11,8.869050617599292e-12,5.0400679263914115e-12,2.9760098330333223e-12,1.778021231387039e-12,9.968340141306008e-13,5.657296087936098e-13,3.391582768120439e-13,1.9661108949470137e-13,1.131278349148747e-13,6.515174384143382e-14,3.35935296995792e-14,1.9050216410817827e-14,1.1125443566675263e-14,7.09068801310483e-09,5.383503958221303e-09,4.398364950100598e-09,2.8466829124793286e-09,2.0548492464983806e-09,1.3301594435001948e-09,8.269494897256173e-10,5.180477514282011e-10,3.251850126424154e-10,2.0317630692584035e-10,1.1378532684457501e-10,6.197198387865303e-11,3.7563060045988023e-11,1.961112880537823e-11,1.2201568202914393e-11,6.9576285960696995e-12,4.138505834197084e-12,2.4140872897051637e-12,1.5488624071015383e-12,4.2352468270087315e-13,2.896208966685322e-13
0.0,4,4.0,0.0,30.0,0.0,0.0,0.0,0.0,-13.0,0.0,2.0,0.0,0.0,0.0,1.0859588112279583e-10,5.502967597563286e-11,2.8818229146252663e-11,1.4185562727852786e-11,8.985210736592497e-12,4.863721649272586e-12,3.0281612330679172e-12,1.6620084713585894e-12,9.912974371946918e-13,5.82900321412903e-13,3.3044547708430015e-13,1.811334936390024e-13,1.141107518654009e-13,6.446127928186606e-14,3.675883561227734e-14,1.981480696889627e-14,1.0789278978861959e-14,7.222244796666247e-09,5.638065887358267e-09,4.107394410871238e-09,2.8649127587361128e-09,2.0597076321833988e-09,1.3176749552614736e-09,8.285331050959603e-10,5.65848247447642e-10,3.377224017873295e-10,1.8296725584583492e-10,1.1267789342625967e-10,6.075153434958779e-11,3.414437803702872e-11,1.9982747143179595e-11,1.1491714260974072e-11,6.476991505721582e-12,3.8488595874240775e-12,2.197201697111657e-12,1.128418624706899e-12,6.770416456822448e-13,3.2906564926496586e-13
0.0,5,5.0,0.0,30.0,0.0,0.0,0.0,0.0,-13.0,0.0,2.0,0.0,0.0,0.0,9.894742853058979e-11,5.259211812663625e-11,2.6623763053459066e-11,1.5049309424424418e-11,8.118645365436463e-12,4.645145049085223e-12,2.6909507609192603e-12,1.54423058397981e-12,9.28821628049551e-13,5.1327509968417e-13,3.2853467347726297e-13,1.7985845682699707e-13,1.0820288298340267e-13,6.562921255807323e-14,3.5227599158182914e-14,1.9427794632135412e-14,8.766957090907454e-15,7.211816086127701e-09,5.706018317440714e-09,4.009721081449618e-09,3.079390421068521e-09,2.0730936573461036e-09,1.3693891700306053e-09,8.609030993408966e-10,5.635317671452838e-10,3.3135497188655693e-10,1.8684047883301555e-10,1.0782049858128952e-10,6.18738828313687e-11,3.457453788725051e-11,2.0823578303509517e-11,1.12180291687986e-11,6.4083022287706464e-12,3.727385026100287e-12,2.305275081601423e-12,1.2764663139176545e-12,6.816781496057318e-13,3.3546587178021024e-13
0.0,6,6.0,0.0,30.0,0.0,0.0,0.0,0.0,-13.0,0.0,2.0,0.0,0.0,0.0,1.0257314525928595e-10,5.086367705638117e-11,2.748156572102943e-11,1.4245990651916469e-11,7.848126006865991e-12,4.548103585089269e-12,2.6310542625170346e-12,1.4805733134757269e-12,8.96743204541977e-13,5.404347587447064e-13,3.0368935131999767e-13,1.8797679710563924e-13,1.0757605418962939e-13,6.498375375798064e-14,3.4926306869960115e-14,1.845371528298064e-14,9.632902169330553e-15,7.113075323757256e-09,5.5839462776579286e-09,4.351990417276715e-09,2.998218529212569e-09,1.9631449114698334e-09,1.2810851263658392e-09,8.571186819180494e-10,5.26307712965809e-10,3.434252284407283e-10,1.846734572177364e-10,1.1304670999107622e-10,6.172548443249849e-11,3.56344731710386e-11,1.9566644657550262e-11,1.1396112818918264e-11,5.991093689400341e-12,3.363216698423976e-12,2.090843324786967e-12,1.0310441756138732e-12,7.085860098948018e-13,4.0501611642109223e-13
0.0,7,7.0,0.0,30.0,0.0,0.0,0.0,0.0,-13.0,0.0,2.0,0.0,0.0,0.0,1.0203028696303785e-10,5.217537444436194e-11,2.568857566227572e-11,1.4459674321849595e-11,7.564184377742589e-12,4.561364774777527e-12,2.5889444318403945e-12,1.3841565043564366e-12,8.433043825800478e-13,5.17229915876425e-13,3.2125017456780133e-13,1.7558324018187757e-13,1.0662080222031248e-13,6.235191538781995e-14,3.439793682695231e-14,1.7441533477730786e-14,1.1242351767508465e-14,6.750678527184307e-09,5.840236314537315e-09,4.1657684125007055e-09,2.9799398736435354e-09,2.07465048869346e-09,1.3831746692337597e-09,8.72419634925448e-10,5.480022296393053e-10,3.261121430639269e-10,1.8052026167818618e-10,1.0593930239702945e-10,6.199194468236221e-11,3.328658145817855e-11,1.907604459237227e-11,1.0162176462408218e-11,6.131672099412082e-12,3.3383021166057324e-12,2.0519189561699125e-12,1.0249034558668152e-12,6.789907962198028e-13,2.7857253750384817e-13
0.0,8,8.0,0.0,30.0,0.0,0.0,0.0,0.0,-13.0,0.0,2.0,0.0,0.0,0.0,1.0736211503432629e-10,5.033579735891985e-11,2.7776102687707478e-11,1.4082102440069241e-11,7.211158368014839e-12,4.319912038459591e-12,2.3608754911788532e-12,1.4734429580033326e-12,8.558959071620615e-13,4.715954874752307e-13,3.032423102426594e-13,1.679102198685674e-13,9.881487860302295e-14,5.79417070170963e-14,3.250953440884665e-14,1.9587275020420482e-14,9.711864525090672e-15,7.305844335766164e-09,5.652722502784104e-09,4.450765419027595e-09,2.98187793489666e-09,2.1038957973503073e-09,1.3741994976614602e-09,8.527728792118592e-10,5.125047638030779e-10,3.174494747260558e-10,1.9141647310194895e-10,1.0199634287774604e-10,5.936952441803463e-11,3.3537425881532875e-11,1.7933211817397927e-11,1.0094069876762259e-11,5.8212921243911645e-12,3.3106591759895357e-12,2.053381653146972e-12,1.1641810078558724e-12,6.639300310934044e-13,3.260695040541498e-13
0.0,9,9.0,0.0,30.0,0.0,0.0,0.0,0.0,-13.0,0.0,2.0,0.0,0.0,0.0,1.0246409247494873e-10,4.836857352069728e-11,2.406160604166349e-11,1.3104721684385721e-11,7.1877274198728816e-12,4.058366649841118e-12,2.3918408205882444e-12,1.4146321422145208e-12,7.982791287697883e-13,5.142425063340091e-13,2.949312621261273e-13,1.7419262647384318e-13,9.977551216596402e-14,5.699311524008365e-14,3.320995426872183e-14,1.6453937803408605e-14,1.1959170852785856e-14,6.899309887143672e-09,6.019851303629444e-09,4.381125465093696e-09,2.9579760133378255e-09,1.9312613583384023e-09,1.3349301725312107e-09,8.711935283488717e-10,5.400500130533011e-10,3.079964026602713e-10,1.9131099614439825e-10,1.0295968888075717e-10,5.947075233800788e-11,3.1967352411257654e-11,1.8226823614644984e-11,1.0365150412386946e-11,5.716805406286953e-12,3.300899928523944e-12,1.90128663457327e-12,9.76525259144677e-13,6.474400323057692e-13,2.7588901687771645e-13
0.0,10,10.0,0.0,30.0,0.0,0.0,0.0,0.0,-13.0,0.0,2.0,0.0,0.0,0.0,1.0123735724304824e-10,5.2727369014323726e-11,2.3290559360060306e-11,1.3510308055458464e-11,7.0095592540734665e-12,3.7722314867812475e-12,2.339631697656996e-12,1.3170630317407144e-12,8.503289690052233e-13,4.783219069750236e-13,2.8727759040793616e-13,1.6722328214718145e-13,9.604898804983692e-14,5.6649776670250354e-14,3.02538670551209e-14,1.8596343625246647e-14,1.1757979457423832e-14,6.902861874898159e-09,5.8406868660751495e-09,4.228896600145404e-09,3.0278803353533526e-09,2.0928833006189484e-09,1.3904009538373187e-09,8.777582322369972e-10,5.417817152269445e-10,3.0168386737530226e-10,1.8602202614519205e-10,1.0304401796830313e-10,5.970874403705608e-11,3.214395967862968e-11,1.7893999507192168e-11,9.7546941501036e-12,5.5128559233103774e-12,3.215699094935779e-12,1.5606615877975795e-12,9.701794321249116e-13,6.483220000625941e-13,3.814036589881483e-13
0.0,11,11.0,0.0,30.0,0.0,0.0,0.0,0.0,-13.0,0.0,2.0,0.0,0.0,0.0,1.0134316831354714e-10,4.910384743553662e-11,2.3964922731125942e-11,1.2364808399857363e-11,6.987215389452064e-12,3.941652235681042e-12,2.291959188052643e-12,1.3440313688486516e-12,7.538285459732423e-13,4.477401633520419e-13,2.8652573471094146e-13,1.619000562927078e-13,9.702364573309106e-14,5.716638179832345e-14,2.944616534978381e-14,1.729731549709197e-14,1.0370072291308505e-14,7.121248536233879e-09,5.6140145395559245e-09,4.296382169796542e-09,3.2492841017358892e-09,2.095569180242304e-09,1.3571165945477359e-09,8.611753969290578e-10,5.845509806817815e-10,3.2652461838552675e-10,1.8142257533153588e-10,1.0366914313588968e-10,5.6091563664802035e-11,3.211308813265776e-11,1.6986041962730706e-11,9.501606803468295e-12,5.4475436545950595e-12,2.9646096386449848e-12,1.9029030246486785e-12,9.879667241007307e-13,4.822959069738799e-13,2.5025183988785825e-13
0.0,12,12.0,0.0,30.0,0.0,0.0,0.0,0.0,-13.0,0.0,2.0,0.0,0.0,0.0,9.484705333224993e-11,4.8212238940173665e-11,2.355800233920429e-11,1.2415810164825672e-11,6.823525486693924e-12,3.693415916606101e-12,2.1293420756353004e-12,1.2681743659572197e-12,7.69047557428935e-13,4.2301550414028406e-13,2.5961860439767756e-13,1.5681413306597194e-13,9.592884860783086e-14,5.5407039429779017e-14,2.9153219138022116e-14,1.7188848894380366e-14,7.737806332439672e-15,7.330748326824892e-09,5.555252345369093e-09,4.290057601330899e-09,3.142963884124537e-09,2.0877109059227177e-09,1.3627056403227363e-09,8.868433316314376e-10,5.762022527282151e-10,3.408540077160177e-10,1.9594789120397507e-10,1.0506030494953164e-10,5.980393210420775e-11,2.98316059737089e-11,1.6207465605532037e-11,8.882667416944471e-12,5.3602041165269374e-12,2.8798210286742296e-12,1.6446004276329998e-12,7.518545429366744e-13,5.090798675365416e-13,1.291945992335032e-13
0.0,13,13.0,0.0,30.0,0.0,0.0,0.0,0.0,-13.0,0.0,2.0,0.0,0.0,0.0,9.308531908840628e-11,4.525079916244352e-11,2.3184707986851933e-11,1.2554419678254252e-11,6.331610979992659e-12,3.5481055287526448e-12,2.003747274659532e-12,1.253412115506849e-12,7.086319955576258e-13,4.360825768680937e-13,2.571090623425457e-13,1.6043357566912416e-13,9.301564418748254e-14,5.639077797220889e-14,2.8478797387999265e-14,1.7812752895145585e-14,9.015248611610423e-15,7.306846171666442e-09,6.010677538493321e-09,4.317167130655341e-09,3.2043582513495557e-09,2.01183349202243e-09,1.4177243156568352e-09,8.830729418026452e-10,5.392766252024348e-10,3.291276200405116e-10,1.9929396911042481e-10,9.987155179480833e-11,5.607912992690844e-11,2.8465135458899695e-11,1.5445744411437835e-11,9.17515518467762e-12,4.8789497355350076e-12,2.702810445344633e-12,1.5137734868019542e-12,8.717849764384936e-13,3.828019704287546e-13,2.8233721498531206e-13
0.0,14,14.0,0.0,30.0,0.0,0.0,0.0,0.0,-13.0,0.0,2.0,0.0,0.0,0.0,9.790643836100496e-11,4.7166698711305544e-11,2.3311083900422134e-11,1.1662352675121916e-11,6.342148259860658e-12,3.428571420532183e-12,1.991338316885554e-12,1.1750895762503713e-12,7.305425308154074e-13,4.0599264956330295e-13,2.4124423430577806e-13,1.547289964193229e-13,8.678785250628438e-14,5.640487827096846e-14,2.7933533714674383e-14,1.6350033603671638e-14,7.064206525922956e-15,7.2094615458492095e-09,5.849234846536084e-09,4.4665762622827455e-09,3.127945289184619e-09,2.0565578872648563e-09,1.400779150306719e-09,8.796656498602623e-10,5.505943369218844e-10,3.2332589510402026e-10,1.848510011465799e-10,1.0152267642594503e-10,5.682704138553189e-11,3.0795901395343205e-11,1.6510832418086464e-11,8.877591855853864e-12,4.900814348846248e-12,2.704474706361616e-12,1.6051752907455463e-12,7.090852329543235e-13,3.389810759915385e-13,2.4647183559452247e-13
0.0,15,15.0,0.0,30.0,0.0,0.0,0.0,0.0,-13.0,0.0,2.0,0.0,0.0,0.0,9.975158343724533e-11,4.7196452997383476e-11,2.2398971592006933e-11,1.1377916388521523e-11,6.122407806647578e-12,3.478245434836465e-12,2.0535240297691884e-12,1.1695629814664225e-12,6.576892802738342e-13,4.0769874541229795e-13,2.480780031692726e-13,1.469721297700224e-13,8.666016562947972e-14,5.014044220961379e-14,2.6962642198047368e-14,1.8338948133292402e-14,7.295146940768585e-15,7.572257513784518e-09,5.791146086739642e-09,4.421625832030772e-09,3.1414131856678257e-09,2.1421016363251576e-09,1.3224573637426612e-09,8.840467835916032e-10,5.34705041092958e-10,3.045865116313499e-10,1.7696293398898222e-10,1.0043427373053914e-10,5.7190465217507545e-11,2.873867859222008e-11,1.5893704049258885e-11,8.47417997478257e-12,4.834432368856302e-12,2.63899253059841e-12,1.4526460386865227e-12,8.886816924645063e-13,4.448917312378497e-13,3.3704851073146025e-13
0.0,16,16.0,0.0,30.0,0.0,0.0,0.0,0.0,-13.0,0.0,2.0,0.0,0.0,0.0,9.013992566227716e-11,4.316721203950921e-11,2.2211989555627016e-11,1.0852015123869613e-11,6.187791286818864e-12,3.2680644846840157e-12,1.8448966265506014e-12,1.0851227411954656e-12,6.943458370274702e-13,4.0027508704161797e-13,2.477222417846586e-13,1.3893431577154444e-13,8.361858239088769e-14,4.898979543303819e-14,2.5354812276844243e-14,1.626816668645309e-14,8.586954573589237e-15,6.824080002905934e-09,5.631834033655521e-09,4.413023621705668e-09,3.116696957419348e-09,2.050773405713578e-09,1.3507195394883916e-09,9.172078496525732e-10,5.374383608528763e-10,3.3027026634720454e-10,1.77856501002921e-10,9.702353825200391e-11,5.497608778387616e-11,2.976348158205369e-11,1.5619653827812963e-11,8.843047302160258e-12,4.847156212823193e-12,2.642682665420128e-12,1.4576760802008899e-12,8.348642897784428e-13,4.540335711176483e-13,2.4140163576163223e-13
0.0,17,17.0,0.0,30.0,0.0,0.0,0.0,0.0,-13.0,0.0,2.0,0.0,0.0,0.0,9.615568590436307e-11,4.607355541525582e-11,2.1588884748908006e-11,1.05331972959452e-11,5.555736350723804e-12,3.226018357610741e-12,1.8294728997598833e-12,1.0882521712681268e-12,6.295815057316148e-13,3.7613407144748557e-13,2.3239934978013503e-13,1.3977408907294748e-13,8.356723919897175e-14,5.3108960799326626e-14,2.6022069249019128e-14,1.5184145190475094e-14,7.877429991850635e-15,7.538134293302247e-09,5.833881935069447e-09,4.564067959071506e-09,3.0702615026379437e-09,2.1153077291201704e-09,1.4055911862901442e-09,8.516145677351139e-10,5.460318629171091e-10,3.086085392388361e-10,1.822285280969954e-10,9.927273710571528e-11,5.336386042883928e-11,2.909756520156782e-11,1.539494903329812e-11,8.274528041962216e-12,4.627834499009321e-12,2.7462667316657496e-12,1.301123480803348e-12,8.614210168208075e-13,5.338901879486925e-13,2.0465759068187307e-13
0.0,18,18.0,0.0,30.0,0.0,0.0,0.0,0.0,-13.0,0.0,2.0,0.0,0.0,0.0,9.493933243121347e-11,4.342779152010883e-11,2.1555882039733206e-11,1.0764074941290595e-11,5.452646535388482e-12,3.1615760792914596e-12,1.8942435115446624e-12,9.98097145657931e-13,6.092689277062462e-13,3.873224382608992e-13,2.1810353704076953e-13,1.2904038993623612e-13,7.859312149950825e-14,5.17051051743195e-14,2.6208669330556044e-14,1.3553070966360255e-14,8.037501285879489e-15,7.0888343075650266e-09,5.940398479836901e-09,4.4331401297846016e-09,2.93228500007022e-09,2.0792483261891364e-09,1.2951431908486775e-09,8.649513109842695e-10,5.573014175053464e-10,3.1584397067355955e-10,1.7163519496959332e-10,1.0150574322962128e-10,5.0967065946791005e-11,2.905799676315748e-11,1.5033460231038517e-11,7.779991786701855e-12,4.505923714773613e-12,2.614354114933066e-12,1.2756734340979084e-12,7.499818778037135e-13,4.083934696875076e-13,4.3237817797963793e-13
0.0,19,19.0,0.0,30.0,0.0,0.0,0.0,0.0,-13.0,0.0,2.0,0.0,0.0,0.0,9.645457779069773e-11,4.1210911190976973e-11,2.043347434616765e-11,1.0349182696411692e-11,5.325264657885778e-12,2.929546516860896e-12,1.7812954330448891e-12,1.0419771746859621e-12,5.928568047976189e-13,3.600336656368705e-13,2.1052900638898812e-13,1.366962517731525e-13,7.997194413723021e-14,4.580277351159929e-14,2.5130164926279624e-14,1.4117007266201567e-14,9.011960230788842e-15,7.462082243043361e-09,5.895659912112872e-09,4.387941183267248e-09,3.11459580036487e-09,2.0529699075175565e-09,1.2939079986973247e-09,9.094789192865066e-10,5.571099170410507e-10,3.283070855327614e-10,1.7304252799786028e-10,9.974988732380617e-11,5.423097635265041e-11,2.7703360645162934e-11,1.449158703378966e-11,8.111572691060202e-12,4.095516749288563e-12,2.440618430909795e-12,1.30032308023442e-12,5.77127265660684e-13,2.429331023742595e-13,1.2882322730433073e-13
0.0,20,20.0,0.0,30.0,0.0,0.0,0.0,0.0,-13.0,0.0,2.0,0.0,0.0,0.0,9.52266751946076e-11,4.3435938914241296e-11,2.0697220966688072e-11,1.0491096409776726e-11,5.044507450310368e-12,3.0727248442050612e-12,1.6903790412119917e-12,9.704994388561348e-13,6.047098435134047e-13,3.58824542431573e-13,2.0951464517851841e-13,1.3191827632775872e-13,7.617743514252398e-14,4.352058452631362e-14,2.58117083575903e-14,1.3964876942394638e-14,6.378444140774755e-15,7.149466251103056e-09,5.831279061821679e-09,4.468404645543986e-09,3.117267349178224e-09,2.0904789731903043e-09,1.397948422894969e-09,8.999189396806673e-10,5.443381793027892e-10,3.267854711507519e-10,1.7110370481936805e-10,9.617400638068483e-11,5.271871097084021e-11,2.7980212933269146e-11,1.4545710214962637e-11,7.316279905501643e-12,4.221311939131579e-12,2.149604536778268e-12,1.4046908802822743e-12,7.858909133435046e-13,5.340929552323509e-13,2.4417363231615456e-13
0.0,21,21.0,0.0,30.0,0.0,0.0,0.0,0.0,-13.0,0.0,2.0,0.0,0.0,0.0,9.254771790692763e-11,4.5140554584312897e-11,2.0722354881492955e-11,9.888054854255629e-12,5.062851703966717e-12,2.987283006206649e-12,1.6749452589592133e-12,8.802472551674845e-13,6.135395747339402e-13,3.371334271654233e-13,2.2068046135511667e-13,1.3361886938275414e-13,7.442274418224011e-14,4.4601231229126884e-14,2.5392193949308283e-14,1.3086033211685948e-14,6.312833901682042e-15,7.111218363407229e-09,5.902666609551e-09,4.619402046982591e-09,3.256375725923124e-09,2.1904111263846024e-09,1.336558012445389e-09,8.335545451931262e-10,5.09637578829476e-10,3.2400525982471844e-10,1.8210907729709242e-10,9.217595627665803e-11,5.313798313273316e-11,2.6975638259056772e-11,1.4459411540783334e-11,7.2731998822379225e-12,3.759326295469522e-12,2.2200756497649235e-12,1.3661119321177117e-12,8.556452926861728e-13,4.3623608506979145e-13,1.700945589462828e-13
0.0,22,22.0,0.0,30.0,0.0,0.0,0.0,0.0,-13.0,0.0,2.0,0.0,0.0,0.0,9.079032335441648e-11,4.3321700157059863e-11,2.0053436934961533e-11,9.744096070966614e-12,5.1200144377057756e-12,2.873057371503431e-12,1.6142735669529854e-12,9.717964118394094e-13,5.586299604890407e-13,3.358824410143912e-13,2.0065133897182133e-13,1.2812377138937096e-13,6.943415093677211e-14,4.341125386037112e-14,2.51501724929364e-14,1.2661390800337131e-14,7.525921260633947e-15,7.330600250456293e-09,6.3082733699994335e-09,4.582210285594773e-09,3.0239065441501414e-09,2.2703387136624163e-09,1.2812610900791377e-09,8.819262679936912e-10,5.702384492209955e-10,3.1301578243708723e-10,1.692831544692795e-10,9.779291120604565e-11,5.2687321042167e-11,2.6762125233351772e-11,1.4438342919736317e-11,7.595295683771883e-12,3.9461552857162035e-12,2.275353288059495e-12,1.2930293281373614e-12,7.256358851821543e-13,3.124430356370259e-13,1.0182664466998679e-13
0.0,23,23.0,0.0,30.0,0.0,0.0,0.0,0.0,-13.0,0.0,2.0,0.0,0.0,0.0,8.941712796823921e-11,4.360536065937492e-11,2.0545172581685738e-11,9.934137817270025e-12,5.097623842326857e-12,2.8100055650505693e-12,1.5361109986870672e-12,9.158659551420092e-13,5.656675346692657e-13,3.1885173722611324e-13,2.0308823661407133e-13,1.2467189539287207e-13,7.241266656088464e-14,4.148841976775428e-14,2.3539457306540234e-14,1.431628148992092e-14,7.873952242626055e-15,7.492608343488568e-09,5.903465143522676e-09,4.400970479524663e-09,3.355811800968063e-09,2.1618024036763046e-09,1.3815694091781329e-09,8.836899227591363e-10,5.216027851714866e-10,2.9454274616749634e-10,1.7448999265766704e-10,9.531652665516066e-11,5.0926559487511e-11,2.7434810057497974e-11,1.311635773551585e-11,7.32610056771465e-12,3.738415696135829e-12,2.2518744076113366e-12,1.1803926817103782e-12,8.526733830344982e-13,3.8162265018022416e-13,3.3570612164401605e-13
0.0,24,24.0,0.0,30.0,0.0,0.0,0.0,0.0,-13.0,0.0,2.0,0.0,0.0,0.0,8.876031859241618e-11,4.279852989939258e-11,2.039921448811362e-11,9.324562540108917e-12,4.803937341160311e-12,2.654020639757992e-12,1.4680768950043887e-12,8.671771939579778e-13,5.164629579475897e-13,3.0131959058557986e-13,1.9337254197064458e-13,1.1787118337498767e-13,6.847575747710445e-14,4.211910283936463e-14,2.1986631281090837e-14,1.2901650686113786e-14,6.5742915373783875e-15,7.277478595679058e-09,5.799642633436999e-09,4.504873937053045e-09,3.0264189685358297e-09,2.143236044565722e-09,1.3333197217977398e-09,9.11974413309332e-10,5.258526420137498e-10,3.1401266600092697e-10,1.7492771419671807e-10,9.32116709783052e-11,4.910718630726458e-11,2.5620860516965268e-11,1.3806622119554162e-11,7.081504359556423e-12,3.724830390364742e-12,2.0203479279741872e-12,1.1014587068613928e-12,5.325097583534855e-13,4.089653345989081e-13,4.2204233407657614e-13
0.0,25,25.0,0.0,30.0,0.0,0.0,0.0,0.0,-13.0,0.0,2.0,0.0,0.0,0.0,9.184862386392644e-11,3.893842693451475e-11,1.9354949835301045e-11,9.565402454429136e-12,4.787289585510124e-12,2.658007570743423e-12,1.4509868014515198e-12,8.307696291348201e-13,5.381279885584528e-13,3.0682724337978017e-13,1.8763966154530812e-13,1.1068452683831175e-13,7.099814048122697e-14,4.371573412912551e-14,2.30150748733499e-14,1.3014689232897897e-14,6.9347184133022525e-15,7.0606509062369855e-09,6.156548559839001e-09,4.486488993525513e-09,3.1299186366207505e-09,2.1929094226207463e-09,1.3204899275485685e-09,8.520804420972069e-10,5.237620212564597e-10,3.174988173090199e-10,1.8108448481276638e-10,9.628318940748016e-11,5.096819136976093e-11,2.6325000256272913e-11,1.2137891448491827e-11,6.844529006054617e-12,3.5452940103171924e-12,2.1444598499942803e-12,1.0366860795996316e-12,8.220458486149027e-13,3.118672100876892e-13,1.1242880942050118e-13
0.0,26,26.0,0.0,30.0,0.0,0.0,0.0,0.0,-13.0,0.0,2.0,0.0,0.0,0.0,9.22561156847114e-11,4.0912945345281955e-11,1.9207920261842387e-11,9.547126668195058e-12,4.655897981435966e-12,2.440742043319849e-12,1.4533642862644258e-12,8.191761043693272e-13,4.900121440409534e-13,2.905382866843441e-13,1.8360989652502687e-13,1.096995218179748e-13,6.921842541231049e-14,4.0374846806377676e-14,2.3265188161464776e-14,1.198293243100691e-14,8.043906797186225e-15,7.52335106935508e-09,6.0754260024717744e-09,4.700839751943733e-09,3.1717102019795533e-09,2.1389644943844855e-09,1.3649258728737346e-09,8.478710110450126e-10,5.213388125539026e-10,3.051936850898473e-10,1.7717948741064753e-10,9.049899104333172e-11,4.6679351223548624e-11,2.6313316334808816e-11,1.3399396328350967e-11,6.692940122576381e-12,3.357807776434407e-12,1.8104098675529088e-12,1.15619196847942e-12,6.009764912759126e-13,4.613045099443787e-13,1.2991165439671024e-13
0.0,27,27.0,0.0,30.0,0.0,0.0,0.0,0.0,-13.0,0.0,2.0,0.0,0.0,0.0,8.672130299038301e-11,3.962112826854394e-11,1.8950979154914672e-11,9.3853776758773e-12,4.682536381348723e-12,2.557750367315015e-12,1.376966552979228e-12,8.342729277210705e-13,4.841985464802198e-13,2.725666719915772e-13,1.899753683945066e-13,1.0841947869885538e-13,6.544101974580385e-14,4.061868461290626e-14,2.0126152065190756e-14,1.422753403413884e-14,7.961711576009367e-15,7.420576544096678e-09,6.04203460486663e-09,4.4821765872283025e-09,3.2140653532329486e-09,2.156316770218546e-09,1.3572488128983318e-09,8.934451154730364e-10,5.05773496034912e-10,2.956116948567417e-10,1.5803800101389868e-10,9.417245334360397e-11,4.868009208927937e-11,2.4562567001848092e-11,1.311788704309011e-11,6.611031902898693e-12,3.5154436925176137e-12,1.989175516965283e-12,1.1030004484413398e-12,7.407783541679255e-13,4.039726455959471e-13,1.1205254863779402e-13
0.0,28,28.0,0.0,30.0,0.0,0.0,0.0,0.0,-13.0,0.0,2.0,0.0,0.0,0.0,8.46961550983086e-11,3.8119730410910563e-11,1.826597439917908e-11,9.183129270643402e-12,4.2750046849504485e-12,2.330960890218323e-12,1.366985067567237e-12,8.007310231218044e-13,4.71513556536846e-13,2.8574962195286025e-13,1.8595262373377544e-13,1.0969448895297667e-13,6.264616800041199e-14,3.686254142329373e-14,2.239515527951653e-14,1.3848482800607069e-14,6.553470650095368e-15,7.57028689796842e-09,5.960878236594846e-09,4.289445327055421e-09,3.202768584951049e-09,2.0366872511253795e-09,1.3769462747313972e-09,8.799300487272106e-10,5.267916568179262e-10,3.177445554763393e-10,1.7203580074719857e-10,9.208524743496949e-11,4.9017548121503735e-11,2.5005022247891355e-11,1.3407259216744494e-11,6.6880665623124495e-12,3.783016230445457e-12,1.695940983346939e-12,1.0095977952189926e-12,4.966331784819227e-13,3.8983593812852015e-13,1.7069584443035155e-13
0.0,29,29.0,0.0,30.0,0.0,0.0,0.0,0.0,-13.0,0.0,2.0,0.0,0.0,0.0,8.679937903364549e-11,3.888120812562802e-11,1.8406500587745048e-11,8.623373154596123e-12,4.419743199667051e-12,2.3376074821532713e-12,1.3107038123256992e-12,7.723264080842204e-13,4.660560918807696e-13,2.699683141042603e-13,1.738212124448968e-13,1.0583590922591318e-13,6.557111018931328e-14,3.840308483617379e-14,2.241597026992734e-14,1.2056706407911646e-14,5.544433793348436e-15,7.474059479626787e-09,6.019284296973305e-09,4.440498292026855e-09,2.9642817269089188e-09,2.252533901808808e-09,1.3708009683336859e-09,8.626615214493215e-10,5.405021179223816e-10,2.8765216708867526e-10,1.699306141137961e-10,9.028479035482068e-11,4.944608050818665e-11,2.4240422408254926e-11,1.1796319153398648e-11,6.589601153717802e-12,3.0731586357015585e-12,1.6724830593803472e-12,1.0504772705431351e-12,6.598496352904307e-13,3.379176613284064e-13,1.409046248807272e-13
0.0,30,30.0,0.0,30.0,0.0,0.0,0.0,0.0,-13.0,0.0,2.0,0.0,0.0,0.0,8.005675060784388e-11,3.829579638145471e-11,1.74417191483697e-11,8.505170618481755e-12,4.167997357939722e-12,2.211907228266751e-12,1.3341261260697179e-12,6.823973632993703e-13,4.138522737857615e-13,2.701857478403945e-13,1.6415751172746118e-13,9.835609598141314e-14,5.887134586575803e-14,3.776576284476608e-14,2.1493421355763802e-14,1.3379412072005575e-14,8.09476291318166e-15,7.354609581657938e-09,6.017833381721521e-09,4.530182415737779e-09,3.1535293007456485e-09,2.0861079376753423e-09,1.293852709122699e-09,8.557924087991228e-10,5.176942693712815e-10,2.997119460286283e-10,1.7140304174910894e-10,9.123018182779364e-11,4.46277965455865e-11,2.350354620532302e-11,1.2634803488433685e-11,6.194957187866681e-12,3.2851296765370154e-12,1.7140139743186711e-12,1.0761056031066358e-12,5.421911481630789e-13,3.0996984306047337e-13,2.5707376244933224e-14
0.0,31,31.0,0.0,30.0,0.0,0.0,0.0,0.0,-13.0,0.0,2.0,0.0,0.0,0.0,8.011848061755794e-11,3.7883754925265956e-11,1.8177860708629857e-11,8.236273421006907e-12,4.374644551118554e-12,2.152482260708757e-12,1.2522208479622288e-12,7.073094986437985e-13,4.3794334030701475e-13,2.698402568658875e-13,1.667255878532829e-13,1.047117430465013e-13,5.877652907842558e-14,3.5072077258278406e-14,1.9322946915568305e-14,1.2101122363688677e-14,5.325927213634784e-15,7.260806278593618e-09,5.880687575193767e-09,4.995754612092487e-09,3.1846124799034566e-09,2.097587263388161e-09,1.3159913429488835e-09,8.199644924018546e-10,5.112148420821188e-10,2.8777800730083034e-10,1.5750865242624465e-10,8.420411585462129e-11,4.9021167525438745e-11,2.3412486812587134e-11,1.1430909449886059e-11,6.0996071188350056e-12,3.2690994120665803e-12,1.7020044893793986e-12,8.033437389947445e-13,5.024073297717835e-13,2.3313231746508514e-13,2.7339705749252004e-13
0.0,32,32.0,0.0,30.0,0.0,0.0,0.0,0.0,-13.0,0.0,2.0,0.0,0.0,0.0,8.70600826215609e-11,3.81363038560136e-11,1.6445173253056196e-11,8.228751223916204e-12,4.116601353039262e-12,2.102867283985186e-12,1.1859565759822788e-12,7.064091020096396e-13,4.27725492177e-13,2.6086923794111026e-13,1.5433542775517864e-13,9.642653028705037e-14,5.871535883934621e-14,3.644048522356242e-14,2.1001108628652064e-14,1.2253756111186043e-14,5.9834780278431836e-15,7.6790287988616e-09,6.225215979328793e-09,4.788550608457688e-09,3.257080900706828e-09,1.9582591667554296e-09,1.3091136816912798e-09,8.452985237323729e-10,5.112378089273259e-10,2.8317639628903e-10,1.604064176939086e-10,8.717135364732649e-11,4.6775908191515636e-11,2.3116176522101183e-11,1.1848330870506209e-11,5.904750869281038e-12,3.1714404451311797e-12,1.6512453577266022e-12,1.0790176214815467e-12,4.5213181161780294e-13,1.7526023356376386e-13,1.1445603540879276e-13
0.0,33,33.0,0.0,30.0,0.0,0.0,0.0,0.0,-13.0,0.0,2.0,0.0,0.0,0.0,8.141575369276606e-11,3.9498006896570996e-11,1.7840630933899308e-11,8.205151722401218e-12,4.00465420668273e-12,1.9470467429061576e-12,1.145520453082956e-12,6.79531085920691e-13,4.02075258256249e-13,2.591626047346894e-13,1.5840606447887195e-13,9.566799169555354e-14,5.943770468908307e-14,3.363608270758074e-14,2.18958044468773e-14,1.434818165484538e-14,6.235332647911617e-15,7.637215580219887e-09,6.016701562945257e-09,4.5039546780073435e-09,3.227922211309443e-09,2.1744818206158215e-09,1.4035621558988286e-09,8.881887512123742e-10,4.87418871863117e-10,2.8950623928946997e-10,1.6195757380917182e-10,8.67973977990088e-11,4.2461269960024704e-11,2.3227031720435163e-11,1.2314635664408387e-11,5.577395691071067e-12,3.013688940429102e-12,1.586635357932185e-12,9.119517091853505e-13,4.547492077172451e-13,1.9902159503230984e-13,2.201138244224219e-13
0.0,34,34.0,0.0,30.0,0.0,0.0,0.0,0.0,-13.0,0.0,2.0,0.0,0.0,0.0,8.155990949603786e-11,3.828030783705463e-11,1.7193947532781567e-11,8.177280447631788e-12,4.07818621151821e-12,1.9330853392068108e-12,1.1674874253838334e-12,6.643975061111944e-13,3.8557787608919294e-13,2.367237525199477e-13,1.464309390681158e-13,9.117734341752483e-14,5.6044108646431626e-14,3.410114916051664e-14,2.1662097673891396e-14,1.1246688666184118e-14,6.107349885994102e-15,7.353168667728531e-09,6.208236729608289e-09,4.665904572614146e-09,3.1198191924308224e-09,2.0326230435269747e-09,1.3235125962245664e-09,8.189185309684545e-10,5.115768350868328e-10,2.736639008915348e-10,1.5866223588478147e-10,9.045135087517667e-11,4.573355264815745e-11,2.2124181416264106e-11,1.1399971736063544e-11,6.01143507548952e-12,3.1071815197131605e-12,1.4764969191452284e-12,9.469668246206476e-13,4.2418271832850853e-13,1.3615423634019898e-13,2.535835264281515e-13
0.0,35,35.0,0.0,30.0,0.0,0.0,0.0,0.0,-13.0,0.0,2.0,0.0,0.0,0.0,8.040280579031327e-11,3.6260451656905685e-11,1.6493587822400667e-11,7.885732442027829e-12,3.883368864669153e-12,1.9211626402150695e-12,1.0917788537552374e-12,6.256001573552778e-13,4.0621059956839805e-13,2.2686858196179817e-13,1.4958063788519934e-13,9.456480076082307e-14,5.386055313595282e-14,3.405073990389366e-14,1.8153708827092044e-14,1.1417659169439557e-14,5.6751046869301346e-15,7.745796288692254e-09,5.975494978338785e-09,4.583123107118739e-09,3.3586938972189436e-09,2.0363958553841567e-09,1.382216055678546e-09,8.332982728314066e-10,5.077012486574916e-10,2.8688138803850644e-10,1.617022692616078e-10,8.625207538154838e-11,4.378622183677345e-11,2.2167550809363133e-11,1.0911232133336277e-11,5.618161398383573e-12,2.840057595238559e-12,1.5312058529572837e-12,7.249594336677888e-13,4.558454136272019e-13,2.5305947799748805e-13,1.6191349440038485e-13
0.0,36,36.0,0.0,30.0,0.0,0.0,0.0,0.0,-13.0,0.0,2.0,0.0,0.0,0.0,8.274044632621518e-11,3.591013441333894e-11,1.6142607684413024e-11,7.74954115778416e-12,3.934369149460113e-12,1.9630951705143034e-12,1.118543511325921e-12,5.953766797529193e-13,3.6347418838774853e-13,2.1901638131190295e-13,1.4828893625628388e-13,8.484332116117902e-14,5.555567107154941e-14,3.3652450279588645e-14,1.9265599960564348e-14,1.2661821895189406e-14,7.0880700845215e-15,8.062733696531197e-09,5.967255165255477e-09,4.861547660071416e-09,3.1517061720535923e-09,2.0735730485202165e-09,1.3371867092603535e-09,8.026166324619186e-10,4.998094938022413e-10,2.830250880249866e-10,1.5992446580127e-10,8.627358261180176e-11,4.5745005383305436e-11,2.1820272650922348e-11,1.097287872161557e-11,5.809666395203997e-12,2.9991038324641885e-12,1.6225490173370128e-12,7.613807130009927e-13,4.332628401715311e-13,1.546921012406125e-14,1.1317721689162838e-13
0.0,37,37.0,0.0,30.0,0.0,0.0,0.0,0.0,-13.0,0.0,2.0,0.0,0.0,0.0,7.63350964895773e-11,3.6032748430792814e-11,1.529180641013651e-11,7.4029402806895e-12,3.69910073458502e-12,1.8941682946543296e-12,1.070002780402518e-12,5.919435482575942e-13,3.813416585979681e-13,2.2850453775312184e-13,1.4172990848669745e-13,8.729935629318755e-14,5.183780770278577e-14,3.015701188476286e-14,1.8499620468512717e-14,1.3731334043736719e-14,6.9555236473394246e-15,7.567038284433653e-09,6.133450255378787e-09,4.820156248668134e-09,3.2965490296841835e-09,2.0405346665627495e-09,1.3036831490688208e-09,8.465413857705498e-10,4.907576903891665e-10,2.895824271962659e-10,1.608645969536521e-10,7.900297590573371e-11,4.28134568687914e-11,2.21042969186894e-11,1.1123939742324351e-11,5.539716933990251e-12,2.8744029285736893e-12,1.5825215944927774e-12,7.432865251383838e-13,4.993435060811265e-13,1.985094505221649e-13,1.2110343837228074e-13
0.0,38,38.0,0.0,30.0,0.0,0.0,0.0,0.0,-13.0,0.0,2.0,0.0,0.0,0.0,7.8879092852408e-11,3.5250749437351483e-11,1.6231528963393987e-11,7.513245274114088e-12,3.6012049727715376e-12,1.906978461513105e-12,1.004115322825692e-12,6.190167418067569e-13,3.68983637792096e-13,2.1350700848019437e-13,1.2923450252596626e-13,8.778062351625996e-14,5.3852402258063554e-14,3.1559707454634943e-14,1.7980557186059326e-14,9.491700050405994e-15,5.844338919458742e-15,7.599823839884854e-09,6.073488692449755e-09,4.511825716788135e-09,3.1117514498190656e-09,2.185285550444128e-09,1.2526767286557763e-09,7.582863572187204e-10,4.727912866981551e-10,2.8359246167709235e-10,1.5910781011071985e-10,7.995546149941395e-11,4.5174547954333245e-11,2.184215316452638e-11,1.0772741196696342e-11,5.3484066525624875e-12,2.779243793597744e-12,1.4984295279454319e-12,7.050041263945531e-13,4.2500469137317334e-13,6.267481203035569e-14,1.3553571061481976e-13
0.0,39,39.0,0.0,30.0,0.0,0.0,0.0,0.0,-13.0,0.0,2.0,0.0,0.0,0.0,8.158078786204082e-11,3.608218036461741e-11,1.6281718349134465e-11,7.156425301777653e-12,3.412268773598422e-12,1.7668544000582866e-12,9.802896800770044e-13,5.818014246978265e-13,3.3886281248313543e-13,1.99112893154901e-13,1.4029098372698274e-13,8.38534798129757e-14,5.364821013418259e-14,2.949406112226609e-14,1.882571284916697e-14,9.519542325143422e-15,5.460516567826434e-15,7.474903533858087e-09,6.045431731491688e-09,4.876366070961498e-09,3.1339300247990685e-09,2.122305435120376e-09,1.3468455658719958e-09,7.930558329897031e-10,4.646692364660027e-10,2.833963971697374e-10,1.5035951545575284e-10,7.966926163810703e-11,4.223182454456162e-11,2.0952682980153957e-11,1.0157236773483006e-11,5.43989656448239e-12,2.6721596561447027e-12,1.4044387766930882e-12,8.57271443874951e-13,4.867677597713047e-13,2.87610105970148e-13,2.588846101122366e-13
0.0,40,40.0,0.0,30.0,0.0,0.0,0.0,0.0,-13.0,0.0,2.0,0.0,0.0,0.0,8.074499053266985e-11,3.143501319994754e-11,1.5162443039047045e-11,7.368484536316832e-12,3.389019660054352e-12,1.7652963547650007e-12,9.947833435406587e-13,5.555716933882042e-13,3.402038620052437e-13,2.0090959351287133e-13,1.2821848605812586e-13,8.117235677642934e-14,5.019172307209188e-14,2.946971829003743e-14,1.699074949227735e-14,1.064435097428416e-14,5.292985673347432e-15,7.679082244152484e-09,5.996255684395318e-09,4.54147364678872e-09,3.216951277159909e-09,2.0546409764680625e-09,1.2481686570213663e-09,8.01931215957778e-10,4.882110243769577e-10,2.7350741977414134e-10,1.4384723359907566e-10,8.067977910379437e-11,3.855650368693337e-11,2.111805006506301e-11,1.0299998555165239e-11,5.26120317114888e-12,2.7244743781375006e-12,1.3654909881433735e-12,7.606973352586775e-13,3.5876005768695117e-13,1.5467535081925762e-13,2.2957717789815865e-13
0.0,41,41.0,0.0,30.0,0.0,0.0,0.0,0.0,-13.0,0.0,2.0,0.0,0.0,0.0,7.286580486060192e-11,3.3028419193831036e-11,1.5693905883453388e-11,7.030421708388319e-12,3.5300938655612777e-12,1.7190858429909682e-12,8.921038411056629e-13,5.432550851344725e-13,3.406916055892476e-13,1.9600794461231298e-13,1.3081660128611853e-13,7.790256315430387e-14,4.766221465111382e-14,3.277850811050401e-14,1.5802207995810063e-14,1.2983574318744064e-14,4.315797092503576e-15,7.411401179579473e-09,6.000957948380385e-09,4.715628794317713e-09,3.415002909996378e-09,2.1871820109409787e-09,1.3401524366471238e-09,8.179134868909622e-10,4.883037464471372e-10,2.7507191789360973e-10,1.4977360938322435e-10,7.821576149349363e-11,4.089226215989403e-11,1.9954710414359582e-11,1.0289465391882923e-11,4.956172647665115e-12,2.47840592712851e-12,1.340025596948029e-12,7.225436409802259e-13,5.514322815550516e-13,3.167664929364648e-13,1.1835742775894334e-13
0.0,42,42.0,0.0,30.0,0.0,0.0,0.0,0.0,-13.0,0.0,2.0,0.0,0.0,0.0,7.495490515983556e-11,3.3286020227106313e-11,1.4835483322764664e-11,6.590157859921826e-12,3.180432807003436e-12,1.6267738818813924e-12,9.001987527810608e-13,5.180561536521754e-13,3.312702211585458e-13,2.0674623092745628e-13,1.2299688297924343e-13,7.647312856991143e-14,4.62713263822577e-14,2.932535711101351e-14,1.8851421724168612e-14,1.074195643269568e-14,5.135654191897914e-15,7.598155469307734e-09,5.973849810691274e-09,4.66835773100595e-09,3.1664648364288304e-09,2.1215623053838487e-09,1.3029911187650565e-09,8.41772816573185e-10,4.970960671312808e-10,2.7633465629053997e-10,1.4833725317837334e-10,7.47297657599086e-11,3.975387257099371e-11,2.0124200048186313e-11,9.8800791936635e-12,5.167620174722803e-12,2.5895636253917696e-12,1.401579609252535e-12,8.550191293369726e-13,5.212549187367454e-13,-3.678603176562036e-14,1.673363647926223e-13
0.0,43,43.0,0.0,30.0,0.0,0.0,0.0,0.0,-13.0,0.0,2.0,0.0,0.0,0.0,7.319554307248499e-11,3.215471659490164e-11,1.5371308019455556e-11,6.83638131029176e-12,3.229936812201497e-12,1.5617746663280745e-12,9.264479072589396e-13,5.273064405564567e-13,3.3562534252454035e-13,1.9188533739756454e-13,1.1936381857561023e-13,7.146122444367684e-14,4.4704776332327674e-14,2.917237417599252e-14,1.6506799618395336e-14,1.140788691647244e-14,5.682351806796623e-15,7.507100128913851e-09,5.965883080440173e-09,4.712177947864585e-09,3.162902134837243e-09,2.0347707048851846e-09,1.3629140829367062e-09,8.094267006798152e-10,4.80907885756851e-10,2.847866718680987e-10,1.4634784303581304e-10,7.522256051098054e-11,4.0954020119599814e-11,1.9638645813452496e-11,1.0106527785151105e-11,4.557847331366837e-12,2.52680236072404e-12,1.2754586141265149e-12,8.420102371084718e-13,4.739151309478787e-13,1.0245386441967898e-13,1.0149408330016493e-13
0.0,44,44.0,0.0,30.0,0.0,0.0,0.0,0.0,-13.0,0.0,2.0,0.0,0.0,0.0,7.587501433976567e-11,3.175321553238561e-11,1.542868677464468e-11,6.681474352282828e-12,3.355603120306422e-12,1.6231080018156711e-12,8.667897339150595e-13,5.238833970421176e-13,3.2605300581843197e-13,1.8360679601416984e-13,1.1959811553965728e-13,7.730396992317664e-14,5.066686174094255e-14,3.064417683982332e-14,1.5013525867182812e-14,8.623961060257969e-15,4.760002168325111e-15,7.915915182357949e-09,6.654469197955294e-09,4.686024944401653e-09,3.2373295673513557e-09,2.121896349068866e-09,1.2633662843435667e-09,7.622153124544699e-10,4.6291848631211045e-10,2.5194159216400246e-10,1.4395338303557562e-10,7.454650434641838e-11,3.9416157485704354e-11,1.913177709437666e-11,9.75918644991472e-12,4.8595849251627585e-12,2.5543054624002565e-12,1.2617912284356494e-12,5.505407071940905e-13,3.3823203043101276e-13,5.101523091623936e-13,2.7180674283528513e-13
0.0,45,45.0,0.0,30.0,0.0,0.0,0.0,0.0,-13.0,0.0,2.0,0.0,0.0,0.0,6.887358783773579e-11,3.1314288937037145e-11,1.4283082706071143e-11,6.5419467705200845e-12,3.156115860633419e-12,1.5528593090353618e-12,8.425637780906831e-13,4.946387387032392e-13,2.9671659611707247e-13,1.8552526616162235e-13,1.1114526976008148e-13,7.107749892501646e-14,5.0596806015375266e-14,2.7483229906762806e-14,1.5228328699037217e-14,1.088366642169162e-14,5.411888944792253e-15,7.698550383392672e-09,6.307000349553631e-09,4.818168345280434e-09,3.122773123313903e-09,2.0130175131472692e-09,1.3154734545671573e-09,7.786620847642982e-10,4.680547283511799e-10,2.550786773409003e-10,1.4565955143854818e-10,7.54361219151397e-11,4.1276206647805417e-11,1.8518968425869528e-11,9.381060943696088e-12,4.837551501328823e-12,2.232972644163941e-12,1.2998646220704479e-12,6.225094538475073e-13,2.702193049415151e-13,2.3956631939229994e-13,9.106418585463687e-14
0.0,46,46.0,0.0,30.0,0.0,0.0,0.0,0.0,-13.0,0.0,2.0,0.0,0.0,0.0,6.985841812025968e-11,3.069553855866926e-11,1.3925503048017598e-11,6.3783266653694415e-12,3.2059804884324506e-12,1.4889170272086984e-12,8.4305279223584e-13,4.769220387845384e-13,2.766811691759088e-13,1.7248333651538014e-13,1.1599248074421128e-13,7.091398355956751e-14,4.4487834697984306e-14,2.863475042797318e-14,1.704346673594576e-14,8.924727746037144e-15,5.543014230144703e-15,7.892394631215153e-09,6.238821577979834e-09,4.791596440076227e-09,3.4177796017319566e-09,2.1411396298691145e-09,1.3140698555831219e-09,7.992001253143409e-10,4.727867100037147e-10,2.577110202803955e-10,1.4133503116289886e-10,7.399663282902299e-11,3.747791988080102e-11,1.9683756854573878e-11,9.742454320182246e-12,4.99408410627268e-12,2.064025120616194e-12,1.0574459492618229e-12,4.806314776112271e-13,3.8043960472245456e-13,3.0396649537263156e-13,2.0500150129943243e-13
0.0,47,47.0,0.0,30.0,0.0,0.0,0.0,0.0,-13.0,0.0,2.0,0.0,0.0,0.0,7.2028105440432e-11,2.971227077153402e-11,1.403445868628138e-11,6.1295653944724636e-12,2.861486283029349e-12,1.4608888084461829e-12,8.067344666001792e-13,4.7694403063489e-13,2.801397061280878e-13,1.700633249394232e-13,1.0706797634296875e-13,6.80099600783705e-14,4.2893647215225445e-14,2.7245713242778033e-14,1.579095964257424e-14,7.991250026259141e-15,5.6915218542730034e-15,7.904338054585095e-09,6.049718312460703e-09,4.8088561277183275e-09,2.9791626717964626e-09,2.012467781225175e-09,1.2562227696841882e-09,7.570343385724024e-10,4.434672332628097e-10,2.7658203452101885e-10,1.3677025641598513e-10,7.130830220123367e-11,3.789089410832203e-11,1.8707422581408884e-11,9.384822443132066e-12,4.6800551559560055e-12,2.22289817877389e-12,1.2468632215798833e-12,5.434614107073993e-13,2.667819708801442e-13,2.002554841200943e-13,5.2341960563585664e-14
0.0,48,48.0,0.0,30.0,0.0,0.0,0.0,0.0,-13.0,0.0,2.0,0.0,0.0,0.0,6.866310746525155e-11,3.0511723315580874e-11,1.269740816121686e-11,6.194499890726838e-12,2.8497054658275644e-12,1.4898357261757136e-12,7.898367717442501e-13,4.766867348033063e-13,2.7780148606486823e-13,1.6879800837662936e-13,1.0766604007331663e-13,6.590075858466304e-14,4.250389569342539e-14,2.505817796282914e-14,1.3252428008264421e-14,9.908404472871167e-15,4.029349164453066e-15,7.950886558461608e-09,6.422005843911831e-09,4.796910368457213e-09,3.1119815960291914e-09,2.073774766693616e-09,1.2163296467052145e-09,8.034515610772043e-10,4.176298245277976e-10,2.6161617135804406e-10,1.3572558044807052e-10,6.880258262051919e-11,3.639249229547552e-11,1.8401632706591413e-11,8.786799353284062e-12,4.556854570707526e-12,2.2151022153105386e-12,1.0825962458098541e-12,5.936643440757718e-13,2.5183756130199945e-13,4.428759236026888e-13,3.353740314410349e-13
0.0,49,49.0,0.0,30.0,0.0,0.0,0.0,0.0,-13.0,0.0,2.0,0.0,0.0,0.0,7.017978145613154e-11,3.0084768665627974e-11,1.2480425749887215e-11,5.729306758096521e-12,2.9593744940206497e-12,1.4198427548343681e-12,7.99490284939277e-13,4.56622901765038e-13,2.640552139545865e-13,1.6151495458334132e-13,1.1204117285407048e-13,6.565904634922325e-14,4.342910390405719e-14,2.5883073822098576e-14,1.5020780764491238e-14,9.026678765969376e-15,5.960116041014297e-15,7.750380412651834e-09,6.395325710797982e-09,4.4360740537703815e-09,3.13482416340598e-09,2.0238790690503363e-09,1.241062653540642e-09,7.421938879424822e-10,4.130081392080079e-10,2.5289760295859156e-10,1.3497076560232459e-10,7.044862259842732e-11,3.7008995001207036e-11,1.7128708338375756e-11,8.215356729402007e-12,4.576960874824903e-12,2.0261129519452548e-12,1.1208452485318426e-12,4.974287912621645e-13,1.9740727364535622e-13,6.424853054224479e-14,2.5444712528216037e-14
0.0,50,50.0,0.0,30.0,0.0,0.0,0.0,0.0,-13.0,0.0,2.0,0.0,0.0,0.0,6.886365249718008e-11,3.083802020993548e-11,1.3185952265554974e-11,6.17641634454611e-12,2.825227933704067e-12,1.3368860913878193e-12,8.051804887585411e-13,4.44530193257499e-13,2.602778081705325e-13,1.5629982288403595e-13,1.0326190763982785e-13,6.231780559069996e-14,4.101282873262105e-14,2.607971286257281e-14,1.513947937754921e-14,8.07948275842085e-15,3.558636697881768e-15,8.091465130875384e-09,6.459192915745344e-09,4.527558454590232e-09,3.158401338343079e-09,2.0024544239031565e-09,1.2249945420928504e-09,7.607147883473179e-10,4.5207778850865657e-10,2.6294594742813093e-10,1.3769044177035168e-10,7.034308227818637e-11,3.5530986160984475e-11,1.7139654495174696e-11,8.680628625560783e-12,4.241777410756884e-12,2.3056845280173547e-12,1.1837762810085454e-12,5.473740180760497e-13,3.718202696974243e-13,7.312840979023028e-14,-4.941366520890963e-14
0.0,51,51.0,0.0,30.0,0.0,0.0,0.0,0.0,-13.0,0.0,2.0,0.0,0.0,0.0,6.50825746888287e-11,2.917776508859204e-11,1.2005818100940153e-11,5.994234445124765e-12,2.7413143574547373e-12,1.3982407828140533e-12,7.406419302091455e-13,4.4747555015201356e-13,2.553996118713771e-13,1.5081066004776125e-13,1.014024212152338e-13,6.3972088404119e-14,3.8806522625875227e-14,2.4116888523399218e-14,1.5591671267941865e-14,8.73469515732284e-15,5.8093046352115274e-15,8.011383697023789e-09,6.387147185111488e-09,4.7257271373135304e-09,3.2388587963639685e-09,2.06644044268706e-09,1.2354351182782957e-09,7.637424328552557e-10,4.5406673357446366e-10,2.330740503907804e-10,1.321118134682651e-10,6.662949083010509e-11,3.394528441709735e-11,1.643457810579718e-11,8.590002892069835e-12,4.144275931094278e-12,2.0421140827943618e-12,1.1075730072156116e-12,5.942848053055617e-13,3.09558135443087e-13,3.9888525924218427e-13,6.277596766786036e-14
0.0,52,52.0,0.0,30.0,0.0,0.0,0.0,0.0,-13.0,0.0,2.0,0.0,0.0,0.0,6.29181750192966e-11,2.8157348511029265e-11,1.1988050046812772e-11,5.528026835996096e-12,2.686898394355665e-12,1.3629684451194103e-12,7.221985790128122e-13,4.0736913596447633e-13,2.444576433446204e-13,1.5350852411324118e-13,9.815149919210749e-14,6.231450890178808e-14,3.650653213566001e-14,2.2337853381807073e-14,1.5155503365887254e-14,8.462433650738992e-15,6.047599025354972e-15,8.029742794707517e-09,6.346448205788755e-09,4.835454750984758e-09,3.105797886991829e-09,2.0027681422272422e-09,1.2450504114189726e-09,7.403399420065248e-10,4.1343338059103306e-10,2.3134555031636945e-10,1.326701339263257e-10,6.65998600472577e-11,3.147372796674268e-11,1.761569358621347e-11,7.882849123465595e-12,4.175391616112438e-12,2.1632276958364314e-12,8.960269134970336e-13,5.601154319941359e-13,2.235891791098262e-13,3.301961834264451e-13,1.1449439895698317e-13
0.0,53,53.0,0.0,30.0,0.0,0.0,0.0,0.0,-13.0,0.0,2.0,0.0,0.0,0.0,6.260288793430246e-11,2.5922551465043595e-11,1.1829851024094954e-11,5.3943424426587264e-12,2.562757676560453e-12,1.3248486604728465e-12,7.129219200395545e-13,4.187674185103424e-13,2.4118886880464164e-13,1.4612174728442624e-13,9.183013795942322e-14,5.994180464950893e-14,3.832896040349027e-14,2.5132059163611397e-14,1.4086218312309471e-14,9.043996855905878e-15,4.020647293437939e-15,7.826212539407733e-09,6.291846645111443e-09,4.480352431397223e-09,3.1252910412383656e-09,1.9821027355104154e-09,1.2699394872318325e-09,7.192925597225864e-10,4.073598572928628e-10,2.483124207627171e-10,1.232289016211107e-10,6.725775885455857e-11,3.4255231150538716e-11,1.5736955649774652e-11,8.553751608004392e-12,4.016885299090713e-12,2.019412839951189e-12,9.691695253494833e-13,4.75041287306942e-13,4.050828507446472e-13,1.9435229364737925e-13,1.8568231003711698e-13
0.0,54,54.0,0.0,30.0,0.0,0.0,0.0,0.0,-13.0,0.0,2.0,0.0,0.0,0.0,6.559239338010771e-11,2.795024446143808e-11,1.2719980032669722e-11,5.472378966475986e-12,2.458332042220852e-12,1.1854881239952534e-12,6.95253261388381e-13,3.755293645679114e-13,2.296339337658691e-13,1.37583058117533e-13,9.380798593090753e-14,5.789869784728208e-14,3.895178218168382e-14,2.360276759250959e-14,1.2640412697235341e-14,7.890793585334157e-15,4.9693116248091485e-15,8.080298494871569e-09,6.2703774663258375e-09,4.775097780138164e-09,3.273462951271392e-09,2.007417811593849e-09,1.1579860520894469e-09,7.198585648262921e-10,4.077483726639184e-10,2.1682042198880861e-10,1.249614744706584e-10,6.367938602454083e-11,3.1583331124041904e-11,1.734145211745351e-11,7.647252440979878e-12,3.648330253685454e-12,1.8932809565529506e-12,1.0604056607363086e-12,5.778049230317623e-13,4.228029870822277e-13,1.5295401607101203e-13,3.824963649974307e-14
0.0,55,55.0,0.0,30.0,0.0,0.0,0.0,0.0,-13.0,0.0,2.0,0.0,0.0,0.0,5.827126131681745e-11,2.728699895023578e-11,1.1761483931593518e-11,5.34025210728156e-12,2.5698277402989575e-12,1.1817827291180225e-12,6.289607698995763e-13,3.8704750918641547e-13,2.339270367608225e-13,1.3124139286446643e-13,9.139119319655109e-14,5.675498227685381e-14,3.623184767318792e-14,2.3771702990603394e-14,1.3209910702494105e-14,7.752893584333172e-15,3.836735196162857e-15,7.85134246109194e-09,6.557957338232686e-09,4.700912639412684e-09,3.3489512060644532e-09,2.139470015089801e-09,1.1960208220686283e-09,7.281181073113628e-10,4.30962746647728e-10,2.274807072623008e-10,1.2090662487322184e-10,6.379667161308947e-11,3.2492480083449056e-11,1.6624569212734285e-11,8.199273908984177e-12,3.7746458183016436e-12,1.8717631425228554e-12,8.626277042259441e-13,3.1276766465789516e-13,3.237210307409083e-13,2.9895068701508975e-13,2.1409348803772078e-13
0.0,56,56.0,0.0,30.0,0.0,0.0,0.0,0.0,-13.0,0.0,2.0,0.0,0.0,0.0,5.943769514921976e-11,2.6536969209412787e-11,1.1518666462674016e-11,4.9878717023309736e-12,2.5294778284044074e-12,1.1950529413586357e-12,6.304638533805246e-13,3.724082755391034e-13,2.311574876205399e-13,1.354924225619146e-13,8.641227677630637e-14,5.66436419190871e-14,3.6069459985728876e-14,2.3446615286115784e-14,1.4906682207685563e-14,7.459912364695157e-15,6.059345871006863e-15,8.184439443441157e-09,6.220399614100312e-09,4.722068527882333e-09,3.1997113495535474e-09,2.1380659694083246e-09,1.1974170047777765e-09,7.552223246202514e-10,4.043609215355348e-10,2.1583540743543756e-10,1.19001271274849e-10,6.133964234049735e-11,3.263209796862293e-11,1.5597287000794324e-11,7.585333419463586e-12,3.777030970934853e-12,1.852199877522296e-12,1.0425856782872503e-12,6.287760053608415e-13,3.6472175978635806e-13,-1.99076736434493e-14,-3.372929205534305e-14
0.0,57,57.0,0.0,30.0,0.0,0.0,0.0,0.0,-13.0,0.0,2.0,0.0,0.0,0.0,5.819036857063864e-11,2.588444833743289e-11,1.0520357275818781e-11,5.117445290778916e-12,2.5622424254222103e-12,1.188778718685934e-12,6.50950182274501e-13,3.719284081167228e-13,2.164539399184617e-13,1.3303954123507422e-13,8.157152642727663e-14,5.488389873840702e-14,3.540715462039926e-14,2.097410939268279e-14,1.4802657516582628e-14,7.320308062778824e-15,3.8930119222306724e-15,8.046351969217542e-09,6.31291175535303e-09,4.650988679534576e-09,3.130618117681001e-09,1.9005047565055187e-09,1.203728625555027e-09,6.961942871393667e-10,4.0110395412686664e-10,2.1932791565779473e-10,1.2379842816539823e-10,6.12701156891506e-11,3.159323755848544e-11,1.59265248857463e-11,7.199747402936554e-12,3.5784500116229256e-12,1.8193032785066117e-12,1.0331223487976202e-12,5.72560038014308e-13,1.4484910743686112e-13,1.2538181135517078e-13,1.8986914643636536e-13
0.0,58,58.0,0.0,30.0,0.0,0.0,0.0,0.0,-13.0,0.0,2.0,0.0,0.0,0.0,5.722706562566008e-11,2.5047468807391107e-11,1.0989872634656686e-11,5.1416732762190664e-12,2.294457323347799e-12,1.1406155796281627e-12,6.441546580714807e-13,3.3376736443403636e-13,2.1420418294220908e-13,1.3054185459654626e-13,8.858883436866479e-14,5.6103530153724256e-14,3.6499694901175185e-14,2.3359410969485563e-14,1.2960818230098994e-14,8.142835495618103e-15,4.4629689558394216e-15,7.97501070584874e-09,6.381687090304441e-09,4.6680104839187445e-09,3.1117245451153954e-09,1.922072737586022e-09,1.1593208935038067e-09,7.080594766320833e-10,3.8525436781403876e-10,2.0837170197853972e-10,1.184529546240773e-10,5.994829742475584e-11,3.0015862251329923e-11,1.499832874188271e-11,7.238692029541166e-12,3.7512129586844535e-12,1.6510286312895656e-12,5.246553539903682e-13,3.412025485851286e-13,2.2069630591686532e-13,1.5100025234605366e-13,2.852331805566638e-13
0.0,59,59.0,0.0,30.0,0.0,0.0,0.0,0.0,-13.0,0.0,2.0,0.0,0.0,0.0,5.699717468333429e-11,2.3886547424329228e-11,1.0565456264291354e-11,4.986471544298249e-12,2.192337456610891e-12,1.1333733070095204e-12,5.949798900949414e-13,3.399533221670883e-13,2.0803310292722858e-13,1.2241052184218594e-13,8.150101214138971e-14,5.405722834795738e-14,3.492466275799228e-14,2.2129079635141883e-14,1.1225170658981618e-14,6.9900614616752546e-15,3.9349669704505515e-15,7.955785373350618e-09,6.315591749463651e-09,4.777467335479295e-09,3.1745100057257397e-09,2.0025520789933204e-09,1.1178607529936729e-09,6.794022187771831e-10,3.8855247050105024e-10,1.9879994519566592e-10,1.1297275772276785e-10,5.7603988787088275e-11,3.057807462331662e-11,1.5668703777553618e-11,6.9880966465019555e-12,3.704055704335976e-12,1.890543321811807e-12,9.50990561880587e-13,4.715350797037961e-13,1.9043553769323704e-13,1.53882868509418e-14,1.0160739906009039e-13
0.0,60,60.0,0.0,30.0,0.0,0.0,0.0,0.0,-13.0,0.0,2.0,0.0,0.0,0.0,5.414515224489531e-11,2.3819042387436042e-11,1.0634550385360652e-11,4.755284720698386e-12,2.2312532465052997e-12,1.0503017331439486e-12,5.853118764768071e-13,3.6229237544578383e-13,2.079750964185075e-13,1.236698297948878e-13,7.743010752699964e-14,5.2555385176251674e-14,3.38191344549854e-14,2.29812790118585e-14,1.1648908099190391e-14,8.203981081030139e-15,4.072083364830614e-15,7.65760859932818e-09,6.1410751123134596e-09,4.749299748549924e-09,3.105184116790081e-09,2.0199232778547562e-09,1.1409366152059096e-09,6.974959055749508e-10,3.8600457787344685e-10,2.1071656938181887e-10,1.080811539341394e-10,5.988261559474218e-11,2.736744428701432e-11,1.4922589391447874e-11,6.694562110605559e-12,3.4234722247189846e-12,1.6173471277250186e-12,8.559711894767488e-13,5.276848296472084e-13,3.3937727306038733e-13,-4.154873243551136e-14,1.1174623271285046e-13
0.0,61,61.0,0.0,30.0,0.0,0.0,0.0,0.0,-13.0,0.0,2.0,0.0,0.0,0.0,5.3050054993379065e-11,2.290253451706832e-11,9.833579776918297e-12,4.539504962629853e-12,2.1576385731517458e-12,1.068473931092712e-12,5.889873120360912e-13,3.373452013017583e-13,1.9642908937824493e-13,1.1974179503882638e-13,7.929479244315815e-14,5.1680056624021833e-14,3.148706340490586e-14,1.9688703256273666e-14,1.3336223023860721e-14,6.607538293142902e-15,4.53714077487506e-15,7.973011986854153e-09,6.3215533938914815e-09,4.874516480497198e-09,3.0612603936304805e-09,1.914283697732189e-09,1.1681572366585139e-09,7.046824307235275e-10,3.9251415856150644e-10,2.1049752672140182e-10,1.1259419528622814e-10,5.657314189822099e-11,2.717841045169875e-11,1.4377520546813345e-11,6.965995297030176e-12,3.3325051542860597e-12,1.5819284575151324e-12,1.0774078700333686e-12,3.292415365459285e-13,2.2696580514300893e-13,1.9604361107582986e-13,-4.367584722815924e-14
0.0,62,62.0,0.0,30.0,0.0,0.0,0.0,0.0,-13.0,0.0,2.0,0.0,0.0,0.0,5.2237530569382816e-11,2.3237633538129452e-11,9.836631898264986e-12,4.422225280426598e-12,2.2356945494837253e-12,1.0703457159155327e-12,5.389481279143046e-13,3.195522378232356e-13,2.0387780488278077e-13,1.1302219933410026e-13,8.081717149173869e-14,5.0945238965933306e-14,3.1644153374199416e-14,1.8671436823311484e-14,1.2010176776999955e-14,7.131577256291316e-15,4.6948324919180105e-15,8.253265530185273e-09,6.405381111004249e-09,4.878029337815887e-09,3.0459800819555954e-09,1.924408757870048e-09,1.16524358341431e-09,6.567734262022212e-10,3.559774788006433e-10,2.1077408350875198e-10,1.0662078704394315e-10,5.647125046995145e-11,2.773264507233582e-11,1.3648621645322717e-11,6.652721791864779e-12,3.2123599093762237e-12,1.4894487940088423e-12,8.405913919012984e-13,3.5732144669955275e-13,4.0351637453837466e-13,3.178300224105741e-14,2.4321255432670207e-13
0.0,63,63.0,0.0,30.0,0.0,0.0,0.0,0.0,-13.0,0.0,2.0,0.0,0.0,0.0,4.972411347398903e-11,2.251105086427912e-11,1.0038455079499217e-11,4.579713982523413e-12,2.0684790536235107e-12,1.0058932981869564e-12,5.506565872078323e-13,3.128459756613822e-13,1.8214845823922546e-13,1.1657222419578614e-13,7.318603611980704e-14,4.9258850966733636e-14,3.0299658763755526e-14,2.047761184750531e-14,1.1045417370715269e-14,8.369384557822075e-15,3.942493850070811e-15,7.989362594509325e-09,6.477671034321266e-09,4.825794756520678e-09,3.182702435584618e-09,1.9200247382990774e-09,1.107617481868097e-09,6.518224202343675e-10,3.664896318794392e-10,2.0267776270743694e-10,1.0957405873462323e-10,5.2243598277512964e-11,2.8007898166985306e-11,1.2856633737112398e-11,6.528119446928794e-12,3.167734721307525e-12,1.4189409010435898e-12,7.995924973729776e-13,4.0781340829884277e-13,3.392798683341039e-13,1.2918324205569426e-13,1.3047582087433822e-13
