Line_number,Fiducial,Easting,Northing,Height,Elevation,tx_pitch,tx_roll,tx_yaw,txrx_dx,txrx_dy,txrx_dz,rx_pitch,rx_roll,rx_yaw,S0Z_time_7.292e-05,S0Z_time_7.642e-05,S0Z_time_8.092e-05,S0Z_time_8.642e-05,S0Z_time_9.341e-05,S0Z_time_1.024e-04,S0Z_time_1.139e-04,S0Z_time_1.284e-04,S0Z_time_1.464e-04,S0Z_time_1.689e-04,S0Z_time_1.969e-04,S0Z_time_2.324e-04,S0Z_time_2.779e-04,S0Z_time_3.349e-04,S0Z_time_4.069e-04,S0Z_time_4.979e-04,S0Z_time_6.119e-04,S0Z_time_7.559e-04,S0Z_time_9.373e-04,S0Z_time_1.166e-03,S0Z_time_1.454e-03,S0Z_time_1.818e-03,S0Z_time_2.276e-03,S0Z_time_2.855e-03,S0Z_time_3.574e-03,S0Z_time_4.454e-03,S0Z_time_5.530e-03,S0Z_time_6.849e-03,S0Z_time_8.463e-03,S0Z_time_1.044e-02,S1Z_time_1.273e-05,S1Z_time_1.623e-05,S1Z_time_2.073e-05,S1Z_time_2.623e-05,S1Z_time_3.323e-05,S1Z_time_4.222e-05,S1Z_time_5.373e-05,S1Z_time_6.822e-05,S1Z_time_8.622e-05,S1Z_time_1.087e-04,S1Z_time_1.367e-04,S1Z_time_1.722e-04,S1Z_time_2.177e-04,S1Z_time_2.747e-04,S1Z_time_3.467e-04,S1Z_time_4.377e-04,S1Z_time_5.517e-04,S1Z_time_6.957e-04,S1Z_time_8.772e-04,S1Z_time_1.106e-03,S1Z_time_1.394e-03
0.0,0,0.0,0.0,30.0,0.0,0.0,0.0,0.0,-13.0,0.0,2.0,0.0,0.0,0.0,2.621698062789838e-10,2.4747398867710795e-10,2.0222856204461284e-10,1.7430402787343693e-10,1.4257282223721913e-10,1.1260092255833909e-10,8.84732799368736e-11,6.15488491773923e-11,4.819175972613069e-11,3.612134632508107e-11,2.5879309305493446e-11,1.9958983574927687e-11,1.61128172654662e-11,1.1902610166945307e-11,9.908557076597069e-12,8.017645135704425e-12,6.379026346722676e-12,4.567530922509053e-12,3.858629113595299e-12,2.8415646533815334e-12,2.2203754638296033e-12,1.6552280749958394e-12,1.1696102133047353e-12,8.216365642285437e-13,5.488525822620843e-13,4.100293573882731e-13,2.604275022496143e-13,1.6524026949165286e-13,1.018047234066485e-13,7.240691637569392e-14,7.614653113565196e-09,3.806396880032316e-09,2.107775235806282e-09,1.1118677182934267e-09,6.281528623933018e-10,3.901697908266128e-10,2.329238055124545e-10,1.447303640502321e-10,9.353633081530167e-11,5.086423155748078e-11,3.2395406536216016e-11,2.0226536731619943e-11,1.2470819402568449e-11,8.704222189836214e-12,5.963836794177895e-12,4.231679016945078e-12,2.762350604232972e-12,2.014083695678875e-12,1.4510505973121225e-12,9.445848897845137e-13,6.422011845394215e-13
0.0,1,1.0,0.0,30.0,0.0,0.0,0.0,0.0,-13.0,0.0,2.0,0.0,0.0,0.0,2.8752198490972146e-10,2.6322581619511954e-10,2.2989073146740172e-10,1.8705436724504405e-10,1.5798038153068363e-10,1.2851520059368276e-10,9.790201275780202e-11,7.606969043256777e-11,5.330235488573493e-11,4.105917516284035e-11,2.9163305999637367e-11,2.2811837001040978e-11,1.557788630191281e-11,1.2128067217719553e-11,9.664479791048188e-12,7.344794953953168e-12,5.885216555416676e-12,4.452643016518118e-12,3.3562665634141305e-12,2.6944710413864695e-12,2.0921016217924824e-12,1.5267833693936992e-12,1.0217064332825682e-12,7.800736500071551e-13,5.529702651189265e-13,3.501740556213128e-13,2.508703741129339e-13,1.5302906491502056e-13,1.0590546743201823e-13,6.344624045332565e-14,7.503991483899994e-09,3.6647230927325213e-09,2.162808799404801e-09,1.1300755896405556e-09,6.577131854194111e-10,3.9109037427849136e-10,2.380300116332597e-10,1.497751306005961e-10,1.0141242196138252e-10,6.007764957112456e-11,3.697629542094622e-11,2.3076465802512543e-11,1.4151791899150984e-11,9.021014142813652e-12,5.958109881538558e-12,4.102059868451464e-12,2.7553422309678556e-12,1.8926121756143896e-12,1.4147713351023942e-12,8.535066397747482e-13,5.722203460664244e-13
0.0,2,2.0,0.0,30.0,0.0,0.0,0.0,0.0,-13.0,0.0,2.0,0.0,0.0,0.0,2.735357804300808e-10,2.5376169368272864e-10,2.2554309349369031e-10,1.976419435554042e-10,1.5653779173266327e-10,1.3109618011415468e-10,1.043689956971945e-10,7.452235794398415e-11,5.89326113964433e-11,4.495164431761141e-11,3.168117581799728e-11,2.3630256414294847e-11,1.6150755237736897e-11,1.2730346828040011e-11,9.495316590298322e-12,6.780225075577581e-12,5.5413421296601145e-12,4.373340467823231e-12,3.304892397247767e-12,2.5325726405201147e-12,1.9132594315891773e-12,1.3821679207935971e-12,9.851159793977498e-13,7.044375126064348e-13,4.758880220313234e-13,3.4807652193290414e-13,2.229670766684187e-13,1.5303137970029494e-13,9.630040250500619e-14,6.294019889782607e-14,7.18434409687083e-09,4.005179323179295e-09,2.02569388459997e-09,1.0701746280238115e-09,6.303977164553673e-10,3.947372999793076e-10,2.527952003606844e-10,1.619974243128366e-10,1.0241341225929963e-10,7.076959423432894e-11,4.059422858321767e-11,2.5524481896745867e-11,1.6104357157696425e-11,9.941185771148428e-12,5.9733741097983946e-12,3.886427905258228e-12,2.702547552602254e-12,1.8771634553375316e-12,1.1969751308929632e-12,8.015898748530519e-13,5.339395624796434e-13
0.0,3,3.0,0.0,30.0,0.0,0.0,0.0,0.0,-13.0,0.0,2.0,0.0,0.0,0.0,2.851346985060549e-10,2.6188342009748697e-10,2.2985251709648502e-10,1.9111879558187164e-10,1.6859819970069678e-10,1.3187181736848582e-10,1.1560322918524758e-10,8.431996500705824e-11,6.754663118958294e-11,5.138160406683443e-11,3.347109515990655e-11,2.5043040701387504e-11,1.715943711892741e-11,1.2362487425025234e-11,9.052240784011313e-12,6.67868643538295e-12,5.303680074446063e-12,3.868166691529062e-12,3.066993996048756e-12,2.257005385911895e-12,1.863383189232269e-12,1.2790922904229894e-12,9.594427802001725e-13,6.494896992424542e-13,4.5724989361708e-13,3.2316043613416114e-13,2.023214594181117e-13,1.3826406948684497e-13,9.284963972320364e-14,5.863707100787346e-14,7.297888426675332e-09,3.859087792029402e-09,2.051173153970019e-09,1.0986812322720448e-09,6.502359752939823e-10,3.7839654084723597e-10,2.5026768495740654e-10,1.652146795645766e-10,1.1125491585809557e-10,7.55522034718362e-11,4.7083522637081613e-11,3.075030199662399e-11,1.8667738262213574e-11,1.0868641660404229e-11,6.548418827276691e-12,4.086011823042884e-12,2.644325886464283e-12,1.6528250518565878e-12,1.0751499884264216e-12,7.52603535356031e-13,4.961412031869321e-13
0.0,4,4.0,0.0,30.0,0.0,0.0,0.0,0.0,-13.0,0.0,2.0,0.0,0.0,0.0,3.118282783981529e-10,2.6165739999585784e-10,2.530895091300299e-10,1.9639610845600427e-10,1.74690236365441e-10,1.3747040908799564e-10,1.2257290024232265e-10,9.131267567585207e-11,6.778983675406916e-11,5.593669131018903e-11,3.608448816329872e-11,2.7773074688934135e-11,1.826641415651548e-11,1.3260512025191704e-11,9.57868669793148e-12,6.782459955688982e-12,5.222938283699227e-12,3.793348385229863e-12,2.8439879388789665e-12,2.0997802037516836e-12,1.537837195980731e-12,1.1206084585937847e-12,8.813602602312324e-13,6.062784778535911e-13,4.3794186637587024e-13,3.0914569776540383e-13,2.0373764902806137e-13,1.2603212842145525e-13,8.355131714679358e-14,5.341355016433992e-14,7.449261549468713e-09,3.921999100753795e-09,1.958260138167638e-09,1.149376684425419e-09,6.286607648703073e-10,3.7803265290368096e-10,2.586977746233061e-10,1.653066545684887e-10,1.2254062445449955e-10,8.6131206645172e-11,5.484738118862487e-11,3.256144714421601e-11,2.033356264192332e-11,1.2066380024461523e-11,6.945429909878205e-12,4.2863825736244815e-12,2.5757390064691808e-12,1.6740376743034995e-12,1.117128365018543e-12,6.967630715616902e-13,4.895758679408897e-13
0.0,5,5.0,0.0,30.0,0.0,0.0,0.0,0.0,-13.0,0.0,2.0,0.0,0.0,0.0,2.8649032573322335e-10,2.76396246801778e-10,2.3491625515538295e-10,2.0983786743461903e-10,1.7511157504369231e-10,1.481004497710476e-10,1.1886329539872774e-10,9.70823921478213e-11,7.324282395293134e-11,5.981476375288494e-11,3.969823359824136e-11,2.932174385357968e-11,1.99488391368365e-11,1.39375035394726e-11,9.663230862401537e-12,6.903283211890952e-12,4.9897963819155546e-12,3.5369210907623006e-12,2.8644167067531002e-12,2.0430014365261654e-12,1.4988135566961191e-12,1.1254931873158105e-12,8.46706819575756e-13,5.613546913163346e-13,4.0313799870148703e-13,2.781063062120852e-13,1.7799054350961885e-13,1.1966009131262225e-13,8.0456539707394e-14,5.0714108558123014e-14,7.497906256729807e-09,3.65646056385554e-09,1.9852214375771653e-09,1.108217113749085e-09,6.172930558209889e-10,3.841955976278538e-10,2.5386588132355115e-10,1.72080960352582e-10,1.261130442177865e-10,8.268585092793644e-11,5.6464423748956655e-11,3.515465321667787e-11,2.0651664530412984e-11,1.1902633153036912e-11,7.549914821841158e-12,4.395058706792614e-12,2.7060449660151283e-12,1.6582001561729087e-12,1.098285827938122e-12,6.662520307820461e-13,4.628138557471872e-13
0.0,6,6.0,0.0,30.0,0.0,0.0,0.0,0.0,-13.0,0.0,2.0,0.0,0.0,0.0,2.804710595113666e-10,2.7804513227015056e-10,2.349810133562133e-10,2.0266276385732398e-10,1.8214125439466335e-10,1.430505763179365e-10,1.2889301484684924e-10,1.0399510582637142e-10,7.979577796647961e-11,5.930725527647541e-11,4.5405566775256496e-11,2.934352827504203e-11,2.1561281300059267e-11,1.4789151280360693e-11,1.015533738439358e-11,6.945540699011497e-12,4.851384529266067e-12,3.4247495632543343e-12,2.6686281972627797e-12,1.9784036252315785e-12,1.4002970907841748e-12,1.0589616896422257e-12,7.727465899104048e-13,5.478949290676671e-13,3.8751553462003685e-13,2.5088198178667106e-13,1.7052586892116234e-13,1.137588073995786e-13,7.937415065218912e-14,5.0546737648323893e-14,6.8673028598570905e-09,3.9563838569546334e-09,1.892283576320226e-09,1.0754599149491282e-09,6.201267375877603e-10,3.7494051490471724e-10,2.708870133776875e-10,1.714448725796581e-10,1.2699621965631823e-10,8.626264401984817e-11,5.7334151874266676e-11,3.772644876884554e-11,2.3388949347116386e-11,1.4272581128525309e-11,8.376622793115544e-12,4.690337256315202e-12,2.821035558945126e-12,1.675920810015375e-12,1.0465544524438445e-12,6.305690267584357e-13,4.4848911917420566e-13
0.0,7,7.0,0.0,30.0,0.0,0.0,0.0,0.0,-13.0,0.0,2.0,0.0,0.0,0.0,3.1280017951117226e-10,2.69103202629054e-10,2.3992190071234237e-10,2.1305746176017163e-10,1.8483829334577483e-10,1.5618578543927183e-10,1.2566655248431835e-10,1.0524933636032724e-10,8.008989088763019e-11,6.114705208347835e-11,4.6798018556058016e-11,3.275979201256084e-11,2.2580528736068935e-11,1.5520069560108397e-11,1.0657458107331767e-11,6.984675133430366e-12,4.914355597790193e-12,3.397123614019491e-12,2.4969623266264023e-12,1.8664501167432435e-12,1.3126485639995753e-12,1.023382134463795e-12,7.221273469635265e-13,5.245841279748371e-13,3.5887531195093e-13,2.480443667734315e-13,1.6682142157847989e-13,1.0904475110366425e-13,7.114555488552382e-14,4.494038902142262e-14,7.063516748659928e-09,3.86407800398045e-09,1.9501820807006656e-09,1.0815812724565122e-09,6.181648402301645e-10,4.0946253282707286e-10,2.575749120424487e-10,1.7352564611824252e-10,1.3065728098960536e-10,8.95708376311106e-11,6.319212824704194e-11,4.00677966571259e-11,2.5904835388875476e-11,1.5584824366554037e-11,8.631159406606329e-12,5.2337796142920736e-12,2.9172965466384403e-12,1.6588498463139764e-12,1.032169406147195e-12,6.256717027440672e-13,3.974704354105316e-13
0.0,8,8.0,0.0,30.0,0.0,0.0,0.0,0.0,-13.0,0.0,2.0,0.0,0.0,0.0,3.0377104906829514e-10,2.7447279520114543e-10,2.5251249224964436e-10,2.110795450081044e-10,1.8868083456177097e-10,1.6222465161108468e-10,1.3142305179425795e-10,1.0298561568760002e-10,8.424416665896953e-11,6.48649532655275e-11,4.788420497690424e-11,3.3735433547782174e-11,2.5086349884164287e-11,1.793394037155829e-11,1.17745826888218e-11,7.762628339109572e-12,4.749052007410896e-12,3.2817898374722186e-12,2.383203023357918e-12,1.720759728944089e-12,1.2548922969313983e-12,9.23089248525451e-13,6.867602964523412e-13,4.791728121952055e-13,3.3685150857052423e-13,2.1139475145766083e-13,1.5696628883846778e-13,1.0320022859339204e-13,6.884724241644402e-14,4.2467463061360886e-14,7.180452376764893e-09,3.65756014814584e-09,1.810343957294034e-09,1.0949866958556067e-09,6.151702317489798e-10,3.9205178265499947e-10,2.6678933354998067e-10,1.8124793885920458e-10,1.30834014489166e-10,8.932237721376153e-11,5.733030577917846e-11,4.407414026097512e-11,2.626833613804255e-11,1.6149036104414685e-11,9.965383835898485e-12,5.61798254124011e-12,3.06633771799164e-12,1.6823340865141927e-12,1.0851489843758708e-12,6.222125585316843e-13,3.73780858816186e-13
0.0,9,9.0,0.0,30.0,0.0,0.0,0.0,0.0,-13.0,0.0,2.0,0.0,0.0,0.0,2.9313214384719554e-10,2.899864693609971e-10,2.461891644287744e-10,2.1632855273703277e-10,1.8368326600718524e-10,1.613434243854072e-10,1.2966255450017669e-10,1.1162032793847086e-10,8.54834263749072e-11,7.017341104881485e-11,5.052840370783419e-11,3.6764813615272285e-11,2.4968912856534126e-11,1.7606854050824608e-11,1.157707717317126e-11,7.811303211691785e-12,5.211386186623263e-12,3.4409413757832472e-12,2.388297495486573e-12,1.7169867632764212e-12,1.1912952450791608e-12,8.179686146560549e-13,5.76790211322993e-13,4.56318356150732e-13,3.217485450925558e-13,2.2098128755103008e-13,1.5479877819505086e-13,9.847233917639958e-14,6.554760222833239e-14,4.093187245722325e-14,7.142938477194019e-09,3.6456600792586224e-09,1.966681544561546e-09,1.0629716408177197e-09,6.676194890488792e-10,4.2181188302950124e-10,2.7364542136823707e-10,1.852899135066738e-10,1.2655423237740051e-10,8.636758065162618e-11,6.689200038997649e-11,4.199689266266267e-11,2.8197058795779067e-11,1.7728324448314503e-11,1.0488672875121222e-11,6.128229392752674e-12,3.344966044656233e-12,1.8691278187026466e-12,1.0370581897068932e-12,6.233883275604329e-13,3.853041837443444e-13
0.0,10,10.0,0.0,30.0,0.0,0.0,0.0,0.0,-13.0,0.0,2.0,0.0,0.0,0.0,3.115904711156756e-10,2.8346180379232664e-10,2.4355244720349235e-10,2.193376431578505e-10,1.8827211217260562e-10,1.5684814663375757e-10,1.3929104341035467e-10,1.0674957815333686e-10,8.29800971560943e-11,6.800706341867732e-11,5.2290236694336565e-11,3.7946051859741004e-11,2.697514797382983e-11,1.8233882306463712e-11,1.1924243272125898e-11,8.076916269149817e-12,5.276412512295108e-12,3.5560116966762797e-12,2.312669888657159e-12,1.6532903130686847e-12,1.1905859066851206e-12,8.315281517698947e-13,5.879565798247452e-13,4.1853244639269204e-13,2.911138360943831e-13,1.9557862752330916e-13,1.4429085330413822e-13,9.331640647100347e-14,5.728854852565705e-14,4.1820227299142804e-14,7.259566580401189e-09,3.79109421343906e-09,1.926452361718608e-09,1.0592929108305837e-09,6.524840301785396e-10,4.036332609328645e-10,2.688669687787808e-10,1.9366164455089e-10,1.2513781494958968e-10,9.048459650620431e-11,6.623465414604154e-11,4.472739306441933e-11,2.9647304602789425e-11,1.941171352741388e-11,1.1349293393230594e-11,6.429408094199385e-12,3.515127525790063e-12,2.00158806192353e-12,1.1123824732871408e-12,6.087539769429036e-13,3.5841490490848454e-13
0.0,11,11.0,0.0,30.0,0.0,0.0,0.0,0.0,-13.0,0.0,2.0,0.0,0.0,0.0,2.9389057714884983e-10,2.9102222001295195e-10,2.6112929181019393e-10,2.1477536088131523e-10,1.8601136777107544e-10,1.6213508463807893e-10,1.2880032853141357e-10,1.0744890674764514e-10,8.948767490211527e-11,6.997107701482195e-11,5.5661823721298415e-11,4.021743389171705e-11,2.84429417525302e-11,2.1039629699318547e-11,1.3473154742080009e-11,8.698622586756166e-12,5.60561415448566e-12,3.568856934857525e-12,2.2897079805119604e-12,1.6280857783024796e-12,1.1177785204627316e-12,8.051666047246261e-13,5.654652419005466e-13,4.0578927166920865e-13,2.7544395531376766e-13,1.8159256073600105e-13,1.3462303730858594e-13,9.023217053068169e-14,5.898714090772532e-14,3.538612544442322e-14,7.2221550901643244e-09,3.737710023390957e-09,1.994903083931663e-09,1.0834182177226342e-09,6.196395025829128e-10,3.8747031978918996e-10,2.590024155916084e-10,1.9693036120035726e-10,1.320288818675198e-10,9.300556673132794e-11,6.724991409416741e-11,4.5459807184730403e-11,3.216426958928163e-11,2.0157554684521608e-11,1.1905608973104527e-11,7.243243506094978e-12,3.852980798113369e-12,2.1287841930013898e-12,1.1584758749552993e-12,6.289960516648864e-13,3.781230045761995e-13
0.0,12,12.0,0.0,30.0,0.0,0.0,0.0,0.0,-13.0,0.0,2.0,0.0,0.0,0.0,3.079178023094986e-10,2.744449672623764e-10,2.559776307396114e-10,2.174212781611521e-10,1.8594336263836684e-10,1.6766582409906676e-10,1.3129552411684536e-10,1.1240245680056065e-10,8.769151759398536e-11,7.078023929390657e-11,5.560067486010434e-11,4.316646621999642e-11,2.9806100403543405e-11,2.0289630742984365e-11,1.3969441373518283e-11,9.474680827516927e-12,6.284081403711329e-12,3.5206933484995747e-12,2.3517603222047385e-12,1.6211883705468612e-12,1.051981234071891e-12,7.203540489521843e-13,5.403497725890634e-13,3.7485269704151034e-13,2.74834461773747e-13,1.7713500540879287e-13,1.2065768901779854e-13,8.13537295733851e-14,5.708486356274318e-14,3.5888728314977405e-14,7.200857696713832e-09,3.75882690585505e-09,1.9219896823821756e-09,1.0525072377262083e-09,6.030729305067158e-10,3.9762504382239203e-10,2.6212248057022725e-10,1.8503454835873117e-10,1.3761291054210258e-10,8.980216750864934e-11,6.622071632159101e-11,4.847733401232557e-11,3.1597225009531525e-11,1.9292989857390404e-11,1.2741375971660302e-11,7.30256184728349e-12,4.1514541422359996e-12,2.113086040356317e-12,1.2100464984615071e-12,6.726734980597337e-13,3.73583979181129e-13
0.0,13,13.0,0.0,30.0,0.0,0.0,0.0,0.0,-13.0,0.0,2.0,0.0,0.0,0.0,3.2099847148087073e-10,2.830531979438186e-10,2.6234285838223145e-10,2.1975061180003476e-10,1.9395718033652765e-10,1.6812639987357734e-10,1.3613410083688514e-10,1.0901122162184566e-10,9.065419544978414e-11,6.697967278441769e-11,5.751880643305687e-11,4.226268305516004e-11,3.010228667655805e-11,2.1677634868798054e-11,1.5158320854385412e-11,9.728082907986057e-12,6.006981208336824e-12,3.781650320763497e-12,2.4089487947017743e-12,1.6292065183370207e-12,1.0496433430860707e-12,7.456272199281798e-13,5.056528046603623e-13,3.790366497900298e-13,2.478736171241003e-13,1.6904747877986532e-13,1.155645569940083e-13,7.593389791190366e-14,5.1454286474479396e-14,3.5221051891711537e-14,7.042233247944134e-09,3.6509642552451288e-09,1.8388900954852034e-09,1.083208468901767e-09,6.469849814937181e-10,3.826824108457943e-10,2.694947851253543e-10,1.9201776132331207e-10,1.2371469134793942e-10,9.595482173264302e-11,7.183345252486688e-11,4.7191742883079e-11,3.303680049009892e-11,2.121869863545961e-11,1.311906418288411e-11,7.818355293140352e-12,4.308506509780562e-12,2.493628271620971e-12,1.2998058709737559e-12,6.894211445198886e-13,3.5616508362204903e-13
0.0,14,14.0,0.0,30.0,0.0,0.0,0.0,0.0,-13.0,0.0,2.0,0.0,0.0,0.0,3.1541360804987347e-10,2.80024256164663e-10,2.628752227315132e-10,2.1666586289412376e-10,1.8417168665337386e-10,1.6313913099010644e-10,1.455150792732305e-10,1.0953079055430487e-10,9.133591272098999e-11,7.205426090322064e-11,5.690480152190938e-11,4.4527043094913204e-11,3.0349978723269154e-11,2.3605614422802295e-11,1.4904651201565812e-11,9.854755344621073e-12,6.3419778701048255e-12,3.879912067075804e-12,2.4608746379944864e-12,1.6339111886993486e-12,1.0126661105288976e-12,7.010399056206566e-13,5.036083164230867e-13,3.627795872355382e-13,2.285939230041186e-13,1.7641065371275113e-13,1.1481643415488392e-13,7.487973343852409e-14,4.996233556813033e-14,3.159233959554515e-14,6.548427673316645e-09,3.5832277527184616e-09,1.8534216764679152e-09,1.0594140843543471e-09,6.391256728804247e-10,4.015255370617265e-10,2.72177319875389e-10,1.9211538565427538e-10,1.3466239790993823e-10,9.379186286955195e-11,7.28819276879965e-11,4.9022970898083095e-11,3.4024489067468336e-11,2.112848549112111e-11,1.3929804404560866e-11,8.317419847794627e-12,4.672381262231994e-12,2.7036425571076846e-12,1.3226467080576182e-12,6.987195388468561e-13,3.6495974882228444e-13
0.0,15,15.0,0.0,30.0,0.0,0.0,0.0,0.0,-13.0,0.0,2.0,0.0,0.0,0.0,3.2020083528366286e-10,2.913693271613011e-10,2.7767786961091936e-10,2.3417719635523604e-10,1.9645825357486236e-10,1.6596103172768425e-10,1.4248467469721413e-10,1.136581171877396e-10,9.259842718498015e-11,7.157340171409571e-11,5.885632029105611e-11,4.264161085851532e-11,2.932538100280035e-11,2.3510932014303723e-11,1.565293482958866e-11,1.0826199317474198e-11,6.807709315906648e-12,4.1065737251515425e-12,2.4981608313530444e-12,1.6972232850002366e-12,1.0774660955503542e-12,7.036111712368379e-13,4.880853069212602e-13,3.4841159896756676e-13,2.2120402071997998e-13,1.5018739743119538e-13,1.0760860438464992e-13,7.016022874158456e-14,4.88415004117342e-14,3.0600386797120326e-14,7.074587684428122e-09,3.5260304823428966e-09,1.876441757758273e-09,1.0466920537834396e-09,6.257791594475048e-10,4.1052153588075215e-10,2.8406116822251805e-10,1.900981846552702e-10,1.358055480807965e-10,1.0394422717688169e-10,6.96550938160908e-11,5.024385692322216e-11,3.3067658097149785e-11,2.1797642144125388e-11,1.4497846016694883e-11,8.470376283602329e-12,4.7970023904087435e-12,2.7259248468852467e-12,1.3778647482601343e-12,7.399931551758672e-13,3.879227268020908e-13
0.0,16,16.0,0.0,30.0,0.0,0.0,0.0,0.0,-13.0,0.0,2.0,0.0,0.0,0.0,3.240901096226155e-10,2.8471989192777446e-10,2.674624602751736e-10,2.2874539007381483e-10,1.980295617660213e-10,1.7163843391499057e-10,1.4551287854006975e-10,1.1903752226796145e-10,8.855304149512351e-11,7.405990238137123e-11,6.005808853114287e-11,4.506299054854608e-11,3.3950898684152565e-11,2.3136044754036932e-11,1.6317327143213156e-11,1.108017125327386e-11,6.967181955002959e-12,4.38771422715027e-12,2.6925167795040603e-12,1.569840617761842e-12,1.060958352135125e-12,6.97341857529896e-13,4.775962142968382e-13,3.1890240676036126e-13,2.1760029856885256e-13,1.5056969652192215e-13,9.831436569384188e-14,6.877683935814562e-14,4.3591628584222874e-14,2.96113040070629e-14,7.376243925030055e-09,3.475562430346407e-09,1.8624430974712408e-09,9.97657042130833e-10,6.231119846402606e-10,4.174571106228455e-10,2.830898955127261e-10,2.0255765716511526e-10,1.392276691380419e-10,9.95258019483313e-11,6.810271185741237e-11,4.872456371855324e-11,3.28966703531043e-11,2.1559658978548167e-11,1.447381047816624e-11,8.77488804094537e-12,5.135267172777458e-12,2.7776273146403135e-12,1.5068309312179585e-12,7.430950593291919e-13,4.1894773256018634e-13
0.0,17,17.0,0.0,30.0,0.0,0.0,0.0,0.0,-13.0,0.0,2.0,0.0,0.0,0.0,3.042904791450646e-10,2.9769232344237967e-10,2.7124512503143086e-10,2.3331179647358476e-10,1.9338431906423422e-10,1.6987261523970197e-10,1.3723164104992964e-10,1.1828466769962175e-10,8.837981981903534e-11,7.505746409327422e-11,6.160145456322707e-11,4.413625516167533e-11,3.354371867238441e-11,2.332399290895533e-11,1.6377507041176496e-11,1.0816292977414116e-11,7.671912783779468e-12,4.693283492241226e-12,2.816593187674594e-12,1.6948556654955201e-12,1.0014716031688747e-12,6.694615309118848e-13,4.813017035859126e-13,3.009197293535197e-13,2.148475997798366e-13,1.378296945599564e-13,9.88375883982711e-14,6.515032275043296e-14,4.441431967121458e-14,2.715932318611468e-14,7.191948187959e-09,3.5445393049135046e-09,1.950223504342941e-09,1.0818898718453348e-09,6.292403997097244e-10,4.0357894145804883e-10,2.706068830953046e-10,2.0048650857421924e-10,1.3981815607707936e-10,1.048063005483463e-10,7.110889999674021e-11,5.0894328726203155e-11,3.200892101697637e-11,2.3014311962851956e-11,1.4451508012865637e-11,9.410556417047853e-12,5.4585001265763234e-12,2.9719754605762374e-12,1.6133016850111597e-12,7.888225472275834e-13,4.112280215923986e-13
0.0,18,18.0,0.0,30.0,0.0,0.0,0.0,0.0,-13.0,0.0,2.0,0.0,0.0,0.0,3.2553229127071954e-10,2.987442820090366e-10,2.8588743920279466e-10,2.460270256824497e-10,2.1423264775343752e-10,1.7493317149085783e-10,1.5497480796504063e-10,1.2231471970174692e-10,9.774660926681755e-11,7.617221003342841e-11,5.945600316569894e-11,4.5464856407576996e-11,3.391958600881561e-11,2.4113926342003304e-11,1.7945343655569774e-11,1.1364157155668894e-11,7.442740348842804e-12,4.680389238805135e-12,2.904546953793878e-12,1.785183685787306e-12,1.0825688292329999e-12,6.766233233693207e-13,4.587252601565453e-13,2.8679692643969477e-13,2.008920255237089e-13,1.2860913429256918e-13,9.383308731018693e-14,6.119013725092515e-14,4.0655218801002456e-14,2.6245199477733888e-14,6.782344414975661e-09,3.609282280435876e-09,1.9353971486735725e-09,1.0330000974063693e-09,6.257429748140191e-10,4.1700110524686416e-10,2.893160345523539e-10,1.9081259319149782e-10,1.3895790806245833e-10,1.0644223697959316e-10,7.142607062269583e-11,5.024634469883844e-11,3.23232702433879e-11,2.311530181134342e-11,1.5204779804213028e-11,9.561879934098138e-12,5.510116084765399e-12,2.947813124253154e-12,1.7232026297227425e-12,8.429033641975574e-13,4.397545911627008e-13
0.0,19,19.0,0.0,30.0,0.0,0.0,0.0,0.0,-13.0,0.0,2.0,0.0,0.0,0.0,3.2472783825669067e-10,3.165208992079211e-10,2.6833104737619454e-10,2.440719523972116e-10,2.0539436197173705e-10,1.7744215766048935e-10,1.4531776597783162e-10,1.1853476419643907e-10,9.589274297415038e-11,7.877685396705071e-11,6.227304141062162e-11,4.680776020479572e-11,3.3774639343012277e-11,2.5442198555363845e-11,1.8814973249873946e-11,1.2157863122017986e-11,7.713777898231176e-12,4.841828625642128e-12,3.0495247415414474e-12,1.8421598549236377e-12,1.0861763583251187e-12,6.827446034936779e-13,4.389160171907163e-13,2.9704308873609554e-13,1.916700264925218e-13,1.2764318457932474e-13,8.80529838802714e-14,5.780612672736055e-14,3.975731598114162e-14,2.7412451244868134e-14,6.894319179986949e-09,3.728724281519748e-09,1.8097721284278045e-09,1.0064345669896448e-09,6.26863693329145e-10,4.1242223131722326e-10,2.761278369756258e-10,1.9453540993741697e-10,1.4917502021507147e-10,9.998854476727262e-11,7.464947041792577e-11,4.9314595968601664e-11,3.5573761283191673e-11,2.3306812722041927e-11,1.555384706073651e-11,9.608229911760179e-12,5.949067413520265e-12,3.354252510813333e-12,1.6481921726454998e-12,8.884774080631665e-13,4.452187572143021e-13
0.0,20,20.0,0.0,30.0,0.0,0.0,0.0,0.0,-13.0,0.0,2.0,0.0,0.0,0.0,3.3565341052209093e-10,3.0795636367610744e-10,2.782587306228994e-10,2.3301600054410147e-10,2.179643769604146e-10,1.7729202563681398e-10,1.530868627044272e-10,1.2315108700213632e-10,9.578455831727617e-11,7.633433374975626e-11,5.820922275121072e-11,4.518937713489091e-11,3.491318000936659e-11,2.510808436872171e-11,1.8094498835403225e-11,1.2391144467473006e-11,7.979046358674693e-12,5.317051136811104e-12,3.208579853631077e-12,1.9121535789509657e-12,1.0252601154301658e-12,6.536505309833595e-13,4.671087440280365e-13,2.947143505339705e-13,1.8732264361350544e-13,1.256809120895342e-13,8.205315369486277e-14,5.282446323972485e-14,3.601915153854826e-14,2.5324368120030847e-14,6.411704924244795e-09,3.5847754822723067e-09,1.8662275170799745e-09,1.0268008816354922e-09,6.281645547985835e-10,4.0629493982677394e-10,2.7569099608375544e-10,1.9705617044958183e-10,1.4748477318284897e-10,1.019258108961582e-10,7.120537386978366e-11,4.9891313384432516e-11,3.5979577096760476e-11,2.223876315748381e-11,1.5746517756540535e-11,1.0145327745524618e-11,6.203542983543286e-12,3.510729510330178e-12,1.8663243128396636e-12,9.448447310420214e-13,4.742075605096441e-13
0.0,21,21.0,0.0,30.0,0.0,0.0,0.0,0.0,-13.0,0.0,2.0,0.0,0.0,0.0,3.4161018430895307e-10,3.1021192969452083e-10,2.723544818515262e-10,2.4978847881452003e-10,2.200024837913295e-10,1.7501920852975029e-10,1.4819616127493813e-10,1.2312286181465255e-10,9.984080284049136e-11,8.132131413507987e-11,6.327830257603576e-11,4.619136813213104e-11,3.5102120474733994e-11,2.6410547747583424e-11,1.7262163992606862e-11,1.2296266442008329e-11,8.51291713171139e-12,5.357716321599138e-12,3.197560981730591e-12,1.8580443466826314e-12,1.1428922089980502e-12,7.027502502102908e-13,4.139740546289327e-13,2.6677530440683906e-13,1.7149762528046592e-13,1.2091129597328514e-13,8.392515630608806e-14,5.401584065323657e-14,3.769045657461256e-14,2.3081855988481152e-14,6.779103576861509e-09,3.4180956828386214e-09,1.8142934564835976e-09,1.0429565421858998e-09,6.442107362648187e-10,4.2036973284403027e-10,2.951469171711217e-10,2.126277107344482e-10,1.4316088302658052e-10,1.0199869425753704e-10,7.617035032508374e-11,5.262553060283377e-11,3.5803716839270867e-11,2.4162204593417704e-11,1.4732512335252987e-11,1.0294456771980115e-11,6.164827473542575e-12,3.4092578667038946e-12,1.845440878577118e-12,9.80794557383448e-13,4.866126882686893e-13
0.0,22,22.0,0.0,30.0,0.0,0.0,0.0,0.0,-13.0,0.0,2.0,0.0,0.0,0.0,3.3160213742631835e-10,3.1547249031967374e-10,2.83990775983091e-10,2.4178544998658654e-10,2.2211554826486333e-10,1.816641083664742e-10,1.4303389529713093e-10,1.2814476628117628e-10,9.553538473553474e-11,7.962857214303601e-11,6.160089843887854e-11,4.922596377674859e-11,3.790476488869694e-11,2.58441260866786e-11,1.831730976156434e-11,1.2779920693791411e-11,8.034646828690668e-12,5.48449037053817e-12,3.3112420471580755e-12,1.984066913618615e-12,1.097643592421845e-12,6.899875871133157e-13,4.233991156483612e-13,2.7681263758459075e-13,1.7872069856625113e-13,1.1615429599950654e-13,7.942494491562068e-14,5.182094428434624e-14,3.457781619217103e-14,2.256169231309552e-14,6.767867379617529e-09,3.495389125784828e-09,1.7666827960462293e-09,1.0240448390276707e-09,6.520102240911516e-10,4.2156135500299644e-10,3.0238546703076334e-10,2.0528584560618767e-10,1.4894474545132566e-10,1.0466471438323066e-10,7.322595302830275e-11,5.136974784259081e-11,3.577308184125946e-11,2.4252673161486243e-11,1.5229433873512008e-11,1.0161842137292556e-11,6.2774766290307846e-12,3.4938059184817127e-12,1.995844179145114e-12,1.0757354866881025e-12,5.372586478403998e-13
0.0,23,23.0,0.0,30.0,0.0,0.0,0.0,0.0,-13.0,0.0,2.0,0.0,0.0,0.0,3.4447467365471454e-10,3.239223177003646e-10,2.8214604043354613e-10,2.449634886355134e-10,2.110649418850005e-10,1.98552242822086e-10,1.5186198775319747e-10,1.2251537561653615e-10,1.0496802239513987e-10,8.288295335601589e-11,6.111714226648082e-11,4.9052355093650174e-11,3.741630221417607e-11,2.714831237945522e-11,1.8703877695288075e-11,1.3067172362675637e-11,9.02436870007231e-12,5.46233042799994e-12,3.4304084193282257e-12,1.9941824193232025e-12,1.2165883017429816e-12,6.982135594261455e-13,4.682146311481482e-13,2.666971857049449e-13,1.731065890710025e-13,1.1523405882819527e-13,7.095301755704447e-14,4.586038475648245e-14,3.5383446075304265e-14,2.183402394162337e-14,6.680991857694354e-09,3.3591388837742395e-09,1.7520107252452527e-09,1.0299394272874986e-09,6.508212334483112e-10,4.2573822968113236e-10,3.0189697284381366e-10,2.0711722395383293e-10,1.4607044457883289e-10,1.0691902280604976e-10,7.575321718051173e-11,5.509098648597383e-11,3.616254556631364e-11,2.4263806948607956e-11,1.512395066838361e-11,1.016368531723028e-11,6.024278393770209e-12,3.4746397511834786e-12,1.972792747841102e-12,1.05007960461383e-12,5.657873873474072e-13
0.0,24,24.0,0.0,30.0,0.0,0.0,0.0,0.0,-13.0,0.0,2.0,0.0,0.0,0.0,3.4755673861774024e-10,3.201840391166851e-10,2.920783709118607e-10,2.6109364426233577e-10,2.1694198842787056e-10,1.9319351035812627e-10,1.5578654567963103e-10,1.289500413337434e-10,1.0281477572880446e-10,8.676683023884226e-11,6.454673434803438e-11,5.0569545586389495e-11,3.43433249605728e-11,2.6677864062674008e-11,1.9285690634032636e-11,1.3254989534037819e-11,9.112740740177298e-12,5.8023090527767205e-12,3.510405845058978e-12,2.019184684944191e-12,1.1830898772741147e-12,6.98273000043473e-13,4.1845483879681116e-13,2.6612307610512015e-13,1.6265127483258009e-13,1.2106645687960221e-13,7.314508771578393e-14,4.86967904360495e-14,3.2169500178595154e-14,1.932055137302267e-14,6.631519630274143e-09,3.525163726326215e-09,1.672088657256651e-09,1.0597612631779914e-09,6.483021553486359e-10,4.2953671638112025e-10,2.9949540163423295e-10,2.0910552479413724e-10,1.5475100649826008e-10,1.1033624526244893e-10,7.3468212190427e-11,5.577489812559216e-11,3.5805254434297814e-11,2.4628914768566277e-11,1.555886452354343e-11,9.995531693515302e-12,6.51740157264882e-12,3.773043029354946e-12,2.12039885105801e-12,1.0879335582230691e-12,5.7862046180668e-13
0.0,25,25.0,0.0,30.0,0.0,0.0,0.0,0.0,-13.0,0.0,2.0,0.0,0.0,0.0,3.522059694343279e-10,3.2549560514547463e-10,2.979424842997273e-10,2.520389734119071e-10,2.3231656498831776e-10,1.797076823929337e-10,1.5755778978056005e-10,1.2855543648147236e-10,1.061457627797096e-10,8.236463203428554e-11,6.696401644479929e-11,5.009715581967508e-11,3.795678918726122e-11,2.784377546942753e-11,1.9498670054792975e-11,1.3081070759021443e-11,8.988587494224602e-12,5.683747241928568e-12,3.4845284625122314e-12,2.2250756700204753e-12,1.265232203435333e-12,7.254489905963702e-13,4.256164684321866e-13,2.5572948024121267e-13,1.6824141754030052e-13,1.0514679177583468e-13,6.798966496445482e-14,4.6417518595136286e-14,3.049937699588342e-14,1.961386504038351e-14,6.920048551190837e-09,3.2752597272252234e-09,1.8026540493060714e-09,1.0421159622099002e-09,6.335003732406713e-10,4.3222264691287525e-10,3.103327450753644e-10,2.009754735101265e-10,1.5603014313164627e-10,1.1222269457647572e-10,7.258265882040367e-11,5.477889131107779e-11,3.772308410292691e-11,2.4012625305511485e-11,1.6809204227279005e-11,1.092083281691713e-11,6.69803883164607e-12,3.882280121833188e-12,2.1526444111130994e-12,1.1674810403440206e-12,5.914944455424591e-13
0.0,26,26.0,0.0,30.0,0.0,0.0,0.0,0.0,-13.0,0.0,2.0,0.0,0.0,0.0,3.531578723385006e-10,3.2550662791457394e-10,3.0046030860643155e-10,2.6430606273405595e-10,2.2973426951363524e-10,1.9052980286648243e-10,1.5890637905091936e-10,1.333629483900267e-10,1.0263440178324646e-10,8.410866858623996e-11,6.614104732623561e-11,5.016660424796731e-11,3.63229826398232e-11,2.7133690413357108e-11,1.9435549946479747e-11,1.2953716989568448e-11,8.908877079195892e-12,5.826335747675804e-12,3.5742343504500718e-12,2.167988307995687e-12,1.3469823702742424e-12,7.387142440090949e-13,4.286183123974528e-13,2.566746966964182e-13,1.7351440597427936e-13,1.0515453071284568e-13,6.886948220609277e-14,4.2872648116031065e-14,2.710402074311943e-14,1.7611478597238935e-14,6.770128986050729e-09,3.370970943819163e-09,1.7708956704949674e-09,1.0831913526083363e-09,6.517291726805937e-10,4.642080689197244e-10,3.069931779669412e-10,2.1949513637761415e-10,1.5715024356586212e-10,1.137991391517395e-10,7.965178902533376e-11,5.418696233237052e-11,3.8609605821079413e-11,2.485568251598655e-11,1.5840831516218823e-11,1.0537864391152817e-11,6.3523979195069204e-12,4.10609784734124e-12,2.129244142412201e-12,1.2224951811786225e-12,6.452131986703664e-13
0.0,27,27.0,0.0,30.0,0.0,0.0,0.0,0.0,-13.0,0.0,2.0,0.0,0.0,0.0,3.3731729290025653e-10,3.415343602215941e-10,2.9610608443703355e-10,2.655943930309386e-10,2.2119324591804857e-10,2.0055871221084442e-10,1.70481410417802e-10,1.321376128447651e-10,1.0594515613051787e-10,8.559938591875351e-11,6.978514077909372e-11,4.8616746924859745e-11,3.932090692569766e-11,2.6078072188600757e-11,1.9423521679238396e-11,1.450033610467562e-11,9.719699258761414e-12,6.474283075621955e-12,3.866514780257463e-12,2.3436044023895777e-12,1.3500454457821526e-12,7.436935841617614e-13,4.425945698006405e-13,2.695972412898483e-13,1.6047199593376145e-13,1.0153042375108708e-13,6.351672029160806e-14,4.129583433726368e-14,2.971267085269595e-14,2.0655011837495347e-14,6.328665405526918e-09,3.315464874612907e-09,1.7033856743325483e-09,1.0658221792919538e-09,6.983971971038319e-10,4.469273037957195e-10,3.036836191566724e-10,2.2400634160728234e-10,1.6621693450852887e-10,1.0991148670973044e-10,8.124982886114634e-11,5.531598203529423e-11,3.6908280146682944e-11,2.483094645797889e-11,1.6560130325183526e-11,1.0451947030643862e-11,6.345403586786312e-12,3.95007044549342e-12,2.1462212177066544e-12,1.1876521825329627e-12,6.265605967646876e-13
0.0,28,28.0,0.0,30.0,0.0,0.0,0.0,0.0,-13.0,0.0,2.0,0.0,0.0,0.0,3.67866364573429e-10,3.268284173337804e-10,3.2151215925479755e-10,2.4920008030191195e-10,2.240305264370715e-10,1.8773007340528587e-10,1.6883814407230603e-10,1.2092807444160317e-10,1.1012933615500427e-10,8.52340049629967e-11,7.09515799477943e-11,5.18761998734639e-11,3.797760616806899e-11,2.855857914152017e-11,1.9449905045361578e-11,1.388626870370284e-11,9.177515228238695e-12,5.8625721963470385e-12,4.117827036156003e-12,2.39624518053213e-12,1.4191675925264102e-12,8.053978423482565e-13,4.613080369720734e-13,2.684449597886793e-13,1.5763707943133475e-13,9.704046256942443e-14,6.29846416855147e-14,4.06943878997126e-14,2.5679263144396853e-14,1.8267559197851772e-14,6.209029809903849e-09,3.20860513465564e-09,1.7015792745893377e-09,1.0076324592065582e-09,6.661174352427837e-10,4.3497344158136586e-10,3.2020987496740286e-10,2.166188972412825e-10,1.5901199012280192e-10,1.128176063708121e-10,7.868402512139466e-11,5.586407940248702e-11,3.6962540510490773e-11,2.464596642334851e-11,1.68428297206022e-11,1.1271955074378227e-11,6.5889598221791805e-12,3.936694270263602e-12,2.3992031615848635e-12,1.2131065044318462e-12,6.951875030811593e-13
0.0,29,29.0,0.0,30.0,0.0,0.0,0.0,0.0,-13.0,0.0,2.0,0.0,0.0,0.0,3.6538613915571767e-10,3.55716802242359e-10,3.0820760279362237e-10,2.611999045934078e-10,2.314384730405093e-10,1.9690351392309985e-10,1.7088408361171272e-10,1.349695053845412e-10,1.1031901423755372e-10,8.655375537531898e-11,7.072895263376978e-11,5.3105456927038986e-11,3.952411957049653e-11,2.7964514315123722e-11,2.0120337265599476e-11,1.3672208086275083e-11,9.172173959634183e-12,6.510091721166402e-12,4.050615079791003e-12,2.4311959973540315e-12,1.4923203461726658e-12,8.510263387838297e-13,4.5351189402781175e-13,2.593412863522369e-13,1.557653265967195e-13,1.0143701044088964e-13,6.17968332723248e-14,4.191637622334532e-14,2.7541658865073253e-14,1.7960012361210126e-14,6.466386619857342e-09,3.4371222964933536e-09,1.7218590685554983e-09,1.0559064652924696e-09,6.367363599806104e-10,4.4837570154669176e-10,3.2761138513416946e-10,2.2544234803863793e-10,1.6461087061412477e-10,1.1281628202473998e-10,7.958960403482705e-11,5.612085283538554e-11,3.9013394732808724e-11,2.526846015399522e-11,1.6949557996206437e-11,1.0646444304611173e-11,6.6155108730051744e-12,4.2764323450193774e-12,2.363600053677188e-12,1.2700224521813882e-12,6.621031312437928e-13
0.0,30,30.0,0.0,30.0,0.0,0.0,0.0,0.0,-13.0,0.0,2.0,0.0,0.0,0.0,3.6085804548157996e-10,3.536557670725086e-10,3.3133241705980756e-10,2.708199156391606e-10,2.4929646607372384e-10,1.9498928789308985e-10,1.690609107332387e-10,1.382312470704606e-10,1.1194757128447018e-10,8.808276780623923e-11,6.928824060720024e-11,5.1712901407847284e-11,3.8722357861875844e-11,2.9388094687525583e-11,1.9863514504388732e-11,1.4025673094989276e-11,9.94212519184793e-12,6.584703541376221e-12,4.086876938965341e-12,2.486449232005555e-12,1.5049932316812938e-12,8.405451767876722e-13,4.878203081155215e-13,2.575880804832705e-13,1.543426679228385e-13,1.0335521971332785e-13,5.800568273674232e-14,3.914799608264973e-14,2.3984529149139617e-14,1.6300486333041655e-14,6.4027377049124075e-09,3.2596026908017775e-09,1.7855948624277966e-09,1.0249301751694007e-09,6.411897438282904e-10,4.563166311309468e-10,3.3188005403645885e-10,2.2109950518251418e-10,1.6107725166580108e-10,1.2398515037734404e-10,8.16963003882441e-11,5.669370908398241e-11,3.824457701790238e-11,2.5335829164462682e-11,1.721665159716839e-11,1.1152481933142417e-11,6.801580959340757e-12,4.069928394175161e-12,2.3877039238057405e-12,1.3171186939159832e-12,6.618486911506344e-13
0.0,31,31.0,0.0,30.0,0.0,0.0,0.0,0.0,-13.0,0.0,2.0,0.0,0.0,0.0,3.55287768414639e-10,3.488703186225337e-10,3.0487401390408966e-10,2.665389868599628e-10,2.428076908415406e-10,2.127543243793654e-10,1.6350692877905948e-10,1.368777027923341e-10,1.1332541845069655e-10,9.168790395741913e-11,6.990046466183634e-11,5.366800010626127e-11,3.961620187099041e-11,2.750262937998447e-11,2.041027407992365e-11,1.3843908656518004e-11,9.768129360245433e-12,6.513593566298494e-12,4.248022061654046e-12,2.4879672970111836e-12,1.5324851827275285e-12,8.947108894839974e-13,4.728217162231917e-13,2.8790723183561636e-13,1.5073809910534844e-13,9.743414685459533e-14,5.712374246031509e-14,3.9617956534498596e-14,2.3781678224299028e-14,1.5635596959804534e-14,6.04460105029968e-09,2.983164566892356e-09,1.682229089737984e-09,1.0403375964809549e-09,6.882994966490955e-10,4.843377231386848e-10,3.089278403830654e-10,2.2834329509382834e-10,1.5537797117297224e-10,1.15705656388741e-10,8.187197135858599e-11,5.523896279519681e-11,3.764405418163237e-11,2.563581159316124e-11,1.633311643071593e-11,1.0421807142863568e-11,7.022333634832789e-12,4.053571405675786e-12,2.319344146589894e-12,1.3622135481657348e-12,7.535355826060984e-13
0.0,32,32.0,0.0,30.0,0.0,0.0,0.0,0.0,-13.0,0.0,2.0,0.0,0.0,0.0,3.928061242047769e-10,3.5206983284306404e-10,3.1321013748121265e-10,2.859752910251271e-10,2.4743662683589623e-10,2.1399447395358606e-10,1.7078440032277687e-10,1.4312487676569066e-10,1.1164697354184648e-10,9.235054474546824e-11,6.824398269843817e-11,5.207006477967276e-11,4.091078985344023e-11,2.963997693181908e-11,2.0519584126005262e-11,1.4596963287702333e-11,9.766880710797576e-12,6.489876951347501e-12,4.2621456926942054e-12,2.608403800053286e-12,1.5593365087024367e-12,8.468283384812242e-13,4.95504871334613e-13,2.8197149426032087e-13,1.639792106722965e-13,9.688792390953525e-14,5.6612692575864207e-14,3.6417936866425594e-14,2.373078872964062e-14,1.5734096185272308e-14,6.439184705243624e-09,3.0916025198251928e-09,1.6108508813851601e-09,1.04420893228691e-09,6.94682312568989e-10,4.635699118443342e-10,3.3293852588221737e-10,2.248708841062366e-10,1.589314455036979e-10,1.2034150525025138e-10,8.229754766750596e-11,5.8002353424785e-11,3.5557067507067025e-11,2.579916528630708e-11,1.648591747572864e-11,1.1237868991853244e-11,6.778792711639034e-12,4.2044594778057075e-12,2.4129530758850912e-12,1.289243962399541e-12,7.358205216723415e-13
0.0,33,33.0,0.0,30.0,0.0,0.0,0.0,0.0,-13.0,0.0,2.0,0.0,0.0,0.0,3.6916762028144776e-10,3.6252777653680527e-10,3.1022113594927064e-10,2.7292242109419e-10,2.3903891508886237e-10,2.0791072559559859e-10,1.7332624600822362e-10,1.469124585648535e-10,1.1119649400996758e-10,9.597996528693668e-11,7.215245055922018e-11,5.5981365696657926e-11,4.128297569998151e-11,3.048423459104848e-11,2.080947283243241e-11,1.4032317298357971e-11,9.593964001911147e-12,6.514172194009535e-12,4.241676152509894e-12,2.721183178942016e-12,1.6171242152460953e-12,9.259190120179605e-13,4.954227647206898e-13,2.8605225506077213e-13,1.6454659656145103e-13,9.177950362374347e-14,5.880310145962549e-14,3.7918634021158976e-14,2.179423781901229e-14,1.4030119969971601e-14,6.17514433129124e-09,3.194096826359556e-09,1.6326880164134544e-09,1.0151703156613247e-09,6.846359218704552e-10,4.755435287440626e-10,3.4524430065610794e-10,2.3645808109213314e-10,1.7506155373480925e-10,1.1790237317270918e-10,8.576369606593181e-11,6.118608384048157e-11,3.9256329392487154e-11,2.6097995770891487e-11,1.7350980939509727e-11,1.1004318369873813e-11,7.030896922160066e-12,4.12908124758983e-12,2.451607047057151e-12,1.3638152273050499e-12,6.995989073325016e-13
0.0,34,34.0,0.0,30.0,0.0,0.0,0.0,0.0,-13.0,0.0,2.0,0.0,0.0,0.0,3.822835360795681e-10,3.6029554664948494e-10,3.22634551886827e-10,3.002806215145338e-10,2.605965686616752e-10,2.1550479163369651e-10,1.7709304297943565e-10,1.4810468044871707e-10,1.16157559400259e-10,9.41082029845112e-11,6.933820326351396e-11,5.4071678041445335e-11,4.236660594292072e-11,2.893821110574348e-11,2.0035983648476384e-11,1.458445837284465e-11,1.0223164411490858e-11,6.9567796195139556e-12,4.285336452992e-12,2.67242747954111e-12,1.5885848901506767e-12,9.521559008927764e-13,5.367917714339792e-13,2.994743724740105e-13,1.620033125164372e-13,9.110021612040197e-14,5.5995058362565345e-14,3.527544417489191e-14,2.2162881269401782e-14,1.5444332777640688e-14,6.425333345706698e-09,3.183843265494731e-09,1.6318569015784761e-09,1.057219146452295e-09,7.153667015186129e-10,4.606753800971076e-10,3.303583023884189e-10,2.434465311687266e-10,1.8073422380458397e-10,1.2167332286863668e-10,9.022608182507587e-11,5.900769463688677e-11,4.172662545033037e-11,2.6826992507208667e-11,1.6670680301410664e-11,1.0863426777959919e-11,6.981363718394923e-12,4.298165136214321e-12,2.376733687472901e-12,1.4675333403715953e-12,7.217401244765443e-13
0.0,35,35.0,0.0,30.0,0.0,0.0,0.0,0.0,-13.0,0.0,2.0,0.0,0.0,0.0,3.6676424547843017e-10,3.4839405884160905e-10,3.198143960903996e-10,3.0799437483333436e-10,2.639534570709484e-10,2.1397290757577914e-10,1.8808538864241394e-10,1.444052890959081e-10,1.2008731955398775e-10,9.636211066683818e-11,6.95006319370626e-11,5.657552177495128e-11,4.1648750305887605e-11,3.1214617579687014e-11,2.1035244658493186e-11,1.489388853682206e-11,1.0172414282740645e-11,6.5592852821296374e-12,4.65596961208751e-12,2.7505336425251074e-12,1.756516140415514e-12,9.34418122319865e-13,5.362829196942103e-13,2.8472573706210894e-13,1.6603351530181632e-13,9.339708915090564e-14,5.727819371126176e-14,3.596632426197004e-14,2.1979593087100293e-14,1.3733815931985275e-14,6.046570689442116e-09,3.118000877798929e-09,1.7550425019309108e-09,1.0856802948945666e-09,7.071476703511294e-10,4.6256387823553754e-10,3.280293422556738e-10,2.4470129094651465e-10,1.7878168696961474e-10,1.245504378300285e-10,8.795362342746155e-11,6.15819405433103e-11,4.0654277459234336e-11,2.7787901568577178e-11,1.7336246350124754e-11,1.0947043878080581e-11,6.8938886841285656e-12,4.159224437063038e-12,2.5834652573804728e-12,1.452854329258652e-12,7.25462142178323e-13
0.0,36,36.0,0.0,30.0,0.0,0.0,0.0,0.0,-13.0,0.0,2.0,0.0,0.0,0.0,3.822757351527664e-10,3.650745426211206e-10,3.1847079272256354e-10,2.968259180375984e-10,2.645660942679745e-10,2.151342221514896e-10,1.9084555100785435e-10,1.4554257824570557e-10,1.3219095300911621e-10,9.7208205791243e-11,7.476490635829784e-11,5.625944987664061e-11,4.270501098795103e-11,2.9114922461634754e-11,2.207818421366909e-11,1.6181584176223442e-11,1.0771979471621306e-11,6.60875203418827e-12,4.4141928632748395e-12,2.715687848087858e-12,1.6975687274992348e-12,9.895063632738275e-13,5.502211254673853e-13,3.021009769434828e-13,1.6216437589833073e-13,9.333777879904404e-14,5.145053211870224e-14,3.524633134421923e-14,2.1758399617251452e-14,1.19667427500956e-14,6.147584411679696e-09,3.1888940182733435e-09,1.7874552426703103e-09,1.0290944590183436e-09,6.818929423513111e-10,4.850131504532897e-10,3.379069731369315e-10,2.4629745987888745e-10,1.7435344006583853e-10,1.26747735525126e-10,8.992760986101237e-11,5.870993383954584e-11,4.1475660716990426e-11,2.7554992820774658e-11,1.8342761356620218e-11,1.1096134337728627e-11,7.37295286064955e-12,4.175955226645908e-12,2.6469165406466203e-12,1.3631567586127275e-12,8.151103229579791e-13
0.0,37,37.0,0.0,30.0,0.0,0.0,0.0,0.0,-13.0,0.0,2.0,0.0,0.0,0.0,3.907750655549209e-10,3.49246371367867e-10,3.400964634899084e-10,2.8685733876007303e-10,2.649503976915672e-10,2.1795696546867261e-10,1.7306255430751327e-10,1.5707481321309554e-10,1.2787664612689774e-10,9.454063133916069e-11,7.817258611319936e-11,5.60855804998375e-11,4.284202706219377e-11,2.9405284296925253e-11,2.282316005914314e-11,1.586563667198119e-11,1.0331528798138265e-11,6.87113513340201e-12,4.625071128123097e-12,2.6965097769854553e-12,1.662833841431512e-12,9.990851311222415e-13,5.906597895466814e-13,3.102679749519288e-13,1.7029573027367265e-13,9.083203515586241e-14,5.927418844390922e-14,3.3903701939248744e-14,2.0229599660618977e-14,1.5368699148678738e-14,5.884973132198885e-09,3.0940573679254782e-09,1.6721325439839844e-09,1.0030458575986927e-09,7.040436343024398e-10,4.990304301191775e-10,3.2609408940364174e-10,2.6156165814925113e-10,1.7272568902926358e-10,1.2798011533327872e-10,9.091377736165161e-11,5.985896581906414e-11,4.2565400697066545e-11,2.988229596375011e-11,1.767639172708533e-11,1.1553989905311025e-11,7.182765173092625e-12,4.273512479329044e-12,2.6834041961726673e-12,1.4827245850549621e-12,8.36383588620389e-13
0.0,38,38.0,0.0,30.0,0.0,0.0,0.0,0.0,-13.0,0.0,2.0,0.0,0.0,0.0,4.067617498997771e-10,3.895954293414766e-10,3.223577501265634e-10,2.8845209739484457e-10,2.5194376926159066e-10,2.2179876998214345e-10,1.834560210391159e-10,1.4196734675903833e-10,1.2201910878166858e-10,1.0063547960175679e-10,7.422360282340001e-11,5.7664089233319184e-11,4.2371067226649595e-11,3.279107509265828e-11,2.1972290846784835e-11,1.4837973689838174e-11,1.0690074527884598e-11,6.895851392865714e-12,4.435749475671152e-12,2.8714419675471278e-12,1.787424322988695e-12,9.612133435470413e-13,5.805615830013589e-13,3.1889003685449785e-13,1.7314358551111975e-13,1.0262946085920629e-13,5.522134551513248e-14,3.334186038679451e-14,1.9944653984679324e-14,1.3361968047361757e-14,5.9431453643731555e-09,2.9417075720095645e-09,1.721286523845665e-09,1.0527809829114638e-09,6.8934366681673e-10,4.993510688001377e-10,3.3565490947457635e-10,2.574771969058626e-10,1.7990943042584566e-10,1.3307172939608894e-10,8.81982085790681e-11,6.31842663272851e-11,4.1382823407228335e-11,2.7396120430541272e-11,1.7759312731794085e-11,1.1478135616420304e-11,7.333179653603069e-12,4.41204267397214e-12,2.679982172729842e-12,1.4530734976688554e-12,8.028489389825553e-13
0.0,39,39.0,0.0,30.0,0.0,0.0,0.0,0.0,-13.0,0.0,2.0,0.0,0.0,0.0,4.146702419432113e-10,3.7536390495660275e-10,3.2975216198982125e-10,3.0988890431940803e-10,2.7626695664463136e-10,2.246298238939874e-10,1.8840530546762934e-10,1.6414862245651014e-10,1.2794191112856788e-10,1.0218567639933052e-10,7.619383198061921e-11,5.662744165138844e-11,4.11919392365259e-11,3.1293097661992735e-11,2.361139917220893e-11,1.654165165190538e-11,1.005810118533444e-11,7.387244744375961e-12,4.4759419260261954e-12,2.955958813816451e-12,1.706239021881489e-12,1.0205005744263588e-12,5.831556485502895e-13,3.26857871156408e-13,1.8111845178134062e-13,9.723869943258373e-14,5.652035207848134e-14,3.3192287687651566e-14,1.8720720455843565e-14,1.4967971548191154e-14,6.089667594660473e-09,3.0894793823802843e-09,1.7225821443426665e-09,1.0793976979263402e-09,7.016252031635544e-10,5.119741188141196e-10,3.380495677764363e-10,2.5019253939664364e-10,1.8476112504994851e-10,1.2995911956947027e-10,9.375642773192732e-11,5.952416213270827e-11,4.1800315695401566e-11,2.895567811744702e-11,1.8191323704928125e-11,1.1644258902955469e-11,7.26117236548663e-12,4.290870815440121e-12,2.4362265539779233e-12,1.510207865585725e-12,8.016539258022557e-13
0.0,40,40.0,0.0,30.0,0.0,0.0,0.0,0.0,-13.0,0.0,2.0,0.0,0.0,0.0,4.0907266761435747e-10,3.8683886714434274e-10,3.6127199171662994e-10,3.010072517783126e-10,2.6139621400298095e-10,2.3056854171805113e-10,1.9784402185023788e-10,1.5780098936956683e-10,1.3044923287209742e-10,9.545977033401851e-11,7.664554620042139e-11,5.873209073585692e-11,4.061889551410671e-11,3.2634275903217246e-11,2.369866091435908e-11,1.4922994504249565e-11,1.0335478100093134e-11,7.403457440162632e-12,4.98964820618612e-12,2.9815586908127397e-12,1.782576852524138e-12,1.0961071897573095e-12,6.060806968826462e-13,3.299541277060046e-13,1.7519093203962007e-13,1.0023243185123e-13,5.4076022387507e-14,3.095120025949131e-14,2.0613397185564304e-14,1.1966788038684074e-14,5.869286688713332e-09,2.8751886337394736e-09,1.6684710875728559e-09,1.0320981386872056e-09,7.317032792300482e-10,4.981832912183425e-10,3.500830584253358e-10,2.6110552401577606e-10,1.8475723234483267e-10,1.3234863079705483e-10,9.52094040654903e-11,6.366028355909036e-11,4.334030026843908e-11,2.82141857454853e-11,1.8590490142233408e-11,1.1598140968890046e-11,7.108141005010316e-12,4.414182192825815e-12,2.5813338707288792e-12,1.4918837496613623e-12,8.209715011765784e-13
0.0,41,41.0,0.0,30.0,0.0,0.0,0.0,0.0,-13.0,0.0,2.0,0.0,0.0,0.0,4.133764964729351e-10,4.0188007946319753e-10,3.673280234275774e-10,2.928778679953954e-10,2.795524501807916e-10,2.3491285123510235e-10,1.95732863248456e-10,1.5878594153699945e-10,1.2740517191886688e-10,9.757759855138699e-11,7.414487873343115e-11,5.7890579978465605e-11,4.227183350617043e-11,3.367099911541112e-11,2.326112054056702e-11,1.5812694475812424e-11,1.1084994427175964e-11,7.0464067568580965e-12,4.752287700022429e-12,2.8507649210730205e-12,1.7971656178361997e-12,1.0340872800406673e-12,6.135365104095852e-13,3.1136427599587203e-13,1.8561499874365703e-13,9.329093891612175e-14,5.691797401855584e-14,3.459837733119696e-14,1.7781213371204277e-14,1.0908516455498796e-14,5.719074413980519e-09,3.0692467430985626e-09,1.7527961574167127e-09,1.0444236096692166e-09,7.239257193125353e-10,4.960690464139109e-10,3.702142800100178e-10,2.709100346731407e-10,1.811557419312149e-10,1.3638005386070872e-10,8.901654536057851e-11,6.366951802616868e-11,4.309186728229886e-11,2.8611428580490392e-11,1.7611484560909365e-11,1.1939371791349725e-11,7.054894550374394e-12,4.561345538040789e-12,2.6704687059055547e-12,1.5789402201933157e-12,8.624740328831102e-13
0.0,42,42.0,0.0,30.0,0.0,0.0,0.0,0.0,-13.0,0.0,2.0,0.0,0.0,0.0,4.352690628397488e-10,3.9470924502303566e-10,3.482320701293198e-10,3.2221466334415886e-10,2.684054737994097e-10,2.39176644969464e-10,1.8311306320996705e-10,1.5619154149695443e-10,1.3130776176320934e-10,9.90594784919008e-11,7.986467019477125e-11,5.89403933279158e-11,4.293461597519576e-11,3.100093751913709e-11,2.3653652975982306e-11,1.5552414982375064e-11,1.053401867522384e-11,7.528490029832204e-12,4.739510545694746e-12,2.991805743296835e-12,1.773244865940717e-12,1.088570312711229e-12,6.052411963472178e-13,3.4520169086588066e-13,1.9215476112722917e-13,1.0378600637784142e-13,5.5782336194768614e-14,3.236615166139227e-14,1.8588929037520377e-14,1.2442451914870101e-14,5.535089225935407e-09,2.9920377843407915e-09,1.6402747566692006e-09,1.098818245835581e-09,7.291350292525641e-10,5.040051546848193e-10,3.6156681360531135e-10,2.560204127431746e-10,1.8754476652085426e-10,1.3943094638105165e-10,9.594162538766547e-11,6.74514592093819e-11,4.520810215041991e-11,2.8123820979406658e-11,1.9520667201912847e-11,1.1956865536023029e-11,7.541784427322133e-12,4.3933797657307044e-12,2.6964254747664845e-12,1.5619659909001558e-12,7.695734490780675e-13
0.0,43,43.0,0.0,30.0,0.0,0.0,0.0,0.0,-13.0,0.0,2.0,0.0,0.0,0.0,4.406044427452548e-10,4.0657883875046935e-10,3.744374344016254e-10,3.3048886360373895e-10,2.721884740024343e-10,2.428250135351995e-10,1.9869757703131e-10,1.619147928312116e-10,1.3357111566218813e-10,1.0358614981386648e-10,7.974304011736352e-11,6.317767094170901e-11,4.369125179211261e-11,3.313533321091938e-11,2.353277284013417e-11,1.601153610413674e-11,1.1541488118595973e-11,7.317078341150074e-12,4.850204788131533e-12,3.132496526924903e-12,1.9504388157423505e-12,1.1308261832038234e-12,6.269122341809417e-13,3.668687070457848e-13,1.835740252603704e-13,9.725282534116933e-14,5.4738406601117265e-14,2.9513508856112343e-14,1.782367475680759e-14,1.1029674922308303e-14,5.791281224750086e-09,2.970851535813922e-09,1.6337625719263633e-09,1.083121332844621e-09,7.357463296455952e-10,5.34270842006763e-10,3.6058220094872125e-10,2.7370593097370547e-10,1.8470688355736447e-10,1.322554931451383e-10,9.137299388221658e-11,6.605612358828415e-11,4.187070141891885e-11,3.211454987905352e-11,1.8674076438915875e-11,1.2153829925401333e-11,7.710588090658428e-12,4.403418488926775e-12,2.7558177029361165e-12,1.5450444687161456e-12,8.163532130298853e-13
0.0,44,44.0,0.0,30.0,0.0,0.0,0.0,0.0,-13.0,0.0,2.0,0.0,0.0,0.0,4.212485515062832e-10,3.889256998555332e-10,3.6693379410449354e-10,3.1923925926511965e-10,2.726206070529252e-10,2.597798410708403e-10,1.996635239281267e-10,1.723391147948964e-10,1.2984886344784553e-10,1.0622156734247622e-10,8.18130859403169e-11,6.039062024692411e-11,4.643731901921539e-11,3.2200631207720385e-11,2.266674695107548e-11,1.671583016279464e-11,1.170940881924686e-11,7.584929889838957e-12,4.940832429567823e-12,3.0402196559169368e-12,1.7793562485487428e-12,1.1172414931741767e-12,6.232975557870847e-13,3.2945928768754335e-13,1.9944533181776584e-13,1.0462278085082894e-13,5.661799631357404e-14,3.2577778776183564e-14,1.911597185423118e-14,1.2351696154259308e-14,5.68305062223418e-09,3.0077558192502186e-09,1.755439111213763e-09,1.0734894638479152e-09,7.383576420446192e-10,5.207530102393471e-10,3.7369103788618333e-10,2.7961340361885157e-10,1.9129372791907382e-10,1.312824286406781e-10,9.816906468244413e-11,6.951905317662517e-11,4.685586509338211e-11,3.1130393501756225e-11,1.9795677022562218e-11,1.2425332758041956e-11,7.277271625497571e-12,4.63458336566402e-12,2.6807749648453254e-12,1.5836377459061355e-12,8.189969455303207e-13
0.0,45,45.0,0.0,30.0,0.0,0.0,0.0,0.0,-13.0,0.0,2.0,0.0,0.0,0.0,4.353205297075709e-10,4.0253983933550513e-10,3.7408222959683054e-10,3.3070143484280315e-10,2.7949450658938923e-10,2.4260810070714297e-10,2.0468659935540759e-10,1.7429258750556255e-10,1.3225417600274046e-10,1.0503625658255933e-10,8.236778476995295e-11,6.687951475310774e-11,4.771735957901875e-11,3.3561675775419226e-11,2.344274249872183e-11,1.5757757776234365e-11,1.1092417007947999e-11,8.133301522094493e-12,4.777331758200309e-12,3.0568645245353678e-12,1.968810701643433e-12,1.0964422769334996e-12,6.937143570100085e-13,3.6871321508040283e-13,1.9988790356681678e-13,1.0131281577338827e-13,5.533001010217823e-14,3.2199302007550065e-14,1.9158533926106417e-14,1.0849483584349164e-14,5.591495151306059e-09,2.9953356233597835e-09,1.7574533499547985e-09,1.1102689805761643e-09,7.90541042445019e-10,5.470766352180269e-10,3.81873517036646e-10,2.7173477794871714e-10,1.9606163139520473e-10,1.4237316510887473e-10,1.0182210981167271e-10,7.013469087137488e-11,4.539954493499113e-11,3.0158937031108385e-11,1.9480709555086635e-11,1.2822114507164643e-11,7.2718184489082e-12,4.301983922867363e-12,2.685018654254309e-12,1.603126515438282e-12,8.525621065315976e-13
0.0,46,46.0,0.0,30.0,0.0,0.0,0.0,0.0,-13.0,0.0,2.0,0.0,0.0,0.0,4.669174190103505e-10,4.200344830746734e-10,3.738235468714368e-10,3.2758941796208376e-10,3.010667631855704e-10,2.484863667372493e-10,2.040794484050432e-10,1.621132033810497e-10,1.385513119636682e-10,1.1264643601934645e-10,8.625788163403649e-11,6.40094101954812e-11,4.624594960630715e-11,3.256159732064837e-11,2.3411911672869227e-11,1.6704792378373646e-11,1.1024150786971711e-11,7.567104755833732e-12,4.846048211500646e-12,3.2204853305364013e-12,2.002918968945634e-12,1.1701638424721046e-12,6.527059230085712e-13,3.7545210302690325e-13,2.0418997932020846e-13,1.07259450923547e-13,5.876228060070926e-14,3.23322070417561e-14,2.0155094136992546e-14,1.1160546072687702e-14,5.396014817670088e-09,2.6939444006417504e-09,1.768408082037217e-09,1.1015545389450068e-09,7.373089084186372e-10,5.165834762277952e-10,3.9696021009041735e-10,2.808547021320843e-10,2.0591042672257612e-10,1.4929020792257807e-10,1.0606706593127494e-10,6.802947514473066e-11,4.673803121041734e-11,3.0237817977802464e-11,2.047035834992913e-11,1.3143592101037889e-11,8.011325197903542e-12,4.967373135756667e-12,2.6766975873677524e-12,1.546757611228574e-12,8.547815210336623e-13
0.0,47,47.0,0.0,30.0,0.0,0.0,0.0,0.0,-13.0,0.0,2.0,0.0,0.0,0.0,4.827104410854223e-10,4.34760338342824e-10,3.922423711132037e-10,3.4683539009477034e-10,2.9198486080834555e-10,2.6123241069804047e-10,2.1828075950709307e-10,1.6489102694168128e-10,1.3781588080880182e-10,1.0996782581332834e-10,8.496278093013999e-11,6.732651922583292e-11,4.727173353925912e-11,3.485296313612151e-11,2.5115654814129953e-11,1.6945167613192118e-11,1.2138090730030316e-11,7.868253993424179e-12,5.037242737383193e-12,3.07308536893111e-12,1.9745826316031843e-12,1.2504993605787696e-12,7.012277561692597e-13,3.8389587963429307e-13,1.9760379932843436e-13,1.1173413774251749e-13,5.871424978983772e-14,3.321015168964401e-14,1.7665377382155198e-14,1.0224878676040245e-14,5.38911052805782e-09,2.9710175703347353e-09,1.7428894141273244e-09,1.1396881938876348e-09,7.897622428635504e-10,5.33837091883634e-10,3.8477834328517297e-10,2.89863021792538e-10,1.949817958140182e-10,1.5083360883590067e-10,9.975189070716403e-11,7.21734502690014e-11,4.641067015872856e-11,3.155041824843586e-11,2.0245820452984643e-11,1.2296424112568999e-11,7.516829817370634e-12,4.803913722997084e-12,2.7440766357850363e-12,1.5398906631839293e-12,8.981931920129456e-13
