Line_number,Fiducial,Easting,Northing,Height,Elevation,tx_pitch,tx_roll,tx_yaw,txrx_dx,txrx_dy,txrx_dz,rx_pitch,rx_roll,rx_yaw,S0Z_time_3.834e-04,S0Z_time_3.924e-04,S0Z_time_4.039e-04,S0Z_time_4.184e-04,S0Z_time_4.364e-04,S0Z_time_4.589e-04,S0Z_time_4.869e-04,S0Z_time_5.224e-04,S0Z_time_5.679e-04,S0Z_time_6.249e-04,S0Z_time_6.969e-04,S0Z_time_7.879e-04,S0Z_time_9.019e-04,S0Z_time_1.046e-03,S0Z_time_1.227e-03,S0Z_time_1.456e-03,S0Z_time_1.744e-03,S0Z_time_2.109e-03,S0Z_time_2.567e-03,S0Z_time_3.145e-03,S0Z_time_3.864e-03,S0Z_time_4.745e-03,S0Z_time_5.821e-03,S0Z_time_7.140e-03,S0Z_time_8.754e-03,S0Z_time_1.073e-02,S1Z_time_2.057e-05,S1Z_time_2.607e-05,S1Z_time_3.307e-05,S1Z_time_4.206e-05,S1Z_time_5.356e-05,S1Z_time_6.807e-05,S1Z_time_8.607e-05,S1Z_time_1.086e-04,S1Z_time_1.366e-04,S1Z_time_1.721e-04,S1Z_time_2.176e-04,S1Z_time_2.746e-04,S1Z_time_3.466e-04,S1Z_time_4.376e-04,S1Z_time_5.516e-04,S1Z_time_6.956e-04,S1Z_time_8.771e-04,S1Z_time_1.106e-03,S1Z_time_1.394e-03
0.0,0,0.0,0.0,30.0,0.0,0.0,0.0,0.0,-13.0,0.0,2.0,0.0,0.0,0.0,1.3946775553622045e-11,1.3336843644364284e-11,1.2660114773205688e-11,1.1920151596338677e-11,1.1118971178929821e-11,1.0285399355484402e-11,9.428037223738602e-12,8.529980437978339e-12,7.60722607019048e-12,6.6998529905669996e-12,5.814536524405195e-12,4.965496284827402e-12,4.177765903809536e-12,3.4539711464573607e-12,2.8012781446923654e-12,2.225607642296348e-12,1.7316888964727133e-12,1.3163294087329215e-12,9.757012520872597e-13,7.047360555469295e-13,4.969238549844372e-13,3.43656512651564e-13,2.3278879590556646e-13,1.5444869483330508e-13,1.0038578369449615e-13,6.384684502758827e-14,1.4286755292865908e-10,7.073372735227274e-11,4.802622456544149e-11,3.643474729132859e-11,2.8425121915196268e-11,2.2445445085265705e-11,1.787395404793839e-11,1.4226576045114736e-11,1.1292744717137034e-11,8.889527603560628e-12,6.896939345749571e-12,5.302376207737647e-12,4.0189382334872136e-12,2.9981215925408494e-12,2.203431393925628e-12,1.5876267754534526e-12,1.1205039879445815e-12,7.7529539992826e-13,5.260565867226738e-13
0.0,1,1.0,0.0,30.0,0.0,0.0,0.0,0.0,-13.0,0.0,2.0,0.0,0.0,0.0,1.2480671358697714e-11,1.1930506845411315e-11,1.132093743470826e-11,1.0656666249786295e-11,9.939165063696955e-12,9.193920738043829e-12,8.42870802523943e-12,7.628192216060798e-12,6.806469246373344e-12,5.99870727563175e-12,5.210867834738349e-12,4.455149554781499e-12,3.753628014707313e-12,3.108461590943883e-12,2.5259365631968262e-12,2.0112807162986096e-12,1.5688147266258976e-12,1.1958001468774508e-12,8.890338899753695e-13,6.442252131335321e-13,4.558178729562915e-13,3.1634413142276226e-13,2.1506264725423728e-13,1.4321270057530295e-13,9.342960544682826e-14,5.964564630088516e-14,1.8627886526747597e-10,8.08148288001445e-11,4.765797770250186e-11,3.4056918787887195e-11,2.6001441061230477e-11,2.03224079556038e-11,1.608462732727159e-11,1.2745750691846111e-11,1.0092572325727047e-11,7.928513993137183e-12,6.1438641260661296e-12,4.7208086650987975e-12,3.5772929443878692e-12,2.669673068278645e-12,1.963315800469361e-12,1.4162575840216206e-12,1.001036741429622e-12,6.93975840624792e-13,4.720113932767963e-13
0.0,2,2.0,0.0,30.0,0.0,0.0,0.0,0.0,-13.0,0.0,2.0,0.0,0.0,0.0,1.12206445656152e-11,1.0720055471437068e-11,1.0166865835515099e-11,9.566400084858692e-12,8.919881380126773e-12,8.249788760368286e-12,7.56313488627014e-12,6.846010705534392e-12,6.110790426543192e-12,5.388507473729122e-12,4.6844642330385756e-12,4.009152598867711e-12,3.3820648809089573e-12,2.8049622203792514e-12,2.2833485978944368e-12,1.82182606865338e-12,1.4243242406408538e-12,1.088460252671551e-12,8.115280203931502e-13,5.898726311498657e-13,4.187258762624508e-13,2.915847242327385e-13,1.9891779373008394e-13,1.3293136608056508e-13,8.703446843986454e-14,5.576572289469352e-14,2.4156663658341e-10,1.0001723810958515e-10,5.111976154435214e-11,3.29734849536526e-11,2.4150090323560087e-11,1.8580488717614355e-11,1.458167032520444e-11,1.1490951260917014e-11,9.071127903640297e-12,7.106893191397792e-12,5.4990305452834846e-12,4.221410065323207e-12,3.1972490425910363e-12,2.3864294271356705e-12,1.755701521358744e-12,1.2677081274241287e-12,8.971526991246699e-13,6.230375615081397e-13,4.246839341548938e-13
0.0,3,3.0,0.0,30.0,0.0,0.0,0.0,0.0,-13.0,0.0,2.0,0.0,0.0,0.0,1.0134582487202856e-11,9.67470434914481e-12,9.1686470751761e-12,8.622004457374055e-12,8.035760594830392e-12,7.429885956912591e-12,6.810459163419857e-12,6.1649758661712754e-12,5.504132927974353e-12,4.855532120144071e-12,4.223827688682976e-12,3.618091211608049e-12,3.05552593245423e-12,2.5375667155708565e-12,2.0690174833342536e-12,1.6539209101925934e-12,1.2958340174106706e-12,9.926566291725135e-13,7.420771569271761e-13,5.409643968386254e-13,3.8520259765609937e-13,2.6910804346602803e-13,1.8419492059935912e-13,1.235133137501079e-13,8.114951631500809e-14,5.217958399957073e-14,3.0220888082101885e-10,1.2718897994596193e-10,5.921985803220383e-11,3.3717051874113275e-11,2.2972699243609566e-11,1.718574911868641e-11,1.332303346324899e-11,1.0427104049378232e-11,8.198116978431264e-12,6.401402554772552e-12,4.944587999532637e-12,3.790610730456934e-12,2.868855319091975e-12,2.1411488946830973e-12,1.575486437121342e-12,1.138464029302434e-12,8.06502834640191e-13,5.609566602959754e-13,3.8310949906334305e-13
0.0,4,4.0,0.0,30.0,0.0,0.0,0.0,0.0,-13.0,0.0,2.0,0.0,0.0,0.0,9.19722539552749e-12,8.769722344318357e-12,8.302574519320905e-12,7.801232266200462e-12,7.266132874552197e-12,6.715263815420121e-12,6.153543517092601e-12,5.569865343852416e-12,4.973234574153897e-12,4.3884127715624905e-12,3.819399104789743e-12,3.2741080229272115e-12,2.7676846466385234e-12,2.3013049586596108e-12,1.8791409109520564e-12,1.5047408515819213e-12,1.1813066746356759e-12,9.069677506887336e-13,6.797238081486864e-13,4.968786522399132e-13,3.5485756233148964e-13,2.4867549438619103e-13,1.7075242820701156e-13,1.1487679739840455e-13,7.572895488443399e-14,4.886232000563832e-14,3.6232184608493164e-10,1.5969955537255875e-10,7.188040323934949e-11,3.6740337988498876e-11,2.2674909164305823e-11,1.6155176619388025e-11,1.2281518016563388e-11,9.526196405561222e-12,7.44986887910657e-12,5.793618363542464e-12,4.465920168203894e-12,3.417405534071123e-12,2.5840155647740556e-12,1.927894076568153e-12,1.4184751522350683e-12,1.0256181793690313e-12,7.271364264081619e-13,5.064602084708787e-13,3.4648038040929356e-13
0.0,5,5.0,0.0,30.0,0.0,0.0,0.0,0.0,-13.0,0.0,2.0,0.0,0.0,0.0,8.389790959355027e-12,7.98571693002153e-12,7.549518022566783e-12,7.08588904774742e-12,6.59406118860347e-12,6.090330629492915e-12,5.578252942462753e-12,5.048061798340389e-12,4.507082560299124e-12,3.977682049482912e-12,3.463197566550718e-12,2.9706171967524357e-12,2.5132182977431147e-12,2.0919784039465926e-12,1.71049255256269e-12,1.3718775233344343e-12,1.0789956031961686e-12,8.30168021868274e-13,6.236374933218025e-13,4.570726192193593e-13,3.273477385089825e-13,2.3007610334447725e-13,1.5846429542306426e-13,1.0694860326015675e-13,7.073150897310477e-14,4.5791352073478855e-14,4.178689344851529e-10,1.9458237971179835e-10,8.825520664181516e-11,4.219501087452093e-11,2.3473487386721626e-11,1.555711793926651e-11,1.145104463847602e-11,8.766822211732869e-12,6.807719354199078e-12,5.2688824472336094e-12,4.05107663881416e-12,3.0928284936054575e-12,2.336076992019271e-12,1.7417784381944716e-12,1.2812039957603146e-12,9.267537561180778e-13,6.574264068033789e-13,4.584806349700939e-13,3.141168943002826e-13
0.0,6,6.0,0.0,30.0,0.0,0.0,0.0,0.0,-13.0,0.0,2.0,0.0,0.0,0.0,7.699413620380264e-12,7.308255991837732e-12,6.894424687077547e-12,6.461172726678714e-12,6.005603515176523e-12,5.5421934806774775e-12,5.072879515262252e-12,4.589069469998401e-12,4.096488667089923e-12,3.6154159634081902e-12,3.1485308237160632e-12,2.70207659551117e-12,2.287632020982904e-12,1.9060271865987077e-12,1.560325440958913e-12,1.2532709233166744e-12,9.873993285837968e-13,7.611980987649842e-13,5.730962595784452e-13,4.2107159198896954e-13,3.0237124736993927e-13,2.1312303679893415e-13,1.472182183564052e-13,9.966308487415336e-14,6.61199398359016e-14,4.2946192537195413e-14,4.667184199028367e-10,2.2929503165220237e-10,1.0710540529649016e-10,4.9894297082208486e-11,2.550267575496979e-11,1.5483726269643186e-11,1.0848748119662714e-11,8.136527432568034e-12,6.257071256922574e-12,4.815272115171035e-12,3.6903510379329435e-12,2.8095695927642787e-12,2.119518769835417e-12,1.5787622291948384e-12,1.16080131589434e-12,8.398534267402889e-13,5.960101843924606e-13,4.161187781512049e-13,2.854436351895812e-13
0.0,7,7.0,0.0,30.0,0.0,0.0,0.0,0.0,-13.0,0.0,2.0,0.0,0.0,0.0,7.117924891531739e-12,6.727267506997021e-12,6.3259521338595205e-12,5.915295294140241e-12,5.489322880300353e-12,5.060152482615029e-12,4.627675055106764e-12,4.184128063795139e-12,3.733757120262498e-12,3.294953630478448e-12,2.869762214581115e-12,2.463803650228824e-12,2.0871168107270574e-12,1.7404226371391466e-12,1.4262931079288424e-12,1.1471536517218305e-12,9.052236281791072e-13,6.991400943376797e-13,5.274711196386405e-13,3.8845958210665534e-13,2.7966196826692205e-13,1.9765059109244122e-13,1.369139872984644e-13,9.296131459374164e-14,6.186061760119025e-14,4.0308215881069645e-14,5.082139624164467e-10,2.6201919851048144e-10,1.2714875111427568e-10,5.940435866498191e-11,2.876995669257328e-11,1.601448628700038e-11,1.0508022702287399e-11,7.633531341797186e-12,5.787561244757864e-12,4.422952810895887e-12,3.375847076021125e-12,2.561662510529075e-12,1.929737365915252e-12,1.4354905799021012e-12,1.0548725108298401e-12,7.632275317972216e-13,5.417426641841064e-13,3.7861433341913006e-13,2.599719193274598e-13
0.0,8,8.0,0.0,30.0,0.0,0.0,0.0,0.0,-13.0,0.0,2.0,0.0,0.0,0.0,6.640190177733371e-12,6.236057572294946e-12,5.835954889767854e-12,5.439178070843471e-12,5.03597644021317e-12,4.635345616551396e-12,4.234488195722293e-12,3.825896635007984e-12,3.4124188615897898e-12,3.010676693551235e-12,2.6221243383032645e-12,2.251826215128831e-12,1.9084335404945257e-12,1.5925797254522363e-12,1.3063850899489244e-12,1.0520048825767458e-12,8.313499684582111e-13,6.431967864242967e-13,4.86212915784852e-13,3.588713550256708e-13,2.589849049445069e-13,1.8351158495972127e-13,1.2746206955157464e-13,8.679033665811915e-14,5.792314298037266e-14,3.78604585463596e-14,5.426629575666722e-10,2.916649293079834e-10,1.4727625030420932e-10,7.017309823373076e-11,3.316264099785222e-11,1.718975453920758e-11,1.0466000982444049e-11,7.2655519394501496e-12,5.39356833302672e-12,4.08404294146502e-12,3.1010918102377732e-12,2.344203336681792e-12,1.76289401088711e-12,1.3091684273921286e-12,9.614071497100183e-13,6.954559899216727e-13,4.936583558969137e-13,3.4532233738140113e-13,2.372859175033397e-13
0.0,9,9.0,0.0,30.0,0.0,0.0,0.0,0.0,-13.0,0.0,2.0,0.0,0.0,0.0,6.262465846539179e-12,5.830127225560805e-12,5.4187710161661914e-12,5.026074722373158e-12,4.638270455261037e-12,4.260504883796796e-12,3.8864996669563215e-12,3.5081996898418e-12,3.1270150111428116e-12,2.7578319971905494e-12,2.401570409531752e-12,2.062762250592212e-12,1.7488177681304913e-12,1.4602851194971875e-12,1.1988738901294518e-12,9.665123078686864e-13,7.648091601694365e-13,5.926741283358869e-13,4.4884119509074175e-13,3.319856377649412e-13,2.401322006335653e-13,1.7057509768154486e-13,1.1878237029463373e-13,8.110250900265625e-14,5.428001184592679e-14,3.558745556227893e-14,5.709061990880689e-10,3.1774178843232125e-10,1.6664380140659665e-10,8.16388786668789e-11,3.8483150492172233e-11,1.9001104530060946e-11,1.0751453390892666e-11,7.045988251198098e-12,5.074161769290099e-12,3.792772818898324e-12,2.8607892058927845e-12,2.1531104696046023e-12,1.6157898041886992e-12,1.1974627957543156e-12,8.787070160557355e-13,6.353409658223645e-13,4.509402797057987e-13,3.1569419629751205e-13,2.1703092182909535e-13
0.0,10,10.0,0.0,30.0,0.0,0.0,0.0,0.0,-13.0,0.0,2.0,0.0,0.0,0.0,5.9811232571384884e-12,5.506054849716103e-12,5.070416970117134e-12,4.6710943709956875e-12,4.290598817728506e-12,3.929766656518525e-12,3.5780336122840052e-12,3.225831416109057e-12,2.8729210742023665e-12,2.5323858697868e-12,2.204654526318293e-12,1.8937228684880325e-12,1.6059017623373747e-12,1.3416377506582322e-12,1.1022710387335071e-12,8.895405557942129e-13,7.047593389400154e-13,5.469665069756629e-13,4.149347586132576e-13,3.0751931160252155e-13,2.2291970602820933e-13,1.5872450472699227e-13,1.1080314775890945e-13,7.585492282802512e-14,5.0906316754187005e-14,3.3475105772018034e-14,5.940071265975125e-10,3.4019558337944596e-10,1.846819995909788e-10,9.33003983693675e-11,4.4491009228151316e-11,2.139562373554862e-11,1.1377002980874396e-11,6.989101871287297e-12,4.832162438634072e-12,3.5456073600980892e-12,2.650720924577826e-12,1.9849506184302972e-12,1.4857537164759267e-12,1.0984226059481311e-12,8.053317616412205e-13,5.818685556967629e-13,4.128943064996515e-13,2.892620220672339e-13,1.9890336637324031e-13
0.0,11,11.0,0.0,30.0,0.0,0.0,0.0,0.0,-13.0,0.0,2.0,0.0,0.0,0.0,5.7918649258358256e-12,5.260629343088279e-12,4.787834511123021e-12,4.3706772321007495e-12,3.988739672253039e-12,3.638490918915915e-12,3.3044144790048545e-12,2.974408961942401e-12,2.646207260157539e-12,2.3309035062485564e-12,2.0284336697934907e-12,1.7422336357339056e-12,1.4776508520670474e-12,1.2349996553395735e-12,1.0152904724551793e-12,8.201048432834033e-13,6.504675167714687e-13,5.055442965422931e-13,3.8412361423725564e-13,2.8522243469012604e-13,2.0718401762441444e-13,1.47855769698417e-13,1.0346006245641794e-13,7.10088903476813e-14,4.7779480714404747e-14,3.1510551691151254e-14,6.130504630113815e-10,3.5925701134823293e-10,2.0106372762541072e-10,1.0475095998668713e-10,5.0938540758098887e-11,2.4287853558011972e-11,1.2336534311256974e-11,7.105806258723302e-12,4.672556867464394e-12,3.3411172688127575e-12,2.467724764281296e-12,1.836838170247438e-12,1.3705451079289459e-12,1.0104100264918529e-12,7.40057262885128e-13,5.341779746571123e-13,3.789281285236962e-13,2.6562549163699966e-13,1.826425587156815e-13
0.0,12,12.0,0.0,30.0,0.0,0.0,0.0,0.0,-13.0,0.0,2.0,0.0,0.0,0.0,5.689389701943154e-12,5.09029765130629e-12,4.568290771564375e-12,4.12209640664827e-12,3.729527041020192e-12,3.383068824123825e-12,3.061842891116886e-12,2.7502610708664503e-12,2.4435300225527702e-12,2.15045008365302e-12,1.8703865107043953e-12,1.6061698143593238e-12,1.3623114346137313e-12,1.13895535186136e-12,9.368179230873032e-13,7.57348881931413e-13,6.01294066269088e-13,4.679433300702491e-13,3.560821138241804e-13,2.648739665883454e-13,1.9277991629804662e-13,1.378759570601192e-13,9.66953430135175e-14,6.652949226415353e-14,4.487901966345079e-14,2.9682064640776365e-14,6.290263982173453e-10,3.753189512765862e-10,2.1565555959839611e-10,1.1568765435392222e-10,5.7595668194962483e-11,2.7573747546455432e-11,1.3606716800406648e-11,7.400952851867471e-12,4.6007357294307336e-12,3.179564242935701e-12,2.3096658219934245e-12,1.7063912598769474e-12,1.2682768737589281e-12,9.320417035195431e-13,6.818421222004208e-13,4.915366762098988e-13,3.4853422324158097e-13,2.444408152305434e-13,1.6802399841678185e-13
0.0,13,13.0,0.0,30.0,0.0,0.0,0.0,0.0,-13.0,0.0,2.0,0.0,0.0,0.0,5.667385588693916e-12,4.990899595573319e-12,4.408969984911655e-12,3.923042180546903e-12,3.5105307379387305e-12,3.160719367897058e-12,2.8472744787422285e-12,2.550337975659953e-12,2.26204844873764e-12,1.988511172441345e-12,1.7283460060780376e-12,1.4837023293188644e-12,1.2583682304141007e-12,1.0522782627652784e-12,8.658853180865842e-13,7.005262823008265e-13,5.566796121255065e-13,4.3375597028371004e-13,3.3052309215919866e-13,2.4627808903885133e-13,1.7957814732876074e-13,1.2870193503136025e-13,9.045705346938614e-14,6.238517753109943e-14,4.2186330791360155e-14,2.797893351452707e-14,6.427758056820326e-10,3.8884518658613993e-10,2.2846727514604478e-10,1.2590566311724132e-10,6.426419641904529e-11,3.114315158524061e-11,1.5150909477470885e-11,7.872267347514281e-12,4.620973851596484e-12,3.0622942752463265e-12,2.1753456842639644e-12,1.5917153539185997e-12,1.1773614845102251e-12,8.621404929841339e-13,6.297993281493546e-13,4.5331993759870177e-13,3.2127615389591887e-13,2.254115776105699e-13,1.5485402310187287e-13
0.0,14,14.0,0.0,30.0,0.0,0.0,0.0,0.0,-13.0,0.0,2.0,0.0,0.0,0.0,5.718718553638599e-12,4.957619143395194e-12,4.306746275255362e-12,3.771315351540877e-12,3.3297746876930907e-12,2.9692873599033184e-12,2.6582964044265618e-12,2.372131619514571e-12,2.0993584253208168e-12,1.8429297024658068e-12,1.600443864054607e-12,1.3732523291450693e-12,1.164508773335005e-12,9.739028684700446e-13,8.016493789902357e-13,6.489848722155942e-13,5.161339096156578e-13,4.0262351319902483e-13,3.0719285287607155e-13,2.292610349089175e-13,1.6746349286300987e-13,1.2025924239971164e-13,8.469844887426976e-14,5.854740889891791e-14,3.9684504127229574e-14,2.639136072907943e-14,6.549755334003541e-10,4.003075617258814e-10,2.3960631077012155e-10,1.352851196814523e-10,7.07839618824921e-11,3.488929590679742e-11,1.6923892602056758e-11,8.5106287306611e-12,4.7353867409802035e-12,2.9910778877009166e-12,2.064337379673935e-12,1.491386775751449e-12,1.0964764192835848e-12,7.996983312164123e-13,5.831717306828667e-13,4.1899376499440834e-13,2.967775292223052e-13,2.082812459319691e-13,1.4296545756990745e-13
0.0,15,15.0,0.0,30.0,0.0,0.0,0.0,0.0,-13.0,0.0,2.0,0.0,0.0,0.0,5.835709970686812e-12,4.985073564466235e-12,4.258100514341501e-12,3.664630072976146e-12,3.1855117894633617e-12,2.807057061983884e-12,2.493003710444275e-12,2.213599824947935e-12,1.9534381255739296e-12,1.7118562279263465e-12,1.4850653315413465e-12,1.2734529801607743e-12,1.0795936045955282e-12,9.029014648336303e-13,7.433737166985255e-13,6.021534613718077e-13,4.792263791229849e-13,3.742297044997208e-13,2.8586686933003403e-13,2.136683510530977e-13,1.563330958150847e-13,1.1248109688891246e-13,7.937740776317898e-14,5.499034860598105e-14,3.7358154864958596e-14,2.491036997451393e-14,6.661474534257951e-10,4.1014652432397817e-10,2.49239853273105e-10,1.4377520949277955e-10,7.70335018775479e-11,3.8715097142215815e-11,1.8876371242112634e-11,9.301212540070157e-12,4.943416822810968e-12,2.967518330377761e-12,1.976765729747236e-12,1.4044187304647124e-12,1.024541863409588e-12,7.438496604623216e-13,5.413110349677126e-13,3.8810037267831187e-13,2.7471299815614415e-13,1.928271053827267e-13,1.3221395949852134e-13
0.0,16,16.0,0.0,30.0,0.0,0.0,0.0,0.0,-13.0,0.0,2.0,0.0,0.0,0.0,6.01042944137174e-12,5.0674738146323006e-12,4.259136801507785e-12,3.600510445088263e-12,3.0760607260036025e-12,2.6725925463616536e-12,2.349880952543477e-12,2.0730921411054045e-12,1.8225999271446635e-12,1.5937090772849222e-12,1.3808127502829087e-12,1.183117558344212e-12,1.0026310819621667e-12,8.384646070914838e-13,6.904138117350677e-13,5.595306623867832e-13,4.455780347043602e-13,3.4829518918927723e-13,2.663460885495472e-13,1.9936253192445678e-13,1.460950005600083e-13,1.0530752606970438e-13,7.445593162977314e-14,5.1690579345810653e-14,3.5193273981586494e-14,2.352772848336121e-14,6.766795039706374e-10,4.187496109390465e-10,2.575651645792292e-10,1.5137818198378046e-10,8.29274272359742e-11,4.253672429170383e-11,2.0958698023311723e-11,1.022504192588723e-11,5.241779214790541e-12,2.992602701869123e-12,1.9130669980766564e-12,1.3302042497392028e-12,9.607030484575405e-13,6.938535034296945e-13,5.036603751641474e-13,3.6024582678245246e-13,2.548007741895433e-13,1.78855356317965e-13,1.224748308342053e-13
0.0,17,17.0,0.0,30.0,0.0,0.0,0.0,0.0,-13.0,0.0,2.0,0.0,0.0,0.0,6.2349604825789775e-12,5.198808093199894e-12,4.3056581699220305e-12,3.5762582438836732e-12,2.9997005778849226e-12,2.564610553751026e-12,2.2276948294735423e-12,1.949277883895154e-12,1.7054457320663925e-12,1.4871412918378464e-12,1.286476239269412e-12,1.1012130582707243e-12,9.327560502561658e-13,7.79884532365218e-13,6.422043553855743e-13,5.20675434288259e-13,4.148545946480877e-13,3.2457274853982005e-13,2.4845374456689887e-13,1.8622097001132946e-13,1.366668808170097e-13,9.86846046274018e-14,6.989970288790504e-14,4.862685629811017e-14,3.3177094864772526e-14,2.223588363636316e-14,6.868508974919554e-10,4.264428127205535e-10,2.647876721064371e-10,1.5813468018264294e-10,8.841205537737996e-11,4.628509442999832e-11,2.3123634465360782e-11,1.1260601455607414e-11,5.624739424232687e-12,3.0664230362001413e-12,1.8737612587478112e-12,1.2684396710070427e-12,9.043113979227293e-13,6.490815145434521e-13,4.697404216132743e-13,3.350896470208177e-13,2.3679632605830844e-13,1.6619711153507275e-13,1.1364015900755648e-13
0.0,18,18.0,0.0,30.0,0.0,0.0,0.0,0.0,-13.0,0.0,2.0,0.0,0.0,0.0,6.501619236861682e-12,5.37301838404704e-12,4.393270143937088e-12,3.588968927651589e-12,2.954613686894676e-12,2.48188668989505e-12,2.1254020302606362e-12,1.841078239547302e-12,1.6008243169721846e-12,1.3910119098125064e-12,1.2010098699350308e-12,1.0268385527430447e-12,8.692118288639377e-13,7.265410351870466e-13,5.982485178309148e-13,4.851990606648668e-13,3.867605973579097e-13,3.0284320492276133e-13,2.320326034585684e-13,1.741341771214013e-13,1.2797492923068093e-13,9.256378414168214e-14,6.56776939885988e-14,4.5779886563822924e-14,3.129797391946427e-14,2.1027911331155386e-14,6.968567814006905e-10,4.3349050415874723e-10,2.711058482943772e-10,1.6411105106332115e-10,9.346032078597995e-11,4.9905938020088255e-11,2.5328193836283847e-11,1.2385297391607551e-11,6.084587499761884e-12,3.1880582212340194e-12,1.8592620451447865e-12,1.2190372587212203e-12,8.549013496385058e-13,6.090092759156423e-13,4.3913868730314806e-13,3.123362324743436e-13,2.2048699819398183e-13,1.5470506810297132e-13,1.0561623448454839e-13
0.0,19,19.0,0.0,30.0,0.0,0.0,0.0,0.0,-13.0,0.0,2.0,0.0,0.0,0.0,6.803120868158686e-12,5.584153796745088e-12,4.5174905348083126e-12,3.635576384358939e-12,2.93886527305455e-12,2.4231922194841726e-12,2.0420744470635486e-12,1.7476045482422181e-12,1.5077905308497567e-12,1.3043599287014196e-12,1.123511852488512e-12,9.59207515989207e-13,8.113350804026791e-13,6.778894096690735e-13,5.581087965074376e-13,4.527583173852748e-13,3.610343718034451e-13,2.8291189562297297e-13,2.1694257605562865e-13,1.630042374556853e-13,1.1995288662303803e-13,8.690130346690066e-14,6.176182136612756e-14,4.313213280503267e-14,2.9545283421226286e-14,1.9897472344138156e-14,7.068299000203709e-10,4.401005079523286e-10,2.767016890088859e-10,1.693888732555951e-10,9.806658963022126e-11,5.335895270527547e-11,2.7534713991699677e-11,1.3576657215735698e-11,6.612193577619327e-12,3.3555866391542505e-12,1.869736396190664e-12,1.1820367727294498e-12,8.121622718511661e-13,5.732085871464406e-13,4.1150144179916853e-13,2.9172796306346125e-13,2.0568741560231368e-13,1.4425068028773778e-13,9.832124364769198e-14
0.0,20,20.0,0.0,30.0,0.0,0.0,0.0,0.0,-13.0,0.0,2.0,0.0,0.0,0.0,7.132696407114609e-12,5.826494130637087e-12,4.673852230199668e-12,3.712911505683405e-12,2.9504086932415864e-12,2.3872566768428705e-12,1.976841964209449e-12,1.6681044556053376e-12,1.4255668358213047e-12,1.2263800001839048e-12,1.0532075153016285e-12,8.976333299296413e-13,7.585431701490033e-13,6.334501663332194e-13,5.213991749190048e-13,4.2304962544849954e-13,3.3744373231469177e-13,2.646056325295266e-13,2.0305864544708176e-13,1.5274345942534376e-13,1.1254119190224205e-13,8.16576694102243e-14,5.812663873741778e-14,4.066763827941541e-14,2.7909315175560907e-14,1.8838772916969596e-14,7.16858313679985e-10,4.4643175525194886e-10,2.817355655724909e-10,1.7405669070025585e-10,1.0224174758834424e-10,5.6616427917492295e-11,2.9711337879371356e-11,1.4813238262278913e-11,7.197561093744155e-12,3.566191536158489e-12,1.905018132310598e-12,1.1575244325092252e-12,7.759066985277878e-13,5.413392468347863e-13,3.86527512316635e-13,2.730397774684431e-13,1.922355807273346e-13,1.347217134242712e-13,9.168325664999948e-14
0.0,21,21.0,0.0,30.0,0.0,0.0,0.0,0.0,-13.0,0.0,2.0,0.0,0.0,0.0,7.484166580032257e-12,6.094642955619962e-12,4.857991995413241e-12,3.817764216667689e-12,2.9871068539426574e-12,2.372750757412987e-12,1.928851575029508e-12,1.6019168983702496e-12,1.3535079364485738e-12,1.156399476732317e-12,9.894341735091834e-13,8.415172484114644e-13,7.103236435325147e-13,5.92800288969051e-13,4.877783844591681e-13,3.958040222569724e-13,3.157822852413803e-13,2.4777007700217553e-13,1.902690652847662e-13,1.4327319832081564e-13,1.0568623627018501e-13,7.679719876257357e-14,5.474906499548426e-14,3.8371870791550507e-14,2.6381193792754906e-14,1.7846526628351148e-14,7.269991391395475e-10,4.5260279045027917e-10,2.8634430398802984e-10,1.782037940732843e-10,1.0600876701750862e-10,5.966160549611321e-11,3.1832067549122795e-11,1.607526186543624e-11,7.83032518643355e-12,3.8163222135164585e-12,1.9645697758740894e-12,1.145565129025819e-12,7.460370440849664e-13,5.131395960327158e-13,3.6396326417881805e-13,2.56074979914556e-13,1.799895923177798e-13,1.2602010291143974e-13,8.563852653332543e-14
0.0,22,22.0,0.0,30.0,0.0,0.0,0.0,0.0,-13.0,0.0,2.0,0.0,0.0,0.0,7.851980325711274e-12,6.383592656194673e-12,5.065722531112249e-12,3.946942393274084e-12,3.0467623616330186e-12,2.3782840864014207e-12,1.897240676185021e-12,1.5484361423976922e-12,1.2910691975553247e-12,1.0938568036481255e-12,9.316272901061525e-13,7.903381929766247e-13,6.662254632162065e-13,5.555658288414516e-13,4.569441083905303e-13,3.7078281790564345e-13,2.958662511726654e-13,2.322674693245373e-13,1.784737918649532e-13,1.3452282629732054e-13,9.933970771545574e-14,7.228761390396237e-14,5.1608142545721006e-14,3.623158337486729e-14,2.4952798583252254e-14,1.6915915805637773e-14,7.372887514057719e-10,4.5870001562845527e-10,2.9064149215609327e-10,1.8191580736947877e-10,1.0939885699300886e-10,6.248695314012403e-11,3.387652871062127e-11,1.7345012425499558e-11,8.500169534476092e-12,4.101880138126024e-12,2.0474842583658467e-12,1.146150906731463e-12,7.225131490815443e-13,4.884157318484422e-13,3.43598170197411e-13,2.4066200371568355e-13,1.6882491993836849e-13,1.1806007367214464e-13,8.013009970319249e-14
0.0,23,23.0,0.0,30.0,0.0,0.0,0.0,0.0,-13.0,0.0,2.0,0.0,0.0,0.0,8.231225496154825e-12,6.688765271500216e-12,5.29308762250959e-12,4.097323969810416e-12,3.127151023123393e-12,2.4024131049035657e-12,1.8811219788333802e-12,1.5070844662011375e-12,1.2377793402030461e-12,1.0382814492388364e-12,8.793075933548163e-13,7.436438777510623e-13,6.258516703902263e-13,5.214156513837996e-13,4.286279996201992e-13,3.4777383087078013e-13,2.7753172134094214e-13,2.1797466073062883e-13,1.6758311843457684e-13,1.2642882976904414e-13,9.345801382620372e-14,6.809968521786632e-14,4.868482245318056e-14,3.423468977540777e-14,2.3616693219244306e-14,1.6042551906847595e-14,7.477500777211119e-10,4.6478505942916304e-10,2.9471919591294267e-10,1.852717953785e-10,1.1244823349931782e-10,6.509246543735831e-11,3.5829551070538344e-11,1.8607048129830233e-11,9.197153392238745e-12,4.418406907496987e-12,2.152515933371101e-12,1.1591662892657021e-12,7.053226958545289e-13,4.670297340455902e-13,3.25260549236477e-13,2.2665186450504157e-13,1.5863216323567137e-13,1.1076649376573334e-13,7.510671863988782e-14
0.0,24,24.0,0.0,30.0,0.0,0.0,0.0,0.0,-13.0,0.0,2.0,0.0,0.0,0.0,8.617618413187345e-12,7.006033314246247e-12,5.536401633846084e-12,4.265900533866034e-12,3.226055049212633e-12,2.443655179509692e-12,1.879577433940819e-12,1.477292641280283e-12,1.1932176337981415e-12,9.892756278776362e-13,8.320690094048883e-13,7.010428906170588e-13,5.88853169978623e-13,4.900561627829871e-13,4.025914054271714e-13,3.2658811944835026e-13,2.606322803907456e-13,2.047814034821327e-13,1.575164845452237e-13,1.1893401729931065e-13,8.80017727229493e-14,6.420691443670534e-14,4.596177321740362e-14,3.2370153037932783e-14,2.2366062406191043e-14,1.5222435222958835e-14,7.583976352540213e-10,4.709009998957329e-10,2.9865045018114525e-10,1.883425974942364e-10,1.1519550286269495e-10,6.748406509922007e-11,3.768064151591768e-11,1.9848268352177823e-11,9.911952353624323e-12,4.761258698481107e-12,2.278130663954003e-12,1.184369226065723e-12,6.944559586834412e-13,4.488874765044791e-13,3.088132326999545e-13,2.139160662613319e-13,1.4931521993968086e-13,1.0407344417834882e-13,7.052198196299703e-14
0.0,25,25.0,0.0,30.0,0.0,0.0,0.0,0.0,-13.0,0.0,2.0,0.0,0.0,0.0,9.007477939859337e-12,7.331724561332193e-12,5.792275256186032e-12,4.449811994125989e-12,3.341293684694389e-12,2.500505936095763e-12,1.8916587662865466e-12,1.4584871043758793e-12,1.1569955389160618e-12,9.464980411020407e-13,7.895673965294924e-13,6.62197477113977e-13,5.549233839981333e-13,4.612268559229529e-13,3.786217062989757e-13,3.0705714182609495e-13,2.4503693963973574e-13,1.925888611091084e-13,1.4820143687906157e-13,1.1198682353747343e-13,8.29353634105714e-14,6.058525381905646e-14,4.342321038303545e-14,3.062788570021959e-14,2.1194654877038124e-14,1.445191481654642e-14,7.692408963461143e-10,4.770773947134615e-10,3.024920635041638e-10,1.9119010583400438e-10,1.176796216566523e-10,6.967214859395897e-11,3.942340489962246e-11,2.1057876734270518e-11,1.0636022783324656e-11,5.125758347162191e-12,2.4225661120969e-12,1.2213853314685197e-12,6.898857085507308e-13,4.339266549335514e-13,2.941490726123148e-13,2.0234476946112032e-13,1.4078978499859843e-13,9.792298869739226e-14,6.633371756783326e-14
0.0,26,26.0,0.0,30.0,0.0,0.0,0.0,0.0,-13.0,0.0,2.0,0.0,0.0,0.0,9.397688732739133e-12,7.662614382157328e-12,6.05762961313266e-12,4.646372672873886e-12,3.470749996123479e-12,2.5714576318443285e-12,1.9163925389779548e-12,1.4500826180507447e-12,1.1287425391956774e-12,9.096497818223423e-13,7.515101357900355e-13,6.26816872663034e-13,5.237935664378682e-13,4.346965294726036e-13,3.5652918558483246e-13,2.8903028963728586e-13,2.3062833512174653e-13,1.8130830679662395e-13,1.395727210328557e-13,1.0554069678756809e-13,7.822652810706698e-14,5.721285673946765e-14,4.1054744537105726e-14,2.8998660282946747e-14,2.0096732074559667e-14,1.3727649835817231e-14,7.802864618273329e-10,4.83334203421485e-10,3.0628742170763245e-10,1.938672335589917e-10,1.1993837679997417e-10,7.167030079282762e-11,4.105495061842958e-11,2.222727160844524e-11,1.1361702470409435e-11,5.5073211759830705e-12,2.5838952141309154e-12,1.2697125793553038e-12,6.915525040360218e-13,4.2210560332321814e-13,2.811863204007018e-13,1.9184508322145753e-13,1.3298210654141916e-13,9.226412638717112e-14,6.250352177759438e-14
0.0,27,27.0,0.0,30.0,0.0,0.0,0.0,0.0,-13.0,0.0,2.0,0.0,0.0,0.0,9.78565745332587e-12,7.995908675184233e-12,6.3297007772009935e-12,4.853089585212136e-12,3.612393249791976e-12,2.655017061144091e-12,1.95278804661073e-12,1.451479234931268e-12,1.108095747193771e-12,8.784624480558297e-13,7.176466558328195e-13,5.946511036315084e-13,4.952286217060374e-13,4.1026005088773457e-13,3.361443540614232e-13,2.72372748294826e-13,2.1730115306170438e-13,1.708599830381188e-13,1.3157148642108641e-13,9.955355948642646e-14,7.384602015396137e-14,5.406985586391276e-14,3.8843245545877375e-14,2.7474028923246316e-14,1.906702193337867e-14,1.3046573294579205e-14,7.915394147748268e-10,4.896847512367349e-10,3.100690948750876e-10,1.964183560106979e-10,1.2200731818028672e-10,7.349418932164641e-11,4.2575311301344635e-11,2.3349888383561768e-11,1.208226027889299e-11,5.901554130847398e-12,2.7600877541119315e-12,1.3287335570560707e-12,6.993551337573206e-13,4.133933446145897e-13,2.6986397778275144e-13,1.8233939412762038e-13,1.2582793207404395e-13,8.705190688054468e-14,5.899642000968234e-14
0.0,28,28.0,0.0,30.0,0.0,0.0,0.0,0.0,-13.0,0.0,2.0,0.0,0.0,0.0,1.01692649543696e-11,8.329220001194842e-12,6.606036579895076e-12,5.067673849534854e-12,3.764296773546724e-12,2.7497220291152907e-12,1.999846706975759e-12,1.4620624775884585e-12,1.0946927786428972e-12,8.52688417089083e-13,6.877599614349278e-13,5.654852287434909e-13,4.690233129339914e-13,3.8773555297636763e-13,3.1731566021332364e-13,2.5696364337837e-13,2.0496075209680632e-13,1.6117210009418692e-13,1.2414458883550255e-13,9.398733229526486e-14,6.976729198284717e-14,5.113816559593325e-14,3.67767211503071e-14,2.6046251141198825e-14,1.810067721858621e-14,1.2405859181351481e-14,8.030041299729568e-10,4.961379056205839e-10,3.1386114139531095e-10,1.9888004736576634e-10,1.2391907131877086e-10,7.516063913437367e-11,4.3986891507729945e-11,2.4421012515725457e-11,1.2791906464283108e-11,6.304329944972599e-12,2.9490666913832137e-12,1.3977326192439868e-12,7.131456535821898e-13,4.0776116719118065e-13,2.60137254704578e-13,1.7376368818826397e-13,1.1927158904841013e-13,8.224668691481919e-14,5.5780610474754707e-14
0.0,29,29.0,0.0,30.0,0.0,0.0,0.0,0.0,-13.0,0.0,2.0,0.0,0.0,0.0,1.0546816812607428e-11,8.660539065568403e-12,6.884487385701521e-12,5.288046220151816e-12,3.924651481568127e-12,2.854155831167847e-12,2.056571957314167e-12,1.4812057862965696e-12,1.0881673537106307e-12,8.32093151230204e-13,6.61659209366984e-13,5.391340224620462e-13,4.449987837165326e-13,3.6696197317608665e-13,2.99907523818158e-13,2.4269443673565077e-13,1.9352195674703905e-13,1.5217995452460284e-13,1.1724397732346197e-13,8.88075137261413e-14,6.596621833609394e-14,4.8401305918458634e-14,3.4844208272462105e-14,2.4708228851007102e-14,1.7193237924832894e-14,1.1802893447385674e-14,8.146847345220433e-10,5.026996319406428e-10,3.17681066557666e-10,2.0128197485340572e-10,1.257029579683934e-10,7.668688033614595e-11,4.52939583015821e-11,2.543757690550007e-11,1.3485773635620182e-11,6.7118392070989114e-12,3.1487573351404258e-12,1.4759156842461764e-12,7.327282761478191e-13,4.0517586746431423e-13,2.519732725316102e-13,1.6606585627335372e-13,1.1326515607614691e-13,7.781350592593702e-14,5.282726010283135e-14
0.0,30,30.0,0.0,30.0,0.0,0.0,0.0,0.0,-13.0,0.0,2.0,0.0,0.0,0.0,1.091699403745946e-11,8.98820331940083e-12,7.163192282712027e-12,5.512337703865077e-12,4.091775404556781e-12,2.9669594684199473e-12,2.1219789469016395e-12,1.508274444645974e-12,1.0881470904339326e-12,8.164493479368308e-13,6.391733414247851e-13,5.154371156195113e-13,4.229993461325444e-13,3.477968635375485e-13,2.837986375487964e-13,2.2946753943879006e-13,1.829080006115756e-13,1.438251521459735e-13,1.1082615394112324e-13,8.398280827612698e-14,6.242085054646741e-14,4.5844245132954184e-14,3.3035675590270656e-14,2.345344783546501e-14,1.6340597288476957e-14,1.1235249095697308e-14,8.265853533804011e-10,5.093740759176386e-10,3.2154143546491344e-10,2.0364784841863741e-10,1.2738485677904091e-10,7.808995690597618e-11,4.6502181126746623e-11,2.639795390942301e-11,1.4159876531807018e-11,7.120623671831774e-12,3.3571285538167764e-12,1.5624308811139707e-12,7.578612981432879e-13,4.055946679926449e-13,2.4534713328387236e-13,1.592039968411925e-13,1.0776769314660239e-13,7.37215591988805e-14,5.01103297974389e-14
0.0,31,31.0,0.0,30.0,0.0,0.0,0.0,0.0,-13.0,0.0,2.0,0.0,0.0,0.0,1.1278805329768581e-11,9.310864117224964e-12,7.440561937520546e-12,5.738886155364453e-12,4.264119649987428e-12,3.086841529977667e-12,2.1951035495352435e-12,1.5426303500144258e-12,1.094252991790507e-12,8.055327108478684e-13,6.201457504137399e-13,4.942546104217378e-13,4.0288950917015757e-13,3.301144165569778e-13,2.6888048867686106e-13,2.1719511176912866e-13,1.7304960080151966e-13,1.360549222786592e-13,1.0485169661153253e-13,7.948479695825761e-14,5.911119819477786e-14,4.3453259318903004e-14,3.1341936116397386e-14,2.227592499425697e-14,1.5538971014839804e-14,1.0700665302397791e-14,8.387102282142181e-10,5.161642962348375e-10,3.2545116566450657e-10,2.0599635449743275e-10,1.2898724300712598e-10,7.938628036117082e-11,4.761822503067987e-11,2.7301749418508842e-11,1.4811057103210858e-11,7.527594157495833e-12,3.57222598134884e-12,1.6563887171377673e-12,7.882612637159941e-13,4.0896171891903675e-13,2.4023844650895653e-13,1.531447435731933e-13,1.02744510169078e-13,6.994374884242331e-14,4.760641332077045e-14
0.0,32,32.0,0.0,30.0,0.0,0.0,0.0,0.0,-13.0,0.0,2.0,0.0,0.0,0.0,1.163154188282378e-11,9.627453581149662e-12,7.71525917507388e-12,5.966229663295571e-12,4.440271247717854e-12,3.212585805678206e-12,2.275010400205054e-12,1.5836371408122283e-12,1.106100182425897e-12,7.991191018943799e-13,6.044299250405191e-13,4.75463181272968e-13,3.845512357996152e-13,3.138036667861671e-13,2.550560603483766e-13,2.057980232666191e-13,1.6388414745960376e-13,1.2882151216010098e-13,9.928483677741618e-14,7.528764492039804e-14,5.601903490623058e-14,4.121580661115103e-14,2.975456867304468e-14,2.1170160756953917e-14,1.478486937088974e-14,1.0197030274362453e-14,8.510637658214599e-10,5.230727457708983e-10,3.2941653831554313e-10,2.0834202769946523e-10,1.305293545703455e-10,8.059131030987981e-11,4.8649398650613285e-11,2.8149604416163444e-11,1.5436919957349724e-11,7.930036123020319e-12,3.792197684487859e-12,1.7568808505739232e-12,8.236086321385982e-13,4.152060199710581e-13,2.366283715956487e-13,1.478616513649737e-13,9.816646234188089e-14,6.645629537871897e-14,4.529458009959885e-14
0.0,33,33.0,0.0,30.0,0.0,0.0,0.0,0.0,-13.0,0.0,2.0,0.0,0.0,0.0,1.197473539991413e-11,9.937152071350038e-12,7.98617817569343e-12,6.193097451442356e-12,4.6189533354583e-12,3.3430567754127218e-12,2.360799796174425e-12,1.6306653191152021e-12,1.1232995145874084e-12,7.969828345381625e-13,5.918859964739414e-13,4.589526631798539e-13,3.6788142512191004e-13,2.98766840246385e-13,2.422386790134624e-13,1.9520494870374583e-13,1.5535499407541458e-13,1.2208165200607973e-13,9.409308479652493e-14,7.136784154774128e-14,5.312772543030018e-14,3.912041462654574e-14,2.826584728867801e-14,2.0131096119998406e-14,1.4075071838954081e-14,9.722367395538501e-15,8.636505505188134e-10,5.301015771640159e-10,3.33441971695448e-10,2.1069603375659823e-10,1.3202744062013302e-10,8.171934301555054e-11,4.9603356303699285e-11,2.894300788792796e-11,1.6035762066771033e-11,8.325605635909772e-12,4.0153130435988595e-12,1.862996901420773e-12,8.635543203026138e-13,4.242405585388174e-13,2.3449720016863414e-13,1.4333367393940896e-13,9.400926796802739e-14,6.323839564630477e-14,4.315621685410036e-14
0.0,34,34.0,0.0,30.0,0.0,0.0,0.0,0.0,-13.0,0.0,2.0,0.0,0.0,0.0,1.2308119741056228e-11,1.0239356946307285e-11,8.25242303006465e-12,6.418398933366523e-12,4.799023119565616e-12,3.4772031682856816e-12,2.4516134014360597e-12,1.6830971134647027e-12,1.1454597283460685e-12,7.988958801284512e-13,5.823780935532733e-13,4.4462311844990223e-13,3.527896196473685e-13,2.84917833060088e-13,2.303509811664668e-13,1.8535157865806408e-13,1.4741083583976094e-13,1.1579608247624543e-13,8.924689709451167e-14,6.770396906079233e-14,5.04220714866609e-14,3.715657957289768e-14,2.686867766032633e-14,1.915407382794833e-14,1.3406604068525104e-14,9.274824132460032e-15,8.764753405039687e-10,5.372528290740633e-10,3.375306004179334e-10,2.1306685160722865e-10,1.334950575153552e-10,8.278338930319564e-11,5.048785191233161e-11,2.968412376658842e-11,1.660649972687403e-11,8.712318027404786e-12,4.239975730685494e-12,1.9738390080448866e-12,9.077266066783592e-13,4.3596244175964067e-13,2.33822474002949e-13,1.3954376209587457e-13,9.025284939008044e-14,6.027191568981534e-14,4.117486624054483e-14
0.0,35,35.0,0.0,30.0,0.0,0.0,0.0,0.0,-13.0,0.0,2.0,0.0,0.0,0.0,1.26315964002105e-11,1.0533653109651096e-11,8.513286256912068e-12,6.641211476541899e-12,4.979468017551812e-12,3.614059807790094e-12,2.546638762597902e-12,1.74033091244307e-12,1.172189913924621e-12,8.046277794253799e-13,5.757724049562595e-13,4.3238236183445305e-13,3.391959381545874e-13,2.7218080759017655e-13,2.1932397840615406e-13,1.761799261384637e-13,1.400051646101275e-13,1.099291373203819e-13,8.47193799859135e-14,6.427649615912649e-14,4.788817415877411e-14,3.5314675746031066e-14,2.5556539925621396e-14,1.8234803271162604e-14,1.277671689907376e-14,8.852663149222407e-15,8.895430591081999e-10,5.445285338888612e-10,3.41684700137487e-10,2.1546085269029776e-10,1.3494338513942598e-10,8.379512412676518e-11,5.13105412892707e-11,3.037563365380051e-11,1.7148595049758232e-11,9.088531131517227e-12,4.464731692220713e-12,2.0885340426096385e-12,9.5573799947871e-13,4.502538015941131e-13,2.345776104316979e-13,1.3647760499374267e-13,8.68807009008325e-14,5.754111011474945e-14,3.9336062848205796e-14
0.0,36,36.0,0.0,30.0,0.0,0.0,0.0,0.0,-13.0,0.0,2.0,0.0,0.0,0.0,1.2945203847790929e-11,1.0819785681485016e-11,8.768227766050897e-12,6.8607673544504285e-12,5.159400354554466e-12,3.752747965999585e-12,2.645112690475928e-12,1.8017851668008953e-12,1.2031020809087631e-12,8.139460760798396e-13,5.719358441536549e-13,4.221439152967964e-13,3.270292329082746e-13,2.604888990643936e-13,2.090962048383707e-13,1.6763771340834927e-13,1.33095790257718e-13,1.0444837481172258e-13,8.048602581680493e-14,6.106759372814959e-14,4.55133108833881e-14,3.358587427138473e-14,2.4323437076739367e-14,1.7369328718662938e-14,1.2182867257910539e-14,8.454255107641354e-15,9.028587863378046e-10,5.519307755020394e-10,3.4590599235425153e-10,2.1788278223481896e-10,1.3638154361127793e-10,8.47648916543354e-11,5.207882846249464e-11,3.1020596295709e-11,1.7661983741358208e-11,9.45292464900073e-12,4.688273000568713e-12,2.2062435420631585e-12,1.0071917789819298e-12,4.669832661156003e-13,2.367309900798143e-13,1.341225292555904e-13,8.38792891100219e-14,5.5032361866533656e-14,3.762716812864724e-14
0.0,37,37.0,0.0,30.0,0.0,0.0,0.0,0.0,-13.0,0.0,2.0,0.0,0.0,0.0,1.3249090646328266e-11,1.1097634998714186e-11,9.016854640699136e-12,7.076440292561474e-12,5.338050949704281e-12,3.892474446203971e-12,2.74632359077592e-12,1.866901708855172e-12,1.2378136887520066e-12,8.266171155490302e-13,5.707352154493302e-13,4.1382535678030715e-13,3.162254672263341e-13,2.4978302856133177e-13,1.9961293498461593e-13,1.59677825684436e-13,1.2664441927872142e-13,9.932425226366615e-14,7.65244776953877e-14,5.806097002971382e-14,4.3285825321699495e-14,3.196207007730489e-14,2.3163848424105198e-14,1.6554000545354042e-14,1.1622700762432454e-14,8.07807268539745e-15,9.16427752928852e-10,5.594617167016592e-10,3.501958582732642e-10,2.2033615134164505e-10,1.3781689645860918e-10,8.570175160143996e-11,5.2799751197345067e-11,3.162232416380585e-11,1.814700549151151e-11,9.804476875646695e-12,4.909438356402507e-12,2.3261715047027803e-12,1.0616880172840346e-12,4.860078128099762e-13,2.4024545071687045e-13,1.3246656307090942e-13,8.12374916471088e-14,5.2733938460247785e-14,3.603720639913992e-14
0.0,38,38.0,0.0,30.0,0.0,0.0,0.0,0.0,-13.0,0.0,2.0,0.0,0.0,0.0,1.354349215458486e-11,1.1367194039320017e-11,9.258902016877801e-12,7.287731946745843e-12,5.5147618915474974e-12,4.03252960336483e-12,2.8496128438783457e-12,1.93514847527411e-12,1.2759500347732658e-12,8.424070795209802e-13,5.720367855393548e-13,4.0734702286032985e-13,3.067263061940508e-13,2.400108197421906e-13,1.908254636485653e-13,1.522578207168466e-13,1.2061628260174678e-13,9.45298385167497e-14,7.281431957851506e-14,5.524172314259611e-14,4.1195028609515596e-14,3.0435816202551937e-14,2.2072687584290725e-14,1.578544914933361e-14,1.109403587696597e-14,7.722685419210282e-15,9.302553374399674e-10,5.671236090977364e-10,3.5455548517503893e-10,2.2282355066957862e-10,1.3925533122808802e-10,8.661355457306376e-11,5.347990063111624e-11,3.2184276979643433e-11,1.8604337976608052e-11,1.0142439786388397e-11,5.127210926730094e-12,2.4475702560857657e-12,1.118828956014698e-12,5.071748466286262e-13,2.45078125370634e-13,1.3149766556730313e-13,7.894607960710446e-14,5.063576232572749e-14,3.4556704159654107e-14
0.0,39,39.0,0.0,30.0,0.0,0.0,0.0,0.0,-13.0,0.0,2.0,0.0,0.0,0.0,1.3828710572103017e-11,1.162854827779922e-11,9.494215254068996e-12,7.49425859059584e-12,5.6889787654228394e-12,4.172284497841272e-12,2.954375341503462e-12,2.006021645818776e-12,1.317146429971936e-12,8.610831510093431e-13,5.757061736118067e-13,4.0263102287613326e-13,2.984779102388241e-13,2.311256172138418e-13,1.8269044170306984e-13,1.45339485336783e-13,1.1497980551506476e-13,9.004055980214098e-14,6.933688889524073e-14,5.259620871485089e-14,3.9231110671884523e-14,2.900026464166177e-14,2.1045264523874575e-14,1.5060561286827766e-14,1.0594849490932918e-14,7.386755061774264e-15,9.443470660964707e-10,5.749187938448085e-10,3.589859637886657e-10,2.253468971513464e-10,1.4070151236202194e-10,8.750703621877794e-11,5.412536992675842e-11,3.2709971609116486e-11,1.9034935207071587e-11,1.0466313266883026e-11,5.340714102953725e-12,2.569744612534225e-12,1.1782236836421642e-12,5.303243738078531e-13,2.511805616120877e-13,1.312031158841408e-13,7.699724809759997e-14,4.8729194148715096e-14,3.317753476798745e-14
0.0,40,40.0,0.0,30.0,0.0,0.0,0.0,0.0,-13.0,0.0,2.0,0.0,0.0,0.0,1.4105098037131349e-11,1.1881857911016028e-11,9.722733519696716e-12,7.695738231510547e-12,5.860242560602164e-12,4.311187361764044e-12,3.0600592896648215e-12,2.079047228486672e-12,1.3610501200706821e-12,8.824147279887959e-13,5.816084830069018e-13,3.9960052177325555e-13,2.91429918620489e-13,2.2308560422774772e-13,1.751692635831524e-13,1.3888843186721212e-13,1.0970631357112522e-13,8.583397485694328e-14,6.607510922793159e-14,5.011192134007653e-14,3.7385060453822343e-14,2.7649113021984218e-14,2.0077251242032293e-14,1.4376458581361824e-14,1.0123263798303739e-14,7.069031220257444e-15,9.587086147944922e-10,5.828496982088555e-10,3.634883508916775e-10,2.2790762485148488e-10,1.4215910408452463e-10,8.83879219572917e-11,5.4741727030077836e-11,3.3202907429919824e-11,1.9439970729812448e-11,1.0775819124519721e-11,5.549205669184584e-12,2.6920545744497943e-12,1.239492100079473e-12,5.552911698898354e-13,2.5849906107857435e-13,1.3156905181782284e-13,7.538419788484838e-14,4.700682893399293e-14,3.1892770162892434e-14
0.0,41,41.0,0.0,30.0,0.0,0.0,0.0,0.0,-13.0,0.0,2.0,0.0,0.0,0.0,1.4373042471422365e-11,1.2127342343247558e-11,9.94447484995756e-12,7.891978324416208e-12,6.028181451520333e-12,4.448759540337784e-12,3.166165384828076e-12,2.1537821328199407e-12,1.4073219300854002e-12,9.061746233089984e-13,5.896086080136747e-13,3.981792500805703e-13,2.855346078366223e-13,2.1585301683219958e-13,1.6822750352284323e-13,1.328737288267273e-13,1.0476976919408031e-13,8.188957559740918e-14,6.301334085541449e-14,4.777738808269972e-14,3.5648594064711496e-14,2.6376556485544012e-14,1.9164650719142776e-14,1.3730477989452544e-14,9.67753436851554e-15,6.7683471168369456e-15,9.733458126360595e-10,5.909188308936481e-10,3.680637078314949e-10,2.3050683020158198e-10,1.4363096314753089e-10,8.926103581452022e-11,5.533400693175034e-11,3.3666506037073386e-11,1.982078600781661e-11,1.1070875382994222e-11,5.752070787185604e-12,2.81391677219038e-12,1.3022681892671309e-12,5.81906865539969e-13,2.669751828569945e-13,1.325801446247506e-13,7.410076966155996e-14,4.546230504155212e-14,3.069654090651595e-14
0.0,42,42.0,0.0,30.0,0.0,0.0,0.0,0.0,-13.0,0.0,2.0,0.0,0.0,0.0,1.4632955861229795e-11,1.2365266783878303e-11,1.0159522700401434e-11,8.082864206732111e-12,6.192502615878223e-12,4.584591052958909e-12,3.2722454650283738e-12,2.2298147795774435e-12,1.4556376263575731e-12,9.321402055157147e-13,5.995716598584587e-13,3.982912018258904e-13,2.8074620855746457e-13,2.0939345081184685e-13,1.6183439836232698e-13,1.2726756162165973e-13,1.0014653451246473e-13,7.818861005600678e-14,6.013724720093386e-14,4.5582072856789875e-14,3.401408996209455e-14,2.5177244220277093e-14,1.830376879831125e-14,1.3120154028287624e-14,9.256039307818358e-15,6.48361537272244e-15,9.882646464520946e-10,5.991287776702127e-10,3.727131228328709e-10,2.3314538067534516e-10,1.451193027298955e-10,9.01304085004423e-11,5.5906719247965306e-11,3.410406398870801e-11,2.017884413842345e-11,1.135157126126718e-11,5.9488141324241745e-12,2.9348048698468647e-12,1.3662026424297845e-12,6.100018958319519e-13,2.765463604306635e-13,1.3421939448419546e-13,7.314113101827934e-14,4.409012671566666e-14,2.958390539990334e-14
0.0,43,43.0,0.0,30.0,0.0,0.0,0.0,0.0,-13.0,0.0,2.0,0.0,0.0,0.0,1.4885264671150224e-11,1.2595930788672445e-11,1.0368013960630532e-11,8.268348338692928e-12,6.352984223082096e-12,4.718335901847543e-12,3.3779007308936243e-12,2.306765297860151e-12,1.5056890012822298e-12,9.60094449181831e-13,6.11363465871184e-13,3.9986048438959123e-13,2.770203639769438e-13,2.0367525692736533e-13,1.5596237518886727e-13,1.2204491993847347e-13,9.581515665891026e-14,7.471392466241654e-14,5.743367543331076e-14,4.351629051555965e-14,3.247453041136932e-14,2.404624014785794e-14,1.7491188701719597e-14,1.2543202591536817e-14,8.857269416715095e-15,6.213823767239564e-15,1.0034712658986891e-09,6.074821980086627e-10,3.7743772274570995e-10,2.3582399468295695e-10,1.466258296973507e-10,9.099938120548316e-11,5.646386740288937e-11,3.451871719931017e-11,2.0515688934791456e-11,1.1618143152822917e-11,6.139051455641928e-12,3.0542491108942624e-12,1.4309648880062182e-12,6.394072773240838e-13,2.871465887767572e-13,1.3646803008550145e-13,7.249951489668729e-14,4.2885500700417023e-14,2.855072874776342e-14
0.0,44,44.0,0.0,30.0,0.0,0.0,0.0,0.0,-13.0,0.0,2.0,0.0,0.0,0.0,1.5130402102949813e-11,1.2819658563528205e-11,1.0570128377569408e-11,8.448440399296134e-12,6.509467699581626e-12,4.849707239233889e-12,3.4827796237880867e-12,2.384285361172081e-12,1.5571846937931535e-12,9.898268746361773e-13,6.2485110491087e-13,4.02811287993033e-13,2.743137123326927e-13,1.986690192130305e-13,1.5058662225100772e-13,1.1718330933923048e-13,9.175617241628184e-14,7.144982329637511e-14,5.489054964855808e-14,4.157112963828391e-14,3.1023448554335184e-14,2.2978987331607693e-14,1.6723747914935265e-14,1.1997506197882202e-14,8.479819255517276e-15,5.958030960645138e-15,1.0189719888400256e-09,6.15981822920152e-10,3.822386782030153e-10,2.385432991944262e-10,1.4815185794029103e-10,9.18707027256719e-11,5.7008976189939076e-11,3.491341555124427e-11,2.0832909279417016e-11,1.1870951849996173e-11,6.322500794985067e-12,3.1718351671564218e-12,1.4962445908665224e-12,6.699561924455546e-13,2.987071453139125e-13,1.3930549563495957e-13,7.21700071977662e-14,4.184418746763894e-14,2.7593571428797632e-14
0.0,45,45.0,0.0,30.0,0.0,0.0,0.0,0.0,-13.0,0.0,2.0,0.0,0.0,0.0,1.5368801932455124e-11,1.3036790845977579e-11,1.076607930990978e-11,8.623198259760991e-12,6.661850353342728e-12,4.978472488253384e-12,3.586575440124239e-12,2.462057712581215e-12,1.6098507637712739e-12,1.0211343658543854e-12,6.399034502123194e-13,4.0706794644670707e-13,2.725835767208404e-13,1.943471104721127e-13,1.456847015869503e-13,1.1266248516043305e-13,8.795192964685449e-14,6.838194086356054e-14,5.2496775217918783e-14,3.973838311171745e-14,2.965488050210692e-14,2.1971275717802843e-14,1.599851720057665e-14,1.1481100533809421e-14,8.12237903543278e-15,5.715362195862404e-15,1.0347733068403105e-09,6.246304539539457e-10,3.87117204903534e-10,2.413038704203688e-10,1.496984007160975e-10,9.274661843862357e-11,5.7545124981106136e-11,3.5290906307978995e-11,2.1132108563150798e-11,1.2110461197373448e-11,6.498973523506105e-12,3.2872024306281706e-12,1.5617526851734736e-12,7.014853726659358e-13,3.111573153271962e-13,1.4270950908503263e-13,7.214638033595748e-14,4.096236742043932e-14,2.6709587678015247e-14
0.0,46,46.0,0.0,30.0,0.0,0.0,0.0,0.0,-13.0,0.0,2.0,0.0,0.0,0.0,1.560089368172199e-11,1.3247678182494916e-11,1.095610572143439e-11,8.792719833141795e-12,6.8100784180160885e-12,5.104448497756814e-12,3.689023752628302e-12,2.539795426711593e-12,1.6634310415743927e-12,1.0538218620810782e-12,6.563916978195166e-13,4.12555064729878e-13,2.71787746104611e-13,1.906833186613776e-13,1.412362016998025e-13,1.0846420724842228e-13,8.438642341704121e-14,6.549712944251243e-14,5.024215303162893e-14,3.801048569886019e-14,2.8363321939188218e-14,2.1019212867675918e-14,1.5312781527388715e-14,1.0992162166609843e-14,7.783727257983076e-15,5.485005010975589e-15,1.0508818906706393e-09,6.334309631738005e-10,3.920745628191346e-10,2.4410626182652867e-10,1.5126624492105836e-10,9.36289503689841e-11,5.807498432474123e-11,3.56537249642004e-11,2.1414878946892293e-11,1.233721830559269e-11,6.6683653840777155e-12,3.400041867501504e-12,1.6272220036086026e-12,7.338362809612523e-13,3.244250989407122e-13,1.466561763968075e-13,7.24219688861611e-14,4.023652222150744e-14,2.5896433298951267e-14
0.0,47,47.0,0.0,30.0,0.0,0.0,0.0,0.0,-13.0,0.0,2.0,0.0,0.0,0.0,1.582709890928996e-11,1.3452675427237756e-11,1.1140465311886993e-11,8.957135780244232e-12,6.954140558364182e-12,5.227496797357939e-12,3.7898997012165485e-12,2.617240953175534e-12,1.7176872753717001e-12,1.0877029238103079e-12,6.741898646982434e-13,4.191976927808618e-13,2.7188433248777625e-13,1.876525375871074e-13,1.3722242844643006e-13,1.045720143640638e-13,8.104514513207382e-14,6.278335532217325e-14,4.811730249815863e-14,3.6380457870479596e-14,2.7143688786254266e-14,2.011919737646567e-14,1.466402272340547e-14,1.052899731695198e-14,7.462724030526247e-15,5.266205003284365e-15,1.0673045957959478e-09,6.423862939007317e-10,3.971120544757831e-10,2.4695102285169974e-10,1.5285601007421075e-10,9.451916812615106e-11,5.860085410857911e-11,3.600419224952396e-11,2.1682780125059552e-11,1.2551835410807631e-11,6.830647636888532e-12,3.5100935357655166e-12,1.6924075618696073e-12,7.668561006182073e-13,3.3843788249322566e-13,1.5112014799261946e-13,7.298958304477496e-14,3.966333115618118e-14,2.5152182495367225e-14
0.0,48,48.0,0.0,30.0,0.0,0.0,0.0,0.0,-13.0,0.0,2.0,0.0,0.0,0.0,1.6047828427036598e-11,1.3652137298697065e-11,1.1319428679808538e-11,9.116603037772946e-12,7.0940618621307705e-12,5.347519006295057e-12,3.889015208293434e-12,2.694164982549626e-12,1.7723990993357684e-12,1.1226001773809336e-12,6.93175245530744e-13,4.2692152843465836e-13,2.728316904997725e-13,1.8523051524351626e-13,1.3362613212508e-13,1.0097101728317554e-13,7.791494332491025e-14,6.022960549309533e-14,4.611359227788824e-14,3.484185524735449e-14,2.599128152134107e-14,1.926789471039003e-14,1.4049903682066285e-14,1.0090031592172141e-14,7.15830499092944e-15,5.058261687958248e-15,1.084048467845781e-09,6.514994620176889e-10,4.0223102300490486e-10,2.4983871093824536e-10,1.5446819456616314e-10,9.541845089437257e-11,5.912470185772643e-11,3.634441610504225e-11,2.1937322228685725e-11,1.2754973424717667e-11,6.9858584223600904e-12,3.6171438521616567e-12,1.757086552293272e-12,8.00398541858854e-13,3.5312306220051565e-13,1.5607480510364978e-13,7.384145540348747e-14,3.923958220278146e-14,2.4475253230273266e-14
0.0,49,49.0,0.0,30.0,0.0,0.0,0.0,0.0,-13.0,0.0,2.0,0.0,0.0,0.0,1.62634802770239e-11,1.38464148436997e-11,1.1493274411342716e-11,9.271299124209985e-12,7.2298983296936764e-12,5.46445243813666e-12,3.986216165830691e-12,2.7703651723265426e-12,1.8273638453306093e-12,1.158345644923628e-12,7.132288211709875e-13,4.356531356776475e-13,2.74588387029657e-13,1.8339365318850275e-13,1.304312685755754e-13,9.764770973375685e-14,7.498389501234881e-14,5.782580237376563e-14,4.4223077840997576e-14,3.338872306579791e-14,2.490175280363675e-14,1.8462215222424283e-14,1.3468253968017822e-14,9.673800591658162e-15,6.869475779255582e-15,4.860524492899149e-15,1.1011207480952858e-09,6.607735576615596e-10,4.074328503565987e-10,2.5276989886089037e-10,1.5610321145106948e-10,9.632774093108457e-11,5.964820008237211e-11,3.6676297567691965e-11,2.2179952480102086e-11,1.294732718490671e-11,7.134094423442172e-12,3.7210226809758825e-12,1.821058094842558e-12,8.343244805281241e-13,3.684086122328938e-13,1.6149246535172284e-13,7.496921648289988e-14,3.8962097263095916e-14,2.3864340576830404e-14
0.0,50,50.0,0.0,30.0,0.0,0.0,0.0,0.0,-13.0,0.0,2.0,0.0,0.0,0.0,1.6474438325102093e-11,1.4035852672294688e-11,1.1662284991527201e-11,9.421417171759599e-12,7.36173186137509e-12,5.578265933025509e-12,4.0813796345900205e-12,2.8456647665812935e-12,1.8823962197975174e-12,1.194780967981697e-12,7.3423561489212e-13,4.4532016726505597e-13,2.7711320998474107e-13,1.821188505519436e-13,1.2762279196405184e-13,9.458979636656882e-14,7.224118674279675e-14,5.55627257446341e-14,4.243844504020441e-14,3.2015555136257664e-14,2.38710780825226e-14,1.7699294134767713e-14,1.2917056685716733e-14,9.278941305135704e-15,6.595306999710681e-15,4.672388926026436e-15,1.1185288789940814e-09,6.702117471652702e-10,4.12718955867189e-10,2.557451788384947e-10,1.5776141576861137e-10,9.724778920708641e-11,6.017276188596593e-11,3.700153961977608e-11,2.2412045198843564e-11,1.3129612384957124e-11,7.275502894974821e-12,3.8216003059399e-12,1.8841427880005805e-12,8.685024445298404e-13,3.842235928208512e-13,1.6734459854424952e-13,7.636389456488712e-14,3.882767081446507e-14,2.331835751040594e-14
0.0,51,51.0,0.0,30.0,0.0,0.0,0.0,0.0,-13.0,0.0,2.0,0.0,0.0,0.0,1.6681071349510038e-11,1.42207868415278e-11,1.1826743439273201e-11,9.567161628303038e-12,7.489665733021377e-12,5.688955940029725e-12,4.174411089356017e-12,2.919911139471942e-12,1.9373278662681536e-12,1.2317575340218859e-12,7.56084994993276e-13,4.558515832489451e-13,2.8036520667614655e-13,1.8138338657942251e-13,1.2518647682215576e-13,9.178603697159975e-14,6.967700462502136e-14,5.3431941029705854e-14,4.0752958982980737e-14,3.071725681677361e-14,2.289552890720273e-14,1.6976473298819758e-14,1.2394436488268163e-14,8.904184232647686e-15,6.334929620744819e-15,4.493292944623025e-15,1.1362805097843268e-09,6.79817275149175e-10,4.180907952491636e-10,2.5876516451844956e-10,1.5944312509555917e-10,9.817919392326235e-11,6.06995742928152e-11,3.7321658184451345e-11,2.2634894757747774e-11,1.3302554138208118e-11,7.41027411352957e-12,3.9187843371050456e-12,1.9461820966641063e-12,9.028089641621069e-13,4.0049859677376646e-13,1.7360204523272297e-13,7.801593556522925e-14,3.8833021089223894e-14,2.2836382595532035e-14
0.0,52,52.0,0.0,30.0,0.0,0.0,0.0,0.0,-13.0,0.0,2.0,0.0,0.0,0.0,1.688373252205083e-11,1.4401543280378446e-11,1.1986930573421156e-11,9.70874457119662e-12,7.613820543196543e-12,5.7965428642243584e-12,4.265241738077629e-12,2.9929742892186684e-12,1.9920068324755595e-12,1.2691365154363375e-12,7.786709241663385e-13,4.67177859101363e-13,2.843037437054958e-13,1.8116483600466528e-13,1.2310876685435807e-13,8.922610614449637e-14,6.728243275095316e-14,5.142573320863392e-14,3.9160417573379404e-14,2.948911157039173e-14,2.1971648681142974e-14,1.6291284564226668e-14,1.1898648616933865e-14,8.548346162278297e-15,6.0875307664457355e-15,4.3227135488142645e-15,1.15438350224804e-09,6.895934666929783e-10,4.235498599988285e-10,2.6183049161723315e-10,1.6114863475605288e-10,9.912243268137673e-11,6.122962895745648e-11,3.763799456828508e-11,2.2849711097243355e-11,1.3466877107948084e-11,7.538634288452537e-12,4.012516596647281e-12,2.0070376091034612e-12,9.371288022532943e-13,4.171661349333879e-13,1.8023523205161985e-13,7.991523897405899e-14,3.8974752770202634e-14,2.24176140390505e-14
0.0,53,53.0,0.0,30.0,0.0,0.0,0.0,0.0,-13.0,0.0,2.0,0.0,0.0,0.0,1.708275919656707e-11,1.4578436661802152e-11,1.2143122824406175e-11,9.8463825744793e-12,7.734330609844382e-12,5.901067686314354e-12,4.353825937382799e-12,3.0647453059047314e-12,2.0462969594813616e-12,1.3067888306483803e-12,8.018921573569876e-13,4.792311789090591e-13,2.888885815125637e-13,1.8144101198914167e-13,1.2137664801361567e-13,8.69004675838292e-14,6.50493595167494e-14,4.953704576396662e-14,3.7655109171527035e-14,2.8326750718183675e-14,2.1096230630087044e-14,1.5641434606274638e-14,1.1428068873443517e-14,8.210323548132688e-15,5.852349856815175e-15,4.160163613154609e-15,1.1728459366201756e-09,6.995437295451979e-10,4.290976771782943e-10,2.649418177676253e-10,1.6287822887396067e-10,1.0007788908658926e-10,6.176375008088225e-11,3.795172876595006e-11,2.305761742259059e-11,1.3623297120031509e-11,7.660838963434163e-12,4.102770020883871e-12,2.0665901905643133e-12,9.713550792723303e-13,4.341609626642456e-13,1.8721437917882517e-13,8.205120623149826e-14,3.924933010961306e-14,2.2061329605236992e-14
0.0,54,54.0,0.0,30.0,0.0,0.0,0.0,0.0,-13.0,0.0,2.0,0.0,0.0,0.0,1.7278472934415675e-11,1.4751769640603835e-11,1.2295590513720871e-11,9.980294072224449e-12,7.851340790336677e-12,6.002588856864898e-12,4.4401387220356284e-12,3.135134833347884e-12,2.100077208667132e-12,1.3445950366854661e-12,8.256523907800861e-13,4.919456105896559e-13,2.940799579239461e-13,1.8218993184932842e-13,1.199775433770998e-13,8.480026217408278e-14,6.297039141086137e-14,4.775942417011312e-14,3.6231773889779045e-14,2.7226126039317204e-14,2.0266297774646723e-14,1.5024791076738654e-14,1.0981184437265858e-14,7.889086436448676e-15,5.628675059334832e-15,4.005188963299149e-15,1.1916761176989267e-09,7.096715563469586e-10,4.3473580951191183e-10,2.680998219487083e-10,1.646321882331952e-10,1.0104587452959811e-10,6.230261948540648e-11,3.826389314744354e-11,2.3259649731478627e-11,1.3772514161184998e-11,7.777166927680643e-12,4.189545610074505e-12,2.124739057149088e-12,1.005389307554495e-12,4.5142035059393033e-13,1.945096964323437e-13,8.441279828414506e-14,3.9653059337271445e-14,2.1766851917042832e-14
