Line_number,Fiducial,Easting,Northing,Height,Elevation,tx_pitch,tx_roll,tx_yaw,txrx_dx,txrx_dy,txrx_dz,rx_pitch,rx_roll,rx_yaw,S0Z_time_1.431e-04,S0Z_time_1.801e-04,S0Z_time_2.266e-04,S0Z_time_2.846e-04,S0Z_time_3.581e-04,S0Z_time_4.506e-04,S0Z_time_5.671e-04,S0Z_time_7.136e-04,S0Z_time_8.981e-04,S0Z_time_1.131e-03,S0Z_time_1.423e-03,S0Z_time_1.791e-03,S0Z_time_2.255e-03,S0Z_time_2.838e-03,S0Z_time_3.573e-03,S0Z_time_4.498e-03,S0Z_time_5.662e-03,S1Z_time_1.409e-05,S1Z_time_1.610e-05,S1Z_time_1.909e-05,S1Z_time_2.360e-05,S1Z_time_2.960e-05,S1Z_time_3.709e-05,S1Z_time_4.609e-05,S1Z_time_5.759e-05,S1Z_time_7.209e-05,S1Z_time_9.060e-05,S1Z_time_1.141e-04,S1Z_time_1.431e-04,S1Z_time_1.801e-04,S1Z_time_2.266e-04,S1Z_time_2.846e-04,S1Z_time_3.581e-04,S1Z_time_4.506e-04,S1Z_time_5.671e-04,S1Z_time_7.136e-04,S1Z_time_8.981e-04,S1Z_time_1.131e-03
0.0,0,0.0,0.0,30.0,0.0,0.0,0.0,0.0,-13.0,0.0,2.0,0.0,0.0,0.0,1.03934143178295e-10,6.937735288128357e-11,4.8131391190594124e-11,3.3318738163988546e-11,2.141844805194069e-11,1.2493604980917443e-11,8.24262349680624e-12,4.8647666387340555e-12,2.9104959693442728e-12,1.7384931781573975e-12,1.0047025726715508e-12,6.000718903159669e-13,3.334464903867592e-13,1.8371332560885035e-13,1.020153664731913e-13,5.5404518339328174e-14,3.1127632811925626e-14,4.207202116851812e-09,3.131673714681329e-09,2.0331505373377644e-09,1.1704372711221894e-09,7.846995285164513e-10,4.980093864145425e-10,3.25124635028847e-10,2.5494610176237735e-10,1.70032467590375e-10,1.3407195993929187e-10,9.966965770663934e-11,7.735027755347562e-11,5.537639460373598e-11,3.699530380244398e-11,2.5166641195594057e-11,1.5763145241578368e-11,9.58040951259149e-12,6.122209242702864e-12,3.662056953836347e-12,2.1544028925293597e-12,1.1825377665997057e-12
0.0,1,1.0,0.0,30.0,0.0,0.0,0.0,0.0,-13.0,0.0,2.0,0.0,0.0,0.0,9.628665914672818e-11,6.7825009684714e-11,4.5852927830137665e-11,3.0685809692366397e-11,2.0008042085591542e-11,1.4319176771334938e-11,8.365359585025927e-12,5.143463307335444e-12,3.0087246570452305e-12,1.8852535233931515e-12,1.0209566195748301e-12,6.117898898173051e-13,3.387098193894182e-13,1.971147489635388e-13,1.0498676829410518e-13,5.548944574198179e-14,3.0637710280309446e-14,4.268918151175255e-09,3.092813580298945e-09,2.0939463348550375e-09,1.2371976411735522e-09,7.584434435943755e-10,4.739128099034947e-10,3.2661930738749167e-10,2.2969015281433292e-10,1.6526862387939272e-10,1.317456301388332e-10,9.735669427874883e-11,6.977176758459347e-11,5.396626625008258e-11,3.640323504528652e-11,2.5635111070724285e-11,1.7215954878486115e-11,1.0744933206964246e-11,6.778563985355541e-12,3.741018093059043e-12,2.2507353043162917e-12,1.1980930965191832e-12
0.0,2,2.0,0.0,30.0,0.0,0.0,0.0,0.0,-13.0,0.0,2.0,0.0,0.0,0.0,9.360846933415419e-11,6.682966635716495e-11,4.7122627759410454e-11,3.2656837280087236e-11,2.0949084075080458e-11,1.4456938805173848e-11,9.044853651810292e-12,5.2572103344774996e-12,3.471168079851503e-12,2.0757810644985658e-12,1.1855876871333644e-12,6.533111253822637e-13,3.5873649924216275e-13,2.135664549675649e-13,1.115708059736381e-13,6.361373623682407e-14,3.255650397159226e-14,4.318774363659356e-09,3.1033725915086513e-09,2.107318092068743e-09,1.2554901474081886e-09,8.056627075581716e-10,4.852189886549469e-10,3.337974140092532e-10,2.473817344028613e-10,1.6526129871490123e-10,1.23949381471418e-10,9.970674495158035e-11,6.993132007953343e-11,5.613935890968224e-11,3.7224123762112554e-11,2.5478565625279197e-11,1.8342584856432424e-11,1.162272317635652e-11,7.258907786349554e-12,4.214849982156158e-12,2.299261996432448e-12,1.3827229513511764e-12
0.0,3,3.0,0.0,30.0,0.0,0.0,0.0,0.0,-13.0,0.0,2.0,0.0,0.0,0.0,9.427770344232953e-11,6.906486117126183e-11,4.8899778788732283e-11,3.27771883548826e-11,2.2576448258534382e-11,1.4927072087435647e-11,9.393851710270804e-12,5.591771764940766e-12,3.5385269502601783e-12,2.164097433859388e-12,1.1906689438897663e-12,6.948121099164067e-13,3.883914618091418e-13,2.316065356469846e-13,1.2196321809308489e-13,6.526060383881279e-14,3.281265637729189e-14,4.244060126914568e-09,2.992435710649113e-09,2.053972702421962e-09,1.225280293105266e-09,7.783775503255569e-10,4.92124691598761e-10,3.2850818595003287e-10,2.3702873434546864e-10,1.657733648639191e-10,1.217592783598615e-10,9.677426867976029e-11,7.189745179552119e-11,5.364805582869325e-11,4.041811871796733e-11,2.707939957418222e-11,1.7213064331156436e-11,1.1850521450657791e-11,6.861950064693952e-12,4.236074651874917e-12,2.4820581150059882e-12,1.4557451835145947e-12
0.0,4,4.0,0.0,30.0,0.0,0.0,0.0,0.0,-13.0,0.0,2.0,0.0,0.0,0.0,9.219755601262446e-11,6.522319641159043e-11,4.724519213018833e-11,3.243237247651563e-11,2.3254145309702417e-11,1.4401186646115849e-11,9.27293369878906e-12,5.945888695322752e-12,3.622902204506495e-12,2.3197760023024182e-12,1.3216738038953439e-12,7.405579324629607e-13,4.011308492239756e-13,2.377661549447474e-13,1.2215280547841017e-13,6.427647873942404e-14,3.7342783352807576e-14,4.196244852667812e-09,3.121608061381172e-09,2.0599550465014976e-09,1.2751984479066836e-09,7.4640878725466e-10,4.694201971695689e-10,3.386975427131378e-10,2.295306493109618e-10,1.679600918175262e-10,1.2508434055620702e-10,9.459826249110229e-11,6.993954342690385e-11,4.999666180880522e-11,3.686217741640417e-11,2.468493182522597e-11,1.8272429894901077e-11,1.1161816872365446e-11,7.124686378588703e-12,4.470535092330133e-12,2.5436208752547576e-12,1.5236910058487028e-12
0.0,5,5.0,0.0,30.0,0.0,0.0,0.0,0.0,-13.0,0.0,2.0,0.0,0.0,0.0,9.029856566592443e-11,6.696027931372228e-11,4.7103316670931816e-11,3.197259545404411e-11,2.306712826333993e-11,1.5083981596772037e-11,1.0096075843612181e-11,6.3932643069444064e-12,4.08300274539283e-12,2.3900855006096343e-12,1.3366617301452685e-12,7.729364449016266e-13,4.538899405647308e-13,2.49304413927029e-13,1.3540269208257774e-13,6.743893833573904e-14,3.730567673363349e-14,4.04493574322478e-09,3.0463211394161184e-09,2.0229059625065746e-09,1.27130156665144e-09,7.670511193349994e-10,4.967806995801581e-10,3.2888372569366426e-10,2.2995277214626817e-10,1.7016061597197494e-10,1.2674251026055079e-10,9.508920442246007e-11,7.477875091766637e-11,5.1585403493914405e-11,3.628906193224256e-11,2.617717306516811e-11,1.782600482814842e-11,1.2088475013934263e-11,7.201692012291532e-12,4.615799478932423e-12,2.717171978233876e-12,1.5316539581859208e-12
0.0,6,6.0,0.0,30.0,0.0,0.0,0.0,0.0,-13.0,0.0,2.0,0.0,0.0,0.0,9.22506040936225e-11,6.566447319284955e-11,4.492850267980117e-11,3.2612429982418966e-11,2.247029998026312e-11,1.5564330740650665e-11,9.7358552162055e-12,6.576478670625235e-12,4.154099388289365e-12,2.2472696689285757e-12,1.4333997585224845e-12,8.340278209857346e-13,4.5312212499324367e-13,2.5399787983140834e-13,1.3898068720748921e-13,7.406246975201117e-14,3.864232637692092e-14,3.9089541133042885e-09,3.1078678335957024e-09,2.082666570715638e-09,1.2018674864387382e-09,7.25162792787081e-10,4.939644330719442e-10,3.2957473723042974e-10,2.3942028236937847e-10,1.7181837850928744e-10,1.2992450937067924e-10,9.585392372905077e-11,6.809598862215833e-11,4.909780619171647e-11,3.5334419779641464e-11,2.6860313623996327e-11,1.7495426224171575e-11,1.1864903518622169e-11,7.556530322823819e-12,4.7201687072588214e-12,2.6313184405632352e-12,1.590103259979033e-12
0.0,7,7.0,0.0,30.0,0.0,0.0,0.0,0.0,-13.0,0.0,2.0,0.0,0.0,0.0,9.571040065612924e-11,6.620329392721669e-11,4.631870204681688e-11,3.31309761873147e-11,2.3185599448895068e-11,1.423455951201604e-11,1.086490362006483e-11,6.663999884166958e-12,4.022725517213656e-12,2.4577899651792693e-12,1.4975656709149297e-12,8.520455106188227e-13,4.5465830125963727e-13,2.8648873446258194e-13,1.4587110364671163e-13,8.098569596375555e-14,3.983261234090474e-14,4.283605466333736e-09,3.0125606135563714e-09,2.0424365952827887e-09,1.1880393291099748e-09,7.849431175758247e-10,4.976262220797883e-10,3.504858637365993e-10,2.357943488521459e-10,1.7242469682018045e-10,1.3696563071895397e-10,9.112403457081127e-11,6.915246959339648e-11,5.26455518779638e-11,3.694794615766917e-11,2.6717531952382104e-11,1.7932899083860643e-11,1.2265830305862777e-11,7.497041255329427e-12,5.0678698313012315e-12,2.863073813763162e-12,1.6009759795600377e-12
0.0,8,8.0,0.0,30.0,0.0,0.0,0.0,0.0,-13.0,0.0,2.0,0.0,0.0,0.0,9.666348735842879e-11,6.518672546996542e-11,4.4783652442203984e-11,3.162872536087883e-11,2.3415344411423612e-11,1.555864548936242e-11,1.0362064737955704e-11,6.941583452214155e-12,4.073692176416685e-12,2.5141342193160405e-12,1.5149164992448818e-12,8.937008184517564e-13,5.053333903383993e-13,2.7966139596443953e-13,1.529005934626093e-13,8.170994968064209e-14,4.1595001839747676e-14,3.9740751820640415e-09,2.9940699158995005e-09,1.9410050768808286e-09,1.1788320308644311e-09,7.494083783055176e-10,4.865485961368827e-10,3.6234478978064943e-10,2.3723034914905214e-10,1.815835087513325e-10,1.3207518203094182e-10,9.123395115431733e-11,7.109919284124646e-11,4.892648303692168e-11,3.370307662721775e-11,2.6597481610426092e-11,1.7163983089990614e-11,1.2339434050773474e-11,7.720274028693694e-12,5.152545113440624e-12,3.035215793963549e-12,1.6598419027823876e-12
0.0,9,9.0,0.0,30.0,0.0,0.0,0.0,0.0,-13.0,0.0,2.0,0.0,0.0,0.0,9.352425732975325e-11,6.391976890874646e-11,4.6019628601894275e-11,3.262628552810712e-11,2.2688977613810994e-11,1.5779189719907795e-11,1.0696535838341532e-11,6.911548788838018e-12,4.217155320531154e-12,2.5325357270878604e-12,1.6508321447419588e-12,9.065604443038335e-13,5.16780811460037e-13,2.8973354051034253e-13,1.509507079009115e-13,8.430958472208454e-14,4.3822444890566254e-14,4.126984708235281e-09,3.0140251509037563e-09,1.9830893037775037e-09,1.2501382358598082e-09,7.634646412153522e-10,4.901066497027997e-10,3.431851676688339e-10,2.430761370413275e-10,1.76221170153871e-10,1.2936367580660043e-10,9.207951854410466e-11,7.032164563721491e-11,4.91745708835851e-11,3.7393513915894116e-11,2.5796979604922454e-11,1.8089621213058933e-11,1.2368596246046785e-11,8.089055732967234e-12,4.736371400157466e-12,2.9778593689202843e-12,1.7720677850197963e-12
0.0,10,10.0,0.0,30.0,0.0,0.0,0.0,0.0,-13.0,0.0,2.0,0.0,0.0,0.0,9.144944782831746e-11,6.74855736805447e-11,4.355361396705445e-11,3.186965937483863e-11,2.2958984444785732e-11,1.496837354869251e-11,1.0285180923713527e-11,6.629782617149825e-12,4.621235166416264e-12,2.7291862978880313e-12,1.6633173347313484e-12,9.52142355837163e-13,5.417476940744888e-13,2.914394314267187e-13,1.6524048260337718e-13,8.708508743140948e-14,4.7970198532530505e-14,4.167282107728064e-09,3.0636868313965066e-09,2.0219090590065462e-09,1.1894749219394151e-09,7.29927595456701e-10,5.032837324325528e-10,3.474901357044391e-10,2.335875961982293e-10,1.8208131396927102e-10,1.3497278192166405e-10,9.6320503255998e-11,6.975406730794567e-11,4.9540852561422576e-11,3.481477442560944e-11,2.650413453946407e-11,1.7829887556743344e-11,1.2094140078809344e-11,8.382956906682759e-12,5.12298049662748e-12,3.076882191181765e-12,1.7703883259172905e-12
0.0,11,11.0,0.0,30.0,0.0,0.0,0.0,0.0,-13.0,0.0,2.0,0.0,0.0,0.0,1.0175888498087565e-10,7.066501177152318e-11,4.8188392232455355e-11,3.34700350293922e-11,2.1486591521004647e-11,1.583841087661738e-11,1.0620468990493854e-11,7.034983281945871e-12,4.606090167405347e-12,2.54970078435359e-12,1.6526355751496375e-12,9.976118374296608e-13,5.592888595477637e-13,3.045220439388634e-13,1.7799441540331442e-13,9.370516502730928e-14,4.666931336967642e-14,4.0445665649257e-09,2.9887421475426106e-09,1.9604940452790844e-09,1.2354835681126893e-09,7.5663157078145e-10,4.87901657111689e-10,3.341648429696642e-10,2.483122701776409e-10,1.8311186165115579e-10,1.3667247293830637e-10,9.676888120470401e-11,7.164902358478037e-11,4.9497953725820076e-11,3.5538818247064416e-11,2.5721816663814892e-11,1.736452629824801e-11,1.2456250251734746e-11,8.095329950130087e-12,5.097696168663274e-12,3.111601344929324e-12,1.905413934408983e-12
0.0,12,12.0,0.0,30.0,0.0,0.0,0.0,0.0,-13.0,0.0,2.0,0.0,0.0,0.0,9.697183390626237e-11,6.32994464504334e-11,4.74088696514886e-11,3.290911776856714e-11,2.2577638919569457e-11,1.5334883367516874e-11,1.0568232818223456e-11,7.118104348201942e-12,4.476112552913749e-12,3.0388671647905923e-12,1.673916302060587e-12,9.945605328829616e-13,5.458030301441472e-13,3.320251183923707e-13,1.688793690090809e-13,9.483366199216866e-14,4.976909258113807e-14,3.898910283413644e-09,3.0502381753530554e-09,2.0071136816489564e-09,1.249554762005408e-09,7.347313571223196e-10,5.124847856455271e-10,3.539008456931994e-10,2.571265652750083e-10,1.896817795590327e-10,1.309811088491881e-10,9.688664602088585e-11,7.315818054259767e-11,4.718881400422879e-11,3.8123452550668295e-11,2.6199978541860016e-11,1.7852710962827417e-11,1.2207642146844327e-11,7.740580326854176e-12,5.026437682066461e-12,3.212668526478956e-12,1.89408794411913e-12
0.0,13,13.0,0.0,30.0,0.0,0.0,0.0,0.0,-13.0,0.0,2.0,0.0,0.0,0.0,1.0748505148086504e-10,6.826977186922453e-11,4.65044553251314e-11,3.255958104677986e-11,2.2256730590296094e-11,1.577766206054261e-11,1.0867943010000698e-11,7.12413170030965e-12,4.751772960560423e-12,2.8630789486797783e-12,1.7439019719430171e-12,1.0279444835117448e-12,5.744769997750389e-13,3.2448107160716696e-13,1.79685761143187e-13,1.0416834724807566e-13,5.381540242033882e-14,4.123737237058544e-09,2.7659209934584272e-09,1.823420666213776e-09,1.173963095975347e-09,7.58749379962228e-10,5.052535665449619e-10,3.623765809339136e-10,2.559094198784556e-10,1.9572749293347333e-10,1.3526972942204188e-10,9.650736083951169e-11,6.838839298465954e-11,5.0278529818788856e-11,3.687756346330141e-11,2.5093299369130817e-11,1.8340563171315583e-11,1.260932072515467e-11,7.414177303205717e-12,5.2277433115162544e-12,2.920293266551404e-12,1.86734674698723e-12
0.0,14,14.0,0.0,30.0,0.0,0.0,0.0,0.0,-13.0,0.0,2.0,0.0,0.0,0.0,1.0426250081576317e-10,6.925433347363548e-11,4.597818818165682e-11,3.264146063414607e-11,2.2823196810564575e-11,1.5745842607836436e-11,1.0706119877645843e-11,7.149371142059592e-12,4.677540205302037e-12,2.8210536196585673e-12,1.7844835788087817e-12,1.1205915851189409e-12,6.14044477497155e-13,3.46542819970123e-13,1.9899807484075398e-13,9.521734733503092e-14,5.628102491684642e-14,3.862044703555591e-09,2.877122295694636e-09,1.9324560127521812e-09,1.227341097354805e-09,7.489766526221388e-10,4.898996961284328e-10,3.678497037641414e-10,2.380830771913707e-10,1.8817642930105555e-10,1.3217871216315128e-10,9.806683215837547e-11,7.717761587927816e-11,5.203484182377886e-11,3.703257864432065e-11,2.4451923828493783e-11,1.7432298748287292e-11,1.2140680409082961e-11,8.056220818066105e-12,5.198255581123621e-12,3.149357382802009e-12,1.893450846046929e-12
0.0,15,15.0,0.0,30.0,0.0,0.0,0.0,0.0,-13.0,0.0,2.0,0.0,0.0,0.0,1.0310861100199369e-10,6.602343001153931e-11,4.828627722304114e-11,3.419087031931796e-11,2.348148551022888e-11,1.568314723486351e-11,1.0533225006629284e-11,6.9645983437384e-12,4.669229427386925e-12,3.0665805151106886e-12,1.7223891221511714e-12,1.0738091066857939e-12,6.156053381627046e-13,3.700485616810938e-13,1.9545070905165374e-13,1.0545255422313794e-13,5.54732460261503e-14,3.9649160680903126e-09,2.8114631932038017e-09,1.7409498283641115e-09,1.209132523092085e-09,7.654760067644639e-10,4.991900972220445e-10,3.453042149299933e-10,2.6158103568382096e-10,1.9233815453670966e-10,1.3739385653692183e-10,1.0087088236693104e-10,7.154087296252412e-11,5.232369750411357e-11,3.5351142129303096e-11,2.6250939015268645e-11,1.7323569811057515e-11,1.2135970653841275e-11,7.622366707902694e-12,5.0157300090996415e-12,3.1497816059193643e-12,1.7835613617946e-12
0.0,16,16.0,0.0,30.0,0.0,0.0,0.0,0.0,-13.0,0.0,2.0,0.0,0.0,0.0,1.0326255505871693e-10,6.982383920291548e-11,4.614435082079847e-11,3.233713551134827e-11,2.3587002780815902e-11,1.6315843826225373e-11,1.0771975141297217e-11,7.321319338553621e-12,4.752856218532615e-12,3.0291653611966807e-12,1.9301468382392894e-12,1.0669596993253384e-12,6.659937783713989e-13,3.670645849009554e-13,2.0336259043798588e-13,1.0939042372865035e-13,5.69954402268307e-14,3.745249389890077e-09,2.8423666592521915e-09,2.000873421438021e-09,1.1841340184973795e-09,7.562025510431103e-10,4.946778037356811e-10,3.5860490487002647e-10,2.651756582750373e-10,1.9020515147024513e-10,1.3908813163305254e-10,1.0397726590092237e-10,7.2387831801267e-11,5.3550889155717844e-11,3.8299010136680484e-11,2.7121455053694335e-11,1.7811501269773e-11,1.2534733725056343e-11,8.192643074085535e-12,4.952274491730145e-12,3.0517650593787196e-12,1.8729091060314365e-12
0.0,17,17.0,0.0,30.0,0.0,0.0,0.0,0.0,-13.0,0.0,2.0,0.0,0.0,0.0,1.0732809629431633e-10,7.126589895813548e-11,4.828998893013329e-11,3.549515764086637e-11,2.3483181098443938e-11,1.4823291681911913e-11,1.0939217219071245e-11,7.369365906819956e-12,4.781399222397523e-12,3.069749833530627e-12,1.8806326246892104e-12,1.0927796189954865e-12,6.596945660530225e-13,3.699007414182546e-13,2.0456377558572523e-13,1.0927421406117637e-13,6.050039778374091e-14,3.874979425496676e-09,2.770897644497004e-09,1.857937512511808e-09,1.1819461862358772e-09,7.816849738047804e-10,4.773159839330734e-10,3.670535605416279e-10,2.5993884810132987e-10,1.8356251524475754e-10,1.3436573942463198e-10,1.0112009556174496e-10,7.58056700313984e-11,5.4357787508938293e-11,3.665705802675533e-11,2.7024599906408236e-11,1.8680373849795562e-11,1.2186573419703246e-11,7.795140720885644e-12,5.2741974758775866e-12,3.2452347763624895e-12,1.9496924752116764e-12
0.0,18,18.0,0.0,30.0,0.0,0.0,0.0,0.0,-13.0,0.0,2.0,0.0,0.0,0.0,1.0326958570545736e-10,6.609207584123931e-11,5.284224886318865e-11,3.255194422179308e-11,2.33955003955808e-11,1.7129730771061128e-11,1.0967765873955246e-11,7.483219751870023e-12,4.557804761607784e-12,2.891475407829546e-12,1.8772355922774007e-12,1.1943196892506475e-12,6.735430293488806e-13,3.803865089433656e-13,2.1740184391576057e-13,1.2096764463248488e-13,5.834889626037212e-14,3.6992960408508574e-09,2.7244756719720495e-09,1.946416745677552e-09,1.1879999788001714e-09,8.068480094733821e-10,5.251281804061884e-10,3.6575668794368155e-10,2.77226672138972e-10,1.980865414308487e-10,1.4136607196300945e-10,1.0737418490862297e-10,7.461404316501342e-11,5.3853726223450615e-11,3.960810859011624e-11,2.6340309889630206e-11,1.7560546355606006e-11,1.1891486860644058e-11,8.174069992698934e-12,5.012722210244125e-12,3.1383573266075924e-12,1.8765317460649484e-12
0.0,19,19.0,0.0,30.0,0.0,0.0,0.0,0.0,-13.0,0.0,2.0,0.0,0.0,0.0,1.0718461804113958e-10,7.222116776034556e-11,4.780400246701239e-11,3.35973819203206e-11,2.2918220466910514e-11,1.6654278246715742e-11,1.115354261850691e-11,7.422978669904073e-12,4.720440093425887e-12,3.001148627017848e-12,1.899149330059748e-12,1.1365110252825217e-12,7.45238343505458e-13,3.713187494674917e-13,2.2526573002539949e-13,1.1538058194821273e-13,6.292708549194549e-14,3.700485811809167e-09,2.6744151557452674e-09,1.8103065926733125e-09,1.2388418201602736e-09,7.5671859983685e-10,5.020721974329456e-10,3.756106585863134e-10,2.7007645737392723e-10,2.0346858792897988e-10,1.3818294083299099e-10,1.0748521580806615e-10,7.891183334641486e-11,5.2212537077333604e-11,3.900443344214161e-11,2.799842181879723e-11,1.8086403525647114e-11,1.2387369840827004e-11,8.090901926624989e-12,4.985056770574391e-12,3.1801277502829814e-12,1.819653833370556e-12
0.0,20,20.0,0.0,30.0,0.0,0.0,0.0,0.0,-13.0,0.0,2.0,0.0,0.0,0.0,1.0641049114484995e-10,7.450277155851507e-11,5.1864686215198894e-11,3.4871102190764976e-11,2.4265843793994697e-11,1.5601206794280174e-11,1.0887909736505835e-11,7.316943373564274e-12,5.0775635047832244e-12,3.0756655699794683e-12,1.917859893266216e-12,1.1899352170099714e-12,6.855503463893773e-13,4.0868232435627674e-13,2.2413269878054263e-13,1.1640514021176692e-13,6.476457961010155e-14,3.752015408029054e-09,2.6193820461804004e-09,1.8607916856862196e-09,1.2268307349629345e-09,7.733102915341039e-10,5.266405312265835e-10,3.5786956199334065e-10,2.7687883036774164e-10,2.024464532662514e-10,1.5033260839270448e-10,1.0919608681187472e-10,7.487769339087791e-11,5.55261767222459e-11,3.801909033880771e-11,2.684613654513732e-11,1.772386644488338e-11,1.2610607575696287e-11,7.733611179775283e-12,4.953198941183278e-12,3.1834401576095734e-12,1.851189456209259e-12
0.0,21,21.0,0.0,30.0,0.0,0.0,0.0,0.0,-13.0,0.0,2.0,0.0,0.0,0.0,1.0777726749261338e-10,7.29143773913993e-11,5.3496126863162564e-11,3.601943093644203e-11,2.3901517321045946e-11,1.6035855565798268e-11,1.1269543449932756e-11,7.420887043132832e-12,4.8983791612116e-12,3.1097093639674755e-12,1.863970652002409e-12,1.1993259658515187e-12,7.045042257453073e-13,4.220129316020317e-13,2.3869851867695737e-13,1.2367821533271054e-13,6.764669492801469e-14,3.9584154300596225e-09,2.6814336560646834e-09,1.9485181513826812e-09,1.1421609645363018e-09,7.63831110258009e-10,5.204178726050222e-10,3.765489652994969e-10,2.6909587526964605e-10,2.0036728943048902e-10,1.4682093155784075e-10,1.1023975056368954e-10,7.980169540968859e-11,6.001149647057624e-11,4.0955358720622394e-11,2.6733681489357026e-11,1.8530454100827578e-11,1.2553871689920675e-11,7.960051389057263e-12,5.0797637068430385e-12,3.1808666807331037e-12,1.9665240269790796e-12
0.0,22,22.0,0.0,30.0,0.0,0.0,0.0,0.0,-13.0,0.0,2.0,0.0,0.0,0.0,1.0767622674700447e-10,7.491439870213199e-11,5.2627532773592964e-11,3.587915377983736e-11,2.4319541229988913e-11,1.6147187670729964e-11,1.132634492221761e-11,7.823080870522267e-12,4.899746738887247e-12,3.10855243027259e-12,2.022823909690234e-12,1.196611300615236e-12,7.097528703126861e-13,4.2161308647379175e-13,2.1784384187330206e-13,1.2453121358808712e-13,6.747715731665307e-14,3.5849629107941984e-09,2.634110842145809e-09,1.821391163856886e-09,1.1125580441569487e-09,7.561386578330253e-10,5.157961991934019e-10,3.803708611707144e-10,2.8883737614938033e-10,2.075437205010311e-10,1.517937084772879e-10,1.1086462988140448e-10,8.054057712249041e-11,5.519245642511826e-11,3.964836796815583e-11,2.7680956663181074e-11,1.7743032194508785e-11,1.2576208601241906e-11,8.233547943007319e-12,4.9963173069413264e-12,3.1526110293173234e-12,1.865812635886047e-12
0.0,23,23.0,0.0,30.0,0.0,0.0,0.0,0.0,-13.0,0.0,2.0,0.0,0.0,0.0,1.1417794285267901e-10,7.410852690337026e-11,5.212750214065511e-11,3.4989481080541857e-11,2.4397779201377393e-11,1.555536394786801e-11,1.1496598903672779e-11,7.161830796833549e-12,4.8633431701905716e-12,3.1195012534867296e-12,1.945336725304642e-12,1.1952567561567166e-12,7.561683113030649e-13,4.212276451710022e-13,2.4284371660765793e-13,1.2867163160252049e-13,6.839714319474168e-14,3.763300767200363e-09,2.7759070165757727e-09,1.8268586010627435e-09,1.1188089423182022e-09,8.139093076822943e-10,5.14447524303949e-10,3.6611050483477777e-10,3.0436793070258094e-10,2.0648595833843038e-10,1.4687498910384132e-10,1.0963169540652038e-10,8.188139894759453e-11,5.7945385228936855e-11,3.921716818821798e-11,2.923359303746911e-11,1.8377686246211276e-11,1.18990298928096e-11,8.23484455191669e-12,5.302732032310357e-12,3.097835156495365e-12,1.8359152028743155e-12
0.0,24,24.0,0.0,30.0,0.0,0.0,0.0,0.0,-13.0,0.0,2.0,0.0,0.0,0.0,1.1669821597282386e-10,7.269504633128554e-11,5.111759924325087e-11,3.734540731251659e-11,2.4544011896329418e-11,1.643009083509667e-11,1.123179575575535e-11,7.366854213163401e-12,4.678797332373761e-12,3.2717091982773596e-12,2.0819023472089735e-12,1.24616185757943e-12,7.451542595267744e-13,4.649649464805865e-13,2.4312918307415507e-13,1.3355949834708195e-13,7.235220794052819e-14,3.8473043382360945e-09,2.8110915277759724e-09,1.8136025410681577e-09,1.1782230569708308e-09,7.387131580675148e-10,5.270200658103464e-10,3.7799157622714843e-10,2.7705795866381114e-10,2.2229396809847624e-10,1.518646565456014e-10,1.1153641406274024e-10,8.289961713549805e-11,6.058709130603754e-11,4.1304085287000545e-11,3.033934989748085e-11,1.880479908982892e-11,1.2524294186239981e-11,8.107123539099774e-12,5.3291650878551796e-12,3.226212169274724e-12,1.9114388595277336e-12
0.0,25,25.0,0.0,30.0,0.0,0.0,0.0,0.0,-13.0,0.0,2.0,0.0,0.0,0.0,1.1133335937639918e-10,7.894843435991115e-11,5.592949854748897e-11,3.622587990072193e-11,2.5211330559373162e-11,1.6813421057742178e-11,1.146723107307533e-11,7.2498846036135494e-12,5.226504673939831e-12,3.040348161142091e-12,1.9904151835690685e-12,1.2831890544836143e-12,7.588198196840418e-13,4.51372647729149e-13,2.4554300832493046e-13,1.3691786083204877e-13,7.306508265813096e-14,3.8307530875033205e-09,2.7206591569382236e-09,1.862869283445507e-09,1.1435156429352512e-09,7.9601475398078e-10,5.397957578559272e-10,4.0812051638986475e-10,3.0653272976127184e-10,2.1230047634931385e-10,1.5563068680073209e-10,1.118118914392122e-10,8.267080793328934e-11,5.835217291940678e-11,4.1641064139507724e-11,2.820797352037238e-11,1.882739765530353e-11,1.2927266103416398e-11,7.85648262825404e-12,5.189178203908863e-12,3.1414116096557287e-12,1.961098164164768e-12
0.0,26,26.0,0.0,30.0,0.0,0.0,0.0,0.0,-13.0,0.0,2.0,0.0,0.0,0.0,1.208280726318325e-10,7.858925256486234e-11,5.500345260865946e-11,3.726901979495151e-11,2.4456514154294145e-11,1.694778334229606e-11,1.1344364507298827e-11,7.553268753598892e-12,4.868652807403287e-12,3.180635153081913e-12,1.952011925336916e-12,1.2431325923296294e-12,7.721208105631565e-13,4.579539259436972e-13,2.4994813854357164e-13,1.4018007806912526e-13,7.509572812150574e-14,3.6542820071153883e-09,2.6911916285034745e-09,1.7125602546452143e-09,1.164297365155289e-09,7.823410626863794e-10,5.243015613971625e-10,4.158272685821863e-10,2.939466470539114e-10,2.2715922181521304e-10,1.5579378752007384e-10,1.1309213799964095e-10,8.464041260474518e-11,5.6743425504627674e-11,4.1954629927290803e-11,2.8733549810047916e-11,1.981508061035113e-11,1.2900142848010298e-11,8.032196466538137e-12,4.9706256428011385e-12,3.349187252849124e-12,1.8733155682757973e-12
0.0,27,27.0,0.0,30.0,0.0,0.0,0.0,0.0,-13.0,0.0,2.0,0.0,0.0,0.0,1.1376503679992958e-10,7.765038190157488e-11,5.6747348292687764e-11,3.688651532790328e-11,2.4731606647927832e-11,1.703867621423094e-11,1.12509304605868e-11,7.343187823748652e-12,5.025080073736302e-12,3.2830000192349494e-12,2.089897196360014e-12,1.2934798248411318e-12,7.754214171913412e-13,4.27107277135825e-13,2.698485953333619e-13,1.434441889838387e-13,7.750706924619288e-14,3.726750097731332e-09,2.7444111521356492e-09,1.8263561100164577e-09,1.1811182316573924e-09,7.662691299355211e-10,5.456090694415168e-10,3.899638844420557e-10,2.8967975158818683e-10,2.138578601388326e-10,1.608876120558414e-10,1.2145779146779022e-10,9.323790365718834e-11,6.083207693302403e-11,4.047652367197837e-11,3.0075774417455364e-11,1.925595763526112e-11,1.2495933132540243e-11,8.241744669888806e-12,4.969425491191929e-12,3.2122269131863593e-12,1.915760528589951e-12
0.0,28,28.0,0.0,30.0,0.0,0.0,0.0,0.0,-13.0,0.0,2.0,0.0,0.0,0.0,1.1926753946491154e-10,8.215996640407346e-11,5.5650698261745296e-11,3.789452728186851e-11,2.5773661995581065e-11,1.732977994558877e-11,1.1047678082906913e-11,7.2104890636591435e-12,4.922218988601069e-12,3.0537220915795288e-12,2.0428057972842443e-12,1.3071876015602095e-12,7.863879839358485e-13,4.417072912794756e-13,2.5359662168113274e-13,1.4587353430028547e-13,7.638814795915537e-14,3.5459577998469577e-09,2.6614148253459064e-09,1.743281672056175e-09,1.152101888430707e-09,7.652928544135282e-10,5.326007464160222e-10,3.942196027190845e-10,3.057960805158773e-10,2.2291866220585357e-10,1.5943051481274658e-10,1.1844644125940883e-10,8.198116435087472e-11,5.988807269654093e-11,4.544082519825912e-11,2.922899617298554e-11,2.0070749897073375e-11,1.2843850915807654e-11,8.337802467104751e-12,5.2909648106547154e-12,3.092263382481276e-12,1.921063708868476e-12
0.0,29,29.0,0.0,30.0,0.0,0.0,0.0,0.0,-13.0,0.0,2.0,0.0,0.0,0.0,1.2611394506340405e-10,8.025238910371582e-11,5.5224647626926705e-11,3.7935009015758955e-11,2.6021035269284565e-11,1.7541208533989308e-11,1.1920779901357565e-11,7.688329351006538e-12,4.9409866348959466e-12,3.321472757783177e-12,2.0876815430268835e-12,1.2203518403656656e-12,8.369488288193113e-13,4.851440736409573e-13,2.623297949748346e-13,1.48310580456764e-13,8.216356092140642e-14,3.5355218915358297e-09,2.6551835720143336e-09,1.8490133642606194e-09,1.1312765495111495e-09,7.739854138917708e-10,5.700748915821977e-10,4.1481336644982803e-10,3.118306785110926e-10,2.24558397656896e-10,1.644560694386899e-10,1.1357718609430132e-10,8.43172833701604e-11,6.208126818972719e-11,4.4269015823734326e-11,3.011868163302066e-11,1.9776695853134826e-11,1.2888922684481696e-11,8.372054971141607e-12,5.229059252433725e-12,3.344795633047501e-12,1.934160157029691e-12
0.0,30,30.0,0.0,30.0,0.0,0.0,0.0,0.0,-13.0,0.0,2.0,0.0,0.0,0.0,1.1651313416861728e-10,8.003787646400055e-11,5.94196099130859e-11,3.73471657817058e-11,2.66724227314236e-11,1.728608833754072e-11,1.151286538090591e-11,7.588296484099422e-12,5.152760517120062e-12,3.191982269284764e-12,2.0490891331092773e-12,1.2245018672451922e-12,7.879376794701656e-13,4.722576768305144e-13,2.6871121525935367e-13,1.5509037157568687e-13,8.0224440541917e-14,3.559562906525574e-09,2.7099893199257046e-09,1.7004615811297655e-09,1.151909675720606e-09,8.265612289258491e-10,5.755973374837084e-10,4.222440605654235e-10,3.149006153569341e-10,2.306380177002934e-10,1.7630716088335287e-10,1.2378389520784962e-10,8.907284606940117e-11,6.306305104313023e-11,4.39731008512261e-11,2.8948286744007544e-11,2.053520817718646e-11,1.3073862245887607e-11,8.847279381597209e-12,5.237567955583138e-12,3.261787170406103e-12,1.943608354214369e-12
0.0,31,31.0,0.0,30.0,0.0,0.0,0.0,0.0,-13.0,0.0,2.0,0.0,0.0,0.0,1.2116240121771984e-10,8.673880292328691e-11,6.077700233600283e-11,3.9114665517187666e-11,2.6103044531266857e-11,1.7400088446801613e-11,1.1000967111686655e-11,7.625044386941444e-12,5.030262769418261e-12,3.3229348162720456e-12,2.116809645597309e-12,1.2726314756780549e-12,7.81232566373194e-13,4.845822774817884e-13,2.6829705852186124e-13,1.483345284195945e-13,8.502143873752409e-14,3.6111423641996652e-09,2.568164742810719e-09,1.7459017004654904e-09,1.0988138560528125e-09,8.114841246360922e-10,5.500102681406556e-10,3.939718971536113e-10,3.25912354546481e-10,2.3589783914949835e-10,1.644874442387738e-10,1.194819016114163e-10,9.191210748037779e-11,6.187158831845107e-11,4.59677731776014e-11,3.089833568810726e-11,2.0619818188351275e-11,1.3420547316704077e-11,8.511512074008065e-12,5.4253047859372776e-12,3.1906509378132176e-12,1.938655155882308e-12
0.0,32,32.0,0.0,30.0,0.0,0.0,0.0,0.0,-13.0,0.0,2.0,0.0,0.0,0.0,1.278769762947302e-10,8.670579625512173e-11,5.607739510122351e-11,3.896916211620381e-11,2.6812558171708574e-11,1.753464614963406e-11,1.2383633747174702e-11,7.624591227843044e-12,4.9919388405451075e-12,3.306646928860275e-12,2.0842851351345726e-12,1.2879717817961717e-12,7.740930088614383e-13,4.766368956179406e-13,2.810211937519873e-13,1.5484213564095784e-13,8.049052094228066e-14,3.6577006130764137e-09,2.4408687651612943e-09,1.6881143151595226e-09,1.2051101263878009e-09,8.078604499723083e-10,5.613414280777266e-10,4.0959687197028624e-10,3.370443381109113e-10,2.352878830526095e-10,1.7534166618194246e-10,1.2682819297015548e-10,9.190876903681572e-11,6.538113270346287e-11,4.5765523323508484e-11,3.034441351273006e-11,2.033912872903978e-11,1.2697234315378272e-11,8.340588261358987e-12,5.367629374207634e-12,3.3534322515485066e-12,1.9743918714462006e-12
0.0,33,33.0,0.0,30.0,0.0,0.0,0.0,0.0,-13.0,0.0,2.0,0.0,0.0,0.0,1.2536606106905833e-10,8.304596269799842e-11,5.3941205688460324e-11,4.138252763407109e-11,2.640978316075414e-11,1.767858345208475e-11,1.1901962073033641e-11,7.440197888199475e-12,4.98876343845427e-12,3.440661372681522e-12,2.1014656466954327e-12,1.3121515927082126e-12,7.582074583988294e-13,5.077955145686183e-13,2.6322238669080555e-13,1.6351466000305184e-13,7.802342327211646e-14,3.596773552442585e-09,2.66012403995827e-09,1.7237915891273002e-09,1.1886577714763847e-09,8.210603704935919e-10,5.62425201966306e-10,4.0999528325799466e-10,3.0656577222124106e-10,2.414483632118443e-10,1.7444150956266273e-10,1.2513437268911174e-10,9.456299025630226e-11,6.613676971313056e-11,4.4295929296846145e-11,2.9928239822082574e-11,2.1073248778757665e-11,1.3319440381371123e-11,8.647087838651038e-12,5.61994689184433e-12,3.3184191555769133e-12,1.894407963421183e-12
0.0,34,34.0,0.0,30.0,0.0,0.0,0.0,0.0,-13.0,0.0,2.0,0.0,0.0,0.0,1.2891279287310763e-10,8.488844480159063e-11,6.240937065151876e-11,3.976272193185061e-11,2.733217192156204e-11,1.8257391204952947e-11,1.201246061210357e-11,7.362586370333183e-12,4.8486425014129905e-12,3.212000088958764e-12,2.0963117349988504e-12,1.2970601620633674e-12,7.766799457591118e-13,4.593758997159517e-13,2.7410391628392206e-13,1.5387829047946016e-13,8.6271595116764e-14,3.392755277239501e-09,2.5684983206841176e-09,1.7318678049615086e-09,1.1676378470858452e-09,8.049967866908197e-10,5.687904460517421e-10,4.4197944900550845e-10,3.1546420645849166e-10,2.370166512313865e-10,1.768554152491351e-10,1.239575287339393e-10,9.21816210547287e-11,6.4553499982815e-11,4.53379814068756e-11,3.1352377581058956e-11,2.0475871595773283e-11,1.3590723256383072e-11,9.046706771046623e-12,5.405381150818489e-12,3.402200211083391e-12,1.9734964103823287e-12
0.0,35,35.0,0.0,30.0,0.0,0.0,0.0,0.0,-13.0,0.0,2.0,0.0,0.0,0.0,1.3297617309896006e-10,8.641721378159299e-11,6.04290436486807e-11,4.105847497346017e-11,2.6941007415001123e-11,1.7813033894856353e-11,1.1518854439856362e-11,8.232409634235888e-12,4.948357339770528e-12,3.4014797670568807e-12,2.0536884158044393e-12,1.2727284796129634e-12,8.18022830926977e-13,4.72507432674183e-13,2.8454252099636996e-13,1.5614052142920082e-13,8.727728458680242e-14,3.302909306989777e-09,2.571949325517908e-09,1.7855070606197875e-09,1.1474993717246431e-09,8.845022293858262e-10,5.981766921592668e-10,4.693799255869758e-10,3.433553553381258e-10,2.426609295402275e-10,1.7742346849706186e-10,1.2911363236203303e-10,8.912273025712123e-11,6.539631759117095e-11,4.677235446223155e-11,3.322977444124017e-11,2.072225402033329e-11,1.4192597488682581e-11,8.459679390518831e-12,5.359414765456218e-12,3.2643800569127673e-12,1.9835268239591785e-12
0.0,36,36.0,0.0,30.0,0.0,0.0,0.0,0.0,-13.0,0.0,2.0,0.0,0.0,0.0,1.3345787665635726e-10,9.216412405607408e-11,6.23630656181905e-11,4.1652453980287486e-11,2.8056240481993692e-11,1.9318799889588697e-11,1.1976327381870921e-11,8.12178634541483e-12,4.84888440457205e-12,3.3240160304214055e-12,2.0593268638892305e-12,1.310620584921377e-12,8.312989066135329e-13,4.866901630510799e-13,2.893959276185933e-13,1.664882449624017e-13,8.807001524566787e-14,3.496232689166179e-09,2.4720111936464365e-09,1.7563648202178123e-09,1.165378178078729e-09,8.517397670992145e-10,6.024267823880548e-10,4.379368970277104e-10,3.335360835855195e-10,2.5509935073372955e-10,1.8187801534218096e-10,1.2867356190529318e-10,9.590865787435237e-11,6.361405237751519e-11,4.807653128393208e-11,3.173947061516203e-11,2.1149564399948576e-11,1.4341442291614702e-11,8.513858805361049e-12,5.825473014843225e-12,3.2847914422406333e-12,1.9393710137203622e-12
0.0,37,37.0,0.0,30.0,0.0,0.0,0.0,0.0,-13.0,0.0,2.0,0.0,0.0,0.0,1.374626355136325e-10,9.2630273723722e-11,6.621442028872223e-11,4.1549096552205895e-11,2.7920233990147292e-11,1.7792431811191678e-11,1.214736714021925e-11,7.824540329707147e-12,5.08891061697025e-12,3.1257972407875545e-12,2.2010931964321023e-12,1.25854290556598e-12,7.409613403822937e-13,4.693436725217719e-13,2.7866306241234223e-13,1.550906395201688e-13,9.107137301591261e-14,3.34006981363116e-09,2.486131787493714e-09,1.7866357943474014e-09,1.1985351162818968e-09,8.570627119686289e-10,5.816281212540612e-10,4.4295863922948496e-10,3.4318798017647813e-10,2.3169791563416523e-10,1.7697157586205423e-10,1.3624090887733303e-10,9.538721145081346e-11,7.041080975014064e-11,4.871918923775002e-11,3.135215030100069e-11,2.1956488738673838e-11,1.4633034249942176e-11,9.00655045940873e-12,5.389801867807754e-12,3.446506337176369e-12,2.0194002142677716e-12
0.0,38,38.0,0.0,30.0,0.0,0.0,0.0,0.0,-13.0,0.0,2.0,0.0,0.0,0.0,1.3733242419027238e-10,9.381745605783871e-11,5.680809974476044e-11,4.3401505930269944e-11,2.9851314485961386e-11,1.9046171998137472e-11,1.2449932487750172e-11,8.228001556399733e-12,5.243721222538741e-12,3.3789424753357274e-12,2.1040570416407738e-12,1.2879695732004296e-12,7.872893449798257e-13,4.743264594099755e-13,2.7384239785360656e-13,1.568296288840454e-13,9.393394683534816e-14,3.4062247191718187e-09,2.426358890783898e-09,1.7323747429617645e-09,1.1972929926435044e-09,8.231806509305805e-10,6.097316486579528e-10,4.66800904403525e-10,3.406735574530623e-10,2.5679438039216774e-10,1.9210599394986143e-10,1.3492439119698036e-10,9.88910842525009e-11,6.871159011434803e-11,4.810300934407471e-11,3.2580510156239576e-11,2.1586634504389368e-11,1.4349382744952179e-11,9.211565974385143e-12,5.628539597072727e-12,3.4341207458757913e-12,1.9476504519569348e-12
0.0,39,39.0,0.0,30.0,0.0,0.0,0.0,0.0,-13.0,0.0,2.0,0.0,0.0,0.0,1.3197668462585818e-10,9.4170767674071e-11,6.446711808304077e-11,4.28248108482663e-11,2.9770440252967186e-11,1.950047959342608e-11,1.3493219295863547e-11,8.074165467842854e-12,5.068413905085406e-12,3.2567459754379056e-12,2.0758358590571553e-12,1.3410937673552685e-12,7.616002723618585e-13,5.105800576137106e-13,2.853394402272323e-13,1.6219892683133102e-13,8.671591214416584e-14,3.2970978556487277e-09,2.462947663030151e-09,1.7456061467848267e-09,1.2109215610399202e-09,8.321438825449136e-10,5.990314807490477e-10,4.69719415556168e-10,3.4674183652204845e-10,2.592952324508639e-10,1.9574881894512664e-10,1.3364929555534793e-10,9.679734648209563e-11,7.288563782716459e-11,4.656401842549079e-11,3.197809404596283e-11,2.272450579419151e-11,1.4531010542859527e-11,9.178400046915275e-12,5.64056671985426e-12,3.4134233332736674e-12,1.9988847278957598e-12
0.0,40,40.0,0.0,30.0,0.0,0.0,0.0,0.0,-13.0,0.0,2.0,0.0,0.0,0.0,1.443843221716957e-10,9.306420169569475e-11,6.361423428037065e-11,4.5572667616441784e-11,2.8939102740521415e-11,2.045319650048147e-11,1.256142982432289e-11,8.523888514922134e-12,4.998870897907195e-12,3.363517548920244e-12,2.0189841714749653e-12,1.359779037058915e-12,7.871146696122139e-13,4.972767135466076e-13,2.8656438506052356e-13,1.5882458408711628e-13,8.598406900511994e-14,3.2363094489310405e-09,2.580065475852272e-09,1.73644499373523e-09,1.2378960172643939e-09,8.534655117163555e-10,6.392674740863299e-10,4.4257070857811273e-10,3.4626629022604117e-10,2.688281861226435e-10,1.9142150891490124e-10,1.3939395485775206e-10,9.936107669351736e-11,7.358413910333228e-11,4.976828714729405e-11,3.37196524596266e-11,2.2861198143100384e-11,1.4839786727305232e-11,9.301649364020529e-12,5.974947030325686e-12,3.4319844020246693e-12,2.0345007639831065e-12
0.0,41,41.0,0.0,30.0,0.0,0.0,0.0,0.0,-13.0,0.0,2.0,0.0,0.0,0.0,1.378856642738212e-10,9.582111613321946e-11,6.777742875387372e-11,4.289155262378338e-11,2.8227535219079174e-11,1.9936913699026618e-11,1.2658206713435872e-11,8.277958977607627e-12,5.289125396290036e-12,3.374240577732338e-12,2.182573360139214e-12,1.2967370708737375e-12,7.943888714920912e-13,4.961677423502559e-13,2.7643729342646675e-13,1.5885226451681425e-13,9.694904505221891e-14,3.339940501078552e-09,2.442197142383715e-09,1.8175815687311149e-09,1.1735122370023292e-09,8.549280046591054e-10,6.422238049574415e-10,4.871887834230049e-10,3.6087267677968606e-10,2.4486401006316366e-10,1.8939285200786584e-10,1.436956089721088e-10,1.0090873917287666e-10,7.753028485368897e-11,5.132045476758934e-11,3.4640019665140823e-11,2.1919402335415154e-11,1.4722841870737185e-11,9.404522298423561e-12,5.9591958078135e-12,3.559283612707191e-12,2.0949302596472176e-12
0.0,42,42.0,0.0,30.0,0.0,0.0,0.0,0.0,-13.0,0.0,2.0,0.0,0.0,0.0,1.3853753738612428e-10,1.0070740339768457e-10,6.276838565672128e-11,4.352248535180637e-11,2.991313087628969e-11,1.9461026972824537e-11,1.2443117989147033e-11,8.11648887534729e-12,5.085776667757072e-12,3.4391996549216365e-12,2.21802192062944e-12,1.3304028396811978e-12,8.117643421321289e-13,4.746413028412939e-13,2.999841995497133e-13,1.7820016537835544e-13,8.698378003521446e-14,3.142055292512696e-09,2.38511127561734e-09,1.7242228239318674e-09,1.2267970736029743e-09,9.13860679295043e-10,6.575340594321235e-10,4.885628019422431e-10,3.525876389594415e-10,2.598091620620278e-10,1.9307679705764464e-10,1.5028442213302866e-10,1.0316616826437976e-10,7.198532717682715e-11,5.026691769873614e-11,3.532179485876269e-11,2.2029864757293263e-11,1.552849892055615e-11,9.476473384898943e-12,5.781239959055321e-12,3.543703031745319e-12,2.059128518921997e-12
0.0,43,43.0,0.0,30.0,0.0,0.0,0.0,0.0,-13.0,0.0,2.0,0.0,0.0,0.0,1.4292006649722652e-10,9.711631401214238e-11,6.454933304263816e-11,4.562006710791512e-11,2.936957901837546e-11,1.9175883083764665e-11,1.3011700768581226e-11,8.724680705791774e-12,5.3638845423931475e-12,3.3427017115924985e-12,2.1725590233211715e-12,1.4165698683427513e-12,7.880572276388417e-13,5.039805810723064e-13,2.9506210348287205e-13,1.7390026779486516e-13,9.595133744775158e-14,3.2083079068579653e-09,2.304845527290183e-09,1.798657219491071e-09,1.1955105612068788e-09,8.555711516625347e-10,6.685237488321402e-10,4.742356271353255e-10,3.8092608456662863e-10,2.7543300707249797e-10,2.025269265818265e-10,1.469392017888126e-10,9.959228073887881e-11,6.996286250174626e-11,5.149839915946424e-11,3.546795488884483e-11,2.324728159647131e-11,1.468406699233428e-11,9.533773589674714e-12,5.860565220515971e-12,3.425860250515338e-12,2.1241003506181733e-12
0.0,44,44.0,0.0,30.0,0.0,0.0,0.0,0.0,-13.0,0.0,2.0,0.0,0.0,0.0,1.3877348349405363e-10,1.0087417637069646e-10,6.785986782995856e-11,4.662270056503651e-11,2.9254876083731616e-11,1.9998661117087217e-11,1.391672988963816e-11,8.627772562636281e-12,5.427051508934942e-12,3.4805593585622143e-12,2.1619079078975392e-12,1.4315871507628095e-12,8.50710221310813e-13,4.98516705398403e-13,2.967175709315118e-13,1.6688028284274223e-13,9.732685026519017e-14,3.072814164195891e-09,2.304730452106301e-09,1.8362516477349357e-09,1.3143304162171725e-09,9.024065830125792e-10,6.567616694278819e-10,5.040849011378943e-10,3.6359011842659194e-10,2.780346790195227e-10,2.0370087049502283e-10,1.5039095494975126e-10,1.0118604497465144e-10,7.371539071583377e-11,5.3111630854463067e-11,3.456845455146139e-11,2.275045369259315e-11,1.614830102984317e-11,9.636466995435833e-12,5.8285284722786246e-12,3.3773617079209125e-12,2.1222623433674696e-12
0.0,45,45.0,0.0,30.0,0.0,0.0,0.0,0.0,-13.0,0.0,2.0,0.0,0.0,0.0,1.5147993432025218e-10,9.951051528591726e-11,6.566325656084892e-11,4.573870296836068e-11,2.9723180916411386e-11,1.9567133707426162e-11,1.3144761487235994e-11,8.261313520752481e-12,5.490932290836963e-12,3.5090062388647495e-12,2.1119646895054563e-12,1.2926189594447652e-12,8.674950137580809e-13,4.871147393340077e-13,2.897358625542999e-13,1.7091125486494069e-13,9.618298564917648e-14,3.1664294941872584e-09,2.449525975399389e-09,1.742032199406743e-09,1.2073153683283554e-09,9.381172405448082e-10,7.125937581752349e-10,5.267966712196325e-10,3.7775492231550343e-10,2.9606047152556593e-10,2.0857948906114747e-10,1.4752978198118502e-10,1.0908376230980955e-10,7.560741939385816e-11,5.0892158591455797e-11,3.47368628778321e-11,2.4282464253896824e-11,1.4526118849859075e-11,9.899749735883102e-12,5.695753199681828e-12,3.361178567948365e-12,1.9755535416690545e-12
0.0,46,46.0,0.0,30.0,0.0,0.0,0.0,0.0,-13.0,0.0,2.0,0.0,0.0,0.0,1.5927623002175914e-10,1.0112094421843556e-10,6.892292574054733e-11,4.8271944535990085e-11,3.16787654030597e-11,1.9488009241282196e-11,1.3653869082586716e-11,8.64952533296267e-12,5.4349608703237406e-12,3.4702837137559527e-12,2.260775350126992e-12,1.3168920718597706e-12,8.41029064413735e-13,5.025714237976733e-13,2.8061107546121263e-13,1.6647300250162415e-13,9.559874678455528e-14,3.298492658382298e-09,2.48451591633791e-09,1.7998069293206916e-09,1.222483000673624e-09,9.589031209539571e-10,6.762348389972712e-10,4.930740755352883e-10,3.795518075897122e-10,2.9237785485419994e-10,2.09397117483708e-10,1.558059434495047e-10,1.1264496087440229e-10,7.772884786519066e-11,5.1722511482139654e-11,3.626670894886141e-11,2.4009964939100387e-11,1.6409265199985034e-11,9.342742498306895e-12,6.022349801887586e-12,3.55922760645251e-12,2.1305827341145658e-12
0.0,47,47.0,0.0,30.0,0.0,0.0,0.0,0.0,-13.0,0.0,2.0,0.0,0.0,0.0,1.4132425923466387e-10,1.0649861853767861e-10,6.962204542133102e-11,4.424458427622266e-11,3.0809693603997924e-11,2.0915503684472537e-11,1.2788597113153432e-11,8.675397529585428e-12,5.357104162340725e-12,3.4317379588550195e-12,2.189968454331365e-12,1.3654389259740248e-12,8.216697827287543e-13,5.082438119283727e-13,3.050819990731681e-13,1.6999811855274815e-13,9.996257750551359e-14,3.2987146402938477e-09,2.378158022235215e-09,1.7400003251168224e-09,1.2002809062100156e-09,9.167792299344612e-10,6.735416230700498e-10,5.277925412972546e-10,3.6972536334106504e-10,2.8650302401271235e-10,2.1855324191999668e-10,1.505303331033534e-10,1.0798875231244898e-10,7.44283640138148e-11,5.797364786940951e-11,3.5727016309174476e-11,2.3300300514114757e-11,1.5328805881590242e-11,9.691318586412539e-12,6.055809972411788e-12,3.746657273798257e-12,2.1069726194467364e-12
0.0,48,48.0,0.0,30.0,0.0,0.0,0.0,0.0,-13.0,0.0,2.0,0.0,0.0,0.0,1.5030571818059658e-10,9.986103433628102e-11,7.050217468165489e-11,4.7440996143728e-11,3.292962599877822e-11,2.0803638007456427e-11,1.3513822495322455e-11,8.472306554638454e-12,5.523519797539348e-12,3.46648888026744e-12,2.1752182480235556e-12,1.3240362503194278e-12,8.4944374770137e-13,5.033088984284851e-13,2.9689099980859426e-13,1.6319407774842036e-13,9.76883733821964e-14,3.192523318942954e-09,2.3468233374038055e-09,1.8336124619677872e-09,1.2220521239735644e-09,9.3060768256748e-10,6.846905975273445e-10,5.025646848683651e-10,3.952501423320899e-10,3.0815678898823736e-10,2.1591085157740649e-10,1.5390914454571125e-10,1.1352644704795721e-10,7.907207284303569e-11,5.446278416489169e-11,3.6506975955475095e-11,2.5564295909469145e-11,1.6092355287054842e-11,9.863422737335587e-12,6.144101347419215e-12,3.606619217358209e-12,2.1041575156395527e-12
0.0,49,49.0,0.0,30.0,0.0,0.0,0.0,0.0,-13.0,0.0,2.0,0.0,0.0,0.0,1.5372357414733193e-10,1.021858947356558e-10,7.299587216820008e-11,4.7514081868143174e-11,3.235384639847779e-11,2.0533282322178273e-11,1.365508313476371e-11,8.6342344775599e-12,5.738684386656926e-12,3.509610918132291e-12,2.1629711496958987e-12,1.3013793869544765e-12,8.454282766953367e-13,4.960276549248914e-13,2.994746713788712e-13,1.7032616132954178e-13,9.964604289536377e-14,3.1855429218137617e-09,2.439255487138177e-09,1.7554161854653253e-09,1.3037339099629014e-09,9.910770078145944e-10,6.824500674280478e-10,5.336784311068366e-10,3.79160008088945e-10,3.1003278132744667e-10,2.1601897371363874e-10,1.6200938414557365e-10,1.0768790818941699e-10,8.416145105020438e-11,5.450715022090497e-11,3.8030109217082916e-11,2.4905816366944767e-11,1.5921003713028582e-11,1.0636170284521229e-11,5.915323756565443e-12,3.755979078076412e-12,2.221369506079439e-12
0.0,50,50.0,0.0,30.0,0.0,0.0,0.0,0.0,-13.0,0.0,2.0,0.0,0.0,0.0,1.5878562232001394e-10,1.0680860773548659e-10,7.191406903298903e-11,4.670694529287914e-11,3.220744520246168e-11,2.1491197689304104e-11,1.3835530390727043e-11,8.82502151575267e-12,5.577568992457433e-12,3.529893046539847e-12,2.3075644675932564e-12,1.2884976548033054e-12,8.421383452473253e-13,5.031560321198021e-13,3.137009921670575e-13,1.738877651034291e-13,1.0180419157195941e-13,2.9246192454110856e-09,2.4409931102913072e-09,1.812334322205092e-09,1.3520869478155722e-09,9.07387513463078e-10,7.065214876651057e-10,5.398894494913822e-10,3.988927287414703e-10,3.1303206247723515e-10,2.1959389093148834e-10,1.703516613173912e-10,1.1876100944071647e-10,8.32131813321005e-11,5.672306836439393e-11,3.665392582147362e-11,2.4748121189566376e-11,1.649349831007372e-11,1.0434182270089156e-11,6.530036086893799e-12,3.70347245382529e-12,2.12290154452669e-12
0.0,51,51.0,0.0,30.0,0.0,0.0,0.0,0.0,-13.0,0.0,2.0,0.0,0.0,0.0,1.653148309834447e-10,1.0597793644490869e-10,7.504429239881176e-11,5.0827405555768335e-11,3.296631352604502e-11,2.1150059489178608e-11,1.3953049585156018e-11,9.13362103466126e-12,5.7064084891470116e-12,3.8203078508806116e-12,2.1697227932429693e-12,1.339004734968939e-12,8.191046912189517e-13,5.004768342607031e-13,2.8152312599521453e-13,1.7087471197481975e-13,9.568283077602001e-14,3.121779659099456e-09,2.440179563322513e-09,1.7397913664375301e-09,1.3462092011955456e-09,1.018875865721667e-09,7.155105201041139e-10,5.727410718497757e-10,4.1352902719708246e-10,3.2485745961479544e-10,2.32678718805875e-10,1.5521175659424387e-10,1.1677511743767525e-10,8.456587902867078e-11,5.6539351913658927e-11,3.827067979905233e-11,2.6320621112638634e-11,1.603846565433329e-11,1.0334873596557892e-11,6.405248563413171e-12,3.752418777273128e-12,2.196933034841054e-12
0.0,52,52.0,0.0,30.0,0.0,0.0,0.0,0.0,-13.0,0.0,2.0,0.0,0.0,0.0,1.6723695717495705e-10,1.1149792960552971e-10,7.225170367464303e-11,4.799456011293789e-11,3.209845259158901e-11,2.159669662882837e-11,1.3998653610750514e-11,8.824969623654588e-12,5.645999003444543e-12,3.444035126451607e-12,2.2772622751015926e-12,1.3850695517901083e-12,8.146562449927438e-13,5.113034463632181e-13,3.1440219154678344e-13,1.708725067357565e-13,1.0225085133732276e-13,3.076694934377207e-09,2.427865268718182e-09,1.8231973668058083e-09,1.38006232251627e-09,9.839436518110226e-10,7.054656566347003e-10,5.333674227890321e-10,3.98184195714425e-10,2.9523941666877214e-10,2.2880051372364193e-10,1.604480285449774e-10,1.1804116515967363e-10,8.130485096002024e-11,5.5876351252328394e-11,3.821107494518453e-11,2.6181852022792616e-11,1.7023878093745658e-11,1.0549864577411182e-11,6.2138938083438234e-12,3.899101915758358e-12,2.2633353879339638e-12
0.0,53,53.0,0.0,30.0,0.0,0.0,0.0,0.0,-13.0,0.0,2.0,0.0,0.0,0.0,1.671218388762098e-10,1.0952690721184185e-10,7.657763379758875e-11,5.086173372962342e-11,3.01292796326704e-11,2.2236890462936932e-11,1.3382808765987997e-11,9.310483068939666e-12,5.767440491280758e-12,3.763792683454957e-12,2.2556004815139884e-12,1.3560740944095174e-12,8.458493007116944e-13,5.285592893412169e-13,3.0319180346990945e-13,1.7477746081101479e-13,1.0091263305684009e-13,3.120492130618946e-09,2.4181157545274513e-09,1.904770466346247e-09,1.4010934393845052e-09,1.0106757185671276e-09,7.349118354639753e-10,5.890206820561326e-10,4.3887245286188596e-10,3.227963246279419e-10,2.2344418040027018e-10,1.6829541892521698e-10,1.172986407802497e-10,8.376116410257833e-11,5.833866934033839e-11,3.935211514388045e-11,2.5560504105977847e-11,1.7378053595355914e-11,1.0002259196743955e-11,6.607362170443661e-12,3.643791327594677e-12,2.2619049312914274e-12
0.0,54,54.0,0.0,30.0,0.0,0.0,0.0,0.0,-13.0,0.0,2.0,0.0,0.0,0.0,1.6364649784810935e-10,1.1602999285261282e-10,7.613009636785586e-11,5.119699803077622e-11,3.257603759871115e-11,2.1604411865958825e-11,1.442038770149908e-11,9.368710915642242e-12,6.352989030678437e-12,3.683604115069043e-12,2.34241129502507e-12,1.3343563698794155e-12,8.185985751056654e-13,5.081495580438139e-13,2.9275239442621183e-13,1.839131289086711e-13,9.7712951557219e-14,3.2251696919215228e-09,2.5331954646902617e-09,1.8451596394138965e-09,1.373993083101312e-09,1.004307818576882e-09,7.645120563479532e-10,5.807245875386954e-10,4.288344244858312e-10,3.257040294257326e-10,2.4756771773876876e-10,1.7366178568266535e-10,1.2284143085594354e-10,8.56045142975112e-11,5.6873365544339e-11,3.848106122353126e-11,2.6477937013648745e-11,1.6222167676271675e-11,1.040009965485978e-11,6.778505081092101e-12,4.119097736613569e-12,2.1411869662037347e-12
0.0,55,55.0,0.0,30.0,0.0,0.0,0.0,0.0,-13.0,0.0,2.0,0.0,0.0,0.0,1.7885035844268338e-10,1.1385538249203959e-10,7.686419415280339e-11,5.124805572775989e-11,3.507429897330592e-11,2.1188319768964522e-11,1.466418103882514e-11,9.023883414626512e-12,5.9867338142140496e-12,3.855545263210263e-12,2.289534146902649e-12,1.4223662644775112e-12,8.663083531795616e-13,5.026895493493051e-13,3.183846208729648e-13,1.8563494212251183e-13,1.0159135847194941e-13,3.101236981581437e-09,2.3993244748969103e-09,1.8220227202307821e-09,1.4395923883324528e-09,1.0633370397507178e-09,7.623027225155346e-10,5.538075027605389e-10,4.000442653592504e-10,3.15222275229405e-10,2.3802140339491457e-10,1.7975777824654835e-10,1.2094826439380576e-10,8.773589397810898e-11,6.172306766300995e-11,4.0337088341001374e-11,2.6407400939161536e-11,1.6426522591540244e-11,1.0364083958732886e-11,6.671777498716065e-12,3.9060495619255e-12,2.2829202973742984e-12
0.0,56,56.0,0.0,30.0,0.0,0.0,0.0,0.0,-13.0,0.0,2.0,0.0,0.0,0.0,1.7273867467432796e-10,1.1845443685950925e-10,7.604696133848017e-11,5.1511940815895685e-11,3.6302593705853726e-11,2.195015597184953e-11,1.4479358885087436e-11,9.202004120927012e-12,6.011749353224872e-12,3.82502029596705e-12,2.269201630411931e-12,1.3952903119682275e-12,8.518452033100137e-13,5.247668717769818e-13,2.9843997923711296e-13,1.7490348271393046e-13,9.22656460601911e-14,2.965761355983664e-09,2.4343714926122367e-09,1.922617233852436e-09,1.3980088106296008e-09,1.0004794807231875e-09,7.429088793524894e-10,5.936221595827938e-10,4.220831425559115e-10,3.4147104274570656e-10,2.430590855277094e-10,1.6660072289768676e-10,1.2147336385720208e-10,8.568494544646041e-11,5.87624722498796e-11,3.8848717442044346e-11,2.6118047987267345e-11,1.6925892409608702e-11,1.0628562755636761e-11,6.877479156565242e-12,3.977770785385804e-12,2.224920172956215e-12
0.0,57,57.0,0.0,30.0,0.0,0.0,0.0,0.0,-13.0,0.0,2.0,0.0,0.0,0.0,1.7372519754305239e-10,1.1462001384359205e-10,7.81680488879487e-11,5.404095981506072e-11,3.4992366478334537e-11,2.4278320893983297e-11,1.490706261245725e-11,9.190041786581647e-12,6.125006581169489e-12,3.858836893793917e-12,2.3940692733702043e-12,1.3741460266852002e-12,8.585843212354177e-13,5.356755928127297e-13,2.904485629240117e-13,1.747023692802933e-13,9.558131442874615e-14,3.0089747055989155e-09,2.379257608827048e-09,1.9594644772895213e-09,1.3930444953407035e-09,1.0224112617709195e-09,7.630709428934006e-10,6.024737540117628e-10,4.51031611757715e-10,3.496312477860348e-10,2.5000051576035055e-10,1.69993340339837e-10,1.244750431938378e-10,9.161899516476006e-11,5.979186325067595e-11,4.3299773021577976e-11,2.6233229507528128e-11,1.7765841947672788e-11,1.0686241684536388e-11,6.612508140101395e-12,4.133249685915485e-12,2.3047670180100677e-12
0.0,58,58.0,0.0,30.0,0.0,0.0,0.0,0.0,-13.0,0.0,2.0,0.0,0.0,0.0,1.8238295836177823e-10,1.2103528662126096e-10,8.169891759230626e-11,5.1869481267173356e-11,3.48823045139522e-11,2.3246189565838864e-11,1.4501508206467793e-11,9.997227540353428e-12,5.88686456992288e-12,3.73073755132903e-12,2.262120341235078e-12,1.336337285855551e-12,9.125978961561726e-13,5.164122182754378e-13,3.0261603855552135e-13,1.7678437455832761e-13,1.049350968893532e-13,3.0094668988470283e-09,2.516895159345585e-09,1.881970842753098e-09,1.3954117894946141e-09,1.0832246780084734e-09,8.236443961139422e-10,6.001608289860887e-10,4.478543873737597e-10,3.2941114353836305e-10,2.583742592996001e-10,1.7714459275304534e-10,1.2153396549921e-10,9.377635177539796e-11,5.917257963234103e-11,4.26308148858438e-11,2.758739964765241e-11,1.780547970113201e-11,1.0885966006432892e-11,6.853470231620441e-12,3.834184981269389e-12,2.3750960906294904e-12
0.0,59,59.0,0.0,30.0,0.0,0.0,0.0,0.0,-13.0,0.0,2.0,0.0,0.0,0.0,1.8907685822375012e-10,1.2419272453394054e-10,7.602015419963553e-11,5.2338184250341736e-11,3.5307288860475444e-11,2.3529428010979463e-11,1.49738633193253e-11,9.472188535717346e-12,6.184080433898148e-12,3.924260754378694e-12,2.331032913400139e-12,1.4671724316075386e-12,8.021536551750582e-13,5.065180539288243e-13,3.0454252807680787e-13,1.7564695097452985e-13,1.0180158649418397e-13,3.1993694693934026e-09,2.5188211589331674e-09,1.889062104062717e-09,1.3737795207938135e-09,1.0991835192039488e-09,7.678502111558779e-10,6.315724034165485e-10,4.6321209352321747e-10,3.3457337991963255e-10,2.5615161137744677e-10,1.8292382911150866e-10,1.3036477287629936e-10,9.096241707157564e-11,6.328922833309147e-11,4.333216767927904e-11,2.816338323309156e-11,1.8384349592283386e-11,1.1177160825518883e-11,7.175977319844574e-12,4.143030744523219e-12,2.314719532957762e-12
0.0,60,60.0,0.0,30.0,0.0,0.0,0.0,0.0,-13.0,0.0,2.0,0.0,0.0,0.0,1.7727581828758028e-10,1.2341428407742822e-10,7.875805243135685e-11,5.298762598942521e-11,3.6161958012169204e-11,2.3003024871711276e-11,1.4740360670789477e-11,9.688481996728134e-12,6.137599269145488e-12,3.795763305285282e-12,2.33569149928017e-12,1.4805313616817493e-12,8.821527888770673e-13,5.193492843553178e-13,3.312184663444668e-13,1.7979413210026376e-13,1.0465537081312283e-13,3.06048445807503e-09,2.395211753132605e-09,1.8987980492315276e-09,1.4472882818736258e-09,1.081295545109902e-09,8.58861339819484e-10,6.272988059056563e-10,4.799936132032411e-10,3.518590559255664e-10,2.545577310333134e-10,1.858884866539102e-10,1.3918523653820954e-10,9.030654101350646e-11,6.476609697679644e-11,4.136288290239729e-11,2.7680674119796677e-11,1.8036274671688107e-11,1.1415609096093634e-11,7.215899009597376e-12,4.103234778592792e-12,2.3129434442881907e-12
0.0,61,61.0,0.0,30.0,0.0,0.0,0.0,0.0,-13.0,0.0,2.0,0.0,0.0,0.0,1.8962156593697675e-10,1.2300142805627438e-10,8.363094900238605e-11,5.504974017214441e-11,3.4190267152720805e-11,2.4034052048100336e-11,1.557764494805437e-11,1.0055452604111323e-11,6.5068749257636405e-12,3.709237951818396e-12,2.4145780795909587e-12,1.4692461105339367e-12,8.659516708485244e-13,5.308297583921376e-13,3.1373482067981986e-13,1.724966356978214e-13,1.0211680527969063e-13,3.0370509307741056e-09,2.466097817130054e-09,1.8615410709467622e-09,1.4582819464798999e-09,1.1078971775125754e-09,8.530531259574958e-10,6.399696852724236e-10,4.589484310035465e-10,3.672776232537006e-10,2.6101274404066895e-10,1.912295631289069e-10,1.3817414106761925e-10,9.770006121848962e-11,6.790234706025367e-11,4.310427760099388e-11,2.8654892970747565e-11,1.7638767428243303e-11,1.1782817761555379e-11,6.7254442047686616e-12,3.920838083241165e-12,2.454064579939221e-12
0.0,62,62.0,0.0,30.0,0.0,0.0,0.0,0.0,-13.0,0.0,2.0,0.0,0.0,0.0,1.8579698993339676e-10,1.290354945532274e-10,8.514936062491921e-11,5.317919127047535e-11,3.371982452783594e-11,2.313205286652906e-11,1.5463802057334307e-11,9.507637396253018e-12,6.1012286585813044e-12,3.705682924759747e-12,2.4054182002574125e-12,1.463464056540273e-12,8.68170455529218e-13,5.484329379642178e-13,3.238743558101677e-13,1.8267215271637704e-13,9.583023996236434e-14,3.0316455121104484e-09,2.5659919784802586e-09,1.951204564690191e-09,1.478440795180802e-09,1.1628367192084164e-09,8.661111032412956e-10,6.762528572804322e-10,4.828745396051345e-10,3.7882186230405044e-10,2.6163906035494903e-10,1.9992150675325972e-10,1.366555602985395e-10,9.253584816353228e-11,6.178314829862125e-11,4.3331633691976965e-11,2.8495757173816217e-11,1.8899412244378473e-11,1.149609133661464e-11,6.9482424799626645e-12,4.31863781601203e-12,2.397797898692832e-12
0.0,63,63.0,0.0,30.0,0.0,0.0,0.0,0.0,-13.0,0.0,2.0,0.0,0.0,0.0,1.8825050280610587e-10,1.3006335429637054e-10,8.396852643379336e-11,5.771321716172603e-11,3.6464661776358576e-11,2.400634125678811e-11,1.567557430219254e-11,9.844465678095948e-12,6.270745999099487e-12,3.999232620245186e-12,2.4385882402908817e-12,1.4888872677981267e-12,8.68040268046576e-13,5.416857374155841e-13,3.1696049769612057e-13,1.855017912751566e-13,9.953260710824345e-14,3.134136018805531e-09,2.605173727873725e-09,1.9756903134569108e-09,1.5119354303918092e-09,1.2169117783353312e-09,9.180276981397866e-10,6.861327808864288e-10,5.11326861449553e-10,3.5843139843834453e-10,2.7442252172842737e-10,1.9212652678100324e-10,1.3381060062944015e-10,9.482697973454454e-11,6.603719627446978e-11,4.353746297374224e-11,2.8567663540424462e-11,1.9067034977831727e-11,1.1701446265654697e-11,7.156178452585537e-12,4.23448127414162e-12,2.3849333176596795e-12
