Line_number,Fiducial,Easting,Northing,Height,Elevation,tx_pitch,tx_roll,tx_yaw,txrx_dx,txrx_dy,txrx_dz,rx_pitch,rx_roll,rx_yaw,S0Z_time_1.431e-04,S0Z_time_1.801e-04,S0Z_time_2.266e-04,S0Z_time_2.846e-04,S0Z_time_3.581e-04,S0Z_time_4.506e-04,S0Z_time_5.671e-04,S0Z_time_7.136e-04,S0Z_time_8.981e-04,S0Z_time_1.131e-03,S0Z_time_1.423e-03,S0Z_time_1.791e-03,S0Z_time_2.255e-03,S0Z_time_2.838e-03,S0Z_time_3.573e-03,S0Z_time_4.498e-03,S0Z_time_5.662e-03,S1Z_time_1.409e-05,S1Z_time_1.610e-05,S1Z_time_1.909e-05,S1Z_time_2.360e-05,S1Z_time_2.960e-05,S1Z_time_3.709e-05,S1Z_time_4.609e-05,S1Z_time_5.759e-05,S1Z_time_7.209e-05,S1Z_time_9.060e-05,S1Z_time_1.141e-04,S1Z_time_1.431e-04,S1Z_time_1.801e-04,S1Z_time_2.266e-04,S1Z_time_2.846e-04,S1Z_time_3.581e-04,S1Z_time_4.506e-04,S1Z_time_5.671e-04,S1Z_time_7.136e-04,S1Z_time_8.981e-04,S1Z_time_1.131e-03
0.0,0,0.0,0.0,30.0,0.0,0.0,0.0,0.0,-13.0,0.0,2.0,0.0,0.0,0.0,1.03934143178295e-10,6.937735288128358e-11,4.8131391190594124e-11,3.3318738163988546e-11,2.1418448051940695e-11,1.2493604980917438e-11,8.242623496806244e-12,4.864766638734053e-12,2.9104959693442744e-12,1.7384931781573963e-12,1.0047025726715518e-12,6.000718903159657e-13,3.3344649038675765e-13,1.8371332560884987e-13,1.0201536647319198e-13,5.540451833932751e-14,3.112763281192536e-14,4.207202108855343e-09,3.131673731330992e-09,2.033150469799831e-09,1.1704369387850778e-09,7.846996686481441e-10,4.98009680242576e-10,3.251242667771914e-10,2.5494767068686927e-10,1.7003111796688128e-10,1.3407201632197624e-10,9.96693496557621e-11,7.735369580493887e-11,5.538096116277439e-11,3.699599665384299e-11,2.516913741228953e-11,1.5754194703958497e-11,9.549147311608864e-12,6.113526929359498e-12,3.668056834908091e-12,2.221724384494716e-12,1.266776672489874e-12
0.0,1,1.0,0.0,30.0,0.0,0.0,0.0,0.0,-13.0,0.0,2.0,0.0,0.0,0.0,9.628665914672818e-11,6.782500968471398e-11,4.5852927830137665e-11,3.0685809692366384e-11,2.0008042085591546e-11,1.4319176771334935e-11,8.365359585025927e-12,5.143463307335446e-12,3.008724657045229e-12,1.8852535233931515e-12,1.0209566195748305e-12,6.117898898173065e-13,3.387098193894164e-13,1.9711474896354011e-13,1.0498676829410467e-13,5.54894457419825e-14,3.0637710280307414e-14,4.268918167943652e-09,3.092813583854683e-09,2.093946358905655e-09,1.237197558186601e-09,7.584433655388743e-10,4.739125805020895e-10,3.266191277139962e-10,2.296895829617166e-10,1.6526698980994848e-10,1.3174585349602285e-10,9.735602174286141e-11,6.976810285724998e-11,5.3967699417719455e-11,3.639924257939668e-11,2.5635444515500733e-11,1.722302621715322e-11,1.0746875081426352e-11,6.8055836363839595e-12,3.695837230288409e-12,2.2719606989576445e-12,1.151205227774024e-12
0.0,2,2.0,0.0,30.0,0.0,0.0,0.0,0.0,-13.0,0.0,2.0,0.0,0.0,0.0,9.360846933415419e-11,6.682966635716495e-11,4.712262775941046e-11,3.2656837280087236e-11,2.0949084075080448e-11,1.4456938805173854e-11,9.044853651810287e-12,5.2572103344774996e-12,3.4711680798515085e-12,2.075781064498564e-12,1.1855876871333634e-12,6.533111253822632e-13,3.587364992421638e-13,2.1356645496756477e-13,1.1157080597363698e-13,6.361373623682395e-14,3.255650397159375e-14,4.3187744020653556e-09,3.1033726106584863e-09,2.107318148565083e-09,1.2554901487885628e-09,8.056630928985144e-10,4.852190319755333e-10,3.337976151085092e-10,2.473830613280579e-10,1.6526000761649923e-10,1.2394775495271794e-10,9.970839532120901e-11,6.992865098385663e-11,5.614539851506701e-11,3.722231666342649e-11,2.5473853021348867e-11,1.8360713072874195e-11,1.1644198802555114e-11,7.301351037153881e-12,4.246648407665159e-12,2.25532857946581e-12,1.5106480740149797e-12
0.0,3,3.0,0.0,30.0,0.0,0.0,0.0,0.0,-13.0,0.0,2.0,0.0,0.0,0.0,9.427770344232953e-11,6.906486117126183e-11,4.8899778788732296e-11,3.27771883548826e-11,2.2576448258534385e-11,1.492707208743565e-11,9.3938517102708e-12,5.591771764940768e-12,3.538526950260182e-12,2.164097433859383e-12,1.190668943889769e-12,6.948121099164052e-13,3.88391461809142e-13,2.316065356469867e-13,1.219632180930829e-13,6.526060383881207e-14,3.2812656377291385e-14,4.2440601482185805e-09,2.9924356742192667e-09,2.0539727049814187e-09,1.2252802091137645e-09,7.78377696624582e-10,4.921248882602748e-10,3.2850808198414466e-10,2.370290132736494e-10,1.657723126785887e-10,1.2175734824957662e-10,9.677502748408246e-11,7.189783600253055e-11,5.3650044130315704e-11,4.0428522601077186e-11,2.708529379082367e-11,1.7204628820892397e-11,1.1866266315104736e-11,6.833068882253531e-12,4.220445336840197e-12,2.4786810484593215e-12,1.5681297637206174e-12
0.0,4,4.0,0.0,30.0,0.0,0.0,0.0,0.0,-13.0,0.0,2.0,0.0,0.0,0.0,9.219755601262443e-11,6.522319641159043e-11,4.7245192130188336e-11,3.2432372476515626e-11,2.3254145309702417e-11,1.4401186646115852e-11,9.272933698789065e-12,5.945888695322753e-12,3.622902204506498e-12,2.319776002302414e-12,1.3216738038953437e-12,7.405579324629603e-13,4.011308492239753e-13,2.3776615494474813e-13,1.2215280547841108e-13,6.427647873942301e-14,3.734278335280691e-14,4.1962448652487655e-09,3.1216081113999953e-09,2.0599550722753048e-09,1.275198561623003e-09,7.464086461513736e-10,4.694198449195302e-10,3.3869788153992755e-10,2.2953008572187535e-10,1.6795942849648416e-10,1.250837479739766e-10,9.459829298498727e-11,6.993871762387179e-11,4.999231582069731e-11,3.6859357711918215e-11,2.467111664358823e-11,1.827813233700652e-11,1.1139715390733364e-11,7.101119793657251e-12,4.47224852181773e-12,2.5080007549540762e-12,1.6229645413740594e-12
0.0,5,5.0,0.0,30.0,0.0,0.0,0.0,0.0,-13.0,0.0,2.0,0.0,0.0,0.0,9.029856566592443e-11,6.696027931372226e-11,4.7103316670931816e-11,3.197259545404411e-11,2.306712826333992e-11,1.508398159677203e-11,1.0096075843612186e-11,6.393264306944408e-12,4.083002745392835e-12,2.3900855006096343e-12,1.3366617301452668e-12,7.729364449016277e-13,4.5388994056473084e-13,2.493044139270287e-13,1.3540269208257968e-13,6.743893833573903e-14,3.730567673363407e-14,4.04493571378578e-09,3.0463211547051884e-09,2.0229059545244347e-09,1.2713016880073387e-09,7.670511882207009e-10,4.967809669077243e-10,3.2888349497266904e-10,2.2995211370346062e-10,1.701602232865985e-10,1.267424881176666e-10,9.50898696038024e-11,7.478407095810987e-11,5.15852686440847e-11,3.6284848526058206e-11,2.6175023494989405e-11,1.7821809131396917e-11,1.2095015087359915e-11,7.169536255600703e-12,4.6178252300285424e-12,2.724532003798449e-12,1.546329862356944e-12
0.0,6,6.0,0.0,30.0,0.0,0.0,0.0,0.0,-13.0,0.0,2.0,0.0,0.0,0.0,9.225060409362252e-11,6.566447319284955e-11,4.492850267980117e-11,3.261242998241895e-11,2.247029998026313e-11,1.5564330740650662e-11,9.735855216205497e-12,6.5764786706252416e-12,4.154099388289364e-12,2.247269668928571e-12,1.433399758522486e-12,8.340278209857352e-13,4.531221249932421e-13,2.5399787983140925e-13,1.3898068720749058e-13,7.406246975201216e-14,3.864232637692098e-14,3.90895404611596e-09,3.107867896889125e-09,2.0826666590190397e-09,1.20186737749983e-09,7.251624738043563e-10,4.939646098430456e-10,3.295744539514265e-10,2.394203806102495e-10,1.7181807481901967e-10,1.2992540566775343e-10,9.585514418672856e-11,6.809426972980664e-11,4.909335490077219e-11,3.5327393316816815e-11,2.6864116507928493e-11,1.748470464246786e-11,1.1858091898251597e-11,7.54429773440364e-12,4.71852035829482e-12,2.542133514900367e-12,1.6018464188983059e-12
0.0,7,7.0,0.0,30.0,0.0,0.0,0.0,0.0,-13.0,0.0,2.0,0.0,0.0,0.0,9.571040065612924e-11,6.620329392721669e-11,4.631870204681688e-11,3.313097618731469e-11,2.318559944889507e-11,1.4234559512016043e-11,1.0864903620064827e-11,6.66399988416696e-12,4.022725517213654e-12,2.4577899651792705e-12,1.4975656709149297e-12,8.520455106188211e-13,4.546583012596396e-13,2.86488734462582e-13,1.458711036467122e-13,8.098569596375575e-14,3.983261234090447e-14,4.283605528241029e-09,3.0125606293743296e-09,2.0424366453671243e-09,1.1880391884931245e-09,7.849433814153017e-10,4.976264555362951e-10,3.504865005337707e-10,2.3579391764265417e-10,1.724242431906316e-10,1.3696859753369766e-10,9.112217680639364e-11,6.915214672384125e-11,5.264923263824289e-11,3.6948382950572426e-11,2.6721180291701474e-11,1.7929298230972594e-11,1.2270771089137276e-11,7.470582964133612e-12,5.118984998105983e-12,2.8577273232154744e-12,1.5592658306605921e-12
0.0,8,8.0,0.0,30.0,0.0,0.0,0.0,0.0,-13.0,0.0,2.0,0.0,0.0,0.0,9.666348735842879e-11,6.518672546996542e-11,4.478365244220399e-11,3.162872536087883e-11,2.3415344411423615e-11,1.5558645489362424e-11,1.0362064737955701e-11,6.941583452214153e-12,4.0736921764166815e-12,2.514134219316038e-12,1.5149164992448828e-12,8.937008184517564e-13,5.053333903383984e-13,2.7966139596443837e-13,1.52900593462608e-13,8.170994968064411e-14,4.1595001839748774e-14,3.974075149132587e-09,2.9940699311523884e-09,1.9410050031706017e-09,1.1788318744953443e-09,7.494083101914998e-10,4.865485429218445e-10,3.623458869651015e-10,2.372298693962496e-10,1.8158439004197871e-10,1.3207613624834228e-10,9.123187824899184e-11,7.110102789321948e-11,4.892263650237548e-11,3.3691121678631127e-11,2.6601295775172538e-11,1.7148127150304793e-11,1.2345433908500855e-11,7.706549912269388e-12,5.203012553272973e-12,3.0828394347515473e-12,1.6323895050133696e-12
0.0,9,9.0,0.0,30.0,0.0,0.0,0.0,0.0,-13.0,0.0,2.0,0.0,0.0,0.0,9.352425732975325e-11,6.391976890874646e-11,4.6019628601894294e-11,3.262628552810711e-11,2.2688977613811004e-11,1.5779189719907798e-11,1.0696535838341525e-11,6.911548788838015e-12,4.21715532053115e-12,2.532535727087859e-12,1.6508321447419582e-12,9.065604443038366e-13,5.167808114600368e-13,2.8973354051034147e-13,1.5095070790091226e-13,8.43095847220843e-14,4.382244489056693e-14,4.1269847334992676e-09,3.0140251899413244e-09,1.9830893040912905e-09,1.2501383622882044e-09,7.634647154375796e-10,4.901066444257831e-10,3.431852454131629e-10,2.4307600837204606e-10,1.762208048586301e-10,1.2936333711814392e-10,9.20775662327037e-11,7.03223088085754e-11,4.917134137131012e-11,3.7397313413721086e-11,2.5795402508407257e-11,1.8090069516720865e-11,1.2375160027473553e-11,8.101883019016114e-12,4.689113271323618e-12,2.968752337325616e-12,1.824772241160658e-12
0.0,10,10.0,0.0,30.0,0.0,0.0,0.0,0.0,-13.0,0.0,2.0,0.0,0.0,0.0,9.144944782831747e-11,6.748557368054472e-11,4.3553613967054456e-11,3.186965937483864e-11,2.2958984444785732e-11,1.4968373548692503e-11,1.0285180923713526e-11,6.629782617149826e-12,4.621235166416266e-12,2.7291862978880264e-12,1.663317334731349e-12,9.521423558371656e-13,5.417476940744863e-13,2.9143943142671746e-13,1.6524048260337695e-13,8.708508743140932e-14,4.7970198532530896e-14,4.1672821544556985e-09,3.063686913856675e-09,2.0219091303593344e-09,1.1894748403877164e-09,7.299273516540848e-10,5.032839895586842e-10,3.474903066885179e-10,2.335864132850933e-10,1.8208163951004507e-10,1.349738018130459e-10,9.632060434512747e-11,6.975363225020618e-11,4.9538230647681686e-11,3.480823012052267e-11,2.6509215186044743e-11,1.7827077641947613e-11,1.2091034895798742e-11,8.417375933415256e-12,5.143410848988601e-12,3.093038357610788e-12,1.7788129179637243e-12
0.0,11,11.0,0.0,30.0,0.0,0.0,0.0,0.0,-13.0,0.0,2.0,0.0,0.0,0.0,1.0175888498087565e-10,7.066501177152318e-11,4.8188392232455355e-11,3.3470035029392205e-11,2.1486591521004644e-11,1.5838410876617382e-11,1.0620468990493857e-11,7.034983281945871e-12,4.606090167405346e-12,2.549700784353589e-12,1.65263557514964e-12,9.976118374296613e-13,5.592888595477652e-13,3.045220439388627e-13,1.7799441540331568e-13,9.370516502730912e-14,4.666931336967742e-14,4.04456657789011e-09,2.988742194017969e-09,1.960494045724597e-09,1.2354836775964656e-09,7.566315878877706e-10,4.879015250383092e-10,3.3416429041005984e-10,2.483122132276355e-10,1.8311203773186892e-10,1.3667355791190284e-10,9.676868567162271e-11,7.165009081983289e-11,4.949483463737358e-11,3.5535277449312115e-11,2.5721113833649103e-11,1.7354905430935884e-11,1.2467179274951312e-11,8.104512732258812e-12,5.1059775118152485e-12,3.1262463818900408e-12,2.024273091857652e-12
0.0,12,12.0,0.0,30.0,0.0,0.0,0.0,0.0,-13.0,0.0,2.0,0.0,0.0,0.0,9.697183390626237e-11,6.32994464504334e-11,4.740886965148861e-11,3.2909117768567124e-11,2.257763891956945e-11,1.5334883367516884e-11,1.0568232818223456e-11,7.118104348201939e-12,4.476112552913747e-12,3.038867164790589e-12,1.6739163020605872e-12,9.945605328829618e-13,5.458030301441434e-13,3.320251183923723e-13,1.6887936900907944e-13,9.483366199217017e-14,4.9769092581137993e-14,3.8989102540178125e-09,3.0502382743227362e-09,2.0071137658343277e-09,1.2495549430865072e-09,7.347311642027937e-10,5.124851613069438e-10,3.539010803804725e-10,2.571270717251367e-10,1.896827026241895e-10,1.3097999544129995e-10,9.688593280543483e-11,7.316017527611282e-11,4.718027727723069e-11,3.8130285287409486e-11,2.62035049852168e-11,1.7852292772679378e-11,1.2210587114012073e-11,7.720166909475127e-12,5.016096091125607e-12,3.2599110704938486e-12,1.9698885563238283e-12
0.0,13,13.0,0.0,30.0,0.0,0.0,0.0,0.0,-13.0,0.0,2.0,0.0,0.0,0.0,1.0748505148086501e-10,6.826977186922451e-11,4.65044553251314e-11,3.255958104677986e-11,2.2256730590296094e-11,1.57776620605426e-11,1.08679430100007e-11,7.124131700309647e-12,4.751772960560421e-12,2.8630789486797795e-12,1.743901971943016e-12,1.0279444835117444e-12,5.744769997750401e-13,3.244810716071645e-13,1.7968576114318564e-13,1.0416834724807488e-13,5.3815402420340046e-14,4.123737294343264e-09,2.765920917162086e-09,1.8234204985951845e-09,1.1739630050419124e-09,7.58749418397844e-10,5.052537318361759e-10,3.6237707309505153e-10,2.55909604725574e-10,1.957290386972482e-10,1.3526945974507846e-10,9.650584293007072e-11,6.83845433930161e-11,5.0275693249000165e-11,3.68786523577337e-11,2.5087635251668563e-11,1.834915232097164e-11,1.2628229193149413e-11,7.367182045090059e-12,5.253213102563776e-12,2.8246014382368094e-12,1.8906552180314953e-12
0.0,14,14.0,0.0,30.0,0.0,0.0,0.0,0.0,-13.0,0.0,2.0,0.0,0.0,0.0,1.0426250081576319e-10,6.925433347363548e-11,4.597818818165682e-11,3.2641460634146074e-11,2.2823196810564585e-11,1.574584260783644e-11,1.0706119877645839e-11,7.149371142059596e-12,4.67754020530203e-12,2.821053619658574e-12,1.784483578808783e-12,1.12059158511894e-12,6.140444774971575e-13,3.465428199701213e-13,1.9899807484075204e-13,9.521734733502943e-14,5.628102491684702e-14,3.862044677070255e-09,2.877122305142001e-09,1.932456021000201e-09,1.227341227639486e-09,7.489765941443974e-10,4.898994724144443e-10,3.678503085692459e-10,2.3808155500821113e-10,1.8817644714027405e-10,1.321770978150479e-10,9.80655804156968e-11,7.718217283425427e-11,5.2034700748640194e-11,3.703345106888308e-11,2.4440591988718905e-11,1.7425607750650246e-11,1.2143317646994494e-11,8.063265393009875e-12,5.216415156938891e-12,3.1497246993268183e-12,1.923897650867135e-12
0.0,15,15.0,0.0,30.0,0.0,0.0,0.0,0.0,-13.0,0.0,2.0,0.0,0.0,0.0,1.0310861100199369e-10,6.60234300115393e-11,4.828627722304113e-11,3.419087031931796e-11,2.3481485510228877e-11,1.5683147234863516e-11,1.0533225006629289e-11,6.964598343738396e-12,4.669229427386927e-12,3.06658051511069e-12,1.7223891221511722e-12,1.0738091066857947e-12,6.156053381627037e-13,3.7004856168109544e-13,1.9545070905165204e-13,1.0545255422313687e-13,5.5473246026148724e-14,3.964916086873012e-09,2.811463170446251e-09,1.740949566046233e-09,1.2091325984415274e-09,7.654761026471336e-10,4.991900251347003e-10,3.4530371379128403e-10,2.6158125991193263e-10,1.923384835450788e-10,1.3739330010176598e-10,1.0087053024833692e-10,7.153878861725026e-11,5.232313791699948e-11,3.534425619735663e-11,2.6253583915891462e-11,1.7314905778115474e-11,1.2139170328017755e-11,7.594405951083219e-12,4.998367907981882e-12,3.1450897170961573e-12,1.6879894825723585e-12
0.0,16,16.0,0.0,30.0,0.0,0.0,0.0,0.0,-13.0,0.0,2.0,0.0,0.0,0.0,1.0326255505871692e-10,6.982383920291547e-11,4.614435082079845e-11,3.2337135511348284e-11,2.3587002780815902e-11,1.631584382622538e-11,1.0771975141297208e-11,7.321319338553621e-12,4.752856218532615e-12,3.02916536119668e-12,1.9301468382392935e-12,1.0669596993253376e-12,6.659937783713989e-13,3.670645849009551e-13,2.0336259043798568e-13,1.0939042372864966e-13,5.699544022683006e-14,3.7452493378562324e-09,2.8423666699536057e-09,2.0008735661378424e-09,1.184134010688861e-09,7.562025507409138e-10,4.946775792161305e-10,3.58604851009719e-10,2.651759523817915e-10,1.902048338822237e-10,1.3908760069018344e-10,1.039779134053674e-10,7.238579796895652e-11,5.355167225987758e-11,3.8302623985884016e-11,2.7130030919329533e-11,1.781067348964666e-11,1.2553125452473253e-11,8.213244443150423e-12,4.922956055833093e-12,3.0001335326061766e-12,1.855412122689763e-12
0.0,17,17.0,0.0,30.0,0.0,0.0,0.0,0.0,-13.0,0.0,2.0,0.0,0.0,0.0,1.0732809629431633e-10,7.126589895813548e-11,4.8289988930133316e-11,3.5495157640866344e-11,2.348318109844393e-11,1.4823291681911913e-11,1.0939217219071252e-11,7.369365906819954e-12,4.781399222397521e-12,3.069749833530627e-12,1.8806326246892076e-12,1.0927796189954874e-12,6.596945660530222e-13,3.69900741418256e-13,2.0456377558572548e-13,1.0927421406117695e-13,6.050039778374134e-14,3.874979429677421e-09,2.7708976181686976e-09,1.8579374559687011e-09,1.18194618296831e-09,7.816852089779135e-10,4.773153327739688e-10,3.6705373186911666e-10,2.599385073873518e-10,1.8356091712892043e-10,1.3436348989433274e-10,1.0111864731307103e-10,7.580615072862271e-11,5.435899352756476e-11,3.6652958633619036e-11,2.703097295164915e-11,1.869336681667852e-11,1.219189885206274e-11,7.783348937208397e-12,5.3073076507173875e-12,3.2772249148718322e-12,1.9993437327946303e-12
0.0,18,18.0,0.0,30.0,0.0,0.0,0.0,0.0,-13.0,0.0,2.0,0.0,0.0,0.0,1.0326958570545736e-10,6.60920758412393e-11,5.284224886318865e-11,3.255194422179308e-11,2.33955003955808e-11,1.712973077106113e-11,1.096776587395525e-11,7.483219751870025e-12,4.557804761607784e-12,2.8914754078295483e-12,1.877235592277397e-12,1.1943196892506477e-12,6.735430293488782e-13,3.8038650894336607e-13,2.1740184391576143e-13,1.2096764463248445e-13,5.834889626037097e-14,3.69929598881778e-09,2.724475625338678e-09,1.9464168415185067e-09,1.1880000116439612e-09,8.068484733855082e-10,5.251284829087958e-10,3.6575667212856034e-10,2.772274536345483e-10,1.9808671870631106e-10,1.413652666992027e-10,1.0737525085924085e-10,7.461253621718712e-11,5.385284507714001e-11,3.961384914529276e-11,2.6339679895884595e-11,1.7553244583157797e-11,1.188525182929907e-11,8.194455724942064e-12,4.99644027488352e-12,3.1219825668245316e-12,1.8473718746954734e-12
0.0,19,19.0,0.0,30.0,0.0,0.0,0.0,0.0,-13.0,0.0,2.0,0.0,0.0,0.0,1.0718461804113957e-10,7.222116776034556e-11,4.780400246701239e-11,3.35973819203206e-11,2.2918220466910514e-11,1.6654278246715736e-11,1.1153542618506906e-11,7.42297866990407e-12,4.720440093425891e-12,3.0011486270178477e-12,1.8991493300597475e-12,1.1365110252825201e-12,7.45238343505456e-13,3.713187494674926e-13,2.25265730025398e-13,1.1538058194821227e-13,6.292708549194588e-14,3.7004857690611693e-09,2.67441508565742e-09,1.810306492305226e-09,1.2388420662110417e-09,7.567185709549933e-10,5.020719515771375e-10,3.7561090680073973e-10,2.700764636984375e-10,2.034691844009594e-10,1.3818088202752548e-10,1.0748568599756742e-10,7.891348567955312e-11,5.220755253907691e-11,3.9006351305849795e-11,2.800888522748744e-11,1.8086269182768193e-11,1.2398373306700355e-11,8.104279755860213e-12,4.964194741040316e-12,3.1818105952293543e-12,1.7302178806989419e-12
0.0,20,20.0,0.0,30.0,0.0,0.0,0.0,0.0,-13.0,0.0,2.0,0.0,0.0,0.0,1.0641049114484995e-10,7.450277155851508e-11,5.18646862151989e-11,3.487110219076498e-11,2.4265843793994703e-11,1.5601206794280167e-11,1.0887909736505834e-11,7.316943373564277e-12,5.077563504783221e-12,3.0756655699794643e-12,1.9178598932662167e-12,1.1899352170099698e-12,6.855503463893775e-13,4.086823243562765e-13,2.2413269878054299e-13,1.1640514021176664e-13,6.47645796101025e-14,3.752015394197695e-09,2.61938194838674e-09,1.8607916797452985e-09,1.2268309442201705e-09,7.733104045028526e-10,5.266407264649939e-10,3.5786896838436813e-10,2.768791186202434e-10,2.0244657478760272e-10,1.503331981952819e-10,1.091967333628755e-10,7.487482054363827e-11,5.552605396091266e-11,3.801588195691766e-11,2.6845830367843854e-11,1.7715804680016844e-11,1.2628128720733902e-11,7.71648896072945e-12,4.9266807146628735e-12,3.1865965143348225e-12,1.789763483879741e-12
0.0,21,21.0,0.0,30.0,0.0,0.0,0.0,0.0,-13.0,0.0,2.0,0.0,0.0,0.0,1.0777726749261336e-10,7.29143773913993e-11,5.3496126863162584e-11,3.601943093644202e-11,2.390151732104595e-11,1.6035855565798268e-11,1.126954344993275e-11,7.42088704313283e-12,4.8983791612116e-12,3.109709363967467e-12,1.86397065200241e-12,1.1993259658515165e-12,7.045042257453066e-13,4.220129316020333e-13,2.386985186769591e-13,1.236782153327112e-13,6.764669492801363e-14,3.958415506184954e-09,2.6814336158005326e-09,1.9485183009936607e-09,1.1421608445197537e-09,7.638311152210838e-10,5.204178690724914e-10,3.7654897033983833e-10,2.690953745615771e-10,2.0036681126492548e-10,1.468201962853556e-10,1.102402446249453e-10,7.980238424568324e-11,6.001801956902185e-11,4.096109892468291e-11,2.673059458273215e-11,1.853335108260555e-11,1.2567123573666229e-11,7.9606603698851e-12,5.07770920263208e-12,3.1830494090659313e-12,2.0159591834935537e-12
0.0,22,22.0,0.0,30.0,0.0,0.0,0.0,0.0,-13.0,0.0,2.0,0.0,0.0,0.0,1.0767622674700445e-10,7.4914398702132e-11,5.2627532773592964e-11,3.5879153779837375e-11,2.4319541229988906e-11,1.6147187670729977e-11,1.1326344922217606e-11,7.823080870522264e-12,4.8997467388872475e-12,3.1085524302725877e-12,2.0228239096902358e-12,1.1966113006152362e-12,7.097528703126879e-13,4.216130864737922e-13,2.1784384187330188e-13,1.2453121358808644e-13,6.747715731665346e-14,3.584962851032801e-09,2.6341107794652243e-09,1.8213911248102441e-09,1.1125578125042826e-09,7.561385703023826e-10,5.157960307151446e-10,3.8037087219935305e-10,2.888380582888489e-10,2.075438583449864e-10,1.5179373138341208e-10,1.1086477830718604e-10,8.054104594474151e-11,5.518951210728108e-11,3.96478928064998e-11,2.7682807231498986e-11,1.773090776282249e-11,1.2587651147844173e-11,8.255013084502246e-12,4.977698858221907e-12,3.1423968230462796e-12,1.8157701551351606e-12
0.0,23,23.0,0.0,30.0,0.0,0.0,0.0,0.0,-13.0,0.0,2.0,0.0,0.0,0.0,1.1417794285267901e-10,7.410852690337026e-11,5.21275021406551e-11,3.4989481080541857e-11,2.4397779201377393e-11,1.555536394786802e-11,1.1496598903672784e-11,7.1618307968335426e-12,4.8633431701905675e-12,3.1195012534867328e-12,1.94533672530464e-12,1.1952567561567152e-12,7.561683113030674e-13,4.2122764517100124e-13,2.4284371660765833e-13,1.2867163160251985e-13,6.839714319474111e-14,3.763300788199139e-09,2.7759070734229066e-09,1.8268585853116393e-09,1.1188087415617362e-09,8.139097369938158e-10,5.144472566429277e-10,3.6610984221062333e-10,3.0436944657348743e-10,2.0648563941577323e-10,1.4687341918388106e-10,1.0963068811816125e-10,8.188214743751277e-11,5.794592977698016e-11,3.9213682269594665e-11,2.924440409499844e-11,1.837311316716637e-11,1.1883468108459182e-11,8.253849677095026e-12,5.341885833088654e-12,3.0632393644121708e-12,1.7560750360718104e-12
0.0,24,24.0,0.0,30.0,0.0,0.0,0.0,0.0,-13.0,0.0,2.0,0.0,0.0,0.0,1.1669821597282388e-10,7.269504633128557e-11,5.111759924325086e-11,3.7345407312516574e-11,2.454401189632941e-11,1.6430090835096668e-11,1.1231795755755352e-11,7.3668542131634e-12,4.678797332373756e-12,3.2717091982773588e-12,2.0819023472089726e-12,1.2461618575794304e-12,7.451542595267741e-13,4.64964946480585e-13,2.431291830741564e-13,1.335594983470802e-13,7.23522079405294e-14,3.8473044041221684e-09,2.8110916257325182e-09,1.8136025177259468e-09,1.1782231005492827e-09,7.387128629839302e-10,5.270199690516525e-10,3.7799121867881835e-10,2.7705737718319455e-10,2.2229527915085041e-10,1.5186381628890191e-10,1.115356403492082e-10,8.290035299109453e-11,6.059076033184733e-11,4.130603168024944e-11,3.035554129394137e-11,1.8804150478099913e-11,1.2527668837157652e-11,8.112552752649983e-12,5.371373689484554e-12,3.2476715481392537e-12,1.9048176203568993e-12
0.0,25,25.0,0.0,30.0,0.0,0.0,0.0,0.0,-13.0,0.0,2.0,0.0,0.0,0.0,1.1133335937639918e-10,7.894843435991115e-11,5.5929498547488955e-11,3.622587990072195e-11,2.521133055937316e-11,1.6813421057742178e-11,1.146723107307533e-11,7.2498846036135494e-12,5.226504673939831e-12,3.040348161142089e-12,1.990415183569066e-12,1.283189054483616e-12,7.588198196840427e-13,4.513726477291481e-13,2.4554300832492976e-13,1.3691786083205036e-13,7.306508265812959e-14,3.830753158277271e-09,2.7206591996780023e-09,1.8628693556956013e-09,1.1435155498758373e-09,7.960149606498082e-10,5.397958272757021e-10,4.081211014051838e-10,3.065338793529566e-10,2.123002401394462e-10,1.5563026133596173e-10,1.1181064969015493e-10,8.26705227179588e-11,5.835110592100543e-11,4.164250164383024e-11,2.820713448037453e-11,1.8824286954267703e-11,1.2941046104008835e-11,7.838098710426946e-12,5.201888519018391e-12,3.1242479755656794e-12,2.0023573499662424e-12
0.0,26,26.0,0.0,30.0,0.0,0.0,0.0,0.0,-13.0,0.0,2.0,0.0,0.0,0.0,1.208280726318325e-10,7.858925256486235e-11,5.500345260865946e-11,3.726901979495152e-11,2.4456514154294145e-11,1.6947783342296055e-11,1.1344364507298827e-11,7.553268753598889e-12,4.868652807403286e-12,3.180635153081912e-12,1.9520119253369204e-12,1.2431325923296302e-12,7.721208105631572e-13,4.579539259436972e-13,2.499481385435726e-13,1.4018007806912558e-13,7.509572812150618e-14,3.6542820162676993e-09,2.6911916621967883e-09,1.712560089033053e-09,1.1642973581756187e-09,7.823411134611499e-10,5.243012560391206e-10,4.1582796616386683e-10,2.939467381779409e-10,2.2716041060545628e-10,1.5579297022895843e-10,1.1309085055843863e-10,8.46408525337903e-11,5.67387936390082e-11,4.195547943111747e-11,2.8734107810801654e-11,1.982373063108815e-11,1.2909142659351747e-11,8.024059774857774e-12,4.9385107311978246e-12,3.4215174520632513e-12,1.8282073067093706e-12
0.0,27,27.0,0.0,30.0,0.0,0.0,0.0,0.0,-13.0,0.0,2.0,0.0,0.0,0.0,1.1376503679992958e-10,7.765038190157488e-11,5.674734829268777e-11,3.6886515327903273e-11,2.4731606647927822e-11,1.7038676214230927e-11,1.12509304605868e-11,7.34318782374865e-12,5.0250800737362985e-12,3.283000019234953e-12,2.0898971963600154e-12,1.2934798248411326e-12,7.754214171913437e-13,4.2710727713582555e-13,2.6984859533335925e-13,1.4344418898383945e-13,7.750706924619345e-14,3.7267501487469056e-09,2.7444112420175293e-09,1.8263561482905615e-09,1.1811182932972701e-09,7.66269003225258e-10,5.456090794581709e-10,3.8996353229989765e-10,2.896793503837192e-10,2.1385718923066955e-10,1.6088745280995148e-10,1.214592612148955e-10,9.324404667676506e-11,6.083259345529579e-11,4.04712576035197e-11,3.008295376767445e-11,1.925342224934827e-11,1.2487525940966177e-11,8.245808798066757e-12,4.933250419776505e-12,3.2216116841897712e-12,1.9107295368128532e-12
0.0,28,28.0,0.0,30.0,0.0,0.0,0.0,0.0,-13.0,0.0,2.0,0.0,0.0,0.0,1.1926753946491156e-10,8.215996640407346e-11,5.5650698261745296e-11,3.7894527281868496e-11,2.5773661995581068e-11,1.7329779945588766e-11,1.1047678082906913e-11,7.2104890636591435e-12,4.922218988601067e-12,3.053722091579528e-12,2.0428057972842468e-12,1.3071876015602095e-12,7.863879839358485e-13,4.417072912794753e-13,2.535966216811319e-13,1.4587353430028605e-13,7.638814795915413e-14,3.5459577852523744e-09,2.661414863015044e-09,1.7432815813782134e-09,1.1521018316590833e-09,7.652926860539697e-10,5.326004333698423e-10,3.942192532200948e-10,3.0579645347528263e-10,2.2291870061973893e-10,1.594296290303066e-10,1.1844612162186218e-10,8.197802933827117e-11,5.988609824134937e-11,4.544912111492979e-11,2.92284897673234e-11,2.0076852772157688e-11,1.2843025031137835e-11,8.344498941955938e-12,5.310224538669265e-12,3.0457448243864738e-12,1.9193034642223424e-12
0.0,29,29.0,0.0,30.0,0.0,0.0,0.0,0.0,-13.0,0.0,2.0,0.0,0.0,0.0,1.2611394506340405e-10,8.025238910371582e-11,5.5224647626926705e-11,3.7935009015758955e-11,2.6021035269284562e-11,1.754120853398931e-11,1.192077990135757e-11,7.688329351006541e-12,4.9409866348959466e-12,3.3214727577831814e-12,2.087681543026881e-12,1.220351840365665e-12,8.369488288193125e-13,4.851440736409559e-13,2.6232979497483334e-13,1.4831058045676467e-13,8.216356092140682e-14,3.535521883540874e-09,2.6551836183947025e-09,1.849013466095874e-09,1.1312764060024067e-09,7.739852878061428e-10,5.700751656400132e-10,4.1481355227853076e-10,3.1183118085419967e-10,2.245583006419212e-10,1.6445578202091831e-10,1.1357445717644792e-10,8.431511866607483e-11,6.208139336761737e-11,4.427216042844374e-11,3.012162859852091e-11,1.9775637509178355e-11,1.2885527442788032e-11,8.376201211627292e-12,5.231319644446e-12,3.4038177360870853e-12,1.942486745174827e-12
0.0,30,30.0,0.0,30.0,0.0,0.0,0.0,0.0,-13.0,0.0,2.0,0.0,0.0,0.0,1.165131341686173e-10,8.003787646400055e-11,5.94196099130859e-11,3.73471657817058e-11,2.667242273142361e-11,1.728608833754072e-11,1.1512865380905903e-11,7.588296484099419e-12,5.152760517120067e-12,3.1919822692847644e-12,2.0490891331092825e-12,1.2245018672451906e-12,7.879376794701663e-13,4.722576768305131e-13,2.6871121525935367e-13,1.5509037157568415e-13,8.022444054191659e-14,3.559562920508677e-09,2.7099894252600646e-09,1.700461437721919e-09,1.1519096113209947e-09,8.265615257980446e-10,5.755976133671266e-10,4.222443310460402e-10,3.149010625299551e-10,2.306382539688321e-10,1.7630876242356828e-10,1.2378440436002643e-10,8.907329344018928e-11,6.30634686334011e-11,4.3973827655520954e-11,2.8941940614054527e-11,2.0541500183943902e-11,1.3072248338961938e-11,8.88179030257505e-12,5.235393044555689e-12,3.2794294063632076e-12,1.9576173635867037e-12
0.0,31,31.0,0.0,30.0,0.0,0.0,0.0,0.0,-13.0,0.0,2.0,0.0,0.0,0.0,1.2116240121771984e-10,8.67388029232869e-11,6.077700233600284e-11,3.9114665517187666e-11,2.610304453126686e-11,1.7400088446801606e-11,1.1000967111686658e-11,7.625044386941441e-12,5.0302627694182595e-12,3.3229348162720504e-12,2.11680964559731e-12,1.2726314756780549e-12,7.812325663731932e-13,4.845822774817879e-13,2.6829705852186114e-13,1.4833452841959398e-13,8.502143873752381e-14,3.6111424130846617e-09,2.5681647440187383e-09,1.7459016453490064e-09,1.0988135721797237e-09,8.114842466619203e-10,5.500100064682316e-10,3.9397112355293156e-10,3.259131950183099e-10,2.3589830116007067e-10,1.644863408296059e-10,1.1948028596195585e-10,9.191371131840659e-11,6.186931018695349e-11,4.5972599678540585e-11,3.0901678363311636e-11,2.062415184109577e-11,1.342550538624378e-11,8.515108909956916e-12,5.450473913962436e-12,3.171676011469497e-12,1.943532346297088e-12
0.0,32,32.0,0.0,30.0,0.0,0.0,0.0,0.0,-13.0,0.0,2.0,0.0,0.0,0.0,1.278769762947302e-10,8.670579625512173e-11,5.607739510122349e-11,3.896916211620381e-11,2.6812558171708574e-11,1.7534646149634055e-11,1.2383633747174702e-11,7.624591227843047e-12,4.991938840545107e-12,3.306646928860271e-12,2.084285135134572e-12,1.2879717817961697e-12,7.740930088614371e-13,4.766368956179418e-13,2.8102119375198554e-13,1.548421356409586e-13,8.049052094228068e-14,3.6577006955049526e-09,2.4408686716179836e-09,1.688114167809499e-09,1.2051102616939626e-09,8.078604964110034e-10,5.613412692228092e-10,4.095964440190648e-10,3.370455533269029e-10,2.3528796544899224e-10,1.7534217688398463e-10,1.268286103997067e-10,9.19095595424563e-11,6.538251686784496e-11,4.576821821521336e-11,3.034240215527596e-11,2.0336798928378833e-11,1.2676117040025581e-11,8.326052759591325e-12,5.3753312588623216e-12,3.396951831849449e-12,2.0083360690196458e-12
0.0,33,33.0,0.0,30.0,0.0,0.0,0.0,0.0,-13.0,0.0,2.0,0.0,0.0,0.0,1.2536606106905833e-10,8.304596269799842e-11,5.394120568846034e-11,4.138252763407109e-11,2.640978316075414e-11,1.7678583452084743e-11,1.1901962073033648e-11,7.440197888199475e-12,4.988763438454266e-12,3.4406613726815246e-12,2.1014656466954323e-12,1.312151592708215e-12,7.582074583988305e-13,5.077955145686189e-13,2.632223866908044e-13,1.6351466000305088e-13,7.802342327211607e-14,3.5967736196310652e-09,2.660124145193372e-09,1.723791512167233e-09,1.1886578308791507e-09,8.21060482321651e-10,5.624249690521541e-10,4.0999472543158175e-10,3.0656509105410035e-10,2.41448738905692e-10,1.7444142926681684e-10,1.251336413347878e-10,9.456472548831973e-11,6.613805572676317e-11,4.4293182763395046e-11,2.992187450748184e-11,2.1077383375947528e-11,1.3312985652114287e-11,8.648919700619186e-12,5.66443372109779e-12,3.339258561612131e-12,1.845628375911654e-12
0.0,34,34.0,0.0,30.0,0.0,0.0,0.0,0.0,-13.0,0.0,2.0,0.0,0.0,0.0,1.2891279287310763e-10,8.488844480159061e-11,6.240937065151873e-11,3.9762721931850607e-11,2.733217192156205e-11,1.8257391204952934e-11,1.201246061210357e-11,7.362586370333188e-12,4.8486425014129905e-12,3.212000088958767e-12,2.0963117349988508e-12,1.2970601620633692e-12,7.766799457591153e-13,4.593758997159518e-13,2.741039162839214e-13,1.5387829047945993e-13,8.627159511676304e-14,3.3927552615250044e-09,2.5684983601020287e-09,1.7318677493182527e-09,1.1676378111940363e-09,8.049967160970136e-10,5.687902244242129e-10,4.419796867481021e-10,3.1546379131399723e-10,2.3701629378897e-10,1.7685534718674895e-10,1.2395586928556815e-10,9.218104529513799e-11,6.455172181338256e-11,4.5336587091093565e-11,3.1352063651793277e-11,2.0469619988359212e-11,1.3588107688042291e-11,9.070656191972102e-12,5.404658068731481e-12,3.449513105942518e-12,1.99306088816824e-12
0.0,35,35.0,0.0,30.0,0.0,0.0,0.0,0.0,-13.0,0.0,2.0,0.0,0.0,0.0,1.3297617309896006e-10,8.641721378159299e-11,6.042904364868072e-11,4.105847497346019e-11,2.694100741500112e-11,1.7813033894856353e-11,1.1518854439856362e-11,8.23240963423589e-12,4.948357339770529e-12,3.401479767056881e-12,2.0536884158044377e-12,1.2727284796129652e-12,8.180228309269766e-13,4.725074326741831e-13,2.8454252099636936e-13,1.5614052142920052e-13,8.727728458680295e-14,3.302909260027963e-09,2.571949380182293e-09,1.7855071063737923e-09,1.1474992431358429e-09,8.845027615028813e-10,5.981768435587535e-10,4.693807860628139e-10,3.433561612472303e-10,2.4266080187332463e-10,1.774230898681378e-10,1.291131230881039e-10,8.911952919882143e-11,6.539459967441164e-11,4.677323029106221e-11,3.323767645904877e-11,2.071628054084969e-11,1.4202973376540697e-11,8.436964513724299e-12,5.343099286495252e-12,3.245559805888838e-12,2.0044756787424412e-12
0.0,36,36.0,0.0,30.0,0.0,0.0,0.0,0.0,-13.0,0.0,2.0,0.0,0.0,0.0,1.334578766563573e-10,9.216412405607405e-11,6.236306561819051e-11,4.1652453980287486e-11,2.8056240481993692e-11,1.9318799889588707e-11,1.197632738187093e-11,8.121786345414827e-12,4.848884404572047e-12,3.32401603042141e-12,2.0593268638892265e-12,1.3106205849213774e-12,8.312989066135352e-13,4.866901630510782e-13,2.8939592761859036e-13,1.664882449624027e-13,8.807001524566758e-14,3.496232746373425e-09,2.4720111720629343e-09,1.7563648194467335e-09,1.1653781052439737e-09,8.517399754670768e-10,6.024268972124819e-10,4.379367088294848e-10,3.3353616045312827e-10,2.551000454463735e-10,1.8187797976317924e-10,1.2867237990463945e-10,9.590888564169574e-11,6.360922344888451e-11,4.8079227157805914e-11,3.173731383903101e-11,2.114597633719207e-11,1.4351637560337119e-11,8.489330672513823e-12,5.879252714007834e-12,3.265137518507776e-12,1.9099602187682775e-12
0.0,37,37.0,0.0,30.0,0.0,0.0,0.0,0.0,-13.0,0.0,2.0,0.0,0.0,0.0,1.374626355136325e-10,9.2630273723722e-11,6.621442028872223e-11,4.15490965522059e-11,2.7920233990147285e-11,1.7792431811191675e-11,1.214736714021925e-11,7.824540329707149e-12,5.0889106169702475e-12,3.1257972407875537e-12,2.2010931964321027e-12,1.2585429055659799e-12,7.409613403822951e-13,4.693436725217743e-13,2.78663062412342e-13,1.5509063952016843e-13,9.10713730159125e-14,3.3400698068500406e-09,2.486131789179793e-09,1.7866358517507123e-09,1.198535155994457e-09,8.570629058902868e-10,5.816278169887376e-10,4.4295843863431035e-10,3.4318830675314994e-10,2.316962480076532e-10,1.7697034670190433e-10,1.3624152464741923e-10,9.538639293394709e-11,7.041306367395229e-11,4.872199278972881e-11,3.1346087664886856e-11,2.1959563768404128e-11,1.464688092348431e-11,9.00917477540706e-12,5.363009791300529e-12,3.4823105209770687e-12,2.055022026950605e-12
0.0,38,38.0,0.0,30.0,0.0,0.0,0.0,0.0,-13.0,0.0,2.0,0.0,0.0,0.0,1.3733242419027236e-10,9.381745605783868e-11,5.680809974476043e-11,4.3401505930269944e-11,2.9851314485961386e-11,1.904617199813747e-11,1.2449932487750172e-11,8.228001556399732e-12,5.243721222538742e-12,3.3789424753357242e-12,2.1040570416407734e-12,1.2879695732004296e-12,7.872893449798275e-13,4.743264594099754e-13,2.7384239785360716e-13,1.568296288840443e-13,9.393394683534783e-14,3.4062247565271405e-09,2.426358849077079e-09,1.7323747062143316e-09,1.1972930082075047e-09,8.231805221164519e-10,6.097316669656159e-10,4.668011856712338e-10,3.406735401605987e-10,2.5679459846179537e-10,1.9210677554506888e-10,1.3492406117204736e-10,9.889156334627795e-11,6.871085451723523e-11,4.810291168790954e-11,3.25788858208488e-11,2.1582679104988836e-11,1.4351363711548572e-11,9.221555788163404e-12,5.6325184910675745e-12,3.4543167932852716e-12,1.906400377792694e-12
0.0,39,39.0,0.0,30.0,0.0,0.0,0.0,0.0,-13.0,0.0,2.0,0.0,0.0,0.0,1.3197668462585818e-10,9.417076767407099e-11,6.446711808304078e-11,4.282481084826631e-11,2.977044025296717e-11,1.9500479593426072e-11,1.349321929586354e-11,8.074165467842858e-12,5.0684139050853994e-12,3.2567459754379064e-12,2.0758358590571553e-12,1.3410937673552695e-12,7.616002723618573e-13,5.10580057613709e-13,2.853394402272322e-13,1.6219892683132975e-13,8.671591214416427e-14,3.2970978499520126e-09,2.4629476639174736e-09,1.7456061353004003e-09,1.2109216077099326e-09,8.321437676994299e-10,5.990312406344052e-10,4.697196113352145e-10,3.467418836116538e-10,2.5929535866201725e-10,1.9574973990634933e-10,1.3364807203170712e-10,9.679592645366906e-11,7.288858961611374e-11,4.6559003497933136e-11,3.197161953497827e-11,2.273055560423374e-11,1.4533698879608639e-11,9.180238080351461e-12,5.638093743739222e-12,3.41468240209375e-12,1.9937515260425058e-12
0.0,40,40.0,0.0,30.0,0.0,0.0,0.0,0.0,-13.0,0.0,2.0,0.0,0.0,0.0,1.443843221716957e-10,9.306420169569476e-11,6.361423428037062e-11,4.5572667616441804e-11,2.893910274052142e-11,2.0453196500481462e-11,1.2561429824322897e-11,8.523888514922143e-12,4.9988708979071965e-12,3.363517548920238e-12,2.018984171474965e-12,1.3597790370589156e-12,7.871146696122133e-13,4.972767135466069e-13,2.865643850605228e-13,1.5882458408711446e-13,8.598406900511813e-14,3.236309423275613e-09,2.5800655929815396e-09,1.7364449660933352e-09,1.2378961428853375e-09,8.534655007072047e-10,6.392677063266165e-10,4.4257006480396273e-10,3.4626610043022406e-10,2.688287854165181e-10,1.914213688935096e-10,1.3939385280110594e-10,9.936037129066755e-11,7.358680378513201e-11,4.976928117488348e-11,3.371986762680652e-11,2.2865902819185993e-11,1.4846356912589663e-11,9.305327331479714e-12,6.016349883993432e-12,3.4295708957707483e-12,2.0499468550769316e-12
0.0,41,41.0,0.0,30.0,0.0,0.0,0.0,0.0,-13.0,0.0,2.0,0.0,0.0,0.0,1.378856642738212e-10,9.582111613321949e-11,6.777742875387373e-11,4.289155262378338e-11,2.8227535219079168e-11,1.9936913699026618e-11,1.265820671343587e-11,8.277958977607624e-12,5.2891253962900355e-12,3.374240577732338e-12,2.182573360139216e-12,1.2967370708737397e-12,7.943888714920906e-13,4.961677423502547e-13,2.7643729342646695e-13,1.5885226451681521e-13,9.694904505221862e-14,3.339940539349397e-09,2.4421971417044836e-09,1.8175816852912883e-09,1.1735120952582058e-09,8.549279443250488e-10,6.422239681297543e-10,4.871890931299785e-10,3.6087291490144326e-10,2.4486242827768825e-10,1.8939203316464928e-10,1.4369616453306818e-10,1.0090816351252901e-10,7.7536099822847e-11,5.132351310796706e-11,3.4642715970430116e-11,2.1911320029961003e-11,1.4722451693641225e-11,9.408655730947637e-12,5.989132618427822e-12,3.5943467971604753e-12,2.152109374009929e-12
0.0,42,42.0,0.0,30.0,0.0,0.0,0.0,0.0,-13.0,0.0,2.0,0.0,0.0,0.0,1.3853753738612428e-10,1.0070740339768457e-10,6.276838565672128e-11,4.352248535180638e-11,2.991313087628969e-11,1.9461026972824546e-11,1.2443117989147031e-11,8.11648887534729e-12,5.085776667757075e-12,3.439199654921631e-12,2.218021920629441e-12,1.3304028396811988e-12,8.117643421321305e-13,4.746413028412922e-13,2.9998419954971284e-13,1.782001653783546e-13,8.698378003521427e-14,3.1420552384498392e-09,2.3851112295621888e-09,1.7242227708435892e-09,1.226797104388715e-09,9.138609848655411e-10,6.575343201834088e-10,4.885629829432785e-10,3.5258730754807524e-10,2.5980847491703263e-10,1.930761324712677e-10,1.5028620047725016e-10,1.031660697233067e-10,7.19843172300688e-11,5.026631850723662e-11,3.532573294946432e-11,2.2020468914613287e-11,1.554397779097e-11,9.479129357866921e-12,5.7755443238332285e-12,3.5612171750319034e-12,2.0711735579120112e-12
0.0,43,43.0,0.0,30.0,0.0,0.0,0.0,0.0,-13.0,0.0,2.0,0.0,0.0,0.0,1.4292006649722652e-10,9.711631401214242e-11,6.454933304263814e-11,4.5620067107915126e-11,2.936957901837545e-11,1.917588308376467e-11,1.3011700768581233e-11,8.724680705791774e-12,5.363884542393146e-12,3.3427017115925026e-12,2.172559023321169e-12,1.4165698683427485e-12,7.880572276388389e-13,5.039805810723065e-13,2.950621034828717e-13,1.7390026779486145e-13,9.595133744775249e-14,3.2083078973094935e-09,2.3048454127926577e-09,1.7986572952715445e-09,1.1955104488250308e-09,8.555709742665963e-10,6.685240420216347e-10,4.742353188880783e-10,3.809267177755363e-10,2.7543321028193596e-10,2.0252718904037006e-10,1.469395499549734e-10,9.958970035627217e-11,6.995889837638803e-11,5.14990935106271e-11,3.547063616633623e-11,2.3247866354895903e-11,1.467517204789741e-11,9.534091708971573e-12,5.85842338631301e-12,3.388242745823783e-12,2.179811097482702e-12
0.0,44,44.0,0.0,30.0,0.0,0.0,0.0,0.0,-13.0,0.0,2.0,0.0,0.0,0.0,1.3877348349405363e-10,1.0087417637069646e-10,6.785986782995856e-11,4.662270056503648e-11,2.925487608373162e-11,1.9998661117087217e-11,1.3916729889638175e-11,8.627772562636278e-12,5.427051508934945e-12,3.480559358562214e-12,2.1619079078975356e-12,1.4315871507628095e-12,8.507102213108128e-13,4.985167053984044e-13,2.967175709315113e-13,1.6688028284274225e-13,9.732685026518867e-14,3.0728140918776777e-09,2.304730342750968e-09,1.836251784546553e-09,1.3143307039773077e-09,9.02406669842192e-10,6.567616978469458e-10,5.04085120518208e-10,3.635898304945717e-10,2.780347811625338e-10,2.0370090204616272e-10,1.5039165521017317e-10,1.0118362375856064e-10,7.37142736228553e-11,5.311431971106631e-11,3.4565302297787184e-11,2.2743499264990864e-11,1.6170182987615536e-11,9.637101734071044e-12,5.813539073804381e-12,3.311273239121147e-12,2.1621773796789904e-12
0.0,45,45.0,0.0,30.0,0.0,0.0,0.0,0.0,-13.0,0.0,2.0,0.0,0.0,0.0,1.5147993432025215e-10,9.951051528591726e-11,6.566325656084892e-11,4.573870296836068e-11,2.972318091641137e-11,1.9567133707426175e-11,1.3144761487235996e-11,8.261313520752488e-12,5.49093229083696e-12,3.5090062388647515e-12,2.1119646895054595e-12,1.292618959444768e-12,8.674950137580762e-13,4.871147393340078e-13,2.897358625542986e-13,1.7091125486494104e-13,9.618298564917528e-14,3.166429480933507e-09,2.449526006867546e-09,1.7420321618834716e-09,1.207315239468757e-09,9.381175021449599e-10,7.125943773809757e-10,5.267972294415358e-10,3.777549845176572e-10,2.9606154949733055e-10,2.0857977342982193e-10,1.4752925588475282e-10,1.0908447745201396e-10,7.560721408216706e-11,5.0889068334914033e-11,3.473271995176298e-11,2.4288017787580885e-11,1.4506536220257206e-11,9.909713987062106e-12,5.653911773766725e-12,3.27887997479734e-12,1.8753270807172654e-12
0.0,46,46.0,0.0,30.0,0.0,0.0,0.0,0.0,-13.0,0.0,2.0,0.0,0.0,0.0,1.5927623002175912e-10,1.0112094421843559e-10,6.892292574054735e-11,4.8271944535990105e-11,3.16787654030597e-11,1.9488009241282196e-11,1.3653869082586717e-11,8.649525332962669e-12,5.434960870323743e-12,3.470283713755951e-12,2.2607753501269938e-12,1.3168920718597698e-12,8.410290644137328e-13,5.025714237976734e-13,2.8061107546121324e-13,1.6647300250162365e-13,9.559874678455423e-14,3.298492725804826e-09,2.484515984835247e-09,1.799806985051921e-09,1.222482893326437e-09,9.58903447638563e-10,6.762348918543243e-10,4.930737489406629e-10,3.795517285144853e-10,2.923783742228129e-10,2.0939712348710476e-10,1.558069075186807e-10,1.1264663067788592e-10,7.772970790489411e-11,5.171984837879242e-11,3.626732639646957e-11,2.4010274243864396e-11,1.6428780465280207e-11,9.316174318066773e-12,6.018917025523707e-12,3.5367136668800246e-12,2.148771494878944e-12
0.0,47,47.0,0.0,30.0,0.0,0.0,0.0,0.0,-13.0,0.0,2.0,0.0,0.0,0.0,1.4132425923466387e-10,1.064986185376786e-10,6.962204542133102e-11,4.424458427622267e-11,3.0809693603997924e-11,2.0915503684472527e-11,1.2788597113153437e-11,8.675397529585435e-12,5.357104162340722e-12,3.431737958855016e-12,2.189968454331364e-12,1.3654389259740244e-12,8.216697827287545e-13,5.082438119283724e-13,3.0508199907316784e-13,1.6999811855274654e-13,9.996257750551272e-14,3.2987147166413775e-09,2.378157992873807e-09,1.7400002657893977e-09,1.200280688861562e-09,9.167792072413506e-10,6.735415350086118e-10,5.277927905359465e-10,3.697247201385722e-10,2.865028655949386e-10,2.1855399449636883e-10,1.5052955017463893e-10,1.079876143744554e-10,7.442529695975733e-11,5.7981684916401256e-11,3.572364868652849e-11,2.329149325968755e-11,1.5320455820550097e-11,9.678789789222683e-12,6.049008366296057e-12,3.778261583578901e-12,2.0908495106316933e-12
0.0,48,48.0,0.0,30.0,0.0,0.0,0.0,0.0,-13.0,0.0,2.0,0.0,0.0,0.0,1.5030571818059658e-10,9.986103433628102e-11,7.050217468165489e-11,4.7440996143728e-11,3.2929625998778216e-11,2.0803638007456424e-11,1.3513822495322455e-11,8.472306554638457e-12,5.523519797539351e-12,3.466488880267435e-12,2.175218248023559e-12,1.3240362503194274e-12,8.494437477013703e-13,5.033088984284863e-13,2.9689099980859526e-13,1.631940777484196e-13,9.768837338219466e-14,3.1925233444812386e-09,2.346823279891678e-09,1.8336125537115814e-09,1.222051947250302e-09,9.306076786924252e-10,6.846905327026478e-10,5.025642695114846e-10,3.952502219740483e-10,3.0815774714735103e-10,2.1591090336551947e-10,1.5390865510964622e-10,1.1352710532142814e-10,7.90722940491946e-11,5.446286826326494e-11,3.65050810735314e-11,2.5573821091673924e-11,1.60970469298506e-11,9.854949732231973e-12,6.141397311698068e-12,3.5784391062765703e-12,2.0714253479149935e-12
0.0,49,49.0,0.0,30.0,0.0,0.0,0.0,0.0,-13.0,0.0,2.0,0.0,0.0,0.0,1.5372357414733193e-10,1.0218589473565577e-10,7.29958721682001e-11,4.751408186814316e-11,3.2353846398477794e-11,2.0533282322178277e-11,1.3655083134763711e-11,8.634234477559896e-12,5.7386843866569265e-12,3.5096109181322923e-12,2.162971149695897e-12,1.3013793869544745e-12,8.4542827669534e-13,4.9602765492489e-13,2.994746713788706e-13,1.7032616132954276e-13,9.964604289536453e-14,3.1855429504586496e-09,2.439255517795052e-09,1.7554161286236189e-09,1.3037339698017878e-09,9.91077307995589e-10,6.824498712497575e-10,5.336784846647298e-10,3.791593259161346e-10,3.100335568493519e-10,2.160186734255041e-10,1.620101997912578e-10,1.0768540489202622e-10,8.416516356834069e-11,5.450608247781496e-11,3.803251059581327e-11,2.4906815512669888e-11,1.5918404428306813e-11,1.0662931589003627e-11,5.874408726637474e-12,3.76726525280162e-12,2.2701537943917713e-12
0.0,50,50.0,0.0,30.0,0.0,0.0,0.0,0.0,-13.0,0.0,2.0,0.0,0.0,0.0,1.5878562232001394e-10,1.0680860773548658e-10,7.191406903298905e-11,4.670694529287914e-11,3.220744520246167e-11,2.1491197689304097e-11,1.383553039072705e-11,8.825021515752673e-12,5.5775689924574375e-12,3.5298930465398516e-12,2.307564467593257e-12,1.2884976548033048e-12,8.421383452473269e-13,5.031560321198018e-13,3.137009921670559e-13,1.738877651034294e-13,1.0180419157196095e-13,2.924619133221179e-09,2.440993141785457e-09,1.8123343479165438e-09,1.3520871245859719e-09,9.073872296964427e-10,7.065214516268703e-10,5.39889469720411e-10,3.9889252671196146e-10,3.130327271223508e-10,2.195936390500992e-10,1.7035375223553816e-10,1.1876252005685695e-10,8.321511965138279e-11,5.67247211021809e-11,3.6649299369035114e-11,2.4745296721638658e-11,1.6499265643245355e-11,1.044483598718806e-11,6.562216293710639e-12,3.685929859496053e-12,2.0770299511152992e-12
0.0,51,51.0,0.0,30.0,0.0,0.0,0.0,0.0,-13.0,0.0,2.0,0.0,0.0,0.0,1.653148309834447e-10,1.059779364449087e-10,7.504429239881176e-11,5.0827405555768335e-11,3.2966313526045034e-11,2.115005948917862e-11,1.3953049585156012e-11,9.133621034661263e-12,5.706408489147011e-12,3.820307850880612e-12,2.169722793242971e-12,1.3390047349689363e-12,8.191046912189501e-13,5.004768342607026e-13,2.8152312599521483e-13,1.7087471197482018e-13,9.568283077601964e-14,3.1217796632590458e-09,2.4401795919274253e-09,1.7397912531930611e-09,1.3462093144904816e-09,1.0188761733617038e-09,7.155104723730021e-10,5.727415468253098e-10,4.135291070674674e-10,3.248585299547523e-10,2.3267953761917196e-10,1.552101722327582e-10,1.1677514376691927e-10,8.456800034787737e-11,5.653944106177702e-11,3.8270521258012404e-11,2.6328848567080986e-11,1.603139155159096e-11,1.0335146389597328e-11,6.413148670100622e-12,3.739976328240975e-12,2.195864463093444e-12
0.0,52,52.0,0.0,30.0,0.0,0.0,0.0,0.0,-13.0,0.0,2.0,0.0,0.0,0.0,1.6723695717495705e-10,1.1149792960552971e-10,7.225170367464303e-11,4.799456011293788e-11,3.209845259158901e-11,2.159669662882837e-11,1.3998653610750514e-11,8.824969623654597e-12,5.645999003444539e-12,3.444035126451606e-12,2.277262275101596e-12,1.3850695517901103e-12,8.146562449927441e-13,5.113034463632169e-13,3.1440219154678294e-13,1.708725067357571e-13,1.0225085133732263e-13,3.076694917198846e-09,2.4278652822425548e-09,1.823197375678225e-09,1.380062497127301e-09,9.839436785053962e-10,7.054653987082116e-10,5.33367033187184e-10,3.9818358972266483e-10,2.9523850906760076e-10,2.2880054703830034e-10,1.6044707141567381e-10,1.1804105249621689e-10,8.130345327946977e-11,5.5874129701273883e-11,3.8209032356023014e-11,2.618636051207728e-11,1.7033041887004753e-11,1.0555590378674154e-11,6.189933951265069e-12,3.922931903735996e-12,2.2997371155103906e-12
0.0,53,53.0,0.0,30.0,0.0,0.0,0.0,0.0,-13.0,0.0,2.0,0.0,0.0,0.0,1.671218388762098e-10,1.0952690721184185e-10,7.657763379758874e-11,5.086173372962342e-11,3.01292796326704e-11,2.2236890462936936e-11,1.3382808765987998e-11,9.31048306893967e-12,5.767440491280761e-12,3.763792683454953e-12,2.255600481513989e-12,1.3560740944095174e-12,8.458493007116936e-13,5.285592893412162e-13,3.0319180346991147e-13,1.7477746081101585e-13,1.0091263305684142e-13,3.1204921418121578e-09,2.4181157541230667e-09,1.904770589530124e-09,1.4010936310664922e-09,1.0106758205390745e-09,7.349117718124676e-10,5.890211202066435e-10,4.388729134522958e-10,3.227967000128045e-10,2.23443315207567e-10,1.6829555741080358e-10,1.1729761821993438e-10,8.376085248410503e-11,5.833935261520243e-11,3.935253560055455e-11,2.5557492964840918e-11,1.7390478390622585e-11,9.976342990166073e-12,6.6248886712864705e-12,3.5754851955552732e-12,2.2820273293074564e-12
0.0,54,54.0,0.0,30.0,0.0,0.0,0.0,0.0,-13.0,0.0,2.0,0.0,0.0,0.0,1.6364649784810935e-10,1.1602999285261283e-10,7.613009636785583e-11,5.1196998030776225e-11,3.2576037598711155e-11,2.1604411865958825e-11,1.4420387701499082e-11,9.368710915642242e-12,6.352989030678435e-12,3.683604115069044e-12,2.3424112950250715e-12,1.3343563698794145e-12,8.185985751056664e-13,5.081495580438133e-13,2.9275239442621016e-13,1.8391312890867064e-13,9.771295155721956e-14,3.2251697655661915e-09,2.5331955658514525e-09,1.8451596432443003e-09,1.373993144268473e-09,1.0043078093757096e-09,7.645121744320741e-10,5.80724726859693e-10,4.2883437708712067e-10,3.2570428910924477e-10,2.4756892590050885e-10,1.736624775594863e-10,1.2284187266186263e-10,8.56047555939673e-11,5.687051917118865e-11,3.847679968463907e-11,2.6479963357817133e-11,1.6208939996810347e-11,1.0388501837414166e-11,6.809006567382417e-12,4.189012810950814e-12,2.0539797821133994e-12
0.0,55,55.0,0.0,30.0,0.0,0.0,0.0,0.0,-13.0,0.0,2.0,0.0,0.0,0.0,1.7885035844268333e-10,1.1385538249203959e-10,7.686419415280338e-11,5.124805572775989e-11,3.5074298973305914e-11,2.118831976896453e-11,1.466418103882514e-11,9.023883414626507e-12,5.986733814214045e-12,3.855545263210263e-12,2.2895341469026535e-12,1.4223662644775093e-12,8.663083531795596e-13,5.026895493493048e-13,3.183846208729649e-13,1.8563494212251292e-13,1.0159135847195048e-13,3.101236985489129e-09,2.3993244435729346e-09,1.8220226645629914e-09,1.4395925944852886e-09,1.0633372685404981e-09,7.623027087624237e-10,5.538070543549477e-10,4.0004319653945634e-10,3.152217265675157e-10,2.380213132061547e-10,1.7975911784121857e-10,1.2094739293200735e-10,8.773685737258652e-11,6.172668469164845e-11,4.033761523598389e-11,2.640651820081425e-11,1.6414011626853763e-11,1.034605854450987e-11,6.681597915178523e-12,3.898761539708041e-12,2.28930400043716e-12
0.0,56,56.0,0.0,30.0,0.0,0.0,0.0,0.0,-13.0,0.0,2.0,0.0,0.0,0.0,1.7273867467432796e-10,1.1845443685950925e-10,7.604696133848018e-11,5.1511940815895685e-11,3.630259370585371e-11,2.195015597184953e-11,1.4479358885087429e-11,9.202004120927015e-12,6.0117493532248764e-12,3.825020295967055e-12,2.2692016304119283e-12,1.3952903119682258e-12,8.518452033100132e-13,5.247668717769824e-13,2.984399792371117e-13,1.7490348271392872e-13,9.226564606019208e-14,2.965761282296944e-09,2.43437148501659e-09,1.9226173129830895e-09,1.398008845764163e-09,1.0004793054869707e-09,7.429085814213494e-10,5.936222083899718e-10,4.220825284904047e-10,3.4147157426212966e-10,2.4305912898454035e-10,1.6659920791940183e-10,1.214720900309955e-10,8.568358147615948e-11,5.876035319306973e-11,3.884268241686732e-11,2.6112688159022182e-11,1.6919417893164068e-11,1.0618001948058631e-11,6.9038763119089065e-12,3.98154756665229e-12,2.1734197264565234e-12
0.0,57,57.0,0.0,30.0,0.0,0.0,0.0,0.0,-13.0,0.0,2.0,0.0,0.0,0.0,1.7372519754305239e-10,1.1462001384359205e-10,7.81680488879487e-11,5.404095981506073e-11,3.4992366478334537e-11,2.4278320893983307e-11,1.4907062612457244e-11,9.190041786581655e-12,6.125006581169488e-12,3.858836893793914e-12,2.394069273370206e-12,1.3741460266852004e-12,8.585843212354177e-13,5.356755928127321e-13,2.904485629240104e-13,1.7470236928029498e-13,9.55813144287457e-14,3.0089746558912552e-09,2.3792575407464587e-09,1.9594645865465575e-09,1.3930444677562073e-09,1.0224111260489479e-09,7.630707259208824e-10,6.024737929748603e-10,4.5103160768540733e-10,3.4963190764953423e-10,2.500008507055248e-10,1.6999201041249534e-10,1.2447422531290013e-10,9.162098345542627e-11,5.979018253218638e-11,4.3306715347008614e-11,2.6226574463934844e-11,1.777120259462189e-11,1.0673576699643023e-11,6.600682635499183e-12,4.172559862383542e-12,2.298210177741362e-12
0.0,58,58.0,0.0,30.0,0.0,0.0,0.0,0.0,-13.0,0.0,2.0,0.0,0.0,0.0,1.8238295836177823e-10,1.21035286621261e-10,8.169891759230626e-11,5.186948126717336e-11,3.4882304513952193e-11,2.3246189565838864e-11,1.4501508206467793e-11,9.997227540353431e-12,5.886864569922877e-12,3.730737551329031e-12,2.2621203412350778e-12,1.3363372858555476e-12,9.12597896156168e-13,5.164122182754361e-13,3.0261603855552135e-13,1.7678437455832698e-13,1.0493509688935164e-13,3.009466847465183e-09,2.5168952048042195e-09,1.881970806070274e-09,1.395411720204475e-09,1.0832247658536538e-09,8.236445999558258e-10,6.001606898799097e-10,4.478541106490676e-10,3.294105784975836e-10,2.5837498730326207e-10,1.7714406622761958e-10,1.2153159470321873e-10,9.377893663403402e-11,5.916891951675684e-11,4.263389731298507e-11,2.7588498689045506e-11,1.780814700291043e-11,1.0877454242955489e-11,6.861882574978631e-12,3.774915090726863e-12,2.405293381773327e-12
0.0,59,59.0,0.0,30.0,0.0,0.0,0.0,0.0,-13.0,0.0,2.0,0.0,0.0,0.0,1.8907685822375012e-10,1.2419272453394057e-10,7.602015419963553e-11,5.233818425034173e-11,3.5307288860475444e-11,2.352942801097947e-11,1.49738633193253e-11,9.472188535717338e-12,6.184080433898148e-12,3.924260754378695e-12,2.3310329134001402e-12,1.4671724316075386e-12,8.021536551750578e-13,5.065180539288234e-13,3.0454252807680797e-13,1.7564695097453142e-13,1.01801586494183e-13,3.1993695232652225e-09,2.5188211926279304e-09,1.8890620507290223e-09,1.373779346254716e-09,1.0991836042073982e-09,7.678498379419162e-10,6.315725773654321e-10,4.6321202677645155e-10,3.34572820506944e-10,2.561517980006551e-10,1.8292382651766263e-10,1.30364726614337e-10,9.09622647333058e-11,6.329033503683832e-11,4.3335779667478166e-11,2.816632540725507e-11,1.8393628309412496e-11,1.117652404967861e-11,7.2129044395288125e-12,4.1631880759399464e-12,2.2869346044930937e-12
0.0,60,60.0,0.0,30.0,0.0,0.0,0.0,0.0,-13.0,0.0,2.0,0.0,0.0,0.0,1.772758182875803e-10,1.2341428407742825e-10,7.875805243135685e-11,5.298762598942522e-11,3.61619580121692e-11,2.300302487171129e-11,1.4740360670789468e-11,9.688481996728139e-12,6.137599269145494e-12,3.795763305285277e-12,2.3356914992801705e-12,1.480531361681749e-12,8.821527888770674e-13,5.193492843553155e-13,3.312184663444673e-13,1.7979413210026376e-13,1.0465537081312189e-13,3.0604844283398446e-09,2.3952116630821118e-09,1.898797982064468e-09,1.447288251564528e-09,1.081295470459267e-09,8.588616068510878e-10,6.272987744448653e-10,4.799937740293785e-10,3.518590341596829e-10,2.545574536776117e-10,1.8588852041596826e-10,1.3918737264055522e-10,9.030517066271336e-11,6.476809454854295e-11,4.135892214770994e-11,2.767798169708996e-11,1.8036307177140603e-11,1.142027243580067e-11,7.249452724540979e-12,4.101479226852288e-12,2.270040964898245e-12
0.0,61,61.0,0.0,30.0,0.0,0.0,0.0,0.0,-13.0,0.0,2.0,0.0,0.0,0.0,1.8962156593697675e-10,1.2300142805627438e-10,8.363094900238607e-11,5.504974017214441e-11,3.4190267152720805e-11,2.403405204810033e-11,1.5577644948054357e-11,1.0055452604111329e-11,6.506874925763645e-12,3.709237951818398e-12,2.414578079590958e-12,1.4692461105339383e-12,8.659516708485246e-13,5.308297583921395e-13,3.137348206798199e-13,1.7249663569782002e-13,1.0211680527969033e-13,3.037050882274416e-09,2.466097774369002e-09,1.8615409220155415e-09,1.458281893681259e-09,1.1078971473798578e-09,8.53053234066368e-10,6.399696855044516e-10,4.5894790218537386e-10,3.672780205841097e-10,2.610126693455236e-10,1.9122999065326499e-10,1.381753277764741e-10,9.7702565510882e-11,6.790738972855314e-11,4.310400208925173e-11,2.8656694952342464e-11,1.7629087468921986e-11,1.1797840779305833e-11,6.6988644000324455e-12,3.8579929346282715e-12,2.496088107222855e-12
0.0,62,62.0,0.0,30.0,0.0,0.0,0.0,0.0,-13.0,0.0,2.0,0.0,0.0,0.0,1.8579698993339676e-10,1.290354945532274e-10,8.514936062491921e-11,5.317919127047535e-11,3.371982452783594e-11,2.3132052866529068e-11,1.5463802057334304e-11,9.507637396253025e-12,6.1012286585813085e-12,3.705682924759747e-12,2.4054182002574125e-12,1.4634640565402742e-12,8.681704555292145e-13,5.48432937964216e-13,3.238743558101674e-13,1.8267215271637785e-13,9.583023996236422e-14,3.0316454539792654e-09,2.5659920049795474e-09,1.9512045125397093e-09,1.4784407416138545e-09,1.1628368502066807e-09,8.661112020576382e-10,6.762531905620523e-10,4.828743948329085e-10,3.788224859978664e-10,2.6163871672071786e-10,1.9992279989201173e-10,1.3665568847124895e-10,9.253435386976021e-11,6.177900785325998e-11,4.333049778009857e-11,2.849428988164611e-11,1.8907030238859724e-11,1.1494541368592783e-11,6.938624154889216e-12,4.355874116096812e-12,2.3864758047391283e-12
0.0,63,63.0,0.0,30.0,0.0,0.0,0.0,0.0,-13.0,0.0,2.0,0.0,0.0,0.0,1.882505028061059e-10,1.3006335429637054e-10,8.39685264337934e-11,5.7713217161726046e-11,3.646466177635858e-11,2.400634125678812e-11,1.5675574302192544e-11,9.844465678095948e-12,6.2707459990994885e-12,3.999232620245188e-12,2.4385882402908854e-12,1.4888872677981296e-12,8.680402680465762e-13,5.41685737415584e-13,3.1696049769612017e-13,1.855017912751554e-13,9.953260710824333e-14,3.134136009773238e-09,2.6051737687615188e-09,1.975690263540343e-09,1.5119354058821238e-09,1.21691205453895e-09,9.180280694746425e-10,6.861330901548786e-10,5.113271728460735e-10,3.5843094359350773e-10,2.7442283463982673e-10,1.921262217137967e-10,1.3380933695774813e-10,9.482610784693334e-11,6.603748608948174e-11,4.3535425561034114e-11,2.8564545160635418e-11,1.9073996074638253e-11,1.170344653819827e-11,7.161327073589702e-12,4.238322359504425e-12,2.3510727775322797e-12
