Line_number,Fiducial,Easting,Northing,Height,Elevation,tx_pitch,tx_roll,tx_yaw,txrx_dx,txrx_dy,txrx_dz,rx_pitch,rx_roll,rx_yaw,S0Z_time_3.834e-04,S0Z_time_3.924e-04,S0Z_time_4.039e-04,S0Z_time_4.184e-04,S0Z_time_4.364e-04,S0Z_time_4.589e-04,S0Z_time_4.869e-04,S0Z_time_5.224e-04,S0Z_time_5.679e-04,S0Z_time_6.249e-04,S0Z_time_6.969e-04,S0Z_time_7.879e-04,S0Z_time_9.019e-04,S0Z_time_1.046e-03,S0Z_time_1.227e-03,S0Z_time_1.456e-03,S0Z_time_1.744e-03,S0Z_time_2.109e-03,S0Z_time_2.567e-03,S0Z_time_3.145e-03,S0Z_time_3.864e-03,S0Z_time_4.745e-03,S0Z_time_5.821e-03,S0Z_time_7.140e-03,S0Z_time_8.754e-03,S0Z_time_1.073e-02,S1Z_time_2.057e-05,S1Z_time_2.607e-05,S1Z_time_3.307e-05,S1Z_time_4.206e-05,S1Z_time_5.356e-05,S1Z_time_6.807e-05,S1Z_time_8.607e-05,S1Z_time_1.086e-04,S1Z_time_1.366e-04,S1Z_time_1.721e-04,S1Z_time_2.176e-04,S1Z_time_2.746e-04,S1Z_time_3.466e-04,S1Z_time_4.376e-04,S1Z_time_5.516e-04,S1Z_time_6.956e-04,S1Z_time_8.771e-04,S1Z_time_1.106e-03,S1Z_time_1.394e-03
0.0,0,0.0,0.0,30.0,0.0,0.0,0.0,0.0,-13.0,0.0,2.0,0.0,0.0,0.0,1.3859757517037381e-11,1.3546274258175007e-11,1.2446012022144786e-11,1.1404615810034301e-11,1.0783795259907028e-11,1.0415843956816352e-11,9.71788599960309e-12,7.91201644435117e-12,7.887660477675738e-12,7.112028490363418e-12,5.748318069962412e-12,5.178970534732645e-12,3.973953058658733e-12,3.409307168668762e-12,2.770592379316406e-12,2.1713063357372392e-12,1.7390082373183574e-12,1.3129229526396221e-12,9.439449112341904e-13,6.942043319101057e-13,4.845018199688696e-13,3.402124995516416e-13,2.119770762696254e-13,1.4799544997523997e-13,1.0017885847281099e-13,6.716075429263013e-14,1.457051751772372e-10,6.77336043695881e-11,4.95968477497232e-11,3.664818899324388e-11,2.881860245324778e-11,2.156827790434189e-11,1.8473165054882946e-11,1.377082600815863e-11,1.0765725690631485e-11,8.829631482708667e-12,7.014321292560214e-12,5.014628462127295e-12,4.050294310472555e-12,3.0986195573249967e-12,2.070468996194495e-12,1.5243355956676904e-12,1.1537666034682737e-12,7.726491677503912e-13,5.235256604389534e-13
0.0,1,1.0,0.0,30.0,0.0,0.0,0.0,0.0,-13.0,0.0,2.0,0.0,0.0,0.0,1.277439512830858e-11,1.1818388227172117e-11,1.0739547151315337e-11,1.0593056284069953e-11,9.857903764546018e-12,9.620083132773052e-12,8.108248801015481e-12,8.015394633027508e-12,6.850811369153387e-12,6.3950939436795326e-12,5.445111542365324e-12,4.528710940211314e-12,3.9045498207586704e-12,3.244100216507353e-12,2.379444844884211e-12,2.0185250455371565e-12,1.524372839680614e-12,1.1814541623997445e-12,9.092459254358927e-13,6.436641347867106e-13,4.626464219961629e-13,3.210982550833277e-13,2.190381438800974e-13,1.4419009112823862e-13,1.0189910301189816e-13,5.892913643902694e-14,1.884573632392869e-10,7.763606859304455e-11,4.552050898990578e-11,3.563285366682273e-11,2.6341204148568217e-11,2.0159770557631083e-11,1.5748494559150077e-11,1.273368842739483e-11,1.0071837335877172e-11,8.233349126603522e-12,6.079692333645915e-12,4.773051375234091e-12,3.366285297834926e-12,2.544280339904341e-12,1.981242221432248e-12,1.3724408301532811e-12,1.0034145831844706e-12,6.945237949694494e-13,5.032948019742901e-13
0.0,2,2.0,0.0,30.0,0.0,0.0,0.0,0.0,-13.0,0.0,2.0,0.0,0.0,0.0,1.0902410066376717e-11,1.0655682312315518e-11,1.082612064713308e-11,9.285687846739834e-12,8.645382777832208e-12,8.329703257938254e-12,7.5482401090874e-12,6.7355902504944405e-12,6.017548465759134e-12,5.730454020979593e-12,4.6178229422542584e-12,4.12144418910977e-12,3.2886968524034134e-12,2.674306139446071e-12,2.2268319683145026e-12,1.8066959962233002e-12,1.441227417509219e-12,1.0063692811924993e-12,7.98887954181302e-13,6.208606661403023e-13,3.9957072449113054e-13,3.1550345716139763e-13,1.965154591752241e-13,1.294638500370377e-13,9.382094824402863e-14,5.634595007446886e-14,2.3142128747928873e-10,1.0281721870980717e-10,5.010774577942636e-11,3.367061339805611e-11,2.4484637043631836e-11,1.9252238043082288e-11,1.4380390117792786e-11,1.1765563602912194e-11,9.474659943166347e-12,7.192458500280054e-12,5.432317465133965e-12,4.455313652215789e-12,3.1817775495360627e-12,2.3935978324595715e-12,1.7805151764284852e-12,1.2321453404890637e-12,8.715524880131589e-13,6.321860604214053e-13,4.4626664674541154e-13
0.0,3,3.0,0.0,30.0,0.0,0.0,0.0,0.0,-13.0,0.0,2.0,0.0,0.0,0.0,1.0720286745964908e-11,9.474850915611731e-12,9.26000525124621e-12,8.55957523338665e-12,8.29884307008496e-12,7.684807762562684e-12,6.505131385774533e-12,6.243142620418941e-12,5.438459630979653e-12,4.943907821907775e-12,4.246851778705412e-12,3.6150649393249807e-12,2.9902344362561825e-12,2.59674915094269e-12,2.04809098732357e-12,1.6498525624505973e-12,1.3108439408161735e-12,9.93244987623659e-13,7.595461121359625e-13,5.589381958060353e-13,3.846313071589989e-13,2.600103502425559e-13,1.9568315945535997e-13,1.2905554249045493e-13,8.485741077770129e-14,5.152832351902665e-14,3.107484483589198e-10,1.2546546230967878e-10,5.917866066990008e-11,3.34832306560948e-11,2.260690479165932e-11,1.6871343819070836e-11,1.3950279891989468e-11,1.0407753694024874e-11,8.103582355326196e-12,6.373284851338669e-12,4.833218945133515e-12,3.737134832774856e-12,2.7671837680800757e-12,2.159100794395293e-12,1.6550469352613562e-12,1.1229125462278352e-12,8.227004889409627e-13,5.708924171214354e-13,3.8629954580697646e-13
0.0,4,4.0,0.0,30.0,0.0,0.0,0.0,0.0,-13.0,0.0,2.0,0.0,0.0,0.0,9.195203437847004e-12,9.142232987122384e-12,8.649867743397267e-12,7.529600020780353e-12,7.22415775243626e-12,6.8736247830953e-12,6.1303598556536705e-12,5.691700328981625e-12,4.967534589762715e-12,4.504227376005251e-12,4.193706638043838e-12,3.2586584598629475e-12,2.8741957188059027e-12,2.2873784232940985e-12,1.880778191746848e-12,1.5592208561384443e-12,1.1991060633832296e-12,9.049036710990121e-13,6.682740172516327e-13,4.597736763540974e-13,3.629497249111779e-13,2.6208210667354205e-13,1.7953918226934662e-13,1.1088974760703126e-13,7.649537024226793e-14,4.7920726793762673e-14,3.779891184326224e-10,1.6015026538610255e-10,6.940255341681311e-11,3.86713896746214e-11,2.3468539861745247e-11,1.5865657739986214e-11,1.1925987506884099e-11,8.987694417773323e-12,7.533349930585616e-12,5.9171801937366374e-12,4.5819103480507025e-12,3.4233018948981685e-12,2.5553067162116572e-12,1.932254626445527e-12,1.394327168642004e-12,1.0224130067184338e-12,7.577418972381879e-13,5.083054606270127e-13,3.4255651559281186e-13
0.0,5,5.0,0.0,30.0,0.0,0.0,0.0,0.0,-13.0,0.0,2.0,0.0,0.0,0.0,8.57831193297667e-12,7.978095972039722e-12,6.980605818214111e-12,6.926660733176572e-12,6.92816250102584e-12,5.804698139627603e-12,5.630475660605695e-12,5.416852948894271e-12,4.63471897300415e-12,4.18873314859924e-12,3.2803977802784753e-12,2.886206803457532e-12,2.487190751147604e-12,2.1402959928285232e-12,1.6758709352131652e-12,1.3653876879561554e-12,1.0542221583553982e-12,8.477430121085971e-13,6.321107277689084e-13,4.592680177638853e-13,3.2348790297611715e-13,2.4326769944629923e-13,1.5900915798433086e-13,1.0114912408418104e-13,7.666647508207354e-14,4.614523559036569e-14,3.9455274866396103e-10,1.9910906450487225e-10,9.253229584246394e-11,4.3892153509396095e-11,2.40100743350177e-11,1.547720319929337e-11,1.1440367451137882e-11,8.753756656881136e-12,6.893615050123405e-12,5.024746887550831e-12,4.005291709840979e-12,3.1884716678869606e-12,2.391435909060658e-12,1.7893579706789266e-12,1.2401037514616591e-12,9.151233374063537e-13,7.119926143710025e-13,4.785279753906141e-13,2.8056008701395765e-13
0.0,6,6.0,0.0,30.0,0.0,0.0,0.0,0.0,-13.0,0.0,2.0,0.0,0.0,0.0,7.536282931001707e-12,7.2162037228612216e-12,6.911034051962832e-12,6.332600000001851e-12,5.986228425050646e-12,5.4672328336951695e-12,5.1348820790707424e-12,4.481001476595855e-12,3.940268776459092e-12,3.758517912990599e-12,3.194127236671613e-12,2.7457539909049104e-12,2.269532695154498e-12,1.7884764644216796e-12,1.575226564998246e-12,1.2478566176352541e-12,9.86511594700057e-13,7.723736802197398e-13,5.850193778331465e-13,4.2884749087820426e-13,2.9147397012174893e-13,2.161374585484153e-13,1.4709118557083226e-13,9.85123157029943e-14,6.493396676223985e-14,4.4140182887140214e-14,4.763750125542705e-10,2.2086002319910886e-10,1.0923037970168016e-10,4.857555930686923e-11,2.5554666941835067e-11,1.5626755491678508e-11,1.0668275513157145e-11,7.87026388850008e-12,6.225334153915642e-12,4.9074223800615374e-12,3.792912826245699e-12,2.827010952952849e-12,2.1353559456366336e-12,1.5342971554001489e-12,1.1651096528486413e-12,8.383440442406414e-13,6.224210995337247e-13,3.7751517209679303e-13,2.656242728838755e-13
0.0,7,7.0,0.0,30.0,0.0,0.0,0.0,0.0,-13.0,0.0,2.0,0.0,0.0,0.0,6.879857041741475e-12,6.839003605786839e-12,6.182052720236098e-12,6.188078430594938e-12,5.580529717726153e-12,5.0932891059389176e-12,4.4643620498616905e-12,4.256302991920448e-12,3.821343866347017e-12,3.374650556904508e-12,2.8572569901249666e-12,2.448909633028249e-12,2.120018253114628e-12,1.7488070068414416e-12,1.351043724884507e-12,1.1647891498250101e-12,8.872487205511883e-13,6.867189134662194e-13,5.592103399257956e-13,3.7129210777983877e-13,2.6423584370718756e-13,2.0370243390829625e-13,1.344502237839336e-13,9.173418165521434e-14,5.782561837785016e-14,4.021144982224357e-14,5.079391927193319e-10,2.588449227818515e-10,1.2955672794917165e-10,6.155483441520942e-11,2.838588263108713e-11,1.4635029906726947e-11,1.0128747659093168e-11,7.883965771818885e-12,5.923681911607338e-12,4.3216722878132735e-12,3.4094606178560816e-12,2.6079563194153826e-12,1.927759720747686e-12,1.4575073649598932e-12,1.0320036510431633e-12,7.315072318073636e-13,5.595539392647017e-13,3.95594889373946e-13,2.5102920559618737e-13
0.0,8,8.0,0.0,30.0,0.0,0.0,0.0,0.0,-13.0,0.0,2.0,0.0,0.0,0.0,6.571115830053445e-12,6.4222673932632585e-12,5.93322063433425e-12,5.424268640905815e-12,5.185721194070245e-12,4.643202036101864e-12,4.383935237217047e-12,3.8748864830521245e-12,3.2399414443559848e-12,3.050244721480104e-12,2.5560221682751766e-12,2.307701910737873e-12,1.906658568250305e-12,1.5583685127525545e-12,1.314527140499462e-12,1.0587886587917374e-12,8.154881156761559e-13,6.381913712488046e-13,5.14109947982904e-13,3.3024588762926033e-13,2.457011156365525e-13,1.8389006244548633e-13,1.267344518465354e-13,8.683061156038671e-14,5.647351958545314e-14,3.566623673549194e-14,5.370766068231653e-10,2.978006460888269e-10,1.543458599940952e-10,6.781088782314367e-11,3.380700240270075e-11,1.782043719146097e-11,1.026930172523719e-11,6.826574751835668e-12,5.484155110381007e-12,4.152729789195e-12,3.0347019342485096e-12,2.4130383846701213e-12,1.7595952708345509e-12,1.2679541563713244e-12,9.051944046552427e-13,7.28746439814139e-13,5.164589883554743e-13,3.378683216604179e-13,2.3352253767254314e-13
0.0,9,9.0,0.0,30.0,0.0,0.0,0.0,0.0,-13.0,0.0,2.0,0.0,0.0,0.0,6.242649151731722e-12,5.673872017862298e-12,5.697240395094677e-12,4.866239323198331e-12,4.398884237102475e-12,4.538482266954918e-12,3.951896436334487e-12,3.4028475456677542e-12,2.9739764868295e-12,2.7459427508330313e-12,2.4795522112932e-12,2.0071815446970287e-12,1.6873773551787798e-12,1.495830659102474e-12,1.250391794251815e-12,9.886270863522022e-13,7.609836975894706e-13,5.792823698073758e-13,4.614722874874157e-13,3.3678461155819176e-13,2.329108150272878e-13,1.7688512293961922e-13,1.1327985648635352e-13,8.271945960242012e-14,5.375646406277088e-14,3.667844158716859e-14,5.635818607068441e-10,3.1094561662095683e-10,1.7178876736080936e-10,8.203787070421474e-11,3.90840632098481e-11,1.925770304315434e-11,1.0964340962836438e-11,6.591510778539836e-12,5.1863561555660235e-12,4.025075496480216e-12,2.8216578322396744e-12,2.1561851534435157e-12,1.583781803847103e-12,1.1067680506188089e-12,9.053563685282057e-13,6.159692427318224e-13,4.4754628418539633e-13,3.2286906008132766e-13,2.1848995062758435e-13
0.0,10,10.0,0.0,30.0,0.0,0.0,0.0,0.0,-13.0,0.0,2.0,0.0,0.0,0.0,6.041545974452493e-12,5.403230849340142e-12,5.423162246135341e-12,4.792738251443339e-12,4.223968877784539e-12,3.990780349464526e-12,3.4250922548876947e-12,3.2454959641645882e-12,2.6551065268898343e-12,2.445769050826666e-12,2.290062292624896e-12,1.9197000805772786e-12,1.6801658451091558e-12,1.356836917684322e-12,1.1358158425285407e-12,8.650437601193149e-13,6.588030246636289e-13,5.461757787444121e-13,3.9507894837160305e-13,3.0867479665678323e-13,2.2192787961191514e-13,1.6431580659715277e-13,1.17075129066251e-13,7.26824257879543e-14,5.135826422964635e-14,3.4842784147559534e-14,5.661041483158639e-10,3.5250107992365643e-10,1.7261052683402938e-10,8.793668053170229e-11,4.4974475131951825e-11,2.1000915436463485e-11,1.2136527866577097e-11,6.759424153547131e-12,4.8129934603931084e-12,3.579154349597872e-12,2.662717779977736e-12,1.893700427224642e-12,1.5571933735560873e-12,1.0957243784546976e-12,8.343276950527101e-13,5.828616902143029e-13,4.075514253177851e-13,2.92448090434636e-13,1.9590678633019325e-13
0.0,11,11.0,0.0,30.0,0.0,0.0,0.0,0.0,-13.0,0.0,2.0,0.0,0.0,0.0,5.4978589008435145e-12,5.204478086115611e-12,4.864915458839411e-12,4.493941456491993e-12,3.873567604708903e-12,3.756045525136893e-12,3.200088779470597e-12,2.9665743916017092e-12,2.6457928040555266e-12,2.430759674235125e-12,2.076278782041586e-12,1.671321408828213e-12,1.482673923868874e-12,1.2476920609033212e-12,1.0328385015264237e-12,8.020918081305158e-13,6.459805938289942e-13,5.176994887330011e-13,3.7250238187470745e-13,2.826738690275331e-13,2.1476035490939338e-13,1.3882837325459912e-13,1.0332949027074878e-13,6.933880822738434e-14,4.8658496548166314e-14,3.201681591524246e-14,6.011567520923119e-10,3.683417960603797e-10,1.9893522389835056e-10,1.019498701779633e-10,5.463874327293829e-11,2.4595779040921844e-11,1.2924361912588372e-11,7.319439435818119e-12,4.797285395123828e-12,3.350977425310353e-12,2.5378498492994096e-12,1.8883747097544715e-12,1.3159689694773691e-12,1.0748504311479527e-12,7.746624727990773e-13,5.222273591861557e-13,3.835572593560282e-13,2.914830856348653e-13,1.9352892375909377e-13
0.0,12,12.0,0.0,30.0,0.0,0.0,0.0,0.0,-13.0,0.0,2.0,0.0,0.0,0.0,5.668733681902904e-12,5.2573147706578154e-12,4.6353802250779635e-12,4.072322407569824e-12,3.8740672766672624e-12,3.309256900218107e-12,3.1103538304407128e-12,2.831064235638007e-12,2.376430299321739e-12,2.123231062806259e-12,1.9097463441769097e-12,1.6404142649389347e-12,1.380699059316385e-12,1.1338218419241642e-12,9.486106130191442e-13,7.589731305479972e-13,6.000013759377364e-13,4.629572809355074e-13,3.527042531239231e-13,2.6648150815574967e-13,1.9543671395566407e-13,1.433387155723455e-13,9.862474502073502e-14,6.987676171745362e-14,4.51849621954126e-14,3.0895382176653855e-14,6.585134620823787e-10,3.7084771285812827e-10,2.1377097205121716e-10,1.1568402302872961e-10,5.874836187897826e-11,2.692170015979427e-11,1.248583616192107e-11,7.491203317442315e-12,4.583892367612965e-12,3.1745068466574663e-12,2.2704895106405263e-12,1.6507704134093165e-12,1.2047629378172237e-12,9.069456244764153e-13,6.648037159285061e-13,4.838894773905796e-13,3.381637091121159e-13,2.484705220056966e-13,1.794019710347353e-13
0.0,13,13.0,0.0,30.0,0.0,0.0,0.0,0.0,-13.0,0.0,2.0,0.0,0.0,0.0,5.7551334749617654e-12,5.080192814195068e-12,4.650606782622286e-12,3.890360711557142e-12,3.4675163446661056e-12,3.268032871626468e-12,2.8461374781043123e-12,2.3630061718041205e-12,2.2580666737090005e-12,1.9355393987121667e-12,1.7992650286288181e-12,1.4828595058218427e-12,1.2464912543008636e-12,9.79319917738723e-13,8.19318276195673e-13,6.902838473429366e-13,5.400906154266166e-13,4.225177483904766e-13,3.35576536556049e-13,2.411192195585904e-13,1.822112421670166e-13,1.3691235087241222e-13,9.127328292730274e-14,6.100283003778607e-14,4.1914542974743177e-14,2.6733389908544467e-14,6.314068562992084e-10,3.8412009091142157e-10,2.1548916331890624e-10,1.2492630600681488e-10,6.31914419911154e-11,3.0645950735414184e-11,1.4986751978972798e-11,8.049912980825754e-12,4.475525723949117e-12,3.0865328174502492e-12,2.306577033244344e-12,1.6091239584966054e-12,1.150397340109195e-12,8.615983271346602e-13,6.003633682943644e-13,4.58885237191399e-13,3.175782527502746e-13,2.3060869854272957e-13,1.6427071131692147e-13
0.0,14,14.0,0.0,30.0,0.0,0.0,0.0,0.0,-13.0,0.0,2.0,0.0,0.0,0.0,5.7120134285091865e-12,5.0033120900298915e-12,4.335921746104112e-12,3.844773212902965e-12,3.118011538949519e-12,2.8994683862804283e-12,2.7570650247163603e-12,2.405657844060794e-12,2.173232278196255e-12,1.7903581914301245e-12,1.611569208853663e-12,1.438577215307041e-12,1.1986251934943188e-12,9.556086095371275e-13,8.202062299189963e-13,6.253835775858426e-13,5.136879939887257e-13,4.34041132544714e-13,3.127051035354983e-13,2.235619341081751e-13,1.7443843720933888e-13,1.2358425610167572e-13,8.5139130140277e-14,5.696130040511816e-14,3.9490929783055205e-14,2.5998535566201925e-14,6.504418006845326e-10,4.126266541764212e-10,2.37058303354454e-10,1.371535995095959e-10,7.102994517568065e-11,3.328258227746898e-11,1.71943448968557e-11,8.427888394777624e-12,4.623625455533142e-12,2.8928164753959232e-12,2.041754052859253e-12,1.5073356061346978e-12,1.1251807156042017e-12,7.947063625672145e-13,5.506109978447231e-13,4.121266130655787e-13,2.8451834735654926e-13,1.900372202655372e-13,1.4259807244115943e-13
0.0,15,15.0,0.0,30.0,0.0,0.0,0.0,0.0,-13.0,0.0,2.0,0.0,0.0,0.0,5.8934373501008745e-12,5.00769144327857e-12,4.24307640929071e-12,3.6694737373062215e-12,3.1924054309696683e-12,2.8031068408073584e-12,2.451955396321426e-12,2.1684445383579905e-12,1.9636492557261966e-12,1.6633695568699254e-12,1.5114364212933916e-12,1.2734256787620048e-12,1.057657382642407e-12,9.274455608486873e-13,7.721114786811641e-13,6.167889339447642e-13,4.80812768970834e-13,3.85395790405334e-13,2.9084144065580483e-13,2.1610971595739124e-13,1.6152070491294625e-13,1.1163804560990591e-13,8.164504039464093e-14,5.529223605661112e-14,3.679364830010309e-14,2.3752792739268576e-14,7.044514576579512e-10,3.974386133371849e-10,2.5036964101831e-10,1.412385032737322e-10,7.8866864556289e-11,3.804502605956946e-11,2.0021610440892712e-11,9.091659163286704e-12,5.080167523856618e-12,3.002601718772045e-12,1.99161016145706e-12,1.4745302719643388e-12,1.0223047099026106e-12,8.151325206308236e-13,5.532155517336027e-13,3.986314528714464e-13,2.789770112474099e-13,1.9228883941054555e-13,1.3039511772355892e-13
0.0,16,16.0,0.0,30.0,0.0,0.0,0.0,0.0,-13.0,0.0,2.0,0.0,0.0,0.0,6.049209520433708e-12,5.1894340851391655e-12,4.200740305910933e-12,3.561781542088945e-12,2.9995508861656775e-12,2.7465255604189496e-12,2.3722046764375177e-12,2.158851535411373e-12,1.7994191070477587e-12,1.561033584594043e-12,1.2816687596415952e-12,1.230818144531828e-12,9.89677293568281e-13,8.387318971525768e-13,6.908077531083635e-13,5.617434009671423e-13,4.487953219196086e-13,3.5181747152949136e-13,2.6306649121227113e-13,2.053681168964721e-13,1.4688576498099473e-13,1.0916613176628405e-13,7.470079494630741e-14,5.0827015636034545e-14,3.318781754495081e-14,2.395671660202948e-14,6.785313307039706e-10,4.098354200093539e-10,2.6129376058522055e-10,1.4242828688104886e-10,7.851446539247493e-11,4.416776682650115e-11,2.163212643096701e-11,9.86963305328209e-12,5.228957273513922e-12,2.869536522787377e-12,1.9336056451694552e-12,1.3010006769088013e-12,9.201201910772254e-13,6.690681490055281e-13,5.164004171640386e-13,3.8421462613657436e-13,2.5884989735476717e-13,1.599908184898117e-13,1.1622996423010283e-13
0.0,17,17.0,0.0,30.0,0.0,0.0,0.0,0.0,-13.0,0.0,2.0,0.0,0.0,0.0,6.368938343952803e-12,5.286100909053567e-12,4.3568126767864535e-12,3.5594856347885065e-12,3.0677692946079472e-12,2.63219067494667e-12,2.2718990683024728e-12,1.895685987922775e-12,1.8074688693037955e-12,1.5185844627369668e-12,1.3069341228489408e-12,1.089587279564129e-12,9.25672741484441e-13,7.639150442306365e-13,6.509082064777432e-13,5.148918336442097e-13,4.183953416419341e-13,3.255174039354211e-13,2.5559908683183514e-13,1.7168367137016066e-13,1.3911073895102186e-13,9.996202594607242e-14,6.700127308319103e-14,4.6294710009671916e-14,3.6431751409697937e-14,2.1599930913105422e-14,6.775119061094281e-10,4.0825078743425533e-10,2.681577326024512e-10,1.5284642897487208e-10,9.149357598880427e-11,4.8174629329547286e-11,2.3009307614109256e-11,1.104075160491544e-11,5.844518154357354e-12,3.0273141625022937e-12,1.8743391068285e-12,1.3006264366226603e-12,9.000360357863633e-13,6.241516669298809e-13,4.5376873446945234e-13,3.5860154178365384e-13,2.443482679200698e-13,1.5104950474579487e-13,1.246249503355684e-13
0.0,18,18.0,0.0,30.0,0.0,0.0,0.0,0.0,-13.0,0.0,2.0,0.0,0.0,0.0,6.502739379583403e-12,5.199959674486536e-12,4.373584262764527e-12,3.597062395994974e-12,2.997624976315723e-12,2.477137072140215e-12,2.2021080471227264e-12,1.8427931822079237e-12,1.5929861529530072e-12,1.412109804770419e-12,1.179137487713826e-12,1.0044602653831862e-12,8.935772497501741e-13,7.363387967007704e-13,6.155266714994e-13,4.783216043830672e-13,3.8764218886779257e-13,2.9141627900028043e-13,2.327254915693024e-13,1.7377079253793176e-13,1.3372854561591453e-13,9.310954162068065e-14,6.40071510056507e-14,4.2673357313947724e-14,3.213379863133444e-14,2.10972723761572e-14,7.01097709575227e-10,4.420255716660198e-10,2.6650865064688127e-10,1.7531982224599636e-10,9.091296356950257e-11,5.0857697223431114e-11,2.5717001871557518e-11,1.1793213277986957e-11,6.108846926541049e-12,3.205490973537372e-12,1.9584707981912285e-12,1.2540630685028598e-12,9.045520322270042e-13,6.146304032929062e-13,4.368883232264634e-13,2.8699546755335384e-13,2.0217972607505169e-13,1.3917010289334683e-13,1.0135791425045747e-13
0.0,19,19.0,0.0,30.0,0.0,0.0,0.0,0.0,-13.0,0.0,2.0,0.0,0.0,0.0,7.0415805432672445e-12,5.6503404677615305e-12,4.4669326106306475e-12,3.738463521255236e-12,2.8991204641227144e-12,2.579306010889064e-12,2.071111934481153e-12,1.83313377009918e-12,1.5268232366164617e-12,1.2426808893848122e-12,1.0930751342544971e-12,1.0002447091666852e-12,8.377977547783206e-13,6.674179743107888e-13,5.735877738168607e-13,4.396528930553925e-13,3.670384619616776e-13,2.8263240628351657e-13,2.2488519769754566e-13,1.621016695032795e-13,1.1465148086225635e-13,8.95905984370166e-14,6.03728218157077e-14,4.137420846164124e-14,3.151023265916387e-14,2.202262174447079e-14,6.915556908845672e-10,4.265611897612364e-10,2.8844091707514307e-10,1.8490953485940577e-10,9.488936231299221e-11,5.228085208241867e-11,2.740688381737865e-11,1.3906665113905758e-11,6.600594751864775e-12,3.2536592280129525e-12,1.7708034753915526e-12,1.1739821240420776e-12,8.807830327022716e-13,5.662050879116076e-13,3.8906015928442165e-13,2.786159036157847e-13,2.0200205673123484e-13,1.4725653333311802e-13,9.792241754481983e-14
0.0,20,20.0,0.0,30.0,0.0,0.0,0.0,0.0,-13.0,0.0,2.0,0.0,0.0,0.0,7.070448135898318e-12,5.6108925680340184e-12,4.576515718864486e-12,3.762594781684391e-12,2.9208049360021834e-12,2.4054585857296026e-12,1.9308475872030618e-12,1.703052520834008e-12,1.4171364154917201e-12,1.2108035065039455e-12,1.0442208940829851e-12,8.403585905452107e-13,7.198491428160338e-13,6.504113035639958e-13,5.219782001570795e-13,4.169974171212314e-13,3.4708125054440983e-13,2.552489311083714e-13,2.0364987494046044e-13,1.4352865658271712e-13,1.1551685991237548e-13,7.884262126706944e-14,5.4516529876157134e-14,4.229810016054876e-14,2.6559333075057846e-14,2.03815290231199e-14,7.289306007189862e-10,4.2787048875583733e-10,2.8407917672479773e-10,1.7512050332663072e-10,1.0079024667214458e-10,5.501884097622951e-11,3.036797004573351e-11,1.541836420478008e-11,7.202078467192507e-12,3.6101801338935676e-12,1.910076305902324e-12,1.0835513404613067e-12,7.602359180013093e-13,5.515795622288781e-13,3.718910411788368e-13,2.7923899897061064e-13,1.6922824037034795e-13,1.4817647435442084e-13,9.175477609258432e-14
0.0,21,21.0,0.0,30.0,0.0,0.0,0.0,0.0,-13.0,0.0,2.0,0.0,0.0,0.0,7.838702232287508e-12,6.295413282715396e-12,4.848695818366967e-12,3.750153243573699e-12,2.98655798075756e-12,2.5196673732735404e-12,1.8975586268999744e-12,1.5614884194486143e-12,1.340568611956064e-12,1.1444640051094264e-12,9.292873383045946e-13,8.455207676047999e-13,7.003955394316319e-13,6.015329447159256e-13,5.047734013300894e-13,3.8820082879442623e-13,3.125602976006125e-13,2.490589768119377e-13,2.0072846994730304e-13,1.40566279633676e-13,1.096183761674225e-13,7.565535950079739e-14,5.581562840728783e-14,3.673135876305732e-14,2.6797234954073303e-14,1.601741087656772e-14,7.518735980211359e-10,4.661301560762478e-10,2.82986662786448e-10,1.7956281151136998e-10,1.0432048410555956e-10,6.113302626963176e-11,3.323880117323255e-11,1.6411969542494524e-11,8.29151914302509e-12,3.964311648498286e-12,1.977618605004591e-12,1.2217948456414516e-12,7.189296813877573e-13,4.967474905880508e-13,3.3898392135623717e-13,2.439757167323206e-13,1.9856603770502868e-13,1.2363125945746554e-13,8.84983254911537e-14
0.0,22,22.0,0.0,30.0,0.0,0.0,0.0,0.0,-13.0,0.0,2.0,0.0,0.0,0.0,7.738268765973537e-12,6.502112291310435e-12,4.951299894624768e-12,3.727715474517901e-12,2.9969479044319534e-12,2.3619483106029185e-12,1.8842866596693047e-12,1.555799371012064e-12,1.2556566184960818e-12,1.0800752061516891e-12,9.57810898031339e-13,8.109133766429631e-13,6.657885645371292e-13,5.53666955265854e-13,4.68270155098383e-13,3.5857028957056956e-13,2.941286940016495e-13,2.3790148831755113e-13,1.7716821144517737e-13,1.3932261443988328e-13,9.991928764821729e-14,7.662156608824882e-14,4.923427649622125e-14,3.5905210607521264e-14,2.5957844763417065e-14,1.680864697819111e-14,7.257501619515147e-10,4.5923232253569117e-10,2.9056775627366545e-10,1.8602677678317812e-10,1.0757788451445611e-10,6.01255588431569e-11,3.455844118159917e-11,1.7617065548131254e-11,8.593079122685483e-12,4.050207840347762e-12,2.030386330968251e-12,1.0976829028350005e-12,7.054050634626864e-13,4.800992253385468e-13,3.334522253133736e-13,2.422628268868746e-13,1.7422835847910869e-13,1.3527622634676083e-13,7.946581069754975e-14
0.0,23,23.0,0.0,30.0,0.0,0.0,0.0,0.0,-13.0,0.0,2.0,0.0,0.0,0.0,8.504342867630908e-12,6.9591437055031675e-12,5.290426749099411e-12,4.1184526710098e-12,3.060135971657687e-12,2.2871987746718317e-12,1.804177875462326e-12,1.5293230673655076e-12,1.2454484142723023e-12,1.0629055621491107e-12,9.007904284518993e-13,7.610714668376491e-13,6.034602771383795e-13,5.334205517639597e-13,4.323411876871907e-13,3.4300200003105007e-13,2.773700369102479e-13,2.1968502380829457e-13,1.6686467089383336e-13,1.2825672039191924e-13,9.272648319534329e-14,6.570437675543572e-14,4.841317155164158e-14,3.208762638694684e-14,2.4234826335766796e-14,1.621372343571907e-14,7.357753180499444e-10,4.5995918887602553e-10,2.9603766593286895e-10,1.8943239762813482e-10,1.1216311913306214e-10,6.45087420430539e-11,3.421177320277283e-11,1.8481967305511523e-11,9.233063736213912e-12,4.4646028335650515e-12,2.142712798476917e-12,1.1825166645116443e-12,7.063496226431814e-13,4.780058155987491e-13,3.17367854522111e-13,2.349917129815973e-13,1.8103926794838167e-13,9.919547769887453e-14,7.348861673874313e-14
0.0,24,24.0,0.0,30.0,0.0,0.0,0.0,0.0,-13.0,0.0,2.0,0.0,0.0,0.0,8.901084715920226e-12,7.139514274008618e-12,5.805976549674026e-12,4.105418036108809e-12,3.0447468904886885e-12,2.4597481968632193e-12,1.799972276791091e-12,1.4631084913515476e-12,1.2119793909884342e-12,9.4551213477768e-13,8.097520490756148e-13,6.718454534293533e-13,5.912333555094513e-13,4.750009049701591e-13,4.1414986018224424e-13,3.225213539302372e-13,2.585732547097916e-13,1.9207782112168825e-13,1.5735509419261533e-13,1.1881024309797109e-13,9.059054670238062e-14,6.24913068096745e-14,4.805000434662001e-14,3.400825148481202e-14,2.185002976244656e-14,1.5790688735381974e-14,7.257793802870302e-10,4.588550187640029e-10,3.0298375198829526e-10,1.9152230976564386e-10,1.194542266176504e-10,7.048175686420538e-11,3.863813051954952e-11,2.011184204763011e-11,9.618784923048607e-12,4.7654556882294555e-12,2.173735175407471e-12,1.2210567071145148e-12,6.82586273898081e-13,4.797895106101462e-13,3.0441707404529605e-13,2.299407105276047e-13,1.5107745292149872e-13,1.2846292667967327e-13,7.428599700655803e-14
0.0,25,25.0,0.0,30.0,0.0,0.0,0.0,0.0,-13.0,0.0,2.0,0.0,0.0,0.0,9.237180734669159e-12,7.065883622938304e-12,6.077707199160329e-12,4.670990211714301e-12,3.5935450641135363e-12,2.459118501458259e-12,1.851416835370078e-12,1.4827163227268179e-12,1.1606220903941539e-12,9.631162916687576e-13,7.759629788026682e-13,6.3965117684177e-13,5.632029751229712e-13,4.550815814667097e-13,3.7241385236634757e-13,3.0688620941151697e-13,2.528182956250425e-13,1.8450521736972546e-13,1.4209080749244418e-13,1.0898608449112995e-13,7.7539566034593e-14,6.501899395816427e-14,4.4256977057741785e-14,2.9391374604151024e-14,2.2383814498817415e-14,1.3853137268426378e-14,7.879496440860208e-10,4.843992524808283e-10,3.155142847843709e-10,1.8968656867319011e-10,1.1470828524373044e-10,6.883909022499196e-11,4.113251800493651e-11,2.0706041246422443e-11,1.0014735613043904e-11,5.1437306185343204e-12,2.4158933410915314e-12,1.248714486849074e-12,6.950491857678145e-13,4.239824204502089e-13,2.7689693931207874e-13,1.9850613074508363e-13,1.4146626849771034e-13,1.258898662802837e-13,5.637856610334752e-14
0.0,26,26.0,0.0,30.0,0.0,0.0,0.0,0.0,-13.0,0.0,2.0,0.0,0.0,0.0,9.360961227807913e-12,7.547891369740168e-12,6.0650111683845904e-12,4.541925878434193e-12,3.475564505730047e-12,2.5820323032613318e-12,1.9729507967670813e-12,1.393489819914739e-12,1.1171226837881958e-12,8.632838196797845e-13,7.369038074225847e-13,6.161842190662282e-13,5.286848133033316e-13,4.2176197414860915e-13,3.3809857401986254e-13,2.9454136678661695e-13,2.1666141918598605e-13,1.8342977855870197e-13,1.3790120247482971e-13,9.961698423882813e-14,8.012208101776254e-14,5.880097201417452e-14,3.9065665799260726e-14,3.07871052311908e-14,1.8888065975006693e-14,1.2536034607957725e-14,7.365370338217838e-10,4.6298739941367047e-10,3.08099336651552e-10,1.910790107089095e-10,1.2071646789153602e-10,7.419211535774136e-11,4.135228959380192e-11,2.0976716588286143e-11,1.1155100579379438e-11,5.571793433753121e-12,2.5555218505311096e-12,1.239738906768251e-12,6.594310660066941e-13,4.281505512449426e-13,2.7097497129295863e-13,1.8260440896219035e-13,1.210905419680031e-13,8.331475142392255e-14,6.517421938142968e-14
0.0,27,27.0,0.0,30.0,0.0,0.0,0.0,0.0,-13.0,0.0,2.0,0.0,0.0,0.0,9.546554953629297e-12,7.722371774229477e-12,6.0576755045774175e-12,4.66425764406207e-12,3.7324626870123584e-12,2.7536857991463954e-12,1.893627107014816e-12,1.4718058263232458e-12,1.044725352649097e-12,8.695499102723369e-13,6.972188881343591e-13,5.914078514474353e-13,4.635799780937188e-13,4.149600920914347e-13,3.398059388763706e-13,2.69238541985589e-13,2.215941373327904e-13,1.6504200100479835e-13,1.2497709699029547e-13,9.998591088588908e-14,7.583362353129665e-14,5.089445720499328e-14,4.132538948833599e-14,2.816070118996936e-14,1.8326263474103814e-14,1.3524481093076603e-14,7.829594227386482e-10,4.959312687680245e-10,3.0710048398380096e-10,1.9270386997602103e-10,1.1963008813182778e-10,7.436316960718767e-11,4.357061485761581e-11,2.2846974745534434e-11,1.2276229518913543e-11,5.8342019158551765e-12,2.731403622615105e-12,1.353864860336817e-12,7.185183145177876e-13,4.157570492361602e-13,2.8100515045850116e-13,1.7729810993941867e-13,1.2835695895910449e-13,7.851130086881403e-14,5.641277163041236e-14
0.0,28,28.0,0.0,30.0,0.0,0.0,0.0,0.0,-13.0,0.0,2.0,0.0,0.0,0.0,1.0386042977395972e-11,8.652479513074031e-12,6.604824236597819e-12,4.854961494794101e-12,3.733976688580786e-12,2.7949159955088076e-12,1.9646726915052714e-12,1.5151858514450495e-12,1.1368503653268812e-12,9.157245924401111e-13,7.245363172938356e-13,5.668534841951736e-13,4.662581111409401e-13,3.8815847732098475e-13,3.15945676006856e-13,2.6058157206332297e-13,2.0052497481078128e-13,1.540041048495772e-13,1.2266950119748246e-13,9.511453549104089e-14,6.920128585756762e-14,5.162304439797078e-14,3.599280368473228e-14,2.581123532095566e-14,1.748995434789829e-14,1.3701514572246907e-14,8.039248927580693e-10,5.00578658798583e-10,3.0099781026704245e-10,2.028071338488852e-10,1.2254741956724055e-10,7.25622297350191e-11,4.4278168209799425e-11,2.4158104851331858e-11,1.2596703166182204e-11,6.384579495983619e-12,2.926677350324744e-12,1.3342027053052895e-12,7.225610824972125e-13,4.30428311596583e-13,2.5238092058612624e-13,1.7323161310975367e-13,1.2680340015801333e-13,6.98486524751244e-14,4.3131399187118686e-14
0.0,29,29.0,0.0,30.0,0.0,0.0,0.0,0.0,-13.0,0.0,2.0,0.0,0.0,0.0,1.0469946668409538e-11,8.663262593842106e-12,7.088707908527277e-12,5.20502956203539e-12,3.847639809689521e-12,3.1086300742544056e-12,2.006598930954823e-12,1.426886923518248e-12,1.1089613707101954e-12,8.406798790980843e-13,6.663992628724573e-13,5.134511803163852e-13,4.4725093840007143e-13,3.75131833693847e-13,2.894756406346314e-13,2.464794307362599e-13,1.9521608693639043e-13,1.504743505078887e-13,1.1931064623320495e-13,8.456832689036477e-14,6.791139536420296e-14,4.604994599956689e-14,3.371870532032808e-14,2.7010722866960065e-14,1.74869762941801e-14,1.2625997012294132e-14,8.151899308981146e-10,4.87193332620456e-10,3.481464242844721e-10,2.0298417250647867e-10,1.2113645234462733e-10,7.47724316248258e-11,4.350370417531359e-11,2.638240972645095e-11,1.3392116484276355e-11,6.537740009654842e-12,3.131371467405025e-12,1.438805015120537e-12,7.22745375969296e-13,3.8076480640530683e-13,2.540097305648683e-13,1.5444645564815046e-13,1.1028324761521129e-13,7.007945293235542e-14,2.559529853506449e-14
0.0,30,30.0,0.0,30.0,0.0,0.0,0.0,0.0,-13.0,0.0,2.0,0.0,0.0,0.0,1.018237527849582e-11,8.97349206315356e-12,7.198023884554116e-12,5.489310848002408e-12,3.958195272058487e-12,2.946180101385563e-12,2.186113551023081e-12,1.5525318703809509e-12,1.090932790190528e-12,8.073944483572642e-13,6.17018599081084e-13,5.296751801538697e-13,4.0759742990916525e-13,3.4068801580023163e-13,2.828224480082425e-13,2.2602130890032526e-13,1.7899019322064443e-13,1.4451535631489985e-13,1.101808466661146e-13,8.822067949454045e-14,6.293795634300494e-14,4.621212783129919e-14,3.031791489293918e-14,2.2873481067446635e-14,1.528278133147225e-14,1.1576900945545395e-14,8.204836259745983e-10,5.024156092009177e-10,3.145014025159903e-10,2.014592949052575e-10,1.3547712916928709e-10,7.60364226416264e-11,4.7288255042203595e-11,2.644749536683745e-11,1.3748010240473134e-11,7.373871743727893e-12,3.399945415465598e-12,1.5857927063981265e-12,7.437355476467585e-13,4.3542140783234727e-13,2.429310707455925e-13,1.7559918813803248e-13,9.382917287106993e-14,6.490677516618788e-14,5.2326272953080836e-14
0.0,31,31.0,0.0,30.0,0.0,0.0,0.0,0.0,-13.0,0.0,2.0,0.0,0.0,0.0,1.1522024908670517e-11,9.311120598812361e-12,7.587368692138297e-12,5.87772267278162e-12,4.376825928960695e-12,3.040211668006169e-12,2.1439900373530204e-12,1.5503447379271709e-12,1.0980408780647986e-12,7.853208786143995e-13,6.091496157585212e-13,4.894752815683502e-13,3.9079117496773795e-13,3.239558200224984e-13,2.710753491533006e-13,2.2564930657706467e-13,1.7221353923640445e-13,1.2700570520506308e-13,1.0248477881927813e-13,7.776576024750492e-14,5.965688542804955e-14,4.26610736879153e-14,3.1437793119057756e-14,2.3092359338645296e-14,1.692000627986587e-14,1.0705533955454044e-14,8.389269638266966e-10,5.062265559107755e-10,3.018660803704002e-10,2.034282360318183e-10,1.2653440780617236e-10,8.117265965282224e-11,4.688532080298528e-11,2.777248812417795e-11,1.475843405539027e-11,7.467729791931436e-12,3.348152734496297e-12,1.6202094725166712e-12,7.632544164163796e-13,4.2089159851576076e-13,2.4336422865012943e-13,1.5993449061612394e-13,8.751401706222157e-14,7.352657629259759e-14,5.511488026967361e-14
0.0,32,32.0,0.0,30.0,0.0,0.0,0.0,0.0,-13.0,0.0,2.0,0.0,0.0,0.0,1.2109140433384346e-11,1.0034271630137512e-11,7.932123182622746e-12,5.760208085573421e-12,4.329774630520156e-12,2.9151620277276905e-12,2.3537670758758565e-12,1.5346186969905417e-12,1.1196176128145296e-12,7.431182184063809e-13,5.601669175579512e-13,4.53045798160571e-13,3.9147495213601327e-13,3.227933739092759e-13,2.463342048321501e-13,2.1561660845780781e-13,1.638277484187897e-13,1.2687905472416403e-13,9.729840656974007e-14,8.077084489708255e-14,5.566027739538708e-14,3.942437184463322e-14,3.149780911335929e-14,2.0137362957612504e-14,1.3671684259613322e-14,1.032573229202788e-14,8.83859869951502e-10,5.168085826893743e-10,3.1773509000484467e-10,1.9848309643639948e-10,1.2312227499011753e-10,8.312579375390417e-11,4.932539269153488e-11,2.8610159205957067e-11,1.487103869460447e-11,7.62977397796381e-12,3.834719567378764e-12,1.7190236489241393e-12,8.382670377663625e-13,3.9272199119141733e-13,2.3359770632074487e-13,1.45677422677675e-13,9.147984634053773e-14,4.52235076811724e-14,5.596452410170427e-14
0.0,33,33.0,0.0,30.0,0.0,0.0,0.0,0.0,-13.0,0.0,2.0,0.0,0.0,0.0,1.1887404148030775e-11,1.0225643845382006e-11,8.0529849362611e-12,6.182359559305715e-12,4.7124443078337386e-12,3.2659504067328197e-12,2.372912036724598e-12,1.6419596244234725e-12,1.0760701354823952e-12,7.595187920925989e-13,5.511601260440799e-13,4.754851363250074e-13,3.7636701276401317e-13,2.842836157566796e-13,2.473235650874408e-13,1.9877841607675614e-13,1.479011197041258e-13,1.207205042700648e-13,9.928790131347766e-14,7.03582879417754e-14,5.436446583129628e-14,4.0231830468959684e-14,2.8812642504274604e-14,2.2115323118058835e-14,1.3416194617408835e-14,9.92921584825506e-15,8.983719345399922e-10,5.325647472898911e-10,3.445103272100334e-10,2.1932472154422384e-10,1.2690278821740569e-10,8.199597486381475e-11,5.0221289934450554e-11,3.056090982583952e-11,1.637249236210234e-11,8.129273569137248e-12,4.1089281819030194e-12,1.925623020300104e-12,8.446284125435289e-13,4.1328808224900537e-13,2.433770633080901e-13,1.4518999502948925e-13,1.0968643690184237e-13,4.81986870619599e-14,4.2564841502735214e-14
0.0,34,34.0,0.0,30.0,0.0,0.0,0.0,0.0,-13.0,0.0,2.0,0.0,0.0,0.0,1.271454595318921e-11,1.0467297357587414e-11,8.663093690441986e-12,6.441606480310489e-12,4.798733818067828e-12,3.708929385480779e-12,2.527625700631294e-12,1.7192964239472852e-12,1.1718462544698384e-12,7.887496540593291e-13,5.499280835841759e-13,4.422218352754862e-13,3.4858989554890975e-13,2.833740700652044e-13,2.3222055870564464e-13,1.8413919657590714e-13,1.5189218780156479e-13,1.1799972147371708e-13,9.164868700590066e-14,6.152957631283726e-14,4.573640007625828e-14,3.779863463158939e-14,2.578387100570184e-14,1.9776662273259733e-14,1.3537100599862845e-14,1.0248276407114066e-14,8.677509414335821e-10,5.195297690782943e-10,3.379517883291768e-10,2.1099628030529726e-10,1.3485485587161008e-10,8.435701840012278e-11,5.157714118655088e-11,2.8993055350432854e-11,1.669165815272087e-11,9.622636002182501e-12,4.12250429505798e-12,1.9495259949282586e-12,8.765250823256487e-13,4.2142763715437164e-13,2.2654548965234672e-13,1.1647019462020526e-13,8.506203155343429e-14,6.472375361794087e-14,4.263732014260856e-14
0.0,35,35.0,0.0,30.0,0.0,0.0,0.0,0.0,-13.0,0.0,2.0,0.0,0.0,0.0,1.2652373034429556e-11,1.0784773962598751e-11,8.915240530436754e-12,6.725655142326247e-12,5.14944271330551e-12,3.3603165461808946e-12,2.566665902963381e-12,1.7093925825795043e-12,1.1947644898652317e-12,8.022130650565524e-13,5.771452964051048e-13,4.481157661641102e-13,3.4551707565967154e-13,2.7117480940914093e-13,2.2696637601598882e-13,1.6943978102023424e-13,1.4360446083282567e-13,1.079119130651061e-13,8.236545404414524e-14,6.20774728297109e-14,4.7413815839452844e-14,3.7035058001192946e-14,2.69006499445985e-14,1.761812180896098e-14,1.3035672265274607e-14,8.785362869033645e-15,8.530163348748675e-10,5.553819559981573e-10,3.542272643562045e-10,2.0750634906496366e-10,1.3344134359611646e-10,7.785471749597301e-11,5.118376323796712e-11,2.9136911460044365e-11,1.7135176597182066e-11,9.20679731897667e-12,4.49641654776615e-12,1.9832683973636487e-12,9.353656155573506e-13,4.676889779395906e-13,2.4178556082370186e-13,1.379799193816746e-13,9.164736174421728e-14,4.5788320676130277e-14,3.291258194798717e-14
0.0,36,36.0,0.0,30.0,0.0,0.0,0.0,0.0,-13.0,0.0,2.0,0.0,0.0,0.0,1.27419423070886e-11,1.0899425861684521e-11,8.592335838935348e-12,6.804586445200598e-12,5.168422414989318e-12,3.734267892529185e-12,2.856951804222299e-12,1.7629951871909397e-12,1.2431398890446465e-12,8.269709406810964e-13,5.726999136964433e-13,4.1463803941482196e-13,3.437993017884168e-13,2.593787720156254e-13,2.016833974385292e-13,1.7113979565251013e-13,1.3237713672740955e-13,1.0539063310370694e-13,7.569422379952947e-14,6.206911816596855e-14,4.6115146263243736e-14,3.4333671394832935e-14,2.4893097329644237e-14,1.8031362569707953e-14,1.212116336324559e-14,7.363286767201309e-15,9.291294793542712e-10,5.494892075538862e-10,3.5547201690159196e-10,2.101077019848499e-10,1.3389936072433863e-10,8.266937255940387e-11,5.303755044160692e-11,3.161687058369646e-11,1.6988992532525e-11,9.226716141386086e-12,4.7974988766888155e-12,2.1430511610857793e-12,1.006768307709816e-12,4.613622312397479e-13,2.2268544128430748e-13,1.0502739287542156e-13,7.204999014658584e-14,7.178290596933832e-14,3.5980119187292535e-14
0.0,37,37.0,0.0,30.0,0.0,0.0,0.0,0.0,-13.0,0.0,2.0,0.0,0.0,0.0,1.2948683448265168e-11,1.1454283573495202e-11,9.261880889147523e-12,7.204160258202651e-12,5.04524043584587e-12,4.092033704445699e-12,2.7344671686647216e-12,1.9214805402975316e-12,1.2814834833115303e-12,8.096077740378024e-13,5.539181898335112e-13,4.0469988865518137e-13,3.2269489179931956e-13,2.424362640023519e-13,1.9099905432492014e-13,1.674663736921832e-13,1.3308201143341394e-13,1.014677839316429e-13,7.889074660204537e-14,5.3647983538037394e-14,4.428783832311504e-14,3.032437384466159e-14,2.2714501014024185e-14,1.828609900928388e-14,1.0997145920290583e-14,7.5875616426314e-15,9.389809855421076e-10,5.77736021129114e-10,3.623631890854624e-10,2.1005207269978947e-10,1.3310551217736429e-10,8.798248259645107e-11,5.309421850177674e-11,3.1878200119764404e-11,1.765170656759807e-11,9.894814112295679e-12,5.088941408535046e-12,2.308797445640563e-12,1.0745839376546936e-12,4.803064580659876e-13,2.432581443342884e-13,1.251227253133808e-13,8.226585623402118e-14,4.584686765053709e-14,2.4130120646891518e-14
0.0,38,38.0,0.0,30.0,0.0,0.0,0.0,0.0,-13.0,0.0,2.0,0.0,0.0,0.0,1.3772329370956576e-11,1.1584469559920841e-11,9.543701319661633e-12,7.363628378922278e-12,5.2796449421026615e-12,3.994310052110987e-12,2.8004858257933287e-12,1.926649456583158e-12,1.295859621400347e-12,8.534882187865788e-13,5.558092260885301e-13,3.936508242792374e-13,2.9180359534172e-13,2.5147445074951023e-13,1.9890752483025295e-13,1.5786871506989045e-13,1.255050426776467e-13,9.262317491047064e-14,7.257504586240426e-14,5.206737580408848e-14,4.022217682156484e-14,3.062279149988523e-14,2.1324566599923887e-14,1.7004405291631135e-14,9.054000928875817e-15,8.301070975257521e-15,9.432304661869835e-10,5.768034751224403e-10,3.472093606641354e-10,2.2979440010839868e-10,1.3515442326906427e-10,8.636824222792173e-11,5.49279843315565e-11,3.1225235707100775e-11,1.9008895102854836e-11,9.653495375920579e-12,5.220500160167437e-12,2.442041836728572e-12,1.1282598915418824e-12,5.086974016972215e-13,2.372649868351501e-13,1.2896611548262826e-13,7.536044169456514e-14,6.571652701434808e-14,5.724279621529317e-14
0.0,39,39.0,0.0,30.0,0.0,0.0,0.0,0.0,-13.0,0.0,2.0,0.0,0.0,0.0,1.4285108014291754e-11,1.1670120230146255e-11,9.578916129407594e-12,7.341310656877598e-12,5.771396886354025e-12,4.257034171897023e-12,2.876438284792193e-12,1.975793098879857e-12,1.335647691183714e-12,8.624381048485214e-13,5.964983756555206e-13,4.17196205823299e-13,3.004221227388273e-13,2.3591423016373855e-13,1.7988702973857296e-13,1.4150333200573605e-13,1.121134536403079e-13,8.62821910339517e-14,6.681973375051273e-14,4.866058917547159e-14,3.9648343067990743e-14,2.882055930539707e-14,2.1273351208393616e-14,1.5830398264239173e-14,1.0323972374148979e-14,7.433039056768119e-15,9.678338781970278e-10,6.179024455155137e-10,3.6626105045219825e-10,2.295652969238347e-10,1.4875559217984163e-10,8.682474836320524e-11,5.741562786891485e-11,3.3364764898825645e-11,1.9145044117344955e-11,1.0279859576902329e-11,5.547901788337522e-12,2.6576158402523382e-12,1.2451269091565741e-12,5.333829250215832e-13,2.415629068384034e-13,1.2837851964671615e-13,7.506469822649187e-14,4.4038473871921564e-14,4.439813692638257e-14
0.0,40,40.0,0.0,30.0,0.0,0.0,0.0,0.0,-13.0,0.0,2.0,0.0,0.0,0.0,1.4110340079119287e-11,1.2303355135663408e-11,9.558346655912332e-12,7.7902698547652e-12,5.956928810676889e-12,4.398239727798516e-12,3.164581064031434e-12,2.077058981473713e-12,1.3824918456188839e-12,9.077517350562885e-13,5.784106754992248e-13,3.893942513308612e-13,2.930574815617204e-13,2.1894647117347311e-13,1.7733044941049916e-13,1.4371182213683527e-13,1.142492756267248e-13,9.149281145540439e-14,6.652408971098516e-14,5.202534777875721e-14,3.923568539449768e-14,2.813537474845437e-14,2.1789159851067552e-14,1.5493973617635645e-14,1.1110419004729857e-14,6.3319729199524724e-15,9.682883278235439e-10,6.029938227812067e-10,3.638622644744712e-10,2.271517453518272e-10,1.370527247856723e-10,8.748173973521518e-11,5.609170889064221e-11,3.397718064783048e-11,1.8524989580877887e-11,1.1294039621729501e-11,5.276659226802298e-12,2.7685527174044794e-12,1.221004200402121e-12,5.578890721645818e-13,2.582610229191158e-13,1.3236773303701261e-13,6.772986718329296e-14,3.676598314824629e-14,4.9405665062269454e-14
0.0,41,41.0,0.0,30.0,0.0,0.0,0.0,0.0,-13.0,0.0,2.0,0.0,0.0,0.0,1.4272780851462416e-11,1.2024228695337664e-11,9.699699103531286e-12,7.597296699887812e-12,5.990880918130678e-12,4.561956199540701e-12,3.250252559414418e-12,2.0961866863300434e-12,1.4203422824703157e-12,8.555651628002776e-13,5.959691945261238e-13,3.964255664310102e-13,2.9257469524992247e-13,2.2488339688048705e-13,1.6555304921949325e-13,1.3005953789710482e-13,1.0189222289764047e-13,8.112804051376166e-14,6.322030328305349e-14,4.774390534283724e-14,3.651353895415455e-14,2.4348429542517934e-14,2.0776122204711366e-14,1.3495153534756168e-14,1.0498859280202518e-14,7.63831634593665e-15,9.998985045008183e-10,6.108166396129258e-10,3.4445222634284653e-10,2.3648801321253577e-10,1.474331165209062e-10,8.630232972779566e-11,5.374655548151155e-11,3.2819508671379894e-11,1.8951372216001677e-11,1.101839177622701e-11,5.715402575844988e-12,2.917860560521175e-12,1.3254253832267087e-12,5.826304054101341e-13,2.072717145986484e-13,1.3152702714357544e-13,8.308779393934071e-14,5.480189121869285e-14,1.47222971689797e-14
0.0,42,42.0,0.0,30.0,0.0,0.0,0.0,0.0,-13.0,0.0,2.0,0.0,0.0,0.0,1.4772856979705323e-11,1.2660821199056428e-11,9.826522420936023e-12,8.04998219072616e-12,5.68860213885523e-12,4.683949137196087e-12,3.1378467671116993e-12,2.1493649980436327e-12,1.4896760040100865e-12,8.986369641184094e-13,6.305159535032444e-13,3.9942814642312097e-13,3.020115270549385e-13,1.9943002214818188e-13,1.587946851384108e-13,1.279110132019003e-13,1.0184969412810078e-13,7.952428719629518e-14,6.072731574997334e-14,4.367382463206417e-14,3.422054611310317e-14,2.4489337070321328e-14,1.7933286640509195e-14,1.1653041962363878e-14,8.55867409398205e-15,6.105941483385093e-15,9.635688242042992e-10,6.238248554462053e-10,3.884284608119975e-10,2.374417606907164e-10,1.4677422946367662e-10,8.476988640686888e-11,5.6832318249799484e-11,3.314260932649424e-11,1.991982843506242e-11,1.1373282712570583e-11,5.803666640289635e-12,2.8843600367439824e-12,1.4043971065394239e-12,5.797517902768558e-13,2.857763935244291e-13,1.2067964099849958e-13,7.364392169264681e-14,6.882507735505768e-14,2.0347188835789854e-14
0.0,43,43.0,0.0,30.0,0.0,0.0,0.0,0.0,-13.0,0.0,2.0,0.0,0.0,0.0,1.4992586652560027e-11,1.260343838439006e-11,1.0756755458187608e-11,8.583510870070914e-12,6.2942772542145375e-12,4.843003823435559e-12,3.2040577437953238e-12,2.289008151281035e-12,1.513101752409018e-12,9.196980147414453e-13,6.244010680731677e-13,4.228467019039885e-13,2.853869086505442e-13,2.009962168705837e-13,1.5282025844276204e-13,1.2273610802862435e-13,9.886903589416508e-14,7.373680748135558e-14,6.152493384458743e-14,4.6578041216767625e-14,3.437366402360122e-14,2.34914991368868e-14,1.982254367795792e-14,1.3527471733643054e-14,8.591173821468112e-15,5.834373584768425e-15,1.0277744299131915e-09,6.315065852987202e-10,3.787618900642679e-10,2.4545229981643396e-10,1.4600472351893052e-10,9.071821859793548e-11,5.3167173544139135e-11,3.5007473223033787e-11,1.9652805924179e-11,1.1986584852801092e-11,6.532477745345622e-12,2.9818055734976066e-12,1.4345905193375997e-12,6.09701453578384e-13,3.1020885836876846e-13,1.2497193244202815e-13,5.954384243647849e-14,4.513377788288535e-14,3.2814046250561035e-14
0.0,44,44.0,0.0,30.0,0.0,0.0,0.0,0.0,-13.0,0.0,2.0,0.0,0.0,0.0,1.5348538539694773e-11,1.2493721886380668e-11,1.0462821122887537e-11,8.651774937785e-12,6.400890130932782e-12,4.790907575947071e-12,3.4291226825782743e-12,2.2901200990090384e-12,1.5515498314637691e-12,1.034757018247369e-12,6.246546059960472e-13,4.001529779581408e-13,2.7326599184956367e-13,1.9179706656423708e-13,1.482317085275843e-13,1.164720110943456e-13,9.427486165173672e-14,7.160082299775498e-14,4.810639687518626e-14,4.3176954326750205e-14,3.178401762918449e-14,2.2142703384293104e-14,1.515124510868028e-14,1.160679588780434e-14,5.466417638342913e-15,4.8158794358303145e-15,1.0096586217397636e-09,6.027315902216727e-10,3.752045021021588e-10,2.4699272796914215e-10,1.4805351177376513e-10,9.512340525680123e-11,5.7564075135669866e-11,3.4611005286614705e-11,1.95659227443525e-11,1.1338813981117606e-11,6.346297256811963e-12,3.2219321817826704e-12,1.531630610781233e-12,6.738488412571079e-13,3.173446381483243e-13,1.4942478229625182e-13,7.000937673971521e-14,3.12587358625222e-14,6.695953776980675e-15
0.0,45,45.0,0.0,30.0,0.0,0.0,0.0,0.0,-13.0,0.0,2.0,0.0,0.0,0.0,1.6042390214935137e-11,1.3003277781372751e-11,1.0214689354553552e-11,8.31620036330815e-12,7.089069145320339e-12,5.103165522994538e-12,3.608847342777983e-12,2.5916172831224094e-12,1.6269297101753382e-12,9.636862711975923e-13,6.388385606422826e-13,4.1746044921337636e-13,2.643487635691953e-13,1.9665534927350645e-13,1.4628709936959138e-13,1.1853073783158853e-13,9.137687326419097e-14,6.911626735070136e-14,5.52735045536706e-14,3.998045104024185e-14,3.1071864011013255e-14,2.1936728552474385e-14,1.4094756906281646e-14,1.0997942105272786e-14,8.801366250376042e-15,6.087054640219668e-15,1.0036989729738792e-09,6.377374378269077e-10,3.730318288566402e-10,2.3742165314600817e-10,1.5421520213250975e-10,8.981063810802584e-11,5.660453713825658e-11,3.497302586785745e-11,2.1293589633250544e-11,1.2012531881152519e-11,6.16649834115355e-12,3.2028307325730296e-12,1.5814364291462226e-12,7.223170400598848e-13,3.1744456339907996e-13,1.2016278567700324e-13,5.5884207061093116e-14,4.707602537682332e-14,1.3156013763804396e-14
0.0,46,46.0,0.0,30.0,0.0,0.0,0.0,0.0,-13.0,0.0,2.0,0.0,0.0,0.0,1.6020274904680744e-11,1.2990379643946458e-11,1.1037833194774937e-11,8.457334350286671e-12,6.8092840256738216e-12,4.910114420478829e-12,3.6071619703569517e-12,2.5377763388305835e-12,1.6481050209506469e-12,1.0637323960301711e-12,6.548392069006354e-13,4.22539766349923e-13,2.7388690522088956e-13,1.794079308242193e-13,1.3698778780894173e-13,1.1241123663084328e-13,8.604508422560974e-14,6.750293776191383e-14,4.824113199373267e-14,3.9313762914704796e-14,2.7989552078809073e-14,2.1736074465324332e-14,1.501957057001038e-14,1.1362468566643531e-14,7.759201747159552e-15,6.119002763055523e-15,1.0259679632234082e-09,5.949219600193946e-10,3.78468827141575e-10,2.4500669633666775e-10,1.5160678843877906e-10,9.470769866505505e-11,5.913865604239502e-11,3.718184520603401e-11,2.2403724147326447e-11,1.2345213057078125e-11,6.540488765543606e-12,3.3966947305022395e-12,1.6035282681960022e-12,7.324016288246131e-13,3.2764430961266965e-13,1.2948847282243776e-13,7.481018631921177e-14,5.149295717504995e-14,2.160732083623866e-14
0.0,47,47.0,0.0,30.0,0.0,0.0,0.0,0.0,-13.0,0.0,2.0,0.0,0.0,0.0,1.5717869372345807e-11,1.313042463970373e-11,1.1309707272425925e-11,9.147807538958236e-12,6.968907327596646e-12,5.2786435294609065e-12,3.731159334432214e-12,2.6781387362482316e-12,1.7909239182533908e-12,1.1023051019988884e-12,7.048318993637169e-13,4.1277467989934436e-13,2.7068157362919124e-13,1.806156986668292e-13,1.4068261406791427e-13,1.0185982249613354e-13,8.532240284596856e-14,5.992239891881994e-14,4.8202908373846906e-14,3.5195560041625484e-14,2.6335186595253787e-14,2.227433894091023e-14,1.5204701883912977e-14,9.143074422165623e-15,8.11289681090621e-15,5.477763453412728e-15,1.0519915068818793e-09,6.48316097426493e-10,3.7734258901451017e-10,2.5712311707502073e-10,1.5184318224889278e-10,9.304168397934407e-11,5.910218500514938e-11,3.6975990789277727e-11,2.0015886729543602e-11,1.252642727955106e-11,6.835452404377944e-12,3.617401276701137e-12,1.6430041924029297e-12,7.880821298240602e-13,3.3751292637414487e-13,1.4412380468455607e-13,8.729492644058602e-14,4.343674073265249e-14,3.2855034118427733e-14
0.0,48,48.0,0.0,30.0,0.0,0.0,0.0,0.0,-13.0,0.0,2.0,0.0,0.0,0.0,1.617272934928763e-11,1.4350742671410067e-11,1.1374218220889353e-11,9.139960176730934e-12,6.92094466264766e-12,5.498908465050269e-12,3.77906306049542e-12,2.7410558653473654e-12,1.7794125274217066e-12,1.1130041913930062e-12,6.959557855066467e-13,4.3447092049782096e-13,2.7021036310904997e-13,1.8515806638953547e-13,1.3398367757173113e-13,1.0202978413347036e-13,7.734338802106198e-14,6.027923665306654e-14,4.716982562575316e-14,3.535893709987444e-14,2.714373554250308e-14,1.9348418379624258e-14,1.4528113834872932e-14,9.88450041291564e-15,6.677545176007162e-15,2.8592796683697525e-15,1.072663215847633e-09,6.544643917493599e-10,4.049262843003771e-10,2.519768973283405e-10,1.5735988414989766e-10,9.574076861095294e-11,5.972837654626099e-11,3.475642841528474e-11,2.218303565099564e-11,1.3572065486701386e-11,6.791441065346064e-12,3.659994256761692e-12,1.6491915555795744e-12,7.994869055279004e-13,3.6133945222659617e-13,1.5212376571847705e-13,7.518053488157135e-14,3.622934235089928e-14,1.734710529389491e-14
0.0,49,49.0,0.0,30.0,0.0,0.0,0.0,0.0,-13.0,0.0,2.0,0.0,0.0,0.0,1.689993879398933e-11,1.4013179550848413e-11,1.1315643221778208e-11,9.245909235760885e-12,7.03959332398117e-12,5.5214854259308394e-12,3.858242289358692e-12,2.666337456840982e-12,1.8615489839847814e-12,1.1765493171309796e-12,6.784153848987044e-13,4.188300424695649e-13,2.6551415485567214e-13,1.8935514247673792e-13,1.3618331636618087e-13,9.818049973099668e-14,7.382792278719249e-14,5.855949344521174e-14,4.7175648029519896e-14,3.2038387938737695e-14,2.6195833165396803e-14,1.573834426710806e-14,1.3045320571557799e-14,9.06463244180515e-15,6.648121121698664e-15,6.2175107226448465e-15,1.1211172284851773e-09,6.483141446180889e-10,4.11609727777508e-10,2.6334565932571786e-10,1.5429972763753442e-10,9.482198720865102e-11,5.815546111246364e-11,3.8742908189067644e-11,2.2512250694957522e-11,1.3304669043684695e-11,7.449235559421977e-12,3.5721044074521346e-12,1.7169203085964589e-12,8.16700810506059e-13,3.617959823738478e-13,1.6498945374639205e-13,7.254651835133358e-14,2.731937081350036e-14,1.6522653426132283e-14
0.0,50,50.0,0.0,30.0,0.0,0.0,0.0,0.0,-13.0,0.0,2.0,0.0,0.0,0.0,1.6074357996847745e-11,1.4118672377681093e-11,1.2324298054181138e-11,9.449997200919652e-12,7.598361199059844e-12,5.3921294460743786e-12,3.977405258464875e-12,2.931267178936604e-12,1.7767826508975202e-12,1.2123886030968352e-12,7.055543713905732e-13,4.3519378353866653e-13,2.670131354635201e-13,1.74889424405775e-13,1.3671683520277905e-13,9.343382803070357e-14,7.126585866767333e-14,5.457497765004782e-14,4.409592226532507e-14,3.198325994317521e-14,2.3005127559460824e-14,1.6934553160908627e-14,1.234132002627273e-14,9.737261579228332e-15,6.367857041151579e-15,6.2735452849218874e-15,1.1310349152681844e-09,6.534431118429481e-10,4.0850763350896453e-10,2.5908717978831986e-10,1.597123076713353e-10,9.871878426458799e-11,5.7860602966770074e-11,3.665859028862196e-11,2.2552929775658166e-11,1.2740017964509362e-11,7.403810697157156e-12,3.770761787657212e-12,1.7845196345119606e-12,9.121425316916971e-13,4.0178191653199206e-13,1.6779432707528678e-13,8.472411404406484e-14,5.592968949727752e-14,1.2859625034500369e-14
0.0,51,51.0,0.0,30.0,0.0,0.0,0.0,0.0,-13.0,0.0,2.0,0.0,0.0,0.0,1.647151049522965e-11,1.4374839725888417e-11,1.1273364532587766e-11,9.459939144810397e-12,7.535094975055693e-12,5.79630670923937e-12,4.284589321271409e-12,2.9667338010365865e-12,1.946067750275059e-12,1.202872631034177e-12,7.62842683048724e-13,4.65906006519286e-13,2.743867276777314e-13,1.8158706347032414e-13,1.2665447287234942e-13,9.014066784302775e-14,6.975430856703547e-14,5.487390929723318e-14,3.891217810375252e-14,3.014260390416794e-14,2.2388172239063553e-14,1.5024173990383206e-14,1.3736982226566509e-14,7.37365656914043e-15,6.54663563312885e-15,3.808235194041554e-15,1.204796783296719e-09,6.848991553004494e-10,3.989002178655045e-10,2.5639001313341095e-10,1.531322548176158e-10,1.0394238492575943e-10,6.194872887458943e-11,3.7550065279077395e-11,2.2719196186378143e-11,1.3300175580457131e-11,7.519221901522985e-12,3.660008459331528e-12,1.9730477636538122e-12,8.630911234823892e-13,3.8933694076502075e-13,1.8018049939980116e-13,7.363471572218835e-14,3.106935837253e-14,2.2200076467608808e-14
0.0,52,52.0,0.0,30.0,0.0,0.0,0.0,0.0,-13.0,0.0,2.0,0.0,0.0,0.0,1.5833385841062785e-11,1.4612284043427194e-11,1.2263476167631364e-11,9.063867594792974e-12,7.585591601682373e-12,5.667569914290181e-12,4.41414863039672e-12,3.0604225591959743e-12,1.9805576328861683e-12,1.2445577826653053e-12,7.686385861867346e-13,4.5702133376808e-13,2.7562549684791345e-13,1.783135874984358e-13,1.213149408949281e-13,9.096072865765084e-14,6.794930375667836e-14,5.28618524273211e-14,4.104166488176179e-14,2.850586316732968e-14,2.1281555845237383e-14,1.629357475045065e-14,1.1393936633831706e-14,7.275921870517465e-15,8.230707371489274e-15,4.678006808068153e-15,1.1201162899368426e-09,6.983090961984991e-10,4.18629822842093e-10,2.560186510766438e-10,1.6417768119990727e-10,1.0266562815795176e-10,6.231530105692721e-11,3.8697403791379137e-11,2.1719339597490357e-11,1.3845068917339547e-11,7.520779615370918e-12,3.924096006933331e-12,2.032252729836071e-12,9.187083840573828e-13,4.077089262034679e-13,1.7706419611728668e-13,7.840138196762109e-14,2.6122918865050112e-14,2.119695866377595e-14
0.0,53,53.0,0.0,30.0,0.0,0.0,0.0,0.0,-13.0,0.0,2.0,0.0,0.0,0.0,1.7738294007624336e-11,1.4288978206415089e-11,1.2384469383121087e-11,1.0003556266225042e-11,7.628725113781984e-12,5.8122374213332824e-12,4.59202798927195e-12,3.1283190855200237e-12,2.064877470397359e-12,1.313909047454939e-12,8.079088443442211e-13,4.612076438124535e-13,2.8850266490784275e-13,1.8076787690116754e-13,1.2337758438522984e-13,8.258820771525513e-14,6.416772782129094e-14,4.9418459878591794e-14,3.753166296725346e-14,2.6465187685735368e-14,1.9476809087322254e-14,1.554327911307536e-14,1.3247610413049283e-14,7.798565164419817e-15,5.897047320477146e-15,4.8597228312656424e-15,1.1722716429531942e-09,6.937319943470077e-10,4.3301919111712466e-10,2.629518184988382e-10,1.612593198858273e-10,1.0090193101768681e-10,5.942486351519989e-11,3.7687201593517484e-11,2.3069932178336796e-11,1.3284698740037264e-11,7.913062102610267e-12,4.133044487832718e-12,2.16097606482377e-12,9.27339423162591e-13,4.4374067275224657e-13,1.932187814937802e-13,1.0042731104303689e-13,4.2846338558504223e-14,9.603612607942308e-15
0.0,54,54.0,0.0,30.0,0.0,0.0,0.0,0.0,-13.0,0.0,2.0,0.0,0.0,0.0,1.6969966232648354e-11,1.5538783229452455e-11,1.1957140521949312e-11,1.0449738910539363e-11,8.263638766123582e-12,6.323698199588277e-12,4.343166611064223e-12,3.1762707691341672e-12,2.0219338600873673e-12,1.3450653339759339e-12,8.257992346803983e-13,4.685408907096518e-13,2.981167960159296e-13,1.7569709963684877e-13,1.208214619466247e-13,8.342363412728191e-14,6.197441105997624e-14,4.792152855629953e-14,3.985488764423182e-14,2.8038597022147118e-14,2.220176733304938e-14,1.535418432582333e-14,1.1307256781114646e-14,7.206226910455619e-15,4.0543422459946486e-15,3.5991371273579274e-15,1.134254132638623e-09,7.689000470842897e-10,4.2093272796804827e-10,2.6697718934879016e-10,1.6403771586144653e-10,1.0135587287267469e-10,6.393264004321519e-11,3.996638719602548e-11,2.2913331526360662e-11,1.4199407382846722e-11,7.855943416108814e-12,4.491973213153519e-12,2.1326726964980283e-12,1.024469618373975e-12,4.3897106952668797e-13,2.108106124349454e-13,8.370248272043946e-14,3.6744040664848735e-14,2.2353341533663707e-14
