Line_number,Fiducial,Easting,Northing,Height,Elevation,tx_pitch,tx_roll,tx_yaw,txrx_dx,txrx_dy,txrx_dz,rx_pitch,rx_roll,rx_yaw,S0Z_time_3.834e-04,S0Z_time_3.924e-04,S0Z_time_4.039e-04,S0Z_time_4.184e-04,S0Z_time_4.364e-04,S0Z_time_4.589e-04,S0Z_time_4.869e-04,S0Z_time_5.224e-04,S0Z_time_5.679e-04,S0Z_time_6.249e-04,S0Z_time_6.969e-04,S0Z_time_7.879e-04,S0Z_time_9.019e-04,S0Z_time_1.046e-03,S0Z_time_1.227e-03,S0Z_time_1.456e-03,S0Z_time_1.744e-03,S0Z_time_2.109e-03,S0Z_time_2.567e-03,S0Z_time_3.145e-03,S0Z_time_3.864e-03,S0Z_time_4.745e-03,S0Z_time_5.821e-03,S0Z_time_7.140e-03,S0Z_time_8.754e-03,S0Z_time_1.073e-02,S1Z_time_2.057e-05,S1Z_time_2.607e-05,S1Z_time_3.307e-05,S1Z_time_4.206e-05,S1Z_time_5.356e-05,S1Z_time_6.807e-05,S1Z_time_8.607e-05,S1Z_time_1.086e-04,S1Z_time_1.366e-04,S1Z_time_1.721e-04,S1Z_time_2.176e-04,S1Z_time_2.746e-04,S1Z_time_3.466e-04,S1Z_time_4.376e-04,S1Z_time_5.516e-04,S1Z_time_6.956e-04,S1Z_time_8.771e-04,S1Z_time_1.106e-03,S1Z_time_1.394e-03
0.0,0,0.0,0.0,30.0,0.0,0.0,0.0,0.0,-13.0,0.0,2.0,0.0,0.0,0.0,6.16508592726642e-11,5.792415705447288e-11,5.2673159488228395e-11,4.343352975818715e-11,3.787823900732548e-11,3.386597785254746e-11,2.5830277977442803e-11,2.013330518748511e-11,1.4033831775530257e-11,1.0647938937707186e-11,7.338348038792729e-12,4.809938114784292e-12,2.904754552407352e-12,1.6402384124350707e-12,1.015082057879292e-12,5.202028261655036e-13,2.792770841801485e-13,1.3698005005700109e-13,6.904429259540472e-14,2.97062364959962e-14,1.4633265365973134e-14,5.419342733984439e-15,2.987899698164763e-15,7.884450660427792e-16,3.111465533851802e-16,-1.667020279127902e-16,3.595714022574357e-09,1.6772232037999034e-09,8.224912344636117e-10,4.4448777934742875e-10,2.9258551702067976e-10,2.1673259571370127e-10,1.5492055778737908e-10,1.1271221144677328e-10,8.198881222546672e-11,5.886535094670806e-11,3.858474832336342e-11,2.3485284285477807e-11,1.411071225759779e-11,8.004577456334556e-12,4.4077801025335925e-12,2.1750307338171426e-12,1.0456556424415737e-12,4.955494382548034e-13,2.163041269348519e-13
0.0,1,1.0,0.0,30.0,0.0,0.0,0.0,0.0,-13.0,0.0,2.0,0.0,0.0,0.0,6.368689424516906e-11,6.043146751499783e-11,5.2464452518431614e-11,4.864895989562968e-11,3.896555680298682e-11,3.2194216962379236e-11,2.6808608342983837e-11,2.1435907892290963e-11,1.585788843428361e-11,1.1572498687611004e-11,8.662737915040017e-12,5.408617207640468e-12,3.614251703480596e-12,2.068176220023338e-12,1.2588491155071827e-12,6.753342702151622e-13,3.655773558034068e-13,1.8180887790041866e-13,9.199323536103468e-14,4.266873581168652e-14,1.6485363791831607e-14,7.454021024122437e-15,3.1253631902422475e-15,2.2017026843179546e-15,8.0623349787877e-16,5.997457506838896e-16,3.4122197525511954e-09,1.6730060989883215e-09,8.039198680075229e-10,4.6060221722192033e-10,2.8135081284304965e-10,1.874031475069265e-10,1.3855484776188922e-10,1.0232412132564125e-10,7.672091162533223e-11,5.673755726695701e-11,3.802976571951205e-11,2.4969694811688596e-11,1.542157542471935e-11,8.807844194518883e-12,5.14929710108574e-12,2.6760056063702677e-12,1.3143617237315636e-12,5.483354363617804e-13,2.5582733619830207e-13
0.0,2,2.0,0.0,30.0,0.0,0.0,0.0,0.0,-13.0,0.0,2.0,0.0,0.0,0.0,6.696909346000856e-11,5.961562695836485e-11,5.177211708283534e-11,4.633861171585763e-11,3.9279455740939584e-11,3.2403082904130234e-11,2.7739185832177495e-11,2.3390003717912158e-11,1.655087302618268e-11,1.3276457106475344e-11,9.347349690625335e-12,6.105765634019912e-12,3.926345933940371e-12,2.4058653100506013e-12,1.4007350309554943e-12,7.996114783088692e-13,4.5225574908407423e-13,2.254882441745103e-13,1.0978501230081502e-13,5.176601256959723e-14,2.5796532800280658e-14,8.970426775288677e-15,5.799071805575478e-15,3.687751679483397e-15,3.099432131339097e-15,1.7729004371336088e-15,3.5807446459561113e-09,1.5980564519196046e-09,8.012093055007781e-10,4.5692693027813386e-10,2.716378388479807e-10,1.8150052046824356e-10,1.391281680373092e-10,1.0529899328584142e-10,7.407685348069695e-11,5.460522155368199e-11,3.838241589410206e-11,2.545828742914839e-11,1.6283768096266538e-11,9.69996065843926e-12,5.226056911232143e-12,2.8691442056161065e-12,1.5124495929737304e-12,6.705806854845567e-13,3.2384558101489845e-13
0.0,3,3.0,0.0,30.0,0.0,0.0,0.0,0.0,-13.0,0.0,2.0,0.0,0.0,0.0,6.343891506277804e-11,5.811213999275855e-11,5.154513317001737e-11,4.454802429245997e-11,4.030251961705018e-11,3.518864469909322e-11,2.8015412246038642e-11,2.275201189719375e-11,1.7356639965072426e-11,1.3817820238176044e-11,1.0273573653392795e-11,6.80891863945305e-12,4.673741152084604e-12,2.8131744286341865e-12,1.6996110882400783e-12,9.507379051088337e-13,5.266841222567992e-13,2.7651658292254957e-13,1.3832044250974338e-13,6.596913986226314e-14,3.166496917450796e-14,1.537299436654577e-14,5.852558880765682e-15,2.3890169045039292e-15,2.7795918533375036e-15,1.3519649329083088e-15,3.5664586414770144e-09,1.635668665390767e-09,7.620297665478484e-10,4.647326632505316e-10,2.795932378654354e-10,1.7882884219247705e-10,1.2700202605057495e-10,9.6207599473132e-11,7.164491033439542e-11,5.3080747394935326e-11,3.78771331102967e-11,2.5759578822982683e-11,1.607183180271253e-11,1.0260657909033682e-11,5.731572474684065e-12,2.9740504798614153e-12,1.696445233742611e-12,7.723834137020397e-13,3.7925357783552023e-13
0.0,4,4.0,0.0,30.0,0.0,0.0,0.0,0.0,-13.0,0.0,2.0,0.0,0.0,0.0,5.965071177187242e-11,5.72641854842118e-11,5.3870885448633294e-11,4.5296306418619747e-11,3.968210311052006e-11,3.490578056811736e-11,2.7995484940263166e-11,2.4576409056972345e-11,1.906402799230024e-11,1.4440089638872677e-11,9.839095709301294e-12,7.217682516527192e-12,4.848513297793496e-12,3.1938162489259897e-12,1.9316796499056302e-12,1.105233049674423e-12,6.282808154965295e-13,3.2551336676204105e-13,1.6684598713273006e-13,8.096026956322306e-14,3.8346588267172305e-14,1.7788390054444925e-14,7.180026064843021e-15,3.2535742923690907e-15,2.25866895578297e-15,4.747606095747473e-16,3.60375270031413e-09,1.5887959294740471e-09,8.129070069342886e-10,4.463435662908429e-10,2.697407821659963e-10,1.7985648851090893e-10,1.2959816670800067e-10,9.587070361786927e-11,6.842123501866621e-11,5.2913628283857685e-11,3.802812011982354e-11,2.4870803977413655e-11,1.6790964066384693e-11,1.0654697959758703e-11,6.22046839139118e-12,3.45541433753594e-12,1.83516957263895e-12,9.036817365434314e-13,4.2664544984147213e-13
0.0,5,5.0,0.0,30.0,0.0,0.0,0.0,0.0,-13.0,0.0,2.0,0.0,0.0,0.0,5.800281321787605e-11,5.928873060621189e-11,4.951619673342048e-11,4.393113531606174e-11,4.117706671779921e-11,3.5348958162759475e-11,2.8513701677211153e-11,2.4617530943445705e-11,2.0065861893003057e-11,1.535562541124882e-11,1.093455007022739e-11,7.839295760835815e-12,5.512533950911966e-12,3.3790099625566317e-12,2.128604422936521e-12,1.2114310959632221e-12,7.062686803431735e-13,3.6829540138573076e-13,2.110245075657641e-13,9.455569484284085e-14,4.5590850769722745e-14,2.175928131597759e-14,8.071893392960726e-15,2.2811199007635786e-15,4.1591131098606415e-15,1.2741943809722268e-15,3.487765397688299e-09,1.562314188481607e-09,7.816632561850514e-10,4.4573725496793727e-10,2.7672492808548514e-10,1.8136198020855954e-10,1.3009662758144063e-10,9.168413612113328e-11,6.709729560194134e-11,5.0935830875301254e-11,3.6621605995337954e-11,2.6507870474769456e-11,1.689030123622897e-11,1.0618754641770391e-11,6.037253802822487e-12,3.617705842571439e-12,1.8761918465750294e-12,9.443091286599969e-13,4.652571964094112e-13
0.0,6,6.0,0.0,30.0,0.0,0.0,0.0,0.0,-13.0,0.0,2.0,0.0,0.0,0.0,5.7882280849992305e-11,5.641757550928422e-11,5.046326875592908e-11,4.450392363474644e-11,4.019891493212468e-11,3.575484404956453e-11,2.898750017949648e-11,2.528136466058517e-11,1.9637246672471484e-11,1.5434970484383242e-11,1.1377498297212425e-11,8.593628448661722e-12,5.645238051542401e-12,3.784504459450416e-12,2.159479427514035e-12,1.37271898268056e-12,7.912012986927973e-13,4.2843649069421875e-13,2.29045867360964e-13,1.129809543451652e-13,5.3131987183236667e-14,2.290770811721227e-14,9.81466969993556e-15,4.035890859147364e-15,1.5923434359489714e-15,1.0966856318511886e-15,3.3432118614480075e-09,1.7462372449333708e-09,8.116415228893569e-10,4.5537782148031983e-10,2.816428999403389e-10,1.7775331658253653e-10,1.2774134234169443e-10,9.4807244180628e-11,6.24898411993483e-11,5.026987300277259e-11,3.530567592191497e-11,2.4743618355673402e-11,1.6718604044717394e-11,1.0582132638190306e-11,6.6890708311872584e-12,3.878094643055597e-12,1.9979500280277965e-12,1.1391301297910882e-12,5.254104013762603e-13
0.0,7,7.0,0.0,30.0,0.0,0.0,0.0,0.0,-13.0,0.0,2.0,0.0,0.0,0.0,6.003379686571905e-11,5.2972317765693317e-11,4.828368709948116e-11,4.567304996424088e-11,3.953461282879637e-11,3.455178900397554e-11,2.8555855489175823e-11,2.4871354816367772e-11,2.0163580076258983e-11,1.5531952580513935e-11,1.1990029827944276e-11,8.36746716024458e-12,6.112934368767642e-12,3.700665759125837e-12,2.4665231238979612e-12,1.4876872294712886e-12,8.788366242990852e-13,4.704653787126613e-13,2.588987348658387e-13,1.271950667792802e-13,6.305386249956282e-14,3.0239678087779475e-14,1.3684365243911227e-14,5.487772234880902e-15,2.9675247126889765e-15,4.517515574359431e-16,3.3206511478110738e-09,1.605883038548574e-09,7.901606638962891e-10,4.397572030930879e-10,2.724509223177637e-10,1.7906561816217974e-10,1.302762455286218e-10,9.002299640399359e-11,6.441030561803354e-11,4.8109064273211124e-11,3.472998665583707e-11,2.4263004022609086e-11,1.741283076974501e-11,1.0439719627895811e-11,6.731664371711097e-12,3.930725823083852e-12,2.1043679976796965e-12,1.1429409668036074e-12,5.92025580381374e-13
0.0,8,8.0,0.0,30.0,0.0,0.0,0.0,0.0,-13.0,0.0,2.0,0.0,0.0,0.0,5.561252820349002e-11,5.552116318145419e-11,5.0902121256404396e-11,4.1717210672465595e-11,3.9930321287579146e-11,3.5203803345065724e-11,2.865518330617691e-11,2.5544186982458766e-11,2.1049638872916364e-11,1.6385931314708022e-11,1.2134935628737014e-11,8.689693001332252e-12,6.159171817490906e-12,4.1017998075575325e-12,2.6551201831656445e-12,1.5926056996301602e-12,9.605415615204761e-13,5.374795957173023e-13,2.834960411439271e-13,1.4092908941900062e-13,6.911230012303133e-14,3.4054312208333966e-14,1.440988588596373e-14,7.181819628697227e-15,3.7228573069421736e-15,1.3314094089033752e-15,3.3220684852948552e-09,1.5535889891702362e-09,7.894599814974677e-10,4.2995533483962486e-10,2.730950503606169e-10,1.8292874251341458e-10,1.2443222505451323e-10,8.791846682677324e-11,6.675997590633459e-11,4.5659413145354004e-11,3.272355060639677e-11,2.3204118634966983e-11,1.736796637477052e-11,1.087752026726649e-11,6.850386332334218e-12,3.875991660985102e-12,2.152277879281307e-12,1.1636361220225717e-12,6.379430861371466e-13
0.0,9,9.0,0.0,30.0,0.0,0.0,0.0,0.0,-13.0,0.0,2.0,0.0,0.0,0.0,5.954668958073683e-11,5.425004925071142e-11,5.148046138685129e-11,4.370406532743947e-11,4.109796938652222e-11,3.402620089124628e-11,2.95494157400075e-11,2.4872659747242276e-11,2.0667588973566108e-11,1.6220300804274545e-11,1.2140089098863127e-11,9.352128442122318e-12,6.357504194593612e-12,4.1788969746325656e-12,2.8072001901454433e-12,1.6788925443388514e-12,1.0716175972421902e-12,5.507676995659701e-13,3.1405338140091375e-13,1.651122844377948e-13,7.425997036975925e-14,3.895443524941408e-14,1.7424531426709948e-14,8.927896644106644e-15,2.749994713738607e-15,2.6436244810305373e-15,3.579520668658469e-09,1.5493554244156913e-09,7.853828657061027e-10,4.531418965826369e-10,2.973878649853854e-10,1.8027890905112142e-10,1.3554139708807574e-10,8.650152238997282e-11,6.376026311593007e-11,4.885590153742201e-11,3.447149286136279e-11,2.4909802098720064e-11,1.6340518949410585e-11,1.0809762782925905e-11,6.7288999776598935e-12,3.8765551201023595e-12,2.2908357142075144e-12,1.2878008976127294e-12,6.443462060127303e-13
0.0,10,10.0,0.0,30.0,0.0,0.0,0.0,0.0,-13.0,0.0,2.0,0.0,0.0,0.0,5.92371851700667e-11,5.282800173863603e-11,4.7488847010293994e-11,4.5573783085492273e-11,4.0955539815646015e-11,3.282739089843639e-11,2.8904684127915912e-11,2.3544849006539824e-11,2.0560811826965757e-11,1.683428716961925e-11,1.2378621297205951e-11,8.940242276721042e-12,6.654918773469337e-12,4.731106484616992e-12,2.8762868180810238e-12,1.8774029429065904e-12,1.0963427257188025e-12,6.124741381690303e-13,3.3381681612501005e-13,1.7604487499121233e-13,8.647317890654506e-14,4.043516396306311e-14,1.997370587829312e-14,7.748413969094181e-15,3.2689534018052835e-15,1.3534179334935762e-15,3.479088155900419e-09,1.5007782135948537e-09,8.440658981742384e-10,4.272508832682216e-10,2.7522470695270664e-10,1.8149014698943323e-10,1.355959014686976e-10,8.320914928251372e-11,6.626830423856986e-11,4.544471293644865e-11,3.4364008243024596e-11,2.3108772697270524e-11,1.5689104439711464e-11,1.0793585896909464e-11,6.5504332557050645e-12,4.08972572616341e-12,2.3027618784492333e-12,1.2357481868283494e-12,7.21715067706824e-13
0.0,11,11.0,0.0,30.0,0.0,0.0,0.0,0.0,-13.0,0.0,2.0,0.0,0.0,0.0,5.981692520141323e-11,5.528441779487914e-11,4.9405511733239e-11,4.427923002900512e-11,3.890597728503308e-11,3.3052310293464805e-11,2.8143202693457176e-11,2.401301016357384e-11,1.9516676643012663e-11,1.5398096886424147e-11,1.2492619458373386e-11,8.870715789545168e-12,6.4654450735244565e-12,4.453284051935101e-12,2.9523783597569942e-12,1.9188779181946926e-12,1.1211587962695772e-12,6.78683348551144e-13,3.5503910520935434e-13,1.9124476926946519e-13,9.614354301837163e-14,4.6337086152627074e-14,2.26959360508519e-14,1.0049752929450333e-14,4.218095940369561e-15,2.7102939373553476e-15,3.5816505452787832e-09,1.5280007022741593e-09,7.775523055848759e-10,4.735215332464159e-10,2.761818271241827e-10,2.0221766103172262e-10,1.3462867080823463e-10,9.754921675329326e-11,6.629950259573597e-11,4.4920483725236657e-11,3.173429562045616e-11,2.224053238589125e-11,1.596668918627672e-11,1.034137659924709e-11,6.755639844361573e-12,4.085382669078573e-12,2.5118593038964037e-12,1.3713477068944138e-12,7.227463495111589e-13
0.0,12,12.0,0.0,30.0,0.0,0.0,0.0,0.0,-13.0,0.0,2.0,0.0,0.0,0.0,5.893592041830962e-11,5.406610457262786e-11,4.760746854316228e-11,4.191952149686083e-11,3.9811799869743037e-11,3.401352837888651e-11,2.8616016309680554e-11,2.5101240775644347e-11,2.050842779884934e-11,1.5461537839123368e-11,1.1954352606328593e-11,9.095413132148524e-12,6.986391807286122e-12,4.687160422479867e-12,3.2232809774540467e-12,2.0586840690415828e-12,1.2371105069867769e-12,7.104772758803846e-13,4.094126311286861e-13,2.0346139377133796e-13,1.0715883715590063e-13,4.906484457222544e-14,2.459017366771288e-14,1.3225506386547421e-14,5.730582283895361e-15,3.282709050739498e-15,3.3198530645463537e-09,1.512400887629432e-09,7.90705621483111e-10,4.684529713595677e-10,2.875510815399559e-10,1.977224134019006e-10,1.3451287044155123e-10,9.344489111164019e-11,6.997578678629838e-11,4.659136613327635e-11,3.14870424397177e-11,2.179519262241631e-11,1.507162755186574e-11,1.0554939048487096e-11,7.161147706654672e-12,4.135765019366269e-12,2.5610379822765727e-12,1.3222781864336853e-12,7.326418612868933e-13
0.0,13,13.0,0.0,30.0,0.0,0.0,0.0,0.0,-13.0,0.0,2.0,0.0,0.0,0.0,5.99489906568935e-11,5.504049585592464e-11,4.899513011968937e-11,4.4231489287105956e-11,3.78556132281433e-11,3.3053113557450513e-11,2.9455254040017216e-11,2.3283005356561572e-11,1.935369014680426e-11,1.618930433885892e-11,1.2725203442942196e-11,9.401397653815623e-12,6.806388118184396e-12,4.901805336316775e-12,3.2095648611240528e-12,2.118215235523491e-12,1.20390934552066e-12,7.209751153237481e-13,4.427406897953823e-13,2.1319701828463945e-13,1.1352241900970091e-13,5.463662012481438e-14,2.6944465342744533e-14,1.3435562456530932e-14,6.294782698249133e-15,3.627771632809718e-15,3.308253444260148e-09,1.4580853485016757e-09,7.909422774524714e-10,4.764493948929081e-10,2.8447766306366694e-10,1.9527738521344006e-10,1.4690492663835104e-10,9.590243878591593e-11,6.703168404899295e-11,4.6263173321181824e-11,3.1564319799298025e-11,2.257604122617193e-11,1.5621588916832925e-11,1.0226969272893022e-11,6.58201629245772e-12,4.150486386668565e-12,2.4556912612925776e-12,1.3313356523690741e-12,7.168541175576322e-13
0.0,14,14.0,0.0,30.0,0.0,0.0,0.0,0.0,-13.0,0.0,2.0,0.0,0.0,0.0,6.01467147010114e-11,5.356832134947899e-11,4.807440460117036e-11,4.443154622944965e-11,4.011529839561092e-11,3.200204137837065e-11,2.7991275949871474e-11,2.4077169001101562e-11,2.0041470350851628e-11,1.5826933793809328e-11,1.2452363348279584e-11,9.390879902324494e-12,6.576519142203353e-12,4.804479262897117e-12,3.1601787235536424e-12,2.1152382057837684e-12,1.3218923840071647e-12,7.991056266348512e-13,4.276477511147468e-13,2.3987268766362283e-13,1.2653485635275944e-13,5.949832398687859e-14,3.191681236461656e-14,1.254383145962808e-14,7.420420319629799e-15,1.9067490829938445e-15,3.4240068036505923e-09,1.4931117642557624e-09,7.788028609908233e-10,4.4155793238516563e-10,2.729329131218581e-10,1.9365990567442522e-10,1.391465133573078e-10,9.900288289169384e-11,7.15216020174424e-11,4.486302086876069e-11,3.1899224616639726e-11,2.0755405702473433e-11,1.4776811239968615e-11,9.933013508114662e-12,6.311306724501327e-12,3.99009276750864e-12,2.442392619030612e-12,1.3591989824730895e-12,7.347941355665398e-13
0.0,15,15.0,0.0,30.0,0.0,0.0,0.0,0.0,-13.0,0.0,2.0,0.0,0.0,0.0,6.249997997482525e-11,5.4261769739331087e-11,4.792106850064561e-11,4.4821294416710616e-11,4.067974095450202e-11,3.506415850018068e-11,2.8478381531305747e-11,2.3615786018007233e-11,2.0102299515482275e-11,1.5933511506586146e-11,1.2715488437642504e-11,9.271721753553808e-12,7.0195625299384806e-12,4.8264820177740775e-12,3.4129466341160364e-12,2.1186071371957906e-12,1.3195247411476978e-12,8.314838732385608e-13,4.699448078777786e-13,2.4611873713398343e-13,1.307956943811451e-13,6.479263618602462e-14,3.1666390282589564e-14,1.617670739111215e-14,7.39117418273473e-15,3.556719307371714e-15,3.1549451582249507e-09,1.5046789498159206e-09,7.954905809291537e-10,4.744034910992235e-10,3.036329388410383e-10,1.9645302205071282e-10,1.3840914859511477e-10,9.838684867992466e-11,6.904869545011872e-11,4.882694783490327e-11,3.125189039940705e-11,2.052267903847801e-11,1.4912905548989307e-11,1.0134284806379121e-11,6.477877815141785e-12,4.171924403558825e-12,2.392373662365502e-12,1.361015964619667e-12,7.975587997616527e-13
0.0,16,16.0,0.0,30.0,0.0,0.0,0.0,0.0,-13.0,0.0,2.0,0.0,0.0,0.0,6.006822697094985e-11,5.5686907171984506e-11,4.5360465525813844e-11,4.385169858568288e-11,3.747785839872095e-11,3.447706784748951e-11,2.8273624517130298e-11,2.4066340814121823e-11,1.9279306588971037e-11,1.477407353121574e-11,1.2369710778870136e-11,9.129790671852925e-12,7.065364331934701e-12,4.813854049322863e-12,3.304788805922096e-12,2.165254898966016e-12,1.391659634163531e-12,8.353143707931278e-13,4.958977312405684e-13,2.545496543680348e-13,1.450560781260256e-13,7.176081099344535e-14,3.621964066259367e-14,1.7844989248284075e-14,9.259982276768824e-15,3.169838727528139e-15,3.13379893045542e-09,1.4338115425663033e-09,7.6858499896262e-10,4.608977254035613e-10,3.067392557240581e-10,2.0780395160918818e-10,1.4457448645819984e-10,9.694746842257418e-11,7.016897714237849e-11,4.9066865540449663e-11,3.176602265498483e-11,2.248007453721498e-11,1.526126903415834e-11,9.51502449932196e-12,6.2336862695186894e-12,4.048357510680226e-12,2.4937331401814355e-12,1.3662639753913578e-12,7.760888576001449e-13
0.0,17,17.0,0.0,30.0,0.0,0.0,0.0,0.0,-13.0,0.0,2.0,0.0,0.0,0.0,6.164916281630757e-11,5.698354834456353e-11,5.2707240010992165e-11,4.501574890271966e-11,4.065714737225666e-11,3.316918479360595e-11,2.904365908565437e-11,2.487685049851671e-11,1.9232566148157702e-11,1.5389110259724736e-11,1.2305109759342635e-11,9.346022959978878e-12,7.1012932817816994e-12,4.921557467791151e-12,3.4319140468378177e-12,2.2402172941925895e-12,1.3618969648342144e-12,8.69065238439653e-13,5.019886861202809e-13,2.7578796443365794e-13,1.5469493538019215e-13,7.883917171524343e-14,3.8013672225938215e-14,1.8287880506823038e-14,9.401322644834086e-15,3.7601917801394104e-15,3.304862369133307e-09,1.437313303868558e-09,7.722639259760705e-10,4.846905230831209e-10,2.945383597422542e-10,1.9359107887594936e-10,1.4112827856574065e-10,1.0153370403781376e-10,7.271239043567204e-11,4.796846694745825e-11,3.2434334216332396e-11,2.1663751969374546e-11,1.5029697194214865e-11,1.0027107893384651e-11,6.583602039856965e-12,4.028970461123816e-12,2.396299744596149e-12,1.4310182625766272e-12,8.042169284236179e-13
0.0,18,18.0,0.0,30.0,0.0,0.0,0.0,0.0,-13.0,0.0,2.0,0.0,0.0,0.0,6.182014224800813e-11,5.796614387393392e-11,5.318345060063125e-11,4.5772240282034294e-11,3.7664137147566e-11,3.4448033814782497e-11,2.9908197249884474e-11,2.3270461022920427e-11,1.9204648156913526e-11,1.5899340967166396e-11,1.2934305340545862e-11,9.368963983976223e-12,7.344697799653794e-12,4.9951723739551414e-12,3.6207115617951435e-12,2.3250993554065743e-12,1.4121105040696e-12,8.783253915572303e-13,5.245532788088714e-13,2.943355734403284e-13,1.47216700711148e-13,8.341497034230571e-14,3.7466540815884214e-14,1.748159733911577e-14,7.670648424727871e-15,3.4158488122391394e-15,3.463669027268589e-09,1.5497574971530797e-09,7.803078164074093e-10,4.917491531820433e-10,3.001251389309654e-10,2.111972387426608e-10,1.4891528057428297e-10,9.730134997970645e-11,7.260349232005621e-11,4.967846247542504e-11,3.456536083417145e-11,2.174587278707999e-11,1.46167899610199e-11,9.599580433384222e-12,6.053566062221492e-12,4.235626986026225e-12,2.452777558721046e-12,1.5380812923846116e-12,7.954369791108838e-13
0.0,19,19.0,0.0,30.0,0.0,0.0,0.0,0.0,-13.0,0.0,2.0,0.0,0.0,0.0,6.309810410369102e-11,5.532097527917898e-11,5.2008721000788977e-11,4.534629127944682e-11,4.059461881454341e-11,3.510741799158617e-11,2.9087832178651236e-11,2.3713503153637038e-11,1.931477257832583e-11,1.5563885912461398e-11,1.2573329236858421e-11,9.706471806388085e-12,7.110203917784912e-12,4.875921832069359e-12,3.4009377653588293e-12,2.379527196321577e-12,1.5571905988957564e-12,9.346864024408885e-13,5.473632927422308e-13,3.0887175829182883e-13,1.6175405131570999e-13,8.679175776748697e-14,4.150957807942685e-14,2.0015354654721782e-14,9.427407760094021e-15,3.846133567727484e-15,3.317291549225468e-09,1.5070846649495779e-09,7.412400479791571e-10,4.589146145607742e-10,3.036593899101912e-10,2.014027313718106e-10,1.4946792139041378e-10,1.0665480259675265e-10,7.130794356530894e-11,5.231718968890544e-11,3.29123582812251e-11,2.4736845125994436e-11,1.5054898523022446e-11,9.769050493795598e-12,6.245452333421292e-12,4.066199184983668e-12,2.3466433780833615e-12,1.4706507089394897e-12,8.800001935317024e-13
0.0,20,20.0,0.0,30.0,0.0,0.0,0.0,0.0,-13.0,0.0,2.0,0.0,0.0,0.0,6.596125448701148e-11,5.539064113990116e-11,5.1395956891307457e-11,4.463435150788239e-11,4.036553264963614e-11,3.491582819512151e-11,2.936295748643481e-11,2.425451405146495e-11,1.9086492503843207e-11,1.545537820735572e-11,1.1440507035991772e-11,9.563456075355335e-12,7.061522040489755e-12,4.802699053083629e-12,3.593155438035275e-12,2.4486991062790813e-12,1.6144739389698577e-12,9.289580041077082e-13,5.427684153804582e-13,3.1347736577079113e-13,1.6613620963726605e-13,8.906648346389909e-14,4.4451796974027134e-14,2.291122684151076e-14,1.1440354903642971e-14,3.814655637783837e-15,3.233462528020783e-09,1.4849500133142736e-09,8.108519052901866e-10,4.657699013799391e-10,3.2475215888215846e-10,2.0695796821174086e-10,1.5568195094040155e-10,9.915203220657393e-11,7.584762534481826e-11,4.958968147595147e-11,3.17153479348987e-11,2.2846200210957333e-11,1.4361668979214816e-11,9.82211782431457e-12,6.1212756678435705e-12,3.700122846162223e-12,2.5351281623312233e-12,1.523329640139769e-12,8.046611367588968e-13
0.0,21,21.0,0.0,30.0,0.0,0.0,0.0,0.0,-13.0,0.0,2.0,0.0,0.0,0.0,6.70414848316745e-11,5.7519993379912954e-11,5.3295286517304795e-11,4.462642976609019e-11,4.214176070654556e-11,3.606682463885402e-11,2.901615940542676e-11,2.3941743148864468e-11,2.0116380376069938e-11,1.4812366739567168e-11,1.1798073083255236e-11,9.327258951937423e-12,7.365330914365107e-12,5.1206769240086545e-12,3.590288969462868e-12,2.310712829422116e-12,1.658825738262321e-12,9.750484590124117e-13,5.643239422379656e-13,3.4132539658641523e-13,1.7224803297023444e-13,9.332514554564377e-14,4.6414660236125104e-14,2.165844412100079e-14,1.1247886793920362e-14,6.03382397521393e-15,2.987205921966207e-09,1.544374584864271e-09,7.640172918373604e-10,4.835849098589809e-10,3.202328402679544e-10,2.088475514729484e-10,1.5427554008136766e-10,1.1469892291642108e-10,7.308408702582497e-11,5.1833822390863564e-11,3.482182639062291e-11,2.2614802632854092e-11,1.5690034621665182e-11,9.81249175505729e-12,6.470614934589269e-12,3.948877879375825e-12,2.4788993431305723e-12,1.3568852532483992e-12,7.895353995688705e-13
0.0,22,22.0,0.0,30.0,0.0,0.0,0.0,0.0,-13.0,0.0,2.0,0.0,0.0,0.0,6.19470340095997e-11,5.839625035559637e-11,5.208234830583137e-11,4.3691180202691487e-11,4.0586410247683105e-11,3.6102957996057184e-11,2.904583048753579e-11,2.4466321351906876e-11,1.961566414233438e-11,1.6602150443908198e-11,1.2116459875875406e-11,8.957528862301315e-12,7.057114841777929e-12,4.968231104059829e-12,3.4675337180087615e-12,2.4112811604614506e-12,1.6137853652476693e-12,9.2919628001768e-13,5.96023113559993e-13,3.3955452156337777e-13,1.8430936515103582e-13,1.0419325037060933e-13,4.983089510896286e-14,2.5127190131204226e-14,1.1638250708122359e-14,6.0416795952582345e-15,3.161873102831792e-09,1.4058922565835992e-09,8.006586722664083e-10,4.788677153053097e-10,3.067647521699767e-10,2.1927285546868928e-10,1.4541167780842346e-10,1.0986750278108338e-10,7.507214118103646e-11,5.386260327754184e-11,3.410984895238142e-11,2.340708045363742e-11,1.478863882543443e-11,9.487227121128939e-12,6.042520871790683e-12,3.879354646388876e-12,2.456094406257389e-12,1.4533638353882279e-12,8.618794795782308e-13
0.0,23,23.0,0.0,30.0,0.0,0.0,0.0,0.0,-13.0,0.0,2.0,0.0,0.0,0.0,6.468924317224056e-11,5.934894059520986e-11,5.4410048333039934e-11,4.6326520766725824e-11,3.935326703507682e-11,3.602640867184463e-11,3.0885717537116365e-11,2.4341018289908445e-11,1.9767928221421657e-11,1.6703280585879628e-11,1.2572429690560684e-11,9.61935937870736e-12,6.928949398270863e-12,4.927735593273242e-12,3.4220478927785496e-12,2.440982099629307e-12,1.6882968495333629e-12,1.0648373261977537e-12,5.672042446109397e-13,3.572146276997042e-13,1.8288331237544804e-13,1.0190184262551849e-13,4.937386611527744e-14,2.5338101328624086e-14,1.2618960266147085e-14,6.832913231149324e-15,3.2695125071391053e-09,1.468701510483916e-09,8.081101282007595e-10,4.89438378402654e-10,3.096540261620312e-10,2.3381521699709747e-10,1.5947382812618504e-10,1.1076874648674155e-10,7.764376047171086e-11,5.340373997550099e-11,3.451134343495957e-11,2.389069495931708e-11,1.4376816567333775e-11,9.532170142926458e-12,6.238523648432877e-12,3.875449211255721e-12,2.4449177741505784e-12,1.3406493847877606e-12,8.064728556136497e-13
0.0,24,24.0,0.0,30.0,0.0,0.0,0.0,0.0,-13.0,0.0,2.0,0.0,0.0,0.0,6.781511529421594e-11,5.98588272582701e-11,5.429330797487951e-11,4.821980743106622e-11,4.0815558290215325e-11,3.360553412784696e-11,3.0625265753842226e-11,2.4377296215438425e-11,1.976100057349749e-11,1.569940455860043e-11,1.2639552658813533e-11,9.094720215022505e-12,6.721846169108583e-12,5.076159350378038e-12,3.7017600280322856e-12,2.470728356848129e-12,1.6705139118577045e-12,9.694947286586074e-13,6.063085881212871e-13,3.511815129327602e-13,1.814326799117071e-13,1.0817268199919972e-13,5.737534225026224e-14,2.522954244575725e-14,1.2046275343317084e-14,7.627135498107645e-15,3.3469463781834373e-09,1.458199715254564e-09,7.784336392864022e-10,5.036634577194278e-10,3.279804166097575e-10,2.2457135528834864e-10,1.5457824834164035e-10,1.1338100991873098e-10,7.608982309519286e-11,5.161060847265782e-11,3.670040749365928e-11,2.335925220834251e-11,1.538841338821494e-11,9.333820561601347e-12,6.104180651379502e-12,3.7316458471857e-12,2.390393617291514e-12,1.3921237202684795e-12,7.92710532351889e-13
0.0,25,25.0,0.0,30.0,0.0,0.0,0.0,0.0,-13.0,0.0,2.0,0.0,0.0,0.0,6.752273141244723e-11,6.081188061473951e-11,5.50601454409729e-11,4.979725798529012e-11,4.18570741790333e-11,3.620494943228719e-11,2.9985276896782386e-11,2.5111477304187296e-11,1.990864859100372e-11,1.551974635440244e-11,1.2303172534051074e-11,9.235449267941147e-12,6.936984719554174e-12,5.0387096022746774e-12,3.542747520645613e-12,2.5084344712281047e-12,1.6834828611093125e-12,9.656543507570903e-13,6.363205699434937e-13,3.6319822527160715e-13,2.0209650497606312e-13,1.0829463950621184e-13,5.6284405637527296e-14,2.6979787364796753e-14,1.2134938826610492e-14,5.896387794231803e-15,2.986027141994404e-09,1.5224991601757747e-09,8.075735304637312e-10,4.894089015439487e-10,3.3420221438254006e-10,2.1962941625051e-10,1.598456149190858e-10,1.0613138630068779e-10,7.652420839414861e-11,5.1604430442040285e-11,3.645728371635894e-11,2.2334911730612814e-11,1.59195338345885e-11,9.371436959830292e-12,6.36619684296335e-12,4.059535413643681e-12,2.2617341510717493e-12,1.3599643265957207e-12,8.068263716157607e-13
0.0,26,26.0,0.0,30.0,0.0,0.0,0.0,0.0,-13.0,0.0,2.0,0.0,0.0,0.0,6.935032584278334e-11,6.404190401152075e-11,5.388259669953658e-11,4.8387972067669364e-11,4.105651559399487e-11,3.6721358153112345e-11,3.165223661505783e-11,2.433269797514508e-11,2.0725618285765672e-11,1.515665048787933e-11,1.2120412462282213e-11,9.21784281850455e-12,6.884002263100925e-12,4.767028570221334e-12,3.6259953999161816e-12,2.375299373243886e-12,1.6817316611381652e-12,1.0603242535147416e-12,6.638852587267413e-13,3.802509655411312e-13,2.112701577447423e-13,1.102787993542798e-13,5.639606299888647e-14,3.06215864413048e-14,1.3542776639849727e-14,7.615329208555777e-15,2.877046849714903e-09,1.3976790043714338e-09,8.054761240677098e-10,4.771436240882462e-10,3.324119811821513e-10,2.2303754414692795e-10,1.5478934797377005e-10,1.0865029379192788e-10,8.136948648092843e-11,5.3047105321976864e-11,3.537811152300793e-11,2.5044597466396563e-11,1.5624356347774434e-11,9.813325214256786e-12,5.92648173147905e-12,3.812528095242073e-12,2.282096082865656e-12,1.4203411702257577e-12,8.536790341601024e-13
0.0,27,27.0,0.0,30.0,0.0,0.0,0.0,0.0,-13.0,0.0,2.0,0.0,0.0,0.0,7.105055890543036e-11,6.269780170958799e-11,5.650480623933233e-11,4.8880148200599995e-11,4.361201004419117e-11,3.538373422059957e-11,3.1114938544914e-11,2.4745242974523647e-11,2.0802041710951462e-11,1.584628883249125e-11,1.2010045968142751e-11,9.10215966764647e-12,6.695911944503795e-12,4.986154907029263e-12,3.705651471409136e-12,2.4966799949599334e-12,1.691337998069839e-12,1.0757979427556196e-12,6.188251852411896e-13,3.8800554594154206e-13,2.113788333194343e-13,1.174371153546749e-13,5.940349910383713e-14,3.198791499369425e-14,1.6514891459027672e-14,4.856355703371278e-15,3.149198252142695e-09,1.4399972274506513e-09,8.166757526803175e-10,5.130600307821065e-10,3.2268503539731807e-10,2.3397333589267635e-10,1.6196408648637602e-10,1.1382822956700729e-10,8.178715199802905e-11,5.5091129007952785e-11,3.6922511905249475e-11,2.5451135570928653e-11,1.5398625556139845e-11,1.02065614252431e-11,6.337186848655957e-12,3.819060823461157e-12,2.450818808912398e-12,1.3898194641572698e-12,8.219251684753709e-13
0.0,28,28.0,0.0,30.0,0.0,0.0,0.0,0.0,-13.0,0.0,2.0,0.0,0.0,0.0,7.074150923581384e-11,6.518474713430083e-11,5.728950410373804e-11,4.942329222691885e-11,4.5690217318448724e-11,3.63021654859679e-11,3.008669634717873e-11,2.5268497649820538e-11,1.957216826449413e-11,1.5764884643409842e-11,1.2232946938163542e-11,9.545277958023674e-12,6.99730896173443e-12,4.901488678538482e-12,3.5835676481613283e-12,2.4382752507842323e-12,1.6764717624727657e-12,1.0139242169094345e-12,6.60887515779506e-13,3.6574385676788067e-13,2.0825170289674858e-13,1.1188827873544839e-13,6.214799831096362e-14,2.920603331717162e-14,1.929949136908827e-14,7.131543452203276e-15,3.081213219001547e-09,1.4786671709573923e-09,7.797995382895466e-10,5.209907167989543e-10,3.414372121321497e-10,2.2557337991117558e-10,1.591785655469746e-10,1.099682799297893e-10,8.065170736440234e-11,5.492770481008675e-11,3.5962715888570314e-11,2.659554213747679e-11,1.5855707070699923e-11,1.0588292224268963e-11,6.167038337499316e-12,3.896633038805976e-12,2.351492470555162e-12,1.3614409236698407e-12,8.273195731593925e-13
0.0,29,29.0,0.0,30.0,0.0,0.0,0.0,0.0,-13.0,0.0,2.0,0.0,0.0,0.0,6.844572949605904e-11,6.159715776845843e-11,5.870188163282395e-11,5.3262048730403775e-11,4.486358572167204e-11,3.825565794395329e-11,3.0985158068022536e-11,2.4143842371259146e-11,2.045605152972725e-11,1.5724552838352064e-11,1.1610909786553893e-11,9.81125629054443e-12,7.098229680827066e-12,5.092752908630426e-12,3.656810966553919e-12,2.510901926613508e-12,1.7008548835663516e-12,1.0745278863111309e-12,6.739065280394557e-13,4.0397865454838103e-13,2.1636800154878394e-13,1.1836529357023987e-13,6.277649019550562e-14,3.2225565769518966e-14,1.7574227352036932e-14,7.436554103299115e-15,2.870079257224824e-09,1.4337343553174618e-09,8.259126301770203e-10,5.2408922620731e-10,3.552281302921404e-10,2.4273741001071196e-10,1.7037611698978423e-10,1.1376979116213865e-10,8.405592297641699e-11,5.686665593368991e-11,3.927221609213113e-11,2.4194417072501033e-11,1.6009178005374844e-11,9.921333487013971e-12,6.341439883005725e-12,3.884335332550439e-12,2.253930365681409e-12,1.36520796073836e-12,8.053057043060101e-13
0.0,30,30.0,0.0,30.0,0.0,0.0,0.0,0.0,-13.0,0.0,2.0,0.0,0.0,0.0,7.378914330669655e-11,6.347858909574846e-11,5.7047604226622006e-11,5.122158768625503e-11,4.7533173404193896e-11,3.929461432933072e-11,3.2138234950346914e-11,2.5886471259191338e-11,2.0078542010648753e-11,1.6254761861518128e-11,1.3709042947662296e-11,9.25592794783604e-12,6.839448234979893e-12,5.160552852164989e-12,3.4204700902687305e-12,2.6146565832009587e-12,1.6896536844855702e-12,1.0986978508201408e-12,6.463658524584901e-13,3.854017306730954e-13,2.26789000577056e-13,1.2641352252603837e-13,6.551245546380352e-14,3.434440085418403e-14,1.831094891961289e-14,9.896858533602035e-15,3.043948201203234e-09,1.4714846682336353e-09,8.124039815027916e-10,5.030951404721016e-10,3.3785121040337043e-10,2.36709560167257e-10,1.7087697033956837e-10,1.2255716126960683e-10,8.568412139022047e-11,5.687375870613677e-11,3.848258436209191e-11,2.5452288336822484e-11,1.7160740673609277e-11,9.9378267263211e-12,6.0313086494936396e-12,3.8867218443940856e-12,2.4209505050753048e-12,1.3695138468970198e-12,8.401135478491016e-13
0.0,31,31.0,0.0,30.0,0.0,0.0,0.0,0.0,-13.0,0.0,2.0,0.0,0.0,0.0,7.140323017155814e-11,6.423242581710534e-11,5.734657576468857e-11,5.3104870908754524e-11,4.462381002868341e-11,3.7629508123521786e-11,3.0783315785661287e-11,2.688478703550293e-11,2.206987339001395e-11,1.716643222076315e-11,1.2868137333077168e-11,9.453807069224147e-12,6.791737933874969e-12,4.962781026653361e-12,3.6155443227747095e-12,2.4181512271055427e-12,1.6712464931644044e-12,1.0610082741066461e-12,6.8492678347929e-13,4.091022001358569e-13,2.290306056189179e-13,1.2353639477738585e-13,6.928502822338648e-14,3.66450868917526e-14,1.838204535782327e-14,9.544710537433785e-15,3.0337077233210785e-09,1.4861766448149847e-09,8.077857264072439e-10,5.014831616202355e-10,3.2323146980045194e-10,2.5352327209748525e-10,1.700433144905931e-10,1.151128636580785e-10,7.958175888307843e-11,5.870025250435087e-11,3.897794802768134e-11,2.6387461177704846e-11,1.7399160746304817e-11,1.108680163143333e-11,6.365490077143789e-12,3.944737877192993e-12,2.310553595843905e-12,1.4337773716078548e-12,8.517898489068719e-13
0.0,32,32.0,0.0,30.0,0.0,0.0,0.0,0.0,-13.0,0.0,2.0,0.0,0.0,0.0,7.594578738367375e-11,7.123689930411807e-11,5.858546927797238e-11,5.207515972535341e-11,4.4754563820973105e-11,4.115253781237168e-11,3.309122861487756e-11,2.7176006009242698e-11,2.1823911757477515e-11,1.6408044025590655e-11,1.3189924272097996e-11,9.915061845527243e-12,6.755053050077869e-12,5.0759028862476e-12,3.6154693325222716e-12,2.501983523189249e-12,1.7579624748115942e-12,1.0879504417926167e-12,6.933265603493027e-13,4.198418096373903e-13,2.3493323816690775e-13,1.3791639745974323e-13,7.252661990684401e-14,3.713106775069475e-14,1.7297828118555967e-14,9.113121003723165e-15,3.1511170562336154e-09,1.458704487102518e-09,8.243651843373534e-10,5.061293664035674e-10,3.6462796428799596e-10,2.481153049948262e-10,1.7831632634255043e-10,1.2031834642349206e-10,8.377524950746873e-11,5.776130467783382e-11,4.05977802124716e-11,2.6826386545861653e-11,1.716309598035978e-11,1.0707538849450602e-11,6.275169638982414e-12,3.80269514434562e-12,2.3793875524587554e-12,1.313947336392499e-12,8.339432434280819e-13
0.0,33,33.0,0.0,30.0,0.0,0.0,0.0,0.0,-13.0,0.0,2.0,0.0,0.0,0.0,7.204649566563923e-11,6.890139350539862e-11,5.921587260992069e-11,5.395272825486184e-11,4.657388907371211e-11,3.841173407934007e-11,3.201990779354825e-11,2.7909676873710777e-11,2.1702012836779047e-11,1.6609270675876157e-11,1.3237863413007942e-11,9.843581671464086e-12,7.077153927521192e-12,5.231101979918082e-12,3.55104008333885e-12,2.3834421785538052e-12,1.6913678003712258e-12,1.103260142943249e-12,6.839107182484096e-13,4.4206657496297983e-13,2.30030701456865e-13,1.3450705775389576e-13,7.185826612494478e-14,4.165204493057276e-14,2.0888807850450744e-14,9.914159114636389e-15,3.034483005481589e-09,1.4288731125372912e-09,7.800358108486031e-10,5.367793613356944e-10,3.408568796068589e-10,2.404671193855748e-10,1.8201314054317203e-10,1.2894674883840063e-10,8.778182143489329e-11,5.952697261634649e-11,4.0841019869625736e-11,2.6445676468697836e-11,1.722008206133684e-11,1.105892841916049e-11,6.679050411701803e-12,3.919942575332335e-12,2.4231259473472836e-12,1.4425243570172664e-12,8.208509237113337e-13
0.0,34,34.0,0.0,30.0,0.0,0.0,0.0,0.0,-13.0,0.0,2.0,0.0,0.0,0.0,7.18187779509666e-11,6.906882835122016e-11,5.940601343646426e-11,5.089744693173505e-11,4.708284825840633e-11,4.2324368125974486e-11,3.422159960415453e-11,2.6856405359978172e-11,2.1951204127692087e-11,1.7423514291576237e-11,1.27957912910118e-11,9.658970468561039e-12,7.163255732410629e-12,4.905883635988167e-12,3.6053889893257036e-12,2.4925586016200595e-12,1.617174787230854e-12,1.0678007423428195e-12,6.801177711196104e-13,4.030958631069864e-13,2.345672617254316e-13,1.319709187033938e-13,7.498126858815337e-14,3.879302950955857e-14,1.840316329714129e-14,7.868996286295604e-15,2.9471792484675184e-09,1.4551639851333296e-09,7.746709922785915e-10,5.209486093481754e-10,3.5332472691685043e-10,2.34922888782277e-10,1.770024860877955e-10,1.2983679416372922e-10,8.273466389438927e-11,6.021895241555877e-11,3.9834702639088465e-11,2.7234457940042493e-11,1.716219899449802e-11,1.124169666143705e-11,6.595365701332566e-12,3.891825474424824e-12,2.496059704562443e-12,1.3560329764709621e-12,7.944172901801167e-13
0.0,35,35.0,0.0,30.0,0.0,0.0,0.0,0.0,-13.0,0.0,2.0,0.0,0.0,0.0,8.029812577882262e-11,7.06852015939586e-11,6.314047672170077e-11,5.3375088222891664e-11,4.813637534676194e-11,4.143568917230244e-11,3.2428890148525944e-11,2.842676887682206e-11,2.197123027316933e-11,1.7092674289499635e-11,1.316535010321413e-11,9.64629257906296e-12,6.977850463279673e-12,5.1298731054235426e-12,3.708884027197881e-12,2.472282296612365e-12,1.717846884250477e-12,1.0927108503560093e-12,6.589544237603739e-13,4.3447505328816057e-13,2.4953832558249864e-13,1.3207350495016247e-13,7.202556630944938e-14,3.9687984879016375e-14,1.9387525117997916e-14,9.276110245112173e-15,3.0782214349944956e-09,1.4220072437302397e-09,8.539398886692148e-10,5.753460984514038e-10,3.665351631169086e-10,2.6099737105274847e-10,1.804056991689074e-10,1.2866009260140446e-10,9.048754087751626e-11,6.030851682437865e-11,4.1112383709627933e-11,2.617184973933208e-11,1.6588496353726032e-11,1.0662144129091867e-11,7.051331740819779e-12,4.102659886143019e-12,2.3907783737803544e-12,1.3991298526191162e-12,8.124271971784468e-13
0.0,36,36.0,0.0,30.0,0.0,0.0,0.0,0.0,-13.0,0.0,2.0,0.0,0.0,0.0,7.936915484177768e-11,6.897371071210375e-11,6.360342894982779e-11,5.485777430015961e-11,4.787131375032321e-11,3.801347173608978e-11,3.4436263632174516e-11,2.75613559294708e-11,2.2479183318155073e-11,1.7467172639343726e-11,1.378154385852829e-11,9.85546576797802e-12,7.354963660776824e-12,5.250894583345762e-12,3.601358984292236e-12,2.4224300639972024e-12,1.6941978847130263e-12,1.044810630382178e-12,7.031553579182117e-13,4.261650804283428e-13,2.580440734158441e-13,1.3834155819860214e-13,7.386461880589624e-14,3.9348102761053973e-14,2.155723439784229e-14,1.010906407980543e-14,2.932216721403221e-09,1.4059610342356497e-09,8.309667934653945e-10,5.222500346365284e-10,3.5567836365180077e-10,2.682484559497991e-10,1.830030827915665e-10,1.304080623087112e-10,8.726845466155614e-11,6.314049173199042e-11,4.138005681479907e-11,2.815705765085168e-11,1.80175657180562e-11,1.1175126292957445e-11,6.843791696757956e-12,3.83295553871095e-12,2.3931051022393113e-12,1.3980191745220207e-12,7.828385746395701e-13
0.0,37,37.0,0.0,30.0,0.0,0.0,0.0,0.0,-13.0,0.0,2.0,0.0,0.0,0.0,7.37854100369465e-11,7.101208303763728e-11,6.20324081130074e-11,5.631678388121653e-11,4.738959827522441e-11,4.039346883241128e-11,3.3975135470070306e-11,2.8270326777188457e-11,2.2788030075582643e-11,1.7518364026067586e-11,1.3659410093702655e-11,1.0142955639055213e-11,7.212733432752092e-12,5.335409731537897e-12,3.531099018889146e-12,2.531156269266064e-12,1.6481682593410486e-12,1.1279462357181232e-12,6.727766961435807e-13,4.237338470656363e-13,2.543774425984175e-13,1.3168519968436537e-13,7.595715850037919e-14,4.121731006735822e-14,2.2719584783739802e-14,1.1505301734475929e-14,2.784383122076717e-09,1.3935889713779689e-09,8.540606521844638e-10,5.789052498757739e-10,3.6328169208449555e-10,2.7554137129622683e-10,1.7905067464989175e-10,1.3796041849026176e-10,8.683617963673022e-11,6.360194446051063e-11,4.024857107214157e-11,2.7281324656937747e-11,1.7393977016191242e-11,1.1414316950329686e-11,7.26449204123158e-12,4.346471485155934e-12,2.4593388587046846e-12,1.4264996841483238e-12,7.983523357228941e-13
0.0,38,38.0,0.0,30.0,0.0,0.0,0.0,0.0,-13.0,0.0,2.0,0.0,0.0,0.0,7.752096851423323e-11,7.019920629893415e-11,6.520208063072381e-11,5.855367726182066e-11,4.917039714530783e-11,4.237307196249272e-11,3.383113980377089e-11,2.8231302078900672e-11,2.178179316693959e-11,1.8079104296114575e-11,1.3174754705036652e-11,9.723919008181823e-12,7.001108987212693e-12,5.183205409906198e-12,3.655917520431789e-12,2.4918368024919218e-12,1.7116054707940172e-12,1.1268719256079793e-12,6.851271209613471e-13,4.093154737086182e-13,2.404372837881425e-13,1.4037229456463828e-13,7.833075338765707e-14,4.352791250522309e-14,2.3981680889905783e-14,1.0991930007591611e-14,2.8516688966032875e-09,1.4425356478360053e-09,8.431729780080511e-10,5.597341126431235e-10,3.8914429907077553e-10,2.6332234595127826e-10,1.9232386864246567e-10,1.3560038686193738e-10,8.860327009116856e-11,6.142978207527416e-11,4.441613030833048e-11,2.8734368345076838e-11,1.8377499813117708e-11,1.1502931153119062e-11,7.236010323886764e-12,4.1166335106684735e-12,2.4665463400070052e-12,1.3373576753901125e-12,8.301192368118517e-13
0.0,39,39.0,0.0,30.0,0.0,0.0,0.0,0.0,-13.0,0.0,2.0,0.0,0.0,0.0,7.740634143832855e-11,7.118764326788687e-11,6.534804671823406e-11,5.828207448622893e-11,5.0739757278276734e-11,4.412885652689719e-11,3.3588791461018307e-11,2.773773685056987e-11,2.2329243601163602e-11,1.7204893464843577e-11,1.359165670125727e-11,1.0673425339343117e-11,7.278952329278323e-12,5.276140607637989e-12,3.3929197449624752e-12,2.504396104462445e-12,1.672817243251569e-12,1.0807559435746571e-12,7.198846576739625e-13,4.4593015000742906e-13,2.521429141830121e-13,1.5576040786757059e-13,8.058161772159066e-14,4.171889529621536e-14,2.3274089733429515e-14,1.0866752653558594e-14,2.9276636849782604e-09,1.396743454208612e-09,7.962336922426479e-10,5.789335384940671e-10,3.882070280503966e-10,2.571077383122926e-10,1.85250859866964e-10,1.358802431275066e-10,9.064881180202494e-11,6.576145906464278e-11,4.5621901661712397e-11,2.7172874793992045e-11,1.9214797505561508e-11,1.132111463011793e-11,6.6807161657472324e-12,4.238001573555238e-12,2.446726310667164e-12,1.4312146063627695e-12,8.047444095919134e-13
0.0,40,40.0,0.0,30.0,0.0,0.0,0.0,0.0,-13.0,0.0,2.0,0.0,0.0,0.0,7.953482079724965e-11,7.58010656286467e-11,6.691090721479153e-11,5.794841124358959e-11,4.929461639476768e-11,4.357002732707774e-11,3.7140840953326406e-11,2.9225397677458606e-11,2.350394716518654e-11,1.759000176806105e-11,1.3729962813728531e-11,9.847354936023462e-12,7.438551685179875e-12,5.309565089836393e-12,3.4835826661694765e-12,2.4747186247114685e-12,1.752807515112757e-12,1.08660450635359e-12,7.152820147805092e-13,4.4036884165025534e-13,2.5277568818833336e-13,1.4175156922013217e-13,8.212779014011638e-14,4.445530436700439e-14,2.070223676791809e-14,1.2265066029058426e-14,2.8749418328985307e-09,1.4225245955379626e-09,8.964497590640263e-10,5.8716375928364e-10,4.1042167008785155e-10,2.8915224638715816e-10,1.9488516366761832e-10,1.3646265592634305e-10,9.700778320541325e-11,6.178238085073566e-11,4.618131429449948e-11,2.754134497911957e-11,1.7900491568678968e-11,1.1593064534331339e-11,6.565903461902341e-12,4.281926332691602e-12,2.522758465621497e-12,1.418785874584672e-12,8.615462082606381e-13
0.0,41,41.0,0.0,30.0,0.0,0.0,0.0,0.0,-13.0,0.0,2.0,0.0,0.0,0.0,8.082722378585502e-11,7.296296614145665e-11,6.57577533431308e-11,5.920263937455011e-11,4.955807385645085e-11,4.3175836050557214e-11,3.624195593798799e-11,3.0610334979322234e-11,2.4317345412024252e-11,1.7990613142114556e-11,1.3625511890778004e-11,1.07093615346287e-11,7.128782785530522e-12,5.2216355286634995e-12,3.798076384637998e-12,2.4360236399112247e-12,1.6746135790895423e-12,1.1210299540869373e-12,7.016231243961224e-13,4.3479440045714196e-13,2.623057392174326e-13,1.4601238409231074e-13,8.069063470994084e-14,4.3822935650738244e-14,2.3881714910025963e-14,1.2609976695641063e-14,2.988697685260845e-09,1.425419424913162e-09,8.439802973100735e-10,5.402213107556949e-10,3.9225061695147583e-10,2.6893254519890885e-10,2.0375862017771087e-10,1.4039940362843134e-10,9.003380602432336e-11,6.757277060936629e-11,4.401678964443144e-11,3.073648519939667e-11,1.8143942490442658e-11,1.1034561964749753e-11,7.150680303306903e-12,4.467453104022661e-12,2.4459580122385793e-12,1.502492720938024e-12,7.856222296885705e-13
0.0,42,42.0,0.0,30.0,0.0,0.0,0.0,0.0,-13.0,0.0,2.0,0.0,0.0,0.0,8.644466799404985e-11,7.276744738408682e-11,6.538168621954938e-11,5.7937214060874124e-11,5.063941167419656e-11,4.140963315179177e-11,3.524037118067392e-11,2.9778903149744616e-11,2.288165631490993e-11,1.8994994555231885e-11,1.458334147415796e-11,1.0242254437834387e-11,7.581889455553295e-12,5.5509646359670876e-12,3.761099036360141e-12,2.5230852279098126e-12,1.7497916590411678e-12,1.1660814271036409e-12,6.887485726308533e-13,4.4472026814511953e-13,2.534373415506171e-13,1.5793435775404483e-13,8.168912543809123e-14,4.7023020686087876e-14,2.468844523629351e-14,1.2637943301953963e-14,2.8234958349335466e-09,1.452016497144889e-09,8.531797719491398e-10,5.57184252857679e-10,3.997249549543569e-10,2.827272018932074e-10,1.9758323976085217e-10,1.4170745314650053e-10,9.728370942112488e-11,6.409902241871997e-11,4.542903338699038e-11,3.243360142983272e-11,1.9368424396158675e-11,1.220757231930099e-11,7.327656941464165e-12,4.364625118143592e-12,2.5218183163784274e-12,1.4284361510222891e-12,8.070476210000926e-13
0.0,43,43.0,0.0,30.0,0.0,0.0,0.0,0.0,-13.0,0.0,2.0,0.0,0.0,0.0,8.344840545580481e-11,7.756028833453371e-11,6.837143415653224e-11,6.0880999572992e-11,5.0142594564676266e-11,4.4215515114398994e-11,3.792037274072363e-11,2.995821226048424e-11,2.232630697669458e-11,1.8391987633482573e-11,1.4473325281915917e-11,1.0687575100998097e-11,7.299800414236624e-12,5.411199516466367e-12,3.874012895682277e-12,2.6793597382107677e-12,1.683467600384014e-12,1.088826895078572e-12,7.296838453043913e-13,4.279067855136899e-13,2.6437591768739234e-13,1.5842002229022125e-13,8.259705256431431e-14,4.6670643747260366e-14,2.2264141718219655e-14,1.2865912229745624e-14,2.6884373766795392e-09,1.450139669682411e-09,8.849341680352993e-10,5.82267801974896e-10,4.302178807469055e-10,3.0207951432244e-10,2.0718194305754175e-10,1.4026613306769469e-10,9.609698761020026e-11,6.570987227796282e-11,4.5426004787059954e-11,2.950621175469357e-11,1.9114097424837945e-11,1.1100917980393104e-11,7.2167240112308536e-12,4.328024522376969e-12,2.3986380563748367e-12,1.4240423408333244e-12,7.745567444291676e-13
0.0,44,44.0,0.0,30.0,0.0,0.0,0.0,0.0,-13.0,0.0,2.0,0.0,0.0,0.0,8.291256794517695e-11,7.482034575277433e-11,6.559957883016248e-11,6.274818328534092e-11,5.44729569588742e-11,4.315825851208798e-11,3.751765601121271e-11,2.930728419502274e-11,2.323033423127995e-11,1.8705361287890215e-11,1.4256335920754728e-11,1.0174682538982304e-11,7.673566385254132e-12,5.267314722429314e-12,3.7293715985993825e-12,2.5052325678415266e-12,1.6365879588572305e-12,1.1844874264223553e-12,7.163116952051304e-13,4.47962238021439e-13,2.5594505834427006e-13,1.562569342806493e-13,8.705894791570466e-14,4.8994918150112644e-14,2.451825270052819e-14,1.3413683042057816e-14,2.821507714208856e-09,1.455076882457264e-09,9.26868795853695e-10,5.821132519038588e-10,3.839331754273122e-10,2.900626282561174e-10,2.0841854588119212e-10,1.4371505561149145e-10,9.834113288237312e-11,6.669456539561829e-11,4.55569520425025e-11,3.014390139413477e-11,1.8546212748465647e-11,1.2449295889461385e-11,7.370790235298357e-12,4.4672412688345025e-12,2.4925103401042647e-12,1.4229559344811776e-12,8.038330732422262e-13
0.0,45,45.0,0.0,30.0,0.0,0.0,0.0,0.0,-13.0,0.0,2.0,0.0,0.0,0.0,8.701725340753492e-11,7.473480559329409e-11,7.056106521366345e-11,6.36273829312717e-11,5.086565630637861e-11,4.812221586667385e-11,3.542921244361716e-11,3.058844624403084e-11,2.5906539322503962e-11,1.9355653699436906e-11,1.387424031178326e-11,1.0636143782052943e-11,7.821418015348027e-12,5.521721105303746e-12,3.7053658579949474e-12,2.6079195327852105e-12,1.7376270370541077e-12,1.1430202204670596e-12,7.300863252237375e-13,4.3071759156598876e-13,2.747759823386672e-13,1.5823546529071003e-13,8.313609797218254e-14,4.618805813195874e-14,2.499630260789752e-14,1.3231300064484392e-14,2.771052503685298e-09,1.4377118675098282e-09,8.89241258161184e-10,5.956617366615725e-10,4.376350420362994e-10,2.973183296523478e-10,2.0874357137782454e-10,1.4284897211866656e-10,1.035936981709255e-10,6.979283932086993e-11,4.5311650592833656e-11,2.944029536016816e-11,1.918200185001521e-11,1.2622565876169568e-11,7.300677916850329e-12,4.472637389456323e-12,2.629693025225362e-12,1.431038331598448e-12,8.653049608616565e-13
0.0,46,46.0,0.0,30.0,0.0,0.0,0.0,0.0,-13.0,0.0,2.0,0.0,0.0,0.0,8.261334612632417e-11,7.872498396273217e-11,6.982014952819039e-11,6.304296342183004e-11,5.125873363731474e-11,4.639547149664494e-11,3.7091647161292405e-11,3.139779076035403e-11,2.4994982729135495e-11,1.9497596946840898e-11,1.4022324389245054e-11,1.0706034597655461e-11,7.738893846723216e-12,5.371485679729647e-12,4.00343154508684e-12,2.4059374360980063e-12,1.6790024285208943e-12,1.0884943357295655e-12,6.656471596188188e-13,4.358361434225278e-13,2.632904046982369e-13,1.5771265248883925e-13,8.880985319592219e-14,4.888268473591984e-14,2.683866351719678e-14,1.2567872469975517e-14,2.773793352213218e-09,1.4759870082824849e-09,8.905821675455147e-10,6.258325801238714e-10,4.1327303106443635e-10,2.9143812565996104e-10,2.1025863790646478e-10,1.5129936748963226e-10,1.018057234068832e-10,7.10287853758913e-11,4.810269319600799e-11,3.1480191797235916e-11,2.111693317242822e-11,1.267178457753806e-11,7.524077929030284e-12,4.479968434168188e-12,2.670118021806624e-12,1.4643571434749794e-12,8.209912566518134e-13
0.0,47,47.0,0.0,30.0,0.0,0.0,0.0,0.0,-13.0,0.0,2.0,0.0,0.0,0.0,8.99617338632269e-11,7.974435453735622e-11,7.099022307552921e-11,6.232965040594788e-11,5.330474946836572e-11,4.67414102278118e-11,3.905712869149421e-11,3.269195668610613e-11,2.519965612303131e-11,2.054363608702721e-11,1.4436989433332449e-11,1.1555973583566765e-11,8.01093969718757e-12,5.580121971623919e-12,3.8207010813018346e-12,2.512551418806635e-12,1.671996589435823e-12,1.0622250674075535e-12,6.907376423032473e-13,4.347485337957055e-13,2.6196804120591437e-13,1.5809267239520493e-13,8.983145593816835e-14,5.067937188826535e-14,2.563826431492042e-14,1.3369900710505527e-14,2.800844815129865e-09,1.356471547860842e-09,9.101656756119226e-10,6.169212271027427e-10,4.528826948571909e-10,3.0742132768955607e-10,2.091553941424966e-10,1.5169305440029228e-10,1.0812880424299807e-10,7.096175848295122e-11,4.9030399426629124e-11,3.050610656325708e-11,2.0137327320792816e-11,1.1893152114408813e-11,8.011581954366787e-12,4.54106692427546e-12,2.679775320530298e-12,1.4619805088006117e-12,8.137196296896639e-13
0.0,48,48.0,0.0,30.0,0.0,0.0,0.0,0.0,-13.0,0.0,2.0,0.0,0.0,0.0,8.396214774052432e-11,8.066051156091327e-11,7.130667741099782e-11,6.63620393007878e-11,5.6498950062345055e-11,4.539147875043925e-11,3.830434745238685e-11,3.06651583104502e-11,2.5956421550193464e-11,1.874676742532205e-11,1.4947954465266543e-11,1.1149434222433551e-11,7.772006851838134e-12,5.283727846220084e-12,3.921485440701888e-12,2.7148554394720404e-12,1.7093440383944153e-12,1.1271259350197877e-12,6.837815449342928e-13,4.395724056199463e-13,2.7514711756596557e-13,1.4413677927225484e-13,8.848426136187824e-14,4.803336814314693e-14,2.8291755174343256e-14,1.3254634822687508e-14,2.7982165350291824e-09,1.5202802017434737e-09,9.206803447991516e-10,6.539164490843169e-10,4.392603602630959e-10,3.1510531502274325e-10,2.2660026718690097e-10,1.519322090415215e-10,1.0531067039970928e-10,7.556236850372854e-11,4.684010664794185e-11,3.032347184915851e-11,2.050730125739999e-11,1.3371739498289485e-11,8.112131902128928e-12,4.661390307079298e-12,2.728953042194677e-12,1.435077772496415e-12,7.764881656723688e-13
0.0,49,49.0,0.0,30.0,0.0,0.0,0.0,0.0,-13.0,0.0,2.0,0.0,0.0,0.0,8.779472847543373e-11,8.457491058395746e-11,7.126695340033137e-11,5.981230904617276e-11,5.521139219442087e-11,4.8032723262930715e-11,4.0809188096880494e-11,3.41103896795039e-11,2.4673099904498635e-11,1.957440435453163e-11,1.5449000558489205e-11,1.0909029633912106e-11,7.544748907592005e-12,5.446372273697073e-12,3.736837992371413e-12,2.617220912854065e-12,1.7418366719645742e-12,1.1026566881352165e-12,7.307447865312645e-13,4.426274081039705e-13,2.618786252164532e-13,1.5654048191346144e-13,8.593764572179605e-14,4.7892750320077607e-14,2.4889878912571617e-14,1.4384402149315422e-14,2.65934212057021e-09,1.4684132098469765e-09,9.40941541620296e-10,6.352688593898949e-10,4.344942478168593e-10,3.093115608412007e-10,2.2222083045712995e-10,1.5254822351490514e-10,1.0649028117036427e-10,7.383007391344853e-11,4.825116101655932e-11,3.159464775097946e-11,2.12153783639233e-11,1.368570844250733e-11,8.254957136275716e-12,4.663527235298744e-12,2.7338008353362223e-12,1.545829322856448e-12,8.702433111263562e-13
0.0,50,50.0,0.0,30.0,0.0,0.0,0.0,0.0,-13.0,0.0,2.0,0.0,0.0,0.0,8.890395649942847e-11,7.96610416867647e-11,7.261617015707376e-11,6.686687604179984e-11,5.62713318550004e-11,4.791928891111417e-11,3.742014360171695e-11,3.1891031207361933e-11,2.5879484603988667e-11,2.0039862302690377e-11,1.502909035623755e-11,1.1066745192059328e-11,7.877233572281281e-12,5.456325128494758e-12,3.93136327494009e-12,2.7123013841304205e-12,1.7729793375828683e-12,1.1236836746255772e-12,6.978452046471855e-13,4.164728804531384e-13,2.671070014319222e-13,1.5175429902983035e-13,8.498198429412337e-14,5.262236389560042e-14,2.714152991275564e-14,1.4365153002311727e-14,2.743959777148667e-09,1.4532668117852143e-09,9.31339465950212e-10,6.308589523490837e-10,4.673426100185143e-10,3.1041230049025953e-10,2.1574345663884942e-10,1.6019179191357006e-10,1.0792876930500021e-10,7.12648778527896e-11,5.0781918203753494e-11,3.152793810958161e-11,2.1509049887911895e-11,1.3031725066341176e-11,7.824308949786353e-12,4.6217871058975685e-12,2.8180971595342035e-12,1.5488239597943636e-12,8.569825137653234e-13
0.0,51,51.0,0.0,30.0,0.0,0.0,0.0,0.0,-13.0,0.0,2.0,0.0,0.0,0.0,9.291252894238958e-11,8.658340250332095e-11,7.159294853867201e-11,6.785660718519376e-11,5.6652827183771017e-11,4.8456802790041136e-11,4.011255517593103e-11,3.1531046838254787e-11,2.6116348709292956e-11,2.0712113467372207e-11,1.5610735089310987e-11,1.1557696511099958e-11,8.282255231027012e-12,5.7211555280805115e-12,3.766763610066544e-12,2.6694653798157374e-12,1.7704136934241759e-12,1.0816274372994217e-12,7.081764182262897e-13,4.4400388927188317e-13,2.663040653347872e-13,1.6504384970785837e-13,8.873353817065047e-14,5.167276191539935e-14,2.7809366050061123e-14,1.5268047427377063e-14,2.8737614197342222e-09,1.440152696612654e-09,9.233728809115223e-10,6.687333785738821e-10,4.588214302092139e-10,3.282768268599703e-10,2.146216371572352e-10,1.5632919457753958e-10,1.1235744318570362e-10,7.770521590562563e-11,5.039049622171614e-11,3.308566254135738e-11,2.1574751635270305e-11,1.3268814663189126e-11,7.650016154614744e-12,4.8199569142910785e-12,2.6903910207055925e-12,1.484797577024104e-12,8.657561354997436e-13
0.0,52,52.0,0.0,30.0,0.0,0.0,0.0,0.0,-13.0,0.0,2.0,0.0,0.0,0.0,9.576786443737332e-11,8.733132106727578e-11,8.018792537097058e-11,6.789670528560641e-11,5.876539753431697e-11,4.889434390807497e-11,4.0893493347932316e-11,3.3057416174745925e-11,2.5484980330504193e-11,2.1192660490804884e-11,1.5616044090296455e-11,1.1343839908501143e-11,8.447861895349627e-12,5.616886296603862e-12,4.00137630859812e-12,2.6116709542347e-12,1.6959618753237435e-12,1.0553502620001588e-12,7.122950877869322e-13,4.3598537705209096e-13,2.6438725526954e-13,1.5690618727744944e-13,9.058117844004684e-14,5.5372366348980647e-14,2.7782619972438593e-14,1.4109335228369162e-14,2.7550195982701926e-09,1.4801105837705914e-09,9.711434032241842e-10,6.569246897658101e-10,4.492988357062122e-10,3.439619335986359e-10,2.355575259767536e-10,1.6137586821751684e-10,1.1226482599834404e-10,7.917704215253321e-11,5.0107902738377364e-11,3.2371717002243026e-11,2.102192013228673e-11,1.3282218669477906e-11,8.345055161625357e-12,4.9714236459534295e-12,2.7578294699023354e-12,1.5622000591549099e-12,8.981322987892621e-13
0.0,53,53.0,0.0,30.0,0.0,0.0,0.0,0.0,-13.0,0.0,2.0,0.0,0.0,0.0,9.078908879286722e-11,8.830529867113541e-11,7.528938294671061e-11,6.638982484232754e-11,5.9899158781074e-11,4.956646881771849e-11,4.21697773765491e-11,3.422331263457649e-11,2.5777039393556797e-11,2.088238805598276e-11,1.5475490575861592e-11,1.1510174222987858e-11,8.401910665080387e-12,5.9139802180520326e-12,3.96058088160957e-12,2.6553699231709015e-12,1.780176243463783e-12,1.0854676369447997e-12,7.164226592210067e-13,4.2295904495543505e-13,2.6019933870712355e-13,1.6170723768837698e-13,9.906576087508638e-14,5.0518220767946405e-14,2.7307237337355052e-14,1.4944851701034924e-14,2.740290495628318e-09,1.4953295322505399e-09,1.0098284426128085e-09,6.856104695720412e-10,4.897631411048776e-10,3.3590225277661546e-10,2.4542705403446915e-10,1.572469566048215e-10,1.1286115205181634e-10,7.75565366111347e-11,5.243710542376689e-11,3.383303694556974e-11,2.0674143801514502e-11,1.4671906525573815e-11,8.683673359106063e-12,4.789098016429296e-12,2.8718460248495257e-12,1.5678934000756762e-12,8.515941778647381e-13
0.0,54,54.0,0.0,30.0,0.0,0.0,0.0,0.0,-13.0,0.0,2.0,0.0,0.0,0.0,9.350766145188317e-11,8.65890012760825e-11,7.86180630185249e-11,7.2843787919552e-11,6.096465736631466e-11,4.874074045582929e-11,4.191511090210882e-11,3.2417171402985675e-11,2.700142085629572e-11,2.0365540840434337e-11,1.5885718265112507e-11,1.1948909233902093e-11,7.966640250040484e-12,5.733846556161182e-12,3.977589521545518e-12,2.555313917638982e-12,1.769409047965709e-12,1.1217097155694085e-12,6.886436872472994e-13,4.3731131405135915e-13,2.648626539409371e-13,1.548925122269053e-13,9.134685633270165e-14,5.082807993739772e-14,2.7156335015318746e-14,1.2340313611436913e-14,2.7390045387550987e-09,1.4736561752131168e-09,9.946961253554762e-10,6.817767299456037e-10,4.733578927686961e-10,3.3622504328179505e-10,2.2735038057706938e-10,1.7107873596190687e-10,1.1478595593072006e-10,7.787679484706553e-11,5.171121262092302e-11,3.4501650098654296e-11,2.1321175328647617e-11,1.3250049713437429e-11,7.875559973767753e-12,5.117265848608776e-12,2.9523048391163463e-12,1.5841140942839588e-12,8.903724415781371e-13
