Line_number,Fiducial,Easting,Northing,Height,Elevation,tx_pitch,tx_roll,tx_yaw,txrx_dx,txrx_dy,txrx_dz,rx_pitch,rx_roll,rx_yaw,S0Z_time_1.431e-04,S0Z_time_1.801e-04,S0Z_time_2.266e-04,S0Z_time_2.846e-04,S0Z_time_3.581e-04,S0Z_time_4.506e-04,S0Z_time_5.671e-04,S0Z_time_7.136e-04,S0Z_time_8.981e-04,S0Z_time_1.131e-03,S0Z_time_1.423e-03,S0Z_time_1.791e-03,S0Z_time_2.255e-03,S0Z_time_2.838e-03,S0Z_time_3.573e-03,S0Z_time_4.498e-03,S0Z_time_5.662e-03,S1Z_time_1.409e-05,S1Z_time_1.610e-05,S1Z_time_1.909e-05,S1Z_time_2.360e-05,S1Z_time_2.960e-05,S1Z_time_3.709e-05,S1Z_time_4.609e-05,S1Z_time_5.759e-05,S1Z_time_7.209e-05,S1Z_time_9.060e-05,S1Z_time_1.141e-04,S1Z_time_1.431e-04,S1Z_time_1.801e-04,S1Z_time_2.266e-04,S1Z_time_2.846e-04,S1Z_time_3.581e-04,S1Z_time_4.506e-04,S1Z_time_5.671e-04,S1Z_time_7.136e-04,S1Z_time_8.981e-04,S1Z_time_1.131e-03
0.0,0,0.0,0.0,30.0,0.0,0.0,0.0,0.0,-13.0,0.0,2.0,0.0,0.0,0.0,1.1025387499879521e-10,5.793808205622009e-11,3.1395740317144995e-11,1.7516903239765994e-11,9.92196687790871e-12,5.6862955796892925e-12,3.3097856814971448e-12,1.92171181242597e-12,1.116971359186769e-12,6.436624975694266e-13,3.755483641862946e-13,2.1654962864802383e-13,1.2377863600187673e-13,7.05955981143821e-14,3.866533859667962e-14,2.152060939283139e-14,1.1344988296852071e-14,7.1219538283860165e-09,5.66605685268528e-09,4.2440204761785414e-09,2.940706276742831e-09,1.9778171741503966e-09,1.294847390129138e-09,8.457068946724596e-10,5.330224666934327e-10,3.272261617041186e-10,1.9578042567834128e-10,1.1505433052701432e-10,6.771210114753279e-11,3.953766903751179e-11,2.3001121386716038e-11,1.3464561335461397e-11,7.803201784861188e-12,4.507177379554539e-12,2.5586729734598266e-12,1.4352838898045756e-12,7.951289593014991e-13,4.3730855545532243e-13
0.0,1,1.0,0.0,30.0,0.0,0.0,0.0,0.0,-13.0,0.0,2.0,0.0,0.0,0.0,1.0880449815588591e-10,5.667433509535385e-11,3.048050596786802e-11,1.6918238183080543e-11,9.555950565675564e-12,5.471504125344305e-12,3.1871812814063096e-12,1.8530322710786557e-12,1.079352181402547e-12,6.232021529403787e-13,3.6459404954579457e-13,2.1073650691629618e-13,1.2072375287536857e-13,6.902203157223003e-14,3.7853894370152315e-14,2.1118679491485206e-14,1.114260650712104e-14,7.127529985669892e-09,5.673788955816213e-09,4.253996709752237e-09,2.951873890617931e-09,1.9879469236531202e-09,1.30227038876148e-09,8.500568389324296e-10,5.346450543993252e-10,3.269890396629045e-10,1.945765807816541e-10,1.135778478892702e-10,6.636819250488578e-11,3.8489228327730104e-11,2.2265463242419298e-11,1.298273876885574e-11,7.507103534576507e-12,4.333749897317039e-12,2.4607579686460236e-12,1.3814597538326124e-12,7.667636484500388e-13,4.2313699702212514e-13
0.0,2,2.0,0.0,30.0,0.0,0.0,0.0,0.0,-13.0,0.0,2.0,0.0,0.0,0.0,1.0750334464771589e-10,5.552057940182862e-11,2.9634173898224264e-11,1.6359155521621005e-11,9.211585560428488e-12,5.2682747634785955e-12,3.0706361712005152e-12,1.7875069739973692e-12,1.0433247321323254e-12,6.03543201918396e-13,3.5403554455698353e-13,2.051146331343531e-13,1.1776201966715061e-13,6.749136772991617e-14,3.706306924801898e-14,2.072572200085928e-14,1.09444515210508e-14,7.133094559819515e-09,5.681305123437526e-09,4.263422747584829e-09,2.9621507454421107e-09,1.997103847632382e-09,1.3089269850063813e-09,8.539701841048346e-10,5.361407366926445e-10,3.2682313638234233e-10,1.935262506258164e-10,1.1225740302610312e-10,6.514775885229302e-11,3.752551988755122e-11,2.1582431909653388e-11,1.2531931891875356e-11,7.228352433685911e-12,4.169674232713946e-12,2.3678029317818734e-12,1.3301801434621088e-12,7.396713973031425e-13,4.095167112566484e-13
0.0,3,3.0,0.0,30.0,0.0,0.0,0.0,0.0,-13.0,0.0,2.0,0.0,0.0,0.0,1.0632625612884053e-10,5.446357970246921e-11,2.8850153245590923e-11,1.583646049064656e-11,8.887317560870003e-12,5.07583515604175e-12,2.9597743016980803e-12,1.724951166283281e-12,1.0088020148532721e-12,5.846456929502217e-13,3.4385413504971135e-13,1.9967607274932346e-13,1.1488972373102969e-13,6.600214185007824e-14,3.629218977267267e-14,2.0341487648070958e-14,1.0750413987653836e-14,7.138740068419052e-09,5.688736310708946e-09,4.272469540230323e-09,2.971721696661732e-09,2.005434820848852e-09,1.3148943689823307e-09,8.57460701204163e-10,5.374826849738815e-10,3.2668789689315557e-10,1.9259284956627672e-10,1.1106709164696937e-10,6.403494126925064e-11,3.663771063660973e-11,2.0947409064459852e-11,1.2109748155850211e-11,6.965716633471254e-12,4.014332236858241e-12,2.2794885196333257e-12,1.281299030611754e-12,7.137785687305014e-13,3.9641946734181925e-13
0.0,4,4.0,0.0,30.0,0.0,0.0,0.0,0.0,-13.0,0.0,2.0,0.0,0.0,0.0,1.0525230851895237e-10,5.349143224429429e-11,2.8122400206449283e-11,1.534720907478215e-11,8.581716836376667e-12,4.893477383732768e-12,2.8542501328538472e-12,1.66519435448595e-12,9.757035495107669e-13,5.664723057636213e-13,3.340323198151239e-13,1.944133306793338e-13,1.1210335185767402e-13,6.455295753455331e-14,3.5540611059423387e-14,1.996573675395381e-14,1.0560388003768724e-14,7.1445381081500605e-09,5.696182386151352e-09,4.281268392100803e-09,2.9807330360847434e-09,2.013062198959549e-09,1.3202431253306553e-09,8.605477060344971e-10,5.386543848019175e-10,3.265521909356685e-10,1.9174612703253224e-10,1.0998448049705083e-10,6.301555148170384e-11,3.581773855325889e-11,2.035614197473392e-11,1.1713982101122693e-11,6.718066410865231e-12,3.8671572059674335e-12,2.1955221802215796e-12,1.2346807967652777e-12,6.89016682881886e-13,3.83819585077887e-13
0.0,5,5.0,0.0,30.0,0.0,0.0,0.0,0.0,-13.0,0.0,2.0,0.0,0.0,0.0,1.0426347390807225e-10,5.2593478997303716e-11,2.74453830928338e-11,1.4888684227305503e-11,8.293463800096564e-12,4.7205501649627475e-12,2.7537451209130065e-12,1.6080788501831802e-12,9.439546969573354e-13,5.489881208842199e-13,3.2455370934789397e-13,1.893193169086395e-13,1.093995768550983e-13,6.314248189291658e-14,3.480771544998754e-14,1.9598238655291442e-14,1.03742710148508e-14,7.150545799275161e-09,5.70372091793011e-09,4.289920996989777e-09,2.989300651315651e-09,2.0200872665675725e-09,1.3250362763746007e-09,8.632531082507207e-10,5.396467117985454e-10,3.2639238429394285e-10,1.9096122744197565e-10,1.0899025499281422e-10,6.207696181339919e-11,3.5058269267883755e-11,1.980471485588748e-11,1.1342595899371702e-11,6.4843615720306e-12,3.727627612186613e-12,2.115635220261447e-12,1.190199152277769e-12,6.653221971927412e-13,3.716933938604936e-13
0.0,6,6.0,0.0,30.0,0.0,0.0,0.0,0.0,-13.0,0.0,2.0,0.0,0.0,0.0,1.0334428648494405e-10,5.176021584910683e-11,2.681405008360857e-11,1.4458376761003948e-11,8.02133731939079e-12,4.556452324724989e-12,2.657964731118405e-12,1.553458494579432e-12,9.134860702635213e-13,5.321604156372075e-13,3.154029335934868e-13,1.8438731608875159e-13,1.0677524516129713e-13,6.176944121831055e-14,3.4092911207006974e-14,1.923877117939283e-14,1.0191963710483372e-14,7.156810062600236e-09,5.711413203223171e-09,4.298506679828368e-09,2.9975164147059034e-09,2.0265934931786017e-09,1.3293291966827544e-09,8.655995141719159e-10,5.404557406173511e-10,3.261907443909095e-10,1.902178360169637e-10,1.080678656706568e-10,6.120798499085566e-11,3.435265216011215e-11,1.9289525061847544e-11,1.0993703815534028e-11,6.26364118137109e-12,3.595261857914516e-12,2.0395802319373136e-12,1.1477362523051199e-12,6.426362230080132e-13,3.600188698309512e-13
0.0,7,7.0,0.0,30.0,0.0,0.0,0.0,0.0,-13.0,0.0,2.0,0.0,0.0,0.0,1.0248152532216338e-10,5.098319775516392e-11,2.6223798231583843e-11,1.4053969458918458e-11,7.76420515347043e-12,4.400627307486472e-12,2.566635885336022e-12,1.5011975375697727e-12,8.842330212674774e-13,5.159584826012348e-13,3.0656555803731545e-13,1.796109604728988e-13,1.0422736539336836e-13,6.043261710758617e-14,3.339563125201078e-14,1.8887120165539406e-14,1.001336991767975e-14,7.1633705174547906e-09,5.719308469475534e-09,4.307087662578523e-09,3.005453148555529e-09,2.0326494178016264e-09,1.3331699910268035e-09,8.676090477814257e-10,5.410811257431409e-10,3.259341476378034e-10,1.8949942632549486e-10,1.072031890309663e-10,6.039874915191967e-11,3.369487541631671e-11,1.8807262234846735e-11,1.066555951668274e-11,6.055015156611992e-12,3.469613872017569e-12,1.967128835941899e-12,1.107181957739897e-12,6.209042009466046e-13,3.4877538733671813e-13
0.0,8,8.0,0.0,30.0,0.0,0.0,0.0,0.0,-13.0,0.0,2.0,0.0,0.0,0.0,1.0166392165437481e-10,5.025494379560778e-11,2.567044311224926e-11,1.367332337996422e-11,7.521016029577084e-12,4.252558557286783e-12,2.479504772200081e-12,1.451169649724416e-12,8.561351918254997e-13,5.003534673093797e-13,2.980280075220886e-13,1.7498420564454252e-13,1.0175309774707727e-13,5.913084296930915e-14,3.271533195032027e-14,1.8543079027576782e-14,9.838396494256593e-15,7.170261480103615e-09,5.7274468425104296e-09,4.315712925749743e-09,3.0131684756524385e-09,2.0383111191247174e-09,1.3366000937556522e-09,8.69302653258872e-10,5.415249179603173e-10,3.2561304552397295e-10,1.8879261159148241e-10,1.0638421240094991e-10,5.964057282455113e-11,3.307952035178424e-11,1.835488924399979e-11,1.0356545423928121e-11,5.857657343612091e-12,3.350269400267857e-12,1.8980697039622978e-12,1.068433203082636e-12,6.000755573923357e-13,3.3794354542604977e-13
0.0,9,9.0,0.0,30.0,0.0,0.0,0.0,0.0,-13.0,0.0,2.0,0.0,0.0,0.0,1.0088189437005405e-10,4.956884462022288e-11,2.5150188982996076e-11,1.3314465662619928e-11,7.290792972462772e-12,4.1117656137394755e-12,2.3963349611937568e-12,1.4032570494513772e-12,8.291361204769916e-13,4.85318222592338e-13,2.897774972001699e-13,1.7050130861218383e-13,9.934974417215579e-14,5.786300086879998e-14,3.2051491945380624e-14,1.8206448352652702e-14,9.666953223665718e-15,7.177513361288606e-09,5.735861468573385e-09,4.324421063974557e-09,3.0207078081613826e-09,2.0436242905723535e-09,1.3396549498773762e-09,8.706997155282274e-10,5.41790707663914e-10,3.252206455631417e-10,1.880865939965521e-10,1.0560074784408104e-10,5.892584360640449e-11,3.2501715673987415e-11,1.7929624237033357e-11,1.0065163520841583e-11,5.670799752607747e-12,3.236842868208876e-12,1.832206828122015e-12,1.0313934441620067e-12,5.801033605928924e-13,3.2750504404985545e-13
0.0,10,10.0,0.0,30.0,0.0,0.0,0.0,0.0,-13.0,0.0,2.0,0.0,0.0,0.0,1.0012731471353607e-10,4.8919074142830723e-11,2.4659599572109357e-11,1.297557837171316e-11,7.072627588770596e-12,3.9778007955565796e-12,2.3169057725822977e-12,1.3573497304908258e-12,8.03182896509197e-13,4.708271774127909e-13,2.8180197003895343e-13,1.6615680793149756e-13,9.70147392578224e-14,5.6628018665891006e-14,3.1403611044681306e-14,1.7877035531881106e-14,9.498952712242536e-15,7.1851536533648786e-09,5.744580046280312e-09,4.333242414534373e-09,3.028106673918306e-09,2.0486259644458414e-09,1.3423647000554293e-09,8.718178873463979e-10,5.418830107983209e-10,3.2475226695748637e-10,1.8737270233136867e-10,1.0484417688644648e-10,5.824790317740702e-11,3.19570924491529e-11,1.752892345618682e-11,9.790027202501803e-12,5.4937276989643005e-12,3.1289747152137922e-12,1.7693580080827686e-12,9.95972166970369e-13,5.609439897296282e-13,3.174425930388548e-13
0.0,11,11.0,0.0,30.0,0.0,0.0,0.0,0.0,-13.0,0.0,2.0,0.0,0.0,0.0,9.939329943240041e-11,4.830050673826133e-11,2.419556971947809e-11,1.2654988104432706e-11,6.865675079279883e-12,3.850246363852522e-12,2.2410108632505243e-12,1.3133447771371638e-12,7.782258546029688e-13,4.568562183901481e-13,2.7409004030826946e-13,1.619455055849832e-13,9.474564177385862e-14,5.5424867407333295e-14,3.07712091582318e-14,1.7554654419194958e-14,9.33431028914374e-15,7.193207631115289e-09,5.753625940501247e-09,4.3422006554407395e-09,3.0353925337225184e-09,2.0533459358954726e-09,1.3447548286531518e-09,8.726730476758931e-10,5.418068335451464e-10,3.242048363567552e-10,1.8664400694929828e-10,1.0410722568295929e-10,5.760094030323423e-11,3.1441740466200195e-11,1.715046467213174e-11,9.529853878793323e-12,5.3257756450293e-12,3.026329115425679e-12,1.7093535291664231e-12,9.620844449027293e-13,5.425568254501082e-13,3.0773984238417256e-13
0.0,12,12.0,0.0,30.0,0.0,0.0,0.0,0.0,-13.0,0.0,2.0,0.0,0.0,0.0,9.867403055940996e-11,4.7708640673248555e-11,2.375529810676699e-11,1.2351156187971031e-11,6.66914980926267e-12,3.728712075877747e-12,2.1684569949556633e-12,1.2711457563382354e-12,7.542183043079727e-13,4.4338258249583195e-13,2.6663094249657246e-13,1.578624504008941e-13,9.254012681803482e-14,5.425255894094527e-14,3.0153825289665284e-14,1.723912501567221e-14,9.172943909437541e-15,7.201698848691835e-09,5.763018995603543e-09,4.351314012863406e-09,3.0425862070718747e-09,2.0578079355750162e-09,1.3468467556216697e-09,8.73279340961485e-10,5.415673679237387e-10,3.2357649488071495e-10,1.8589500099435268e-10,1.0338376893986407e-10,5.6979892704547606e-11,3.09521665549089e-11,1.6792131205972367e-11,9.28345814087755e-12,5.16632358489465e-12,2.928592015580924e-12,1.6520350072503387e-12,9.296505358356394e-13,5.249039664225971e-13,2.9838132604057104e-13
0.0,13,13.0,0.0,30.0,0.0,0.0,0.0,0.0,-13.0,0.0,2.0,0.0,0.0,0.0,9.796459947415473e-11,4.7139528090322104e-11,2.333626128469895e-11,1.2062669376803485e-11,6.482321312074778e-12,3.612833055936044e-12,2.099062956781284e-12,1.230662177237883e-12,7.311162895134954e-13,4.303847596262684e-13,2.594144851281626e-13,1.5390292283378644e-13,9.039597852759553e-14,5.311014372372393e-14,2.9551016579466365e-14,1.6930273176730448e-14,9.014774060163505e-15,7.210649488468921e-09,5.772776129390833e-09,4.360596178218679e-09,3.0497029958507546e-09,2.0620305945055764e-09,1.3486583654490024e-09,8.736492638753052e-10,5.411697827800501e-10,3.228662929291797e-10,1.8512133764831776e-10,1.0266866020091996e-10,5.638035808006814e-11,3.0485255259483505e-11,1.6451996568245852e-11,9.049745367599413e-12,5.014793850998872e-12,2.8354694319183447e-12,1.5972543785029483e-12,8.985955132247539e-13,5.079499735634946e-13,2.8935241406011923e-13
0.0,14,14.0,0.0,30.0,0.0,0.0,0.0,0.0,-13.0,0.0,2.0,0.0,0.0,0.0,9.726087268031282e-11,4.658971155808274e-11,2.293618915495154e-11,1.1788231004266307e-11,6.30451063549823e-12,3.5022679240917115e-12,2.0326586179729823e-12,1.191809009901098e-12,7.088783738567941e-13,4.1784240394814754e-13,2.5243100898559013e-13,1.5006242095774526e-13,8.83110833158158e-14,5.1996708800599224e-14,2.89623573989279e-14,1.662793033987459e-14,8.859723669464315e-15,7.220080600188181e-09,5.782911764864318e-09,4.37005700757686e-09,3.056753574193422e-09,2.0660282383893935e-09,1.3502044732686846e-09,8.737937775722423e-10,5.406190839299852e-10,3.2207395394579336e-10,1.84319614255508e-10,1.0195758579930845e-10,5.5798514157533354e-11,3.003823212153456e-11,1.612830976658585e-11,8.82770569535425e-12,4.870648251264294e-12,2.7466859588045088e-12,1.5448730142802395e-12,8.688489271523933e-13,4.91661641632182e-13,2.8063926967580164e-13
0.0,15,15.0,0.0,30.0,0.0,0.0,0.0,0.0,-13.0,0.0,2.0,0.0,0.0,0.0,9.655937673738252e-11,4.605616698772089e-11,2.2553042009312038e-11,1.1526652569846421e-11,6.135086966123941e-12,3.3966971349724e-12,1.9690840910593233e-12,1.1545062559578341e-12,6.87465448649178e-13,4.057362530630168e-13,2.456713492783964e-13,1.4633664754718645e-13,8.628342359806367e-14,5.091137593388604e-14,2.8387438493410452e-14,1.633193327148602e-14,8.707718018669464e-15,7.230012257213278e-09,5.793438140462751e-09,4.379703056505559e-09,3.063744696625407e-09,2.06981154250573e-09,1.3514972318156598e-09,8.737224312378789e-10,5.399200241590574e-10,3.2119969217517947e-10,1.834871953953131e-10,1.0124693973097967e-10,5.523104737257316e-11,2.960862970064065e-11,1.5819481335340924e-11,8.616408305967545e-12,4.73338546877002e-12,2.661983450543507e-12,1.4947609437127576e-12,8.403444923252082e-13,4.760077966703347e-13,2.72228809215167e-13
0.0,16,16.0,0.0,30.0,0.0,0.0,0.0,0.0,-13.0,0.0,2.0,0.0,0.0,0.0,9.585719991460855e-11,4.553625257632642e-11,2.2184989177475212e-11,1.1276845757247379e-11,5.9734644860066426e-12,3.295821488691321e-12,1.908188988331828e-12,1.11867856476731e-12,6.66840560430502e-13,3.9404805416793173e-13,2.391268013386134e-13,1.4272149813736387e-13,8.43110719736944e-14,4.9853299866781685e-14,2.7825866172791142e-14,1.6042123830522117e-14,8.558684657240178e-15,7.240463648911101e-09,5.8043655280883745e-09,4.389537989533854e-09,3.0706797643999802e-09,2.073388072858882e-09,1.352546484580421e-09,8.734434879099408e-10,5.390770489231371e-10,3.202440726084353e-10,1.8262206814923723e-10,1.0053371681548297e-10,5.4675089608723254e-11,2.9194256359956593e-11,1.552407013079678e-11,8.414996006848616e-12,4.60253867389557e-12,2.58111984527235e-12,1.4467961686156583e-12,8.130198006702146e-13,4.609591171089219e-13,2.6410866359965964e-13
0.0,17,17.0,0.0,30.0,0.0,0.0,0.0,0.0,-13.0,0.0,2.0,0.0,0.0,0.0,9.51519083314472e-11,4.502766335503669e-11,2.18303892911116e-11,1.1037814883670833e-11,5.819099429427361e-12,3.199360783860822e-12,1.849831757474906e-12,1.0842548894709654e-12,6.469687556952356e-13,3.827604964941299e-13,2.3278908946386883e-13,1.3921304997100012e-13,8.239218583219793e-14,4.882166670688343e-14,2.7277261547295495e-14,1.57583487480462e-14,8.412553320637824e-15,7.251453122830972e-09,5.815702380310226e-09,4.399562893405048e-09,3.077559280729647e-09,2.076762734572464e-09,1.3533600710715069e-09,8.729640470286283e-10,5.380942673923943e-10,3.1920790384291996e-10,1.8172272388423764e-10,9.981542170730775e-11,5.412816234349132e-11,2.8793167768228915e-11,1.5240770921091835e-11,8.22268008946241e-12,4.477673312378693e-12,2.503868106015579e-12,1.4008640573534503e-12,7.868160565450097e-13,4.464879760752757e-13,2.5626714076124846e-13
0.0,18,18.0,0.0,30.0,0.0,0.0,0.0,0.0,-13.0,0.0,2.0,0.0,0.0,0.0,9.444147457504782e-11,4.4528390879386574e-11,2.148777213687318e-11,1.0808649781230096e-11,5.671487317182544e-12,3.1070525890828724e-12,1.7938790844519286e-12,1.0511681779832748e-12,6.278169406908885e-13,3.7185714939480314e-13,2.2665033856736964e-13,1.3580755174915595e-13,8.052500235335636e-14,4.781569241746666e-14,2.6741259806205608e-14,1.5480459420894085e-14,8.26925585089627e-15,7.262998186645431e-09,5.827455422556965e-09,4.409776516022943e-09,3.084381218621841e-09,2.079938144617369e-09,1.353944090045755e-09,8.722901604787829e-10,5.369754412774827e-10,3.18092156591262e-10,1.8078806182088984e-10,9.908999155822306e-11,5.358812751242205e-11,2.840364101513206e-11,1.4968402784265894e-11,8.038735458599472e-12,4.358385042776569e-12,2.4300152590446027e-12,1.3568568061126532e-12,7.616778328080741e-13,4.3256830241232945e-13,2.4869318868440066e-13
0.0,19,19.0,0.0,30.0,0.0,0.0,0.0,0.0,-13.0,0.0,2.0,0.0,0.0,0.0,9.372421701711427e-11,4.403668758804525e-11,2.1155822044603637e-11,1.0588519109241671e-11,5.5301603524039086e-12,3.0186511144170627e-12,1.740205353724812e-12,1.0193550945777449e-12,6.093537544853849e-13,3.6132240552821706e-13,2.2070304833161278e-13,1.3250141411332168e-13,7.870783387254329e-14,4.6834621406349524e-14,2.6217509537604843e-14,1.5208311718427766e-14,8.128726119994003e-15,7.275115477209392e-09,5.839629702137135e-09,4.420175447690342e-09,3.0911413197109345e-09,2.0829149427455447e-09,1.3543031261977618e-09,8.714269404052582e-10,5.35723985933827e-10,3.1689790215813145e-10,1.7981731046882153e-10,9.835573038004168e-11,5.3053144407450344e-11,2.802415120037608e-11,1.4705898313212938e-11,7.862496027866006e-12,4.244297804111161e-12,2.3593615138074654e-12,1.3146729577091458e-12,7.37552846119223e-13,4.1917545802419577e-13,2.4137635901580136e-13
0.0,20,20.0,0.0,30.0,0.0,0.0,0.0,0.0,-13.0,0.0,2.0,0.0,0.0,0.0,9.299874827577181e-11,4.355103536503497e-11,2.0833362738321265e-11,1.0376664092784068e-11,5.394684966315518e-12,2.933926168353418e-12,1.688692157551582e-12,9.887557682716655e-13,5.915494537471625e-13,3.511414286460022e-13,2.1494006959639676e-13,1.292912007946384e-13,7.693906358414052e-14,4.587772520348242e-14,2.5705672086664608e-14,1.494176580105498e-14,7.990899955839282e-15,7.287820702244496e-09,5.8522286030689105e-09,4.430754257331903e-09,3.097833338417147e-09,2.0856920518771304e-09,1.354440445286871e-09,8.703786580689772e-10,5.343429797513803e-10,3.156262664461918e-10,1.788099637003127e-10,9.761125339978232e-11,5.25216319541362e-11,2.7653350334881894e-11,1.445229361375162e-11,7.693350377617733e-12,4.135061999734416e-12,2.2917194520035893e-12,1.2742169695269391e-12,7.143917499528506e-13,4.0628612936893935e-13,2.343067713016051e-13
0.0,21,21.0,0.0,30.0,0.0,0.0,0.0,0.0,-13.0,0.0,2.0,0.0,0.0,0.0,9.226393147500568e-11,4.307011786227925e-11,2.0519343565273497e-11,1.0172392679267096e-11,5.26465950519141e-12,2.8526621889642766e-12,1.6392278475114157e-12,9.59313564698667e-13,5.743758078879299e-13,3.413001055494844e-13,2.0935458274324887e-13,1.261736203724623e-13,7.521714155690299e-14,4.4944301219374876e-14,2.5205420950631417e-14,1.4680685949766363e-14,7.85571507102795e-15,7.3011285588294896e-09,5.865253833630759e-09,4.44150559349717e-09,3.1044492426493068e-09,2.0882668970582998e-09,1.3543581621204572e-09,8.691488336389257e-10,5.328351789473767e-10,3.1427839602506125e-10,1.7776572880856536e-10,9.685543992570182e-11,5.19922357549567e-11,2.7290048381066507e-11,1.4206719071891249e-11,7.530737671109733e-12,4.030352787121171e-12,2.2269132760130104e-12,1.2353988234905407e-12,6.921479438751177e-13,3.938782311495211e-13,2.2747507797897207e-13
0.0,22,22.0,0.0,30.0,0.0,0.0,0.0,0.0,-13.0,0.0,2.0,0.0,0.0,0.0,9.151884314110446e-11,4.259279616876376e-11,2.0212827011306522e-11,9.975074101339742e-12,5.139712051559836e-12,2.7746573403416925e-12,1.5917071225755502e-12,9.309748785885072e-13,5.578060033947139e-13,3.3178500182533567e-13,2.0394007786599375e-13,1.2314551859049417e-13,7.354058103715488e-14,4.4033671577805396e-14,2.4716441208161288e-14,1.4424940405427105e-14,7.7231109941589e-15,7.3150526319212885e-09,5.878705392031254e-09,4.452420257776489e-09,3.1109793798702675e-09,2.090635590382239e-09,1.3540573852604122e-09,8.677403172025674e-10,5.312030356946678e-10,3.1285543355711507e-10,1.766844843747284e-10,9.608739344804667e-11,5.146379933579897e-11,2.693319625614039e-11,1.3968390858704696e-11,7.374143823571777e-12,3.929868465846275e-12,2.164778108967927e-12,1.198133672105363e-12,6.707773977250823e-13,3.819308204892641e-13,2.2087243024610012e-13
0.0,23,23.0,0.0,30.0,0.0,0.0,0.0,0.0,-13.0,0.0,2.0,0.0,0.0,0.0,9.076274174132534e-11,4.2118087445943285e-11,1.9912977407804816e-11,9.784133831557377e-12,5.019498373741779e-12,2.6997226672899853e-12,1.546030649021914e-12,9.036889443566679e-13,5.41814556326878e-13,3.2258332101032946e-13,1.9869033654254286e-13,1.2020387118437997e-13,7.190795501677799e-14,4.3145182016609e-14,2.4238428981221407e-14,1.417440121721815e-14,7.593029003742081e-15,7.329605275440999e-09,5.892581514483774e-09,4.463487256635918e-09,3.117412615488889e-09,2.0927930878713455e-09,1.3535383418045819e-09,8.661553615043229e-10,5.294487181162144e-10,3.1135850046690813e-10,1.755662461615601e-10,9.530640788117055e-11,5.09353390856491e-11,2.6581870624925984e-11,1.3736603135794136e-11,7.223097917625382e-12,3.833328957709266e-12,2.105159340370609e-12,1.1623415155559044e-12,6.502384894153229e-13,3.7042402011474916e-13,2.144904449284696e-13
0.0,24,24.0,0.0,30.0,0.0,0.0,0.0,0.0,-13.0,0.0,2.0,0.0,0.0,0.0,8.999504101515117e-11,4.1645146183751855e-11,1.9619050735491584e-11,9.599048911922233e-12,4.903699998389677e-12,2.6276813026638834e-12,1.5021047082946985e-12,8.774076626414665e-13,5.263772320833338e-13,3.136828668724488e-13,1.9359941504417665e-13,1.1734577717867704e-13,7.031789304483616e-14,4.2278200851380826e-14,2.3771090927538167e-14,1.3928944099370687e-14,7.465412064644923e-15,7.3447974779603406e-09,5.9068786091480085e-09,4.474693836444681e-09,3.123736449100609e-09,2.094733323191743e-09,1.3528004851286104e-09,8.64395687042748e-10,5.27574131114741e-10,3.097886852042941e-10,1.7441113957522503e-10,9.45119390138403e-11,5.040602243197116e-11,2.6235260315273265e-11,1.3510720920817071e-11,7.077168857157199e-12,3.7404743740995644e-12,2.0479120124263965e-12,1.127946905689948e-12,6.30491855154337e-13,3.5933894927795676e-13,2.0832117241571837e-13
0.0,25,25.0,0.0,30.0,0.0,0.0,0.0,0.0,-13.0,0.0,2.0,0.0,0.0,0.0,8.921528737441576e-11,4.11732477659214e-11,1.9330385432645916e-11,9.419343639743801e-12,4.792022400963611e-12,2.5583677228142718e-12,1.4598408695738158e-12,8.520854409186671e-13,5.114709716551716e-13,3.050720085249807e-13,1.8866162883897565e-13,1.1456845261584655e-13,6.876907826302066e-14,4.143211799741734e-14,2.3314143761765602e-14,1.368844829554734e-14,7.340204767031794e-15,7.3606387146672915e-09,5.921591178787341e-09,4.486025505527902e-09,3.1299371129731926e-09,2.0964493221606694e-09,1.3518425880610718e-09,8.624625402089901e-10,5.25580937327189e-10,3.0814703581274584e-10,1.7321937750182834e-10,9.370358037368291e-11,4.987514884457967e-11,2.589265419824598e-11,1.3290173570661317e-11,6.935962250646412e-12,3.651063666407124e-12,1.9929002432197825e-12,1.0948786733997086e-12,6.115002509805799e-13,3.486576613359732e-13,2.023570657134246e-13
0.0,26,26.0,0.0,30.0,0.0,0.0,0.0,0.0,-13.0,0.0,2.0,0.0,0.0,0.0,8.842314075697276e-11,4.0701774066221135e-11,1.9046394119079762e-11,9.244585590160343e-12,4.684193309184466e-12,2.491627047414121e-12,1.419155684364237e-12,8.276790465811547e-13,4.970738236765713e-13,2.967396481197531e-13,1.838715382615449e-13,1.1186922468273493e-13,6.726024464641295e-14,4.060634404541566e-14,2.2867313803714884e-14,1.3452796450211716e-14,7.217353267739235e-15,7.377136787040268e-09,5.9367117345342525e-09,4.497466046352769e-09,3.1359996562896376e-09,2.097933301270461e-09,1.3506628236045058e-09,8.603567451568717e-10,5.234705777277194e-10,3.0643455579700276e-10,1.7199124254210496e-10,9.288104283148458e-11,4.934213330783038e-11,2.5553430385820646e-11,1.3074448839214394e-11,6.7991175140064534e-12,3.56487335572996e-12,1.9399966836043403e-12,1.063069676491375e-12,5.932284245852252e-13,3.383630870776708e-13,1.965909506156514e-13
0.0,27,27.0,0.0,30.0,0.0,0.0,0.0,0.0,-13.0,0.0,2.0,0.0,0.0,0.0,8.761835841145901e-11,4.0230200827995656e-11,1.8766556152019142e-11,9.074381955097435e-12,4.579961114509938e-12,2.427314380534345e-12,1.3799704008566972e-12,8.04147471091765e-13,4.831648816698505e-13,2.8867519088912824e-13,1.7922393523732798e-13,1.0924552620437481e-13,6.579017443317318e-14,3.9800309387404245e-14,2.2430336551893045e-14,1.3221874486480304e-14,7.096805234011558e-15,7.394297651491972e-09,5.952230702814156e-09,4.508997520393441e-09,3.141908017962304e-09,2.0991767528568796e-09,1.3492588350039397e-09,8.580787500752379e-10,5.212442915730131e-10,3.046522025051255e-10,1.7072707284490138e-10,9.20441373735815e-11,4.8806491943967743e-11,2.5217046610176075e-11,1.286308746704584e-11,6.666305182331128e-12,3.4816963383796612e-12,1.8890820052338684e-12,1.0324565656264687e-12,5.7564299648942e-13,3.2843898302322005e-13,1.9101599697796196e-13
0.0,28,28.0,0.0,30.0,0.0,0.0,0.0,0.0,-13.0,0.0,2.0,0.0,0.0,0.0,8.680078116990739e-11,3.9758086607735955e-11,1.8490410935412862e-11,8.908376178268962e-12,4.479093386659281e-12,2.3652941902995083e-12,1.3422106961728467e-12,7.814518040081232e-13,4.697242259540451e-13,2.80868517329589e-13,1.747138309615525e-13,1.0669489047622816e-13,6.435769572695604e-14,3.9013463388976625e-14,2.2002956280850782e-14,1.29955714900284e-14,6.978509789530208e-15,7.412125238136844e-09,5.968136327220951e-09,4.520600267777805e-09,3.1476450902776906e-09,2.100170519056708e-09,1.3476277966980333e-09,8.556286684974548e-10,5.189031355064109e-10,3.0280088741293226e-10,1.6942725088479858e-10,9.119276055804568e-11,4.8267829509468073e-11,2.488303166007014e-11,1.2655678261420719e-11,6.537224419485229e-12,3.401340763845614e-12,1.8400444175892308e-12,1.0029795663065204e-12,5.587123497244445e-13,3.188698840469717e-13,1.8562569105231593e-13
0.0,29,29.0,0.0,30.0,0.0,0.0,0.0,0.0,-13.0,0.0,2.0,0.0,0.0,0.0,8.597032183236846e-11,3.928506308913133e-11,1.821755190987807e-11,8.746244866048201e-12,4.3813754861839434e-12,2.305439724781468e-12,1.3058064249000283e-12,7.595551158441147e-13,4.567328697500145e-13,2.7330995733907673e-13,1.7033644444454359e-13,1.0421494641017437e-13,6.296168025866161e-14,3.824527360530416e-14,2.1584925660918068e-14,1.2773779598415527e-14,6.862417462708032e-15,7.430621260780531e-09,5.984414566946829e-09,4.532252903467977e-09,3.1531927751869317e-09,2.1009048563080545e-09,1.3457664674611784e-09,8.530063162386761e-10,5.164480017253284e-10,3.008814778343004e-10,1.680921946474366e-10,9.032688224463223e-11,4.772582852102213e-11,2.455097776107765e-11,1.2451853626692015e-11,6.411600714253422e-12,3.3236289819401074e-12,1.7927792121656105e-12,9.745822752083245e-13,5.424065272448867e-13,3.09641059778065e-13,1.804138088397099e-13
0.0,30,30.0,0.0,30.0,0.0,0.0,0.0,0.0,-13.0,0.0,2.0,0.0,0.0,0.0,8.512695534486651e-11,3.881082659725188e-11,1.794762115622076e-11,8.587694954489177e-12,4.2866092700715275e-12,2.247632462047923e-12,1.270691382560144e-12,7.384223488730462e-13,4.4417270907149465e-13,2.6599026613902223e-13,1.6608719184516617e-13,1.0180341397063919e-13,6.160104129381264e-14,3.7495225037300656e-14,2.1176005398857118e-14,1.2556393895760773e-14,6.748480137148914e-15,7.4497850192093935e-09,6.001048993223115e-09,4.543932311442781e-09,3.158532034699796e-09,2.1013694918295256e-09,1.3436712368528246e-09,8.502112445034842e-10,5.138796351784499e-10,2.988947996869159e-10,1.6672235078270318e-10,8.944653525143832e-11,4.718023979879409e-11,2.4220533797229432e-11,1.2251285507110435e-11,6.289183751717333e-12,3.2483965559108075e-12,1.7471883322300723e-12,9.472114694463142e-13,5.266971363826794e-13,3.007384743155544e-13,1.7537439041506137e-13
0.0,31,31.0,0.0,30.0,0.0,0.0,0.0,0.0,-13.0,0.0,2.0,0.0,0.0,0.0,8.427071050051624e-11,3.8335130663196076e-11,1.768030455110428e-11,8.432461113471763e-12,4.194611885398593e-12,2.1917615924713386e-12,1.236803082845344e-12,7.180202150974598e-13,4.3202647603886394e-13,2.589006018271549e-13,1.6196167652199418e-13,9.945809987990322e-14,6.027473167421858e-14,3.676281942585443e-14,2.077596389814961e-14,1.234331231204423e-14,6.6366510041549904e-15,7.469613194870816e-09,6.0180206851213366e-09,4.555613638118542e-09,3.1636429365488874e-09,2.1015536732569927e-09,1.3413381659285276e-09,8.472427696581252e-10,5.111986498022496e-10,2.9684164102639667e-10,1.6531818936496637e-10,8.855180664452858e-11,4.663087424186164e-11,2.389139928172544e-11,1.2053681706305075e-11,6.1697454486458995e-12,3.1754913383235066e-12,1.7031799667366396e-12,9.208169275595393e-13,5.115572597135329e-13,2.9214874887085096e-13,1.7050171519834667e-13
0.0,32,32.0,0.0,30.0,0.0,0.0,0.0,0.0,-13.0,0.0,2.0,0.0,0.0,0.0,8.340166293463687e-11,3.785777950792962e-11,1.7415327418869305e-11,8.280303369769142e-12,4.1052146460966085e-12,2.1377235315513124e-12,1.2040825476126658e-12,6.983171007146468e-13,4.2027769529720724e-13,2.5203250442341246e-13,1.5795567973995346e-13,9.717689357303787e-14,5.898174198289466e-14,3.6047574581445856e-14,2.0384576937744795e-14,1.2134435527040323e-14,6.52688451731597e-15,7.490099641068702e-09,6.0353081259792025e-09,4.567270286050272e-09,3.1685046960531662e-09,2.101446212408072e-09,1.338763023031469e-09,8.441000001147135e-10,5.084055438354311e-10,2.947227561268873e-10,1.6388019996411765e-10,8.764283041184061e-11,4.607759567476695e-11,2.3563318993842242e-11,1.185878255001896e-11,6.053078141937517e-12,3.104772606559992e-12,1.660668167115369e-12,8.953512611975854e-13,4.969613717809556e-13,2.8385912700984196e-13,1.657902781595542e-13
0.0,33,33.0,0.0,30.0,0.0,0.0,0.0,0.0,-13.0,0.0,2.0,0.0,0.0,0.0,8.251992921942824e-11,3.737862233029058e-11,1.7152450628645907e-11,8.131004931765647e-12,4.018261987984904e-12,2.0854214616173852e-12,1.1724741087538784e-12,6.792829764945283e-13,4.0891064325553455e-13,2.4537787628291926e-13,1.5406515197652661e-13,9.495776338508847e-14,5.772109882242692e-14,3.534902374694529e-14,2.0001627368109323e-14,1.1929666878417322e-14,6.419136349051715e-15,7.511235168852649e-09,6.052887101651751e-09,4.578873908789742e-09,3.1730957149128774e-09,2.1010355239755664e-09,1.3359413153697611e-09,8.407818607304778e-10,5.055007142685905e-10,2.925388699374948e-10,1.624088887842114e-10,8.671978131074841e-11,4.552031462504609e-11,2.323607820781135e-11,1.166635786106155e-11,5.938992919481809e-12,3.0361102548102425e-12,1.6195724857611958e-12,8.707697566342951e-13,4.82885261173383e-13,2.758574422142502e-13,1.6123476697192538e-13
0.0,34,34.0,0.0,30.0,0.0,0.0,0.0,0.0,-13.0,0.0,2.0,0.0,0.0,0.0,8.162566189314804e-11,3.689754829846587e-11,1.689146709072206e-11,7.984370199542153e-12,3.933610497339766e-12,2.0347649008742836e-12,1.141925221159143e-12,6.608893135593569e-13,3.9791030989754343e-13,2.389289637636133e-13,1.5028620477739514e-13,9.279875295413012e-14,5.6491863197795733e-14,3.4666714991393966e-14,1.9626904823455147e-14,1.1728912273876274e-14,6.313363349017851e-15,7.533007329844682e-09,6.070730601733618e-09,4.590394407632401e-09,3.1773936175051277e-09,2.1003096598150634e-09,1.332868316990529e-09,8.37287115084169e-10,5.024844704975926e-10,2.902906827840375e-10,1.6090477666987968e-10,8.578286971081231e-11,4.4958982909932517e-11,2.2909498447357786e-11,1.147620421778432e-11,5.827318083236554e-12,2.969384039491003e-12,1.5798176351248836e-12,8.470302253516509e-13,4.693059575060945e-13,2.6813208752708717e-13,1.568300401589599e-13
0.0,35,35.0,0.0,30.0,0.0,0.0,0.0,0.0,-13.0,0.0,2.0,0.0,0.0,0.0,8.071904528356301e-11,3.6414482156788876e-11,1.6632198610594443e-11,7.840222945070853e-12,3.851128008412237e-12,1.9856692983269044e-12,1.1123862860788213e-12,6.431090041212865e-13,3.872623629433447e-13,2.32678340045379e-13,1.4661510311625522e-13,9.069797782512285e-14,5.5293128995554625e-14,3.400021063316146e-14,1.926020544916524e-14,1.15320801068909e-14,6.209523504315554e-15,7.555400197322692e-09,6.08880872485089e-09,4.601799930855197e-09,3.1813752851119014e-09,2.099256339382532e-09,1.32953909368382e-09,8.336143859544921e-10,4.993570472549673e-10,2.8797887521684584e-10,1.5936839781630594e-10,8.483233728039073e-11,4.439358892634864e-11,2.2583433706774893e-11,1.128814246968138e-11,5.717897734787903e-12,2.9044828750879124e-12,1.5413331663686462e-12,8.240928630386548e-13,4.56201662909797e-13,2.606719870797062e-13,1.5257110630516587e-13
0.0,36,36.0,0.0,30.0,0.0,0.0,0.0,0.0,-13.0,0.0,2.0,0.0,0.0,0.0,7.980029200645495e-11,3.5929380370753217e-11,1.6374493063251454e-11,7.698404648277925e-12,3.770692765468749e-12,1.9380556531932074e-12,1.0838104842547326e-12,6.259162867840586e-13,3.769531141646451e-13,2.2661888900851537e-13,1.4304825821856797e-13,8.865362224137504e-14,5.412402155192707e-14,3.334908669036423e-14,1.890133164353458e-14,1.1339081176116105e-14,6.107575901555813e-15,7.578394146960221e-09,6.107088589075947e-09,4.613056875928894e-09,3.1850168883975587e-09,2.0978629767909343e-09,1.3259485252848309e-09,8.297621742911765e-10,4.96118616895347e-10,2.85604112930012e-10,1.5780029904790444e-10,8.386845338872541e-11,4.382415355211028e-11,2.225776708586117e-11,1.1102015485901202e-11,5.610590474160093e-12,2.8413041774896056e-12,1.5040531666074556e-12,8.019201164262592e-13,4.43551687662229e-13,2.5346656932387686e-13,1.484531044343779e-13
0.0,37,37.0,0.0,30.0,0.0,0.0,0.0,0.0,-13.0,0.0,2.0,0.0,0.0,0.0,7.886964003775796e-11,3.544222774274672e-11,1.6118221854003933e-11,7.558772975752855e-12,3.692192645105739e-12,1.891850157467103e-12,1.0561536182502054e-12,6.092866760650258e-13,3.669694876801289e-13,2.207437900877659e-13,1.395822208123486e-13,8.666393611038522e-14,5.298369630292333e-14,3.2712932357062265e-14,1.8550091812841014e-14,1.1149828608048963e-14,6.007480690495039e-15,7.601965638702656e-09,6.125534248470678e-09,4.624129895076668e-09,3.188293918355472e-09,2.0961167048865436e-09,1.3220913257904661e-09,8.257288769390787e-10,4.927693011101834e-10,2.831670516964637e-10,1.5620103955484086e-10,8.289151211445332e-11,4.3250726578310476e-11,2.1932407791860626e-11,1.0917686114538612e-11,5.505268203171881e-12,2.779753251981211e-12,1.4679159737870818e-12,7.804765574491037e-13,4.3133638964809757e-13,2.4650574182205933e-13,1.444712856835197e-13
0.0,38,38.0,0.0,30.0,0.0,0.0,0.0,0.0,-13.0,0.0,2.0,0.0,0.0,0.0,7.792735027293446e-11,3.4953034439445826e-11,1.586327763561142e-11,7.42120038985358e-12,3.6155244347848342e-12,1.8469838603583527e-12,1.029373963455551e-12,5.931968958288422e-13,3.572989900746875e-13,2.1504650402584606e-13,1.362136747732973e-13,8.472723213307257e-14,5.187133751042927e-14,3.209134950359452e-14,1.820630013905442e-14,1.0964237782924374e-14,5.909199049458102e-15,7.62608700133863e-09,6.144106616710814e-09,4.634981904444351e-09,3.191181215861911e-09,2.0940043966931848e-09,1.3179620616630122e-09,8.21512803347901e-10,4.893091821439928e-10,2.8066834227815154e-10,1.5457119099641726e-10,8.190182976789098e-11,4.2673383603198205e-11,2.1607288466760725e-11,1.0735035332533136e-11,5.401815025169999e-12,2.7197427231490645e-12,1.4328639083068018e-12,7.597287642766954e-13,4.195371173530075e-13,2.3977986746021453e-13,1.4062099642094828e-13
0.0,39,39.0,0.0,30.0,0.0,0.0,0.0,0.0,-13.0,0.0,2.0,0.0,0.0,0.0,7.697370449995388e-11,3.446183337913988e-11,1.5609572254565926e-11,7.285572876908903e-12,3.5405931637275822e-12,1.8033923533818647e-12,1.0034321272867777e-12,5.776248163604764e-13,3.4792968220329196e-13,2.0952075945755984e-13,1.3293943113387105e-13,8.284188308523689e-14,5.0786157058616115e-14,3.148395219974295e-14,1.7869776359273778e-14,1.0782226263537731e-14,5.8126931522203914e-15,7.650726221396974e-09,6.162763398682786e-09,4.645574097044044e-09,3.1936529999068514e-09,2.09151268453344e-09,1.313555168659055e-09,8.171121914757477e-10,4.857383135803529e-10,2.7810863528205184e-10,1.5291133789658518e-10,8.089974284826222e-11,4.2092223326933745e-11,2.1282362802918755e-11,1.0553960567809855e-11,5.300126233494664e-12,2.6611920040652957e-12,1.3988430205108422e-12,7.39645208800271e-13,4.081361561385922e-13,2.3327974197012194e-13,1.368976629819009e-13
0.0,40,40.0,0.0,30.0,0.0,0.0,0.0,0.0,-13.0,0.0,2.0,0.0,0.0,0.0,7.600900372302374e-11,3.3968677933671365e-11,1.5357034902210643e-11,7.151788784112889e-12,3.4673114825164034e-12,1.761015474923641e-12,9.782909161271005e-13,5.625493948319878e-13,3.3885015255640057e-13,2.0416054026322114e-13,1.2975642242966524e-13,8.100631924145004e-14,4.9727393315407387e-14,3.089036625927767e-14,1.7540345556323578e-14,1.0603713726983367e-14,5.717926136576899e-15,7.67584673806015e-09,6.181459030871981e-09,4.655865959531259e-09,3.1956828945154765e-09,2.0886279771080944e-09,1.3088649674934485e-09,8.125252230723316e-10,4.820567307609317e-10,2.754885859416289e-10,1.5122207827032575e-10,7.988560636870109e-11,4.150736519435977e-11,2.0957603414149003e-11,1.0374374176995322e-11,5.200107381560981e-12,2.6040268022288837e-12,1.3658028532177331e-12,7.201961502012341e-13,3.971166775642222e-13,2.2699657265884982e-13,1.3329677819769567e-13
0.0,41,41.0,0.0,30.0,0.0,0.0,0.0,0.0,-13.0,0.0,2.0,0.0,0.0,0.0,7.503356678335841e-11,3.3473639905257314e-11,1.5105610448912165e-11,7.019757755552938e-12,3.395599087945568e-12,1.7197970331610707e-12,9.539152095945044e-13,5.479506189424577e-13,3.300494920732039e-13,1.989600736334756e-13,1.2666169735827458e-13,7.921902593255103e-14,4.8694310054422604e-14,3.031022880453455e-14,1.7217837959713472e-14,1.0428621899074374e-14,5.624862074278292e-15,7.701407245831717e-09,6.200144631275377e-09,4.665815292775128e-09,3.1972439543291958e-09,2.085336474797317e-09,1.3038856786257098e-09,8.077500385078449e-10,4.782644608954107e-10,2.7280885881006595e-10,1.4950402443063245e-10,7.885979249177991e-11,4.091894733970897e-11,2.063299993306636e-11,1.0196202063593737e-11,5.101673427933752e-12,2.548178659852802e-12,1.3336962184847189e-12,7.013535342568239e-13,3.864626915469983e-13,2.209219582541688e-13,1.2981388990843223e-13
0.0,42,42.0,0.0,30.0,0.0,0.0,0.0,0.0,-13.0,0.0,2.0,0.0,0.0,0.0,7.404772923103697e-11,3.297680774333536e-11,1.4855257941783953e-11,6.88939975860878e-12,3.3253821898740643e-12,1.6796845462636843e-12,9.302718417415795e-13,5.33809453531924e-13,3.2151727030382346e-13,1.9391381879545097e-13,1.2365241572806102e-13,7.747854122786456e-14,4.768619543304116e-14,2.9743187850121687e-14,1.6902088756447443e-14,1.0256874491428341e-14,5.5334659425635356e-15,7.727361506722101e-09,6.218767959470139e-09,4.675378236082087e-09,3.1983086887812466e-09,2.0816241834376023e-09,1.298611436437889e-09,8.027847512953196e-10,4.743615329146701e-10,2.700701323568782e-10,1.4775780393494764e-10,7.782268942664767e-11,4.0327124793025845e-11,2.030855730875221e-11,1.0019382422935887e-11,5.0047479502656386e-12,2.4935845262127265e-12,1.3024789878323353e-12,6.830908980667888e-13,3.7615900117071024e-13,2.1504786978283855e-13,1.2644459164131713e-13
0.0,43,43.0,0.0,30.0,0.0,0.0,0.0,0.0,-13.0,0.0,2.0,0.0,0.0,0.0,7.305184240853888e-11,3.247828497081201e-11,1.4605949248516537e-11,6.7606441927045325e-12,3.256593017027032e-12,1.640628998849252e-12,9.073294888175751e-13,5.201077899867102e-13,3.1324351282880075e-13,1.8901645635297143e-13,1.2072584367662438e-13,7.578345373448063e-14,4.6702361022626295e-14,2.918890190434896e-14,1.6592937911031352e-14,1.00883971408737e-14,5.443703596951488e-15,7.753658173721226e-09,6.2372733873511885e-09,4.684509294835236e-09,3.198849084778669e-09,2.077476926826703e-09,1.2930363030584457e-09,7.976274624378908e-10,4.703479871139529e-10,2.6727310346331393e-10,1.4598406063730618e-10,7.677470054590503e-11,3.973206791312879e-11,1.9984294281722125e-11,9.843864601520054e-12,4.90926242242785e-12,2.440186359882055e-12,1.2721098951911884e-12,6.653832799025985e-13,3.6619115997245906e-13,2.0936663241027232e-13,1.2318451562708667e-13
0.0,44,44.0,0.0,30.0,0.0,0.0,0.0,0.0,-13.0,0.0,2.0,0.0,0.0,0.0,7.204627271211388e-11,3.197818879281097e-11,1.4357667831708234e-11,6.6334290730782246e-12,3.189169358883159e-12,1.602584613718588e-12,8.85058563245285e-13,5.068283982713295e-13,3.0521867985358623e-13,1.842628781987972e-13,1.1787934914036919e-13,7.413240050652364e-14,4.5742140887331177e-14,2.864703958754576e-14,1.629022999418069e-14,9.9231173514447e-15,5.355541745616973e-15,7.780240627302797e-09,6.255601880913991e-09,4.693161371216038e-09,3.198836627790248e-09,2.0728803582133084e-09,1.2871542820747198e-09,7.922762747172397e-10,4.662238846272746e-10,2.644184918149799e-10,1.4418345581857824e-10,7.571624368633046e-11,3.913396101636452e-11,1.966024201572896e-11,9.669608059555883e-12,4.8151555495956736e-12,2.3879307588067278e-12,1.2425503518567343e-12,6.482071339091519e-13,3.565454315550423e-13,2.038709081739956e-13,1.2002932831166682e-13
0.0,45,45.0,0.0,30.0,0.0,0.0,0.0,0.0,-13.0,0.0,2.0,0.0,0.0,0.0,7.103140100279778e-11,3.147664886326362e-11,1.4110407639872608e-11,6.507700283004814e-12,3.123054140944894e-12,1.5655086379260092e-12,8.634311134890472e-13,4.939548814356921e-13,2.9743364590217694e-13,1.796481779594283e-13,1.1511039755827525e-13,7.252406505744688e-14,4.4804890708049753e-14,2.8117279266158595e-14,1.5993814019650122e-14,9.760964438412387e-15,5.268947924872327e-15,7.807046826648437e-09,6.2736909933019674e-09,4.701285797582408e-09,3.1982423212387066e-09,2.067819971038256e-09,1.2809593323666562e-09,7.867293070256444e-10,4.619893167692012e-10,2.6150704419222233e-10,1.4235666937209704e-10,7.464775060254548e-11,3.8533001174207884e-11,1.933644286825322e-11,9.496581426611237e-12,4.7223726564675836e-12,2.3367686162803046e-12,1.213764272774923e-12,6.315402493951535e-13,3.4720875137658806e-13,1.985536795480815e-13,1.169747284907023e-13
0.0,46,46.0,0.0,30.0,0.0,0.0,0.0,0.0,-13.0,0.0,2.0,0.0,0.0,0.0,7.000762214860474e-11,3.0973806180908365e-11,1.3864172103815331e-11,6.383410889328302e-12,3.058195030611481e-12,1.5293611421949937e-12,8.424207295568658e-13,4.814716324725182e-13,2.89879680531773e-13,1.751676419355048e-13,1.1241654779576125e-13,7.095717546966735e-14,4.388998694843525e-14,2.759930870194934e-14,1.5703543288934653e-14,9.601869474642725e-15,5.183890476164444e-15,7.834009177188746e-09,6.291474869163312e-09,4.708832371989984e-09,3.197036704105481e-09,2.062281109208774e-09,1.2744453822858516e-09,7.809847088310948e-10,4.5764441427508166e-10,2.585395386604734e-10,1.4050440102604278e-10,7.35696665469908e-11,3.7929397156073614e-11,1.9012949283521803e-11,9.324761641230476e-12,4.630865124178341e-12,2.2866548010065464e-12,1.1857179135057968e-12,6.153616744749859e-13,3.381686905962411e-13,1.9340823378556053e-13,1.1401644815591177e-13
0.0,47,47.0,0.0,30.0,0.0,0.0,0.0,0.0,-13.0,0.0,2.0,0.0,0.0,0.0,6.897534462753102e-11,3.0469812148709736e-11,1.3618973219519103e-11,6.2605205089805476e-12,2.9945440732249962e-12,1.494104833600863e-12,8.220024534747618e-13,4.693637932899857e-13,2.825484300721076e-13,1.70816740521137e-13,1.0979544826407897e-13,6.943050259324919e-14,4.299682606163205e-14,2.7092824715424888e-14,1.541927524285003e-14,9.445765238902223e-15,5.100338524228282e-15,7.861054415924988e-09,6.308884260167081e-09,4.715749395263228e-09,3.19518986667859e-09,2.0562489772060955e-09,1.2676063443962984e-09,7.7504067485288e-10,4.531893564663019e-10,2.5551678866380484e-10,1.386273715870993e-10,7.248244995308357e-11,3.732336849660088e-11,1.8689822793736304e-11,9.154133166304541e-12,4.540589871822573e-12,2.2375478595317103e-12,1.1583797172489665e-12,5.996516438269498e-13,3.2941342185142663e-13,1.8842814798508042e-13,1.1115025610568151e-13
0.0,48,48.0,0.0,30.0,0.0,0.0,0.0,0.0,-13.0,0.0,2.0,0.0,0.0,0.0,6.793499028068854e-11,2.9964827666419754e-11,1.337483072389415e-11,6.138994736213238e-12,2.9320573520722082e-12,1.4597048790591547e-12,8.02152695240639e-13,4.576172159103117e-13,2.7543190019053185e-13,1.6659112003707078e-13,1.072448332446554e-13,6.794285833380227e-14,4.212482373176245e-14,2.6597532862358064e-14,1.514087132047151e-14,9.292586166233065e-15,5.0182619564209815e-15,7.888103515817984e-09,6.3258465513161856e-09,4.721983708952453e-09,3.1926714644083687e-09,2.0497086503481826e-09,1.260436130985638e-09,7.6889546001382e-10,4.4862438036291155e-10,2.5243964702578303e-10,1.3672632419249527e-10,7.138657220144385e-11,3.6715144669173204e-11,1.83671331157694e-11,8.984687272761525e-12,4.451508878844933e-12,2.189409739455738e-12,1.131720171337848e-12,5.843915103557358e-13,3.209316868587284e-13,1.836072748383862e-13,1.0837196431021898e-13
0.0,49,49.0,0.0,30.0,0.0,0.0,0.0,0.0,-13.0,0.0,2.0,0.0,0.0,0.0,6.688699408440842e-11,2.94590223603541e-11,1.3131771337878045e-11,6.0188046104762235e-12,2.870694674494966e-12,1.4261287406198742e-12,7.828491531830832e-13,4.462184255389489e-13,2.685224393756333e-13,1.6248659498823611e-13,1.0476251938335055e-13,6.649309401874816e-14,4.1273414151320695e-14,2.611314712317889e-14,1.486819682412086e-14,9.142268300196104e-15,4.937631403281237e-15,7.915071610306973e-09,6.342285797467603e-09,4.727480733455067e-09,3.1894507298826852e-09,2.0426450855533066e-09,1.2529286705481244e-09,7.625473947247029e-10,4.4394978976215083e-10,2.493090098621276e-10,1.3480202555950377e-10,7.028251745155573e-11,3.6104964349641936e-11,1.8044957332015194e-11,8.816421384880365e-12,4.363588744858745e-12,2.1422055319177913e-12,1.1057116726461739e-12,5.695636805516288e-13,3.1271276574135375e-13,1.7893972901245752e-13,1.0567743696710861e-13
0.0,50,50.0,0.0,30.0,0.0,0.0,0.0,0.0,-13.0,0.0,2.0,0.0,0.0,0.0,6.583180398616259e-11,2.895257387739855e-11,1.288982807719034e-11,5.899926128642707e-12,2.810419280155206e-12,1.3933460209635869e-12,7.640707388823919e-13,4.351545855244518e-13,2.6181272321733054e-13,1.5849914070043668e-13,1.0234640235489376e-13,6.508009884049759e-14,4.044204933078711e-14,2.5639389604504627e-14,1.460112079062838e-14,8.994749246894275e-15,4.8584182201306986e-15,7.941867938746535e-09,6.358122769229867e-09,4.732184505537379e-09,3.1854964829932253e-09,2.035043132975356e-09,1.2450779254325189e-09,7.559949005466417e-10,4.391659642979794e-10,2.4612582040991204e-10,1.3285526722294118e-10,6.917078252330565e-11,3.5493074756121425e-11,1.772337914535789e-11,8.649338481189843e-12,4.2768002837365094e-12,2.0959032319615365e-12,1.0803284013765568e-12,5.55151553348257e-13,3.047464479834465e-13,1.7441987412940435e-13,1.0306260211661156e-13
0.0,51,51.0,0.0,30.0,0.0,0.0,0.0,0.0,-13.0,0.0,2.0,0.0,0.0,0.0,6.476988077921777e-11,2.8445667244266036e-11,1.264903962195671e-11,5.782339796136067e-12,2.751197570148748e-12,1.3613283186158924e-12,7.457975063326557e-13,4.244134640852347e-13,2.552957394531494e-13,1.5462488631771737e-13,9.999445368536397e-14,6.370279837151473e-14,3.963019843855764e-14,2.5175990252176976e-14,1.4339515868262098e-14,8.849968130755285e-15,4.780594469758489e-15,7.968395813224275e-09,6.373275007159608e-09,4.736037714471173e-09,3.1807771394374555e-09,2.0268875489071656e-09,1.2368779108390285e-09,7.492365062677723e-10,4.3427336849368685e-10,2.428910727780633e-10,1.3088686675234797e-10,6.805187681458565e-11,3.48797310524155e-11,1.7402488199334234e-11,8.483446545497425e-12,4.191118149084273e-12,2.0504735154760176e-12,1.0555462027260804e-12,5.411394622976029e-13,2.970230049299019e-13,1.7004231030873446e-13,1.0052346560509995e-13
0.0,52,52.0,0.0,30.0,0.0,0.0,0.0,0.0,-13.0,0.0,2.0,0.0,0.0,0.0,6.370169800454475e-11,2.7938494282122826e-11,1.2409449738812432e-11,5.6660302134654195e-12,2.6929988553784734e-12,1.3300490922568411e-12,7.280105851187246e-13,4.139834027109493e-13,2.4896477373905657e-13,1.508601081383374e-13,9.770471772320175e-14,6.236015314747126e-14,3.883734716974601e-14,2.4722686575368424e-14,1.4083258199050478e-14,8.707865551978372e-15,4.704132906007914e-15,7.994552606844993e-09,6.387656882928058e-09,4.738981736000566e-09,3.1752607177865763e-09,2.0181630103730638e-09,1.2283227153396351e-09,7.422708644223756e-10,4.2927256081700633e-10,2.3960581562364303e-10,1.2889766894119163e-10,6.692632224257545e-11,3.42651958041181e-11,1.7082379455582137e-11,8.318758063130522e-12,4.106520488454232e-12,2.0058895314993178e-12,1.031342475959696e-12,5.275126208824843e-13,2.895331637470949e-13,1.6580186224042417e-13,9.805612711930555e-14
0.0,53,53.0,0.0,30.0,0.0,0.0,0.0,0.0,-13.0,0.0,2.0,0.0,0.0,0.0,6.262774186968511e-11,2.7431253067855408e-11,1.2171106749769767e-11,5.550985694984094e-12,2.635795122711592e-12,1.2994835335355918e-12,7.106921173945344e-13,4.038532861514873e-13,2.4281339610541395e-13,1.472012232691385e-13,9.547530875017214e-14,6.105115731472767e-14,3.8062997141999785e-14,2.4279223381319657e-14,1.383222730613576e-14,8.56838354550464e-15,4.629006958185986e-15,8.020229763140609e-09,6.401179665881975e-09,4.740956663383701e-09,3.1689148454484303e-09,2.008854131855117e-09,1.219406523084977e-09,7.350967682726443e-10,4.2416420274481503e-10,2.3627115575797256e-10,1.268885469608939e-10,6.579465319753195e-11,3.364973847771498e-11,1.676315262156044e-11,8.155289557947285e-12,4.022988623865537e-12,1.962126708755538e-12,1.0076960704446693e-12,5.142570707987389e-13,2.822680827723549e-13,1.61693567758958e-13,9.565679792712618e-14
0.0,54,54.0,0.0,30.0,0.0,0.0,0.0,0.0,-13.0,0.0,2.0,0.0,0.0,0.0,6.154851117527401e-11,2.6924147434262114e-11,1.1934063042723921e-11,5.437197916965322e-12,2.5795608175652413e-12,1.2696084478395527e-12,6.93825198459352e-13,3.9401251391233076e-13,2.368354480625186e-13,1.4364478357977683e-13,9.330440822430556e-14,5.977483733896188e-14,3.730666531715506e-14,2.384535252059619e-14,1.3586305985952637e-14,8.431465541519264e-15,4.555190716238808e-15,8.045312825791411e-09,6.413751593188821e-09,4.741901334815031e-09,3.161706763964623e-09,1.998945484618105e-09,1.2101236378484983e-09,7.277131692665388e-10,4.1894906784248666e-10,2.32888261685996e-10,1.2486040347265891e-10,6.465741649890623e-11,3.3033634974186937e-11,1.6444911622320485e-11,7.993061166104555e-12,3.940506756419435e-12,1.9191625753791637e-12,9.845871882242335e-13,5.01359633045088e-13,2.752193281764531e-13,1.577126668950262e-13,9.332181988437548e-14
0.0,55,55.0,0.0,30.0,0.0,0.0,0.0,0.0,-13.0,0.0,2.0,0.0,0.0,0.0,6.046451724073636e-11,2.6417386502355036e-11,1.1698374619006653e-11,5.3246615923459106e-12,2.5242726416688667e-12,1.2404021425014816e-12,6.773938207403617e-13,3.844509731794562e-13,2.310250303208728e-13,1.4018746993827068e-13,9.119026214722727e-14,5.853025077150993e-14,3.656788344730781e-14,2.342083264238767e-14,1.3345380204804947e-14,8.297056327453571e-15,4.482658916537135e-15,8.069681487332212e-09,6.425277941545223e-09,4.741753356631029e-09,3.153603334202219e-09,1.9884216191152123e-09,1.2004685090449787e-09,7.20119194979145e-10,4.136280508611991e-10,2.294583670813393e-10,1.2281417168999134e-10,6.351517134444558e-11,3.241716718960822e-11,1.612776411082799e-11,7.832096242953483e-12,3.859061692971391e-12,1.8769765908546253e-12,9.619972927390783e-13,4.888078616695879e-13,2.6837885187670177e-13,1.5385459138145768e-13,9.104768519542998e-14
0.0,56,56.0,0.0,30.0,0.0,0.0,0.0,0.0,-13.0,0.0,2.0,0.0,0.0,0.0,5.937628382138169e-11,2.591118423976751e-11,1.146410067387119e-11,5.213374169718885e-12,2.469909364851419e-12,1.2118443219591856e-12,6.613828210005445e-13,3.7515901310162786e-13,2.2537649109522584e-13,1.368260867115217e-13,8.913117854939782e-14,5.731648507103558e-14,3.58461975443785e-14,2.300542895996845e-14,1.3109338999546991e-14,8.16510201111037e-15,4.411386927904604e-15,8.093209654971089e-09,6.4356610982489794e-09,4.740449121839675e-09,3.1445710421308926e-09,1.977267090968758e-09,1.190435759845643e-09,7.123141675400108e-10,4.082021768548248e-10,2.2598277419826818e-10,1.207508163845871e-10,6.236848924367143e-11,3.1800622596179705e-11,1.5811821011957108e-11,7.672420999780806e-12,3.778642593006621e-12,1.8355499892711134e-12,9.399090233266294e-13,4.76590000024059e-13,2.617389706364853e-13,1.5011495459484258e-13,8.883105634344421e-14
0.0,57,57.0,0.0,30.0,0.0,0.0,0.0,0.0,-13.0,0.0,2.0,0.0,0.0,0.0,5.828434700970014e-11,2.5405759039975727e-11,1.1231303206214056e-11,5.103335554366527e-12,2.4164516497947582e-12,1.1839159894153825e-12,6.45777830600451e-13,3.661274203616409e-13,2.198844149612645e-13,1.3355755651387202e-13,8.712552508686209e-14,5.613265647774684e-14,3.514116737216076e-14,2.2598913026101754e-14,1.2878074382119878e-14,8.035549985273287e-15,4.3413507380943764e-15,8.115765531084868e-09,6.444800629303967e-09,4.737923823694889e-09,3.134576006014026e-09,1.965466491026901e-09,1.1800202174960721e-09,7.042976225450084e-10,4.026726103165749e-10,2.2246285722030036e-10,1.186713348278733e-10,6.121795392771445e-11,3.118429383790627e-11,1.5497196095857126e-11,7.514064167422778e-12,3.699240734018298e-12,1.794865633060733e-12,9.183061151509339e-13,4.646949393894694e-13,2.5529234629016615e-13,1.4648954191689746e-13,8.666878554837907e-14
0.0,58,58.0,0.0,30.0,0.0,0.0,0.0,0.0,-13.0,0.0,2.0,0.0,0.0,0.0,5.718925511419971e-11,2.4901333317684634e-11,1.100004665419986e-11,4.994547849312508e-12,2.363881888784903e-12,1.156599354573874e-12,6.305652286515614e-13,3.5734739597295025e-13,2.1454361223829228e-13,1.3037891518875318e-13,8.517172674329126e-14,5.497790893749239e-14,3.4452365960141665e-14,2.2201062518823342e-14,1.2651481247723504e-14,7.908348893428424e-15,4.2725269401622535e-15,8.137211705387627e-09,6.452593342156611e-09,4.73411146426476e-09,3.123583985984774e-09,1.9530044799976354e-09,1.169216945926485e-09,6.960693284484443e-10,3.970406643339779e-10,2.1890006554330427e-10,1.1657675765998705e-10,6.00641612280738e-11,3.0568478335885216e-11,1.518400557687645e-11,7.357056684057342e-12,3.6208492938382123e-12,1.7549078764503586e-12,8.971733242404546e-13,4.531121798341943e-13,2.4903196704055046e-13,1.4297430149986952e-13,8.455793307515557e-14
0.0,59,59.0,0.0,30.0,0.0,0.0,0.0,0.0,-13.0,0.0,2.0,0.0,0.0,0.0,5.60915685095342e-11,2.4398133116299555e-11,1.0770397553805369e-11,4.887015114550632e-12,2.31218405156896e-12,1.1298777470545992e-12,6.157320979101698e-13,3.488105332417222e-13,2.0934910886956354e-13,1.2728730700727884e-13,8.326826363258709e-14,5.385141307434394e-14,3.37793791384944e-14,2.1811661037336305e-14,1.2429457286010306e-14,7.783448596448875e-15,4.20489271845065e-15,8.157405255214992e-09,6.458933340667209e-09,4.7289448582183946e-09,3.111560397122629e-09,1.939865828154783e-09,1.1580212807267082e-09,6.876293064294118e-10,3.9130780975908213e-10,2.1529592698870594e-10,1.1446814967737587e-10,5.890771891734618e-11,2.995347789879956e-11,1.4872367734680642e-11,7.201431404729299e-12,3.5434631485087736e-12,1.7156624379165216e-12,8.764963573299967e-13,4.4183179318280535e-13,2.429511297739525e-13,1.3956533542770854e-13,8.249578367531233e-14
0.0,60,60.0,0.0,30.0,0.0,0.0,0.0,0.0,-13.0,0.0,2.0,0.0,0.0,0.0,5.499185945210524e-11,2.3896387723917632e-11,1.054242421757219e-11,4.780743142761949e-12,2.2613435435079208e-12,1.1037355351168114e-12,6.012661832662761e-13,3.405087968376193e-13,2.0429613677653323e-13,1.242799800694629e-13,8.141366889638719e-14,5.2752365209109475e-14,3.312180509390812e-14,2.1430497908854085e-14,1.221190289534975e-14,7.660800140487775e-15,4.138425834219541e-15,8.176197849854655e-09,6.463712070017125e-09,4.722355632381477e-09,3.0984703272885185e-09,1.9260354605963113e-09,1.1464288665407853e-09,6.789778507257363e-10,3.8547568438890684e-10,2.1165205093988285e-10,1.1234661052958614e-10,5.774924650546013e-11,2.9339598334800583e-11,1.4562402554593723e-11,7.047222830388282e-12,3.467078684403797e-12,1.6771162809885912e-12,8.562618062237772e-13,4.3084438797135266e-13,2.370434233444458e-13,1.3625889126047917e-13,8.047986045944437e-14
0.0,61,61.0,0.0,30.0,0.0,0.0,0.0,0.0,-13.0,0.0,2.0,0.0,0.0,0.0,5.3890711855674236e-11,2.3396329294732726e-11,1.0316196431125958e-11,4.675739249973996e-12,2.2113470732834296e-12,1.0781580493443523e-12,5.871558526930963e-13,3.324345029208496e-13,1.9938012466237864e-13,1.2135428189315646e-13,7.960652669212519e-14,5.167998642225519e-14,3.247925394576891e-14,2.1057368006582604e-14,1.1998721099640471e-14,7.540355725603726e-15,4.073104610180244e-15,8.193435854405941e-09,6.466818349457256e-09,4.714274221984511e-09,3.0842785611141257e-09,1.911498508513894e-09,1.1344356969193703e-09,6.701155494291711e-10,3.795461021487126e-10,2.0797013139171173e-10,1.1021327531512275e-10,5.6589374985437656e-11,2.8727149061480796e-11,1.425423138452022e-11,6.8944668544242514e-12,3.3916936234369483e-12,1.639257502794385e-12,8.364570864159972e-13,4.2014107627026985e-13,2.3130271277957693e-13,1.3305135395599918e-13,7.850793550552212e-14
0.0,62,62.0,0.0,30.0,0.0,0.0,0.0,0.0,-13.0,0.0,2.0,0.0,0.0,0.0,5.278872102186393e-11,2.28981924731357e-11,1.0091785165248524e-11,4.5720120797589494e-12,2.162182529485055e-12,1.0531315109664553e-12,5.733900605295263e-13,3.2458030027639504e-13,1.9459668924267977e-13,1.1850765517591517e-13,7.78454702674087e-14,5.0633521660155035e-14,3.185134734299759e-14,2.0692071579505467e-14,1.1789817467370417e-14,7.422068675349581e-15,4.008907913876356e-15,8.208960428303775e-09,6.468138391132646e-09,4.704629864947386e-09,3.0689496116687425e-09,1.896240366903278e-09,1.1220381566516968e-09,6.610433057365393e-10,3.7352106226788996e-10,2.042519498999892e-10,1.0806931506563566e-10,5.542874652315106e-11,2.8116442711092017e-11,1.3947976606125202e-11,6.743200524866505e-12,3.3173068602922416e-12,1.6020752297947408e-12,8.170703797181041e-13,4.0971344226952083e-13,2.2572312436591997e-13,1.2993923816245529e-13,7.6578036572087e-14
0.0,63,63.0,0.0,30.0,0.0,0.0,0.0,0.0,-13.0,0.0,2.0,0.0,0.0,0.0,5.168649332078708e-11,2.2402214018179068e-11,9.869262301490012e-12,4.469571419676301e-12,2.1138388654654138e-12,1.0286429645109555e-12,5.599583129755811e-13,3.169391524099718e-13,1.8994162688135877e-13,1.1573763371513115e-13,7.612918011648909e-14,4.961223888276138e-14,3.1237718081183306e-14,2.033441409472244e-14,1.158510003256729e-14,7.305893406865335e-15,3.945815139138381e-15,8.222607613428913e-09,6.467555803686055e-09,4.693350596005291e-09,3.052447761440866e-09,1.8802467591091666e-09,1.109233066584145e-09,6.517623596530588e-10,3.674027584345419e-10,2.0049937841361478e-10,1.0591593710709568e-10,5.426801408607496e-11,2.7507794728576015e-11,1.3643761318195843e-11,6.593461820577641e-12,3.2439183107317536e-12,1.5655595201894808e-12,7.980905806643709e-13,3.995535125137845e-13,2.2029903156940526e-13,1.2691918087649585e-13,7.46884493642743e-14
