Line_number,Fiducial,Easting,Northing,Height,Elevation,tx_pitch,tx_roll,tx_yaw,txrx_dx,txrx_dy,txrx_dz,rx_pitch,rx_roll,rx_yaw,S0Z_time_1.431e-04,S0Z_time_1.801e-04,S0Z_time_2.266e-04,S0Z_time_2.846e-04,S0Z_time_3.581e-04,S0Z_time_4.506e-04,S0Z_time_5.671e-04,S0Z_time_7.136e-04,S0Z_time_8.981e-04,S0Z_time_1.131e-03,S0Z_time_1.423e-03,S0Z_time_1.791e-03,S0Z_time_2.255e-03,S0Z_time_2.838e-03,S0Z_time_3.573e-03,S0Z_time_4.498e-03,S0Z_time_5.662e-03,S1Z_time_1.409e-05,S1Z_time_1.610e-05,S1Z_time_1.909e-05,S1Z_time_2.360e-05,S1Z_time_2.960e-05,S1Z_time_3.709e-05,S1Z_time_4.609e-05,S1Z_time_5.759e-05,S1Z_time_7.209e-05,S1Z_time_9.060e-05,S1Z_time_1.141e-04,S1Z_time_1.431e-04,S1Z_time_1.801e-04,S1Z_time_2.266e-04,S1Z_time_2.846e-04,S1Z_time_3.581e-04,S1Z_time_4.506e-04,S1Z_time_5.671e-04,S1Z_time_7.136e-04,S1Z_time_8.981e-04,S1Z_time_1.131e-03
0.0,0,0.0,0.0,30.0,0.0,0.0,0.0,0.0,-13.0,0.0,2.0,0.0,0.0,0.0,2.005448795881056e-11,1.623839469227364e-11,1.3256591305370103e-11,1.0863805256596781e-11,8.84608643056981e-12,7.41998252475331e-12,6.065795825348913e-12,4.689435258869384e-12,3.587748786747625e-12,2.8840770385236532e-12,2.1667640211760945e-12,1.5574709237266897e-12,1.1857919465344614e-12,8.416168503824663e-13,6.018831270696027e-13,4.167461527204008e-13,2.7580449428223975e-13,1.6336114042671108e-10,1.1634242357612776e-10,8.440855852582709e-11,6.460223777893335e-11,5.581400126671868e-11,4.0957129395951685e-11,3.421287485204354e-11,2.8650570262351245e-11,2.5487094077886503e-11,2.0073409380981384e-11,1.7112662599409505e-11,1.332947218494918e-11,1.0991311319269003e-11,8.432576626183963e-12,7.266030147214432e-12,5.647666804746055e-12,4.21062739589366e-12,3.2669371201990746e-12,2.5062906394398353e-12,1.6739715435396587e-12,1.2279450708072059e-12
0.0,1,1.0,0.0,30.0,0.0,0.0,0.0,0.0,-13.0,0.0,2.0,0.0,0.0,0.0,1.8482891374678866e-11,1.4843981274450793e-11,1.2059986139642928e-11,9.510907189576876e-12,7.832794660197631e-12,6.278421515405373e-12,5.658637019826577e-12,4.200338354505092e-12,3.2460357958914082e-12,2.3293491945462846e-12,1.9286448147150036e-12,1.4331983473167166e-12,1.0568075278571848e-12,8.064292214078949e-13,5.71603749552366e-13,3.819123903217329e-13,2.570488305059129e-13,2.1071476744694691e-10,1.552799774543905e-10,1.0635963051856508e-10,6.703825696784336e-11,5.08828553111472e-11,3.965822831077654e-11,3.2803344272749556e-11,2.758632096503094e-11,2.1796894690572072e-11,1.873006588258085e-11,1.5538083039543053e-11,1.2157104269608604e-11,9.506078260503943e-12,8.091710515610824e-12,6.08460507240226e-12,4.646077149623341e-12,3.740344959391237e-12,2.8391066798905055e-12,2.0800911260940745e-12,1.4576149141325852e-12,1.0360096778174502e-12
0.0,2,2.0,0.0,30.0,0.0,0.0,0.0,0.0,-13.0,0.0,2.0,0.0,0.0,0.0,1.5669658691139334e-11,1.3681446557550424e-11,1.0870711442477824e-11,8.349626968115016e-12,6.805372511882786e-12,5.804579692607099e-12,4.509304492724773e-12,3.5965089684138363e-12,2.8577023071643655e-12,2.3612132971080353e-12,1.902080116901604e-12,1.3677602762515396e-12,9.753504822058518e-13,7.174062630000153e-13,5.259159430730892e-13,3.285449458583674e-13,2.3446611994956657e-13,2.857680293995457e-10,2.0090945218393809e-10,1.3149019222349062e-10,7.91868179783312e-11,5.0110032049103155e-11,3.9145578778020165e-11,3.1016025038106304e-11,2.3084707952187312e-11,2.026546078052753e-11,1.6303171268946554e-11,1.3060322320357333e-11,1.0550179033175554e-11,9.261462589068847e-12,7.14392415385719e-12,5.651637648682158e-12,4.2216101058609445e-12,3.3775005496397746e-12,2.6351024021491183e-12,1.87408102418109e-12,1.3437313588601502e-12,9.885102370710775e-13
0.0,3,3.0,0.0,30.0,0.0,0.0,0.0,0.0,-13.0,0.0,2.0,0.0,0.0,0.0,1.493685834241699e-11,1.1973549350035093e-11,9.733338703162243e-12,7.700430645029211e-12,6.016342031909892e-12,5.0773705968278255e-12,4.320911842250844e-12,3.2521272137204818e-12,2.8299805134736056e-12,2.067140546217074e-12,1.6367352547643703e-12,1.18820243519644e-12,8.678921467797425e-13,6.620515217819405e-13,4.809499710448181e-13,3.25291349097271e-13,2.282219598457784e-13,3.739237627433178e-10,2.708935586568962e-10,1.6732843226534256e-10,9.464456905707576e-11,5.75523107897083e-11,3.813921684118956e-11,2.7986330215323876e-11,2.3498493602970124e-11,1.7843424574608744e-11,1.4545526816327116e-11,1.1756102408648545e-11,9.80890763468261e-12,7.484151264790599e-12,6.4459054289557685e-12,5.097549936876678e-12,4.084329989150469e-12,3.0043751350628418e-12,2.0931825744423216e-12,1.7389882729491107e-12,1.232316284972753e-12,8.503291231688474e-13
0.0,4,4.0,0.0,30.0,0.0,0.0,0.0,0.0,-13.0,0.0,2.0,0.0,0.0,0.0,1.2617233573665208e-11,1.1035012377053803e-11,8.789688654185833e-12,6.969819686199063e-12,6.219607931124899e-12,4.623750446490352e-12,3.818666485246003e-12,3.0582045927494253e-12,2.50232856085539e-12,1.9279606984602528e-12,1.431467092132532e-12,1.0591524855286533e-12,8.397197867456372e-13,5.96086180182035e-13,4.29500035710083e-13,2.9007738758278654e-13,1.9351676479766885e-13,4.316928594583527e-10,3.187885797605448e-10,2.0980442281148126e-10,1.1672395098534724e-10,6.970184839796936e-11,4.251970472357862e-11,2.8153564371376317e-11,2.0716232043177875e-11,1.6615209687422083e-11,1.3151220032633363e-11,1.0688085836291631e-11,9.29428148383681e-12,6.9233986403211405e-12,5.8678974445155545e-12,4.539020091590424e-12,3.549912206318013e-12,2.6159902096142295e-12,2.079725125239148e-12,1.5256111764278184e-12,1.0584259258443584e-12,7.295828708194168e-13
0.0,5,5.0,0.0,30.0,0.0,0.0,0.0,0.0,-13.0,0.0,2.0,0.0,0.0,0.0,1.2277467879113605e-11,9.67719778180637e-12,7.900757053048122e-12,6.465191251125756e-12,5.332329932971037e-12,4.094049540672839e-12,3.5326717652759248e-12,2.6329291352137864e-12,2.2161305349053894e-12,1.6874597850902771e-12,1.3061325590107796e-12,9.804143858110195e-13,7.773917756074898e-13,5.448260267264389e-13,3.9383125669345243e-13,2.6891988286921944e-13,1.8672455018895522e-13,5.159586848663972e-10,3.8873555581775783e-10,2.5447295651005443e-10,1.4912759121957348e-10,8.536420312613966e-11,4.404413310328199e-11,2.8885824206853476e-11,2.0332413067088283e-11,1.5312192786735337e-11,1.2594771345904278e-11,9.657899361242901e-12,8.150713184323697e-12,6.422631014245852e-12,5.274407730292973e-12,4.0459633897511694e-12,3.2474096483466093e-12,2.4844022496617282e-12,1.801484186295014e-12,1.4169166077274674e-12,1.0007033180820485e-12,7.084164256583444e-13
0.0,6,6.0,0.0,30.0,0.0,0.0,0.0,0.0,-13.0,0.0,2.0,0.0,0.0,0.0,1.0632813847726477e-11,8.736858523368304e-12,7.464898753673092e-12,5.934801549771629e-12,4.55190965240934e-12,3.7885725173114036e-12,3.133765722234657e-12,2.5379711765868517e-12,1.9901738229119376e-12,1.5052710383837834e-12,1.1762818401910812e-12,9.259320129568824e-13,6.905508580154552e-13,5.130680437050822e-13,3.622972360240933e-13,2.6433803765462016e-13,1.7485808123197525e-13,5.797982004627046e-10,4.2341513574796205e-10,2.8976645919122196e-10,1.7243421828707359e-10,1.0080073067357819e-10,5.171566493397441e-11,3.2527970212117376e-11,2.1206663508561655e-11,1.5276338595688105e-11,1.1850340154120197e-11,9.225215411384253e-12,7.349911017443492e-12,6.223517850870308e-12,4.8228788249983895e-12,3.671504662398902e-12,2.9936424942070942e-12,2.2132875695611525e-12,1.6207570790203621e-12,1.2582011965949406e-12,8.936520583005003e-13,6.480866936391831e-13
0.0,7,7.0,0.0,30.0,0.0,0.0,0.0,0.0,-13.0,0.0,2.0,0.0,0.0,0.0,1.0647565376867382e-11,8.33202037827689e-12,6.757624138585475e-12,5.156536322607509e-12,4.5397142030320235e-12,3.4342429403012134e-12,2.9554993634512283e-12,2.271764343678669e-12,1.877625017832705e-12,1.409295538073895e-12,1.096187522091441e-12,8.762837107859799e-13,6.695646430518888e-13,4.575300943132212e-13,3.32908127276295e-13,2.217323508752203e-13,1.6771814337991499e-13,6.138812747832626e-10,4.807163751125304e-10,3.3391881970963204e-10,2.131264839937491e-10,1.1847782164017756e-10,6.461353605431463e-11,3.750168392819679e-11,2.1160144183370555e-11,1.5439679767169812e-11,1.1639590078194461e-11,9.213838460218444e-12,6.693592874087723e-12,5.704555101639847e-12,4.1734288078604046e-12,3.3397200296703823e-12,2.6119829814888672e-12,2.006753294166803e-12,1.5391741369874045e-12,1.0814154229721827e-12,8.602942367449131e-13,6.068974831286625e-13
0.0,8,8.0,0.0,30.0,0.0,0.0,0.0,0.0,-13.0,0.0,2.0,0.0,0.0,0.0,9.348801665311813e-12,7.679639736863272e-12,5.866936660345458e-12,4.935720492083951e-12,3.876041839922381e-12,3.2947385999791615e-12,2.4901509302362556e-12,2.047763268419773e-12,1.762231573876377e-12,1.2341294303648063e-12,1.0040638538518684e-12,7.290640719886058e-13,6.208336411838759e-13,4.4758376818674165e-13,3.241159511095302e-13,2.22479302463661e-13,1.420817797162087e-13,6.814395662187911e-10,5.212099886007717e-10,3.678591092216856e-10,2.403260798355457e-10,1.3329674309308758e-10,7.501848871874413e-11,4.0962858104707283e-11,2.3777004076595917e-11,1.4628736714277548e-11,1.0612615822554923e-11,7.842115711714059e-12,6.680737156241184e-12,5.066971216549099e-12,3.772529577116101e-12,3.0758948759671903e-12,2.4525638816272443e-12,1.9231774091185414e-12,1.3009608511972664e-12,1.057915321900466e-12,7.523040673303178e-13,5.538750314861085e-13
0.0,9,9.0,0.0,30.0,0.0,0.0,0.0,0.0,-13.0,0.0,2.0,0.0,0.0,0.0,9.537336612866435e-12,6.976809863718066e-12,5.354271560858389e-12,4.742627645558669e-12,3.6059163786166606e-12,3.0505197724713445e-12,2.3756268353584935e-12,1.8640321811315863e-12,1.4919062663517588e-12,1.196345309834367e-12,8.950065426872629e-13,7.218048856583451e-13,5.518890875382956e-13,3.880705008624597e-13,2.835188551256346e-13,2.028045606507708e-13,1.382065547854573e-13,6.754288575921435e-10,5.640393330468794e-10,4.0224771146191664e-10,2.6490921897022834e-10,1.6061774567483692e-10,8.31097037306657e-11,4.6370066216925146e-11,2.7223187238047312e-11,1.590553005295369e-11,1.0452054518842068e-11,7.743084327023668e-12,5.833140805532935e-12,4.680066124788821e-12,3.784720267106728e-12,2.8080100725341487e-12,2.054402605479103e-12,1.7428294575570648e-12,1.305170444548699e-12,9.20749268830067e-13,6.6828004952582e-13,4.66791499577145e-13
0.0,10,10.0,0.0,30.0,0.0,0.0,0.0,0.0,-13.0,0.0,2.0,0.0,0.0,0.0,8.780205306791636e-12,6.406940217828568e-12,5.026306063193159e-12,4.325638544444257e-12,3.355211943799195e-12,2.7966226626367657e-12,2.110179689653323e-12,1.7233577487072295e-12,1.3142126795450106e-12,1.1186709680332406e-12,8.607498818375297e-13,6.911921818154071e-13,5.162762368447242e-13,4.0116188786898103e-13,2.7219616982436837e-13,1.8299290149255764e-13,1.3318110761461413e-13,7.295906653947421e-10,5.987763649404897e-10,3.9774214487101437e-10,2.884789765958356e-10,1.825823818477098e-10,9.810870014353738e-11,5.5981417658936684e-11,3.0754911081261424e-11,1.7294584018360507e-11,1.0861848557285956e-11,7.678192590300955e-12,5.905461433896655e-12,4.157134281848758e-12,3.2098847865279606e-12,2.579940376484753e-12,1.950605832531645e-12,1.638163314204796e-12,1.1925588455915382e-12,8.210636556709293e-13,6.063868291226513e-13,4.2920226426604593e-13
0.0,11,11.0,0.0,30.0,0.0,0.0,0.0,0.0,-13.0,0.0,2.0,0.0,0.0,0.0,8.264867987877154e-12,6.111473334044328e-12,5.096032374700105e-12,3.984166856782446e-12,3.1811011913908433e-12,2.4011128705820955e-12,2.0945819792174697e-12,1.5959839738994401e-12,1.2392335551048007e-12,1.0387677226099579e-12,8.228590968391974e-13,5.78085899035011e-13,4.471199597615984e-13,3.51448084818302e-13,2.467095997104765e-13,1.8666263988196587e-13,1.2388082351854706e-13,7.443236923500461e-10,5.731357420556468e-10,4.612306105477974e-10,2.991843988205766e-10,1.8488710508457257e-10,1.1210317660160942e-10,6.182551816669654e-11,3.506949447853627e-11,1.8271026944896294e-11,1.120004165564017e-11,7.2586142522920116e-12,5.319216848460518e-12,4.014573511268327e-12,3.1080975835543383e-12,2.5491950182242086e-12,1.907583041680028e-12,1.3465052408802018e-12,9.813704489419546e-13,7.564280413299821e-13,5.556398787122501e-13,3.9365753395302747e-13
0.0,12,12.0,0.0,30.0,0.0,0.0,0.0,0.0,-13.0,0.0,2.0,0.0,0.0,0.0,8.704112340542516e-12,5.659333665956724e-12,4.40095077712573e-12,3.426589120709165e-12,2.785870273510046e-12,2.189021967740749e-12,1.909262336361314e-12,1.5741033269996132e-12,1.1732110998894634e-12,9.590783965699452e-13,7.095373024293344e-13,5.677632739765124e-13,4.231193071311892e-13,3.196613739144369e-13,2.426920800262879e-13,1.61180241207654e-13,1.1141609578455055e-13,7.691572067730193e-10,5.968485160568501e-10,4.543623221801763e-10,3.253509114010424e-10,2.1323554096563893e-10,1.2303621406030004e-10,7.205021724655032e-11,3.991982985183164e-11,2.0294951254187843e-11,1.0942233227545064e-11,7.039409398540269e-12,5.007669747370416e-12,3.748537172623181e-12,3.0838474534400594e-12,2.2168153245812394e-12,1.7245489392153502e-12,1.266151575428818e-12,9.890692276874382e-13,7.013464242220909e-13,5.111826318358606e-13,3.8412959550934023e-13
0.0,13,13.0,0.0,30.0,0.0,0.0,0.0,0.0,-13.0,0.0,2.0,0.0,0.0,0.0,8.959364130902067e-12,5.7485074890198574e-12,4.165819444829924e-12,3.359249634612187e-12,2.72382239674024e-12,2.1267929624337433e-12,1.7813723285379684e-12,1.401568615568453e-12,1.116335259601557e-12,8.692373886634945e-13,6.970881496559417e-13,5.499350760090543e-13,3.902274439534062e-13,3.1121598510093385e-13,2.1773980019553565e-13,1.512575943174851e-13,1.1464893912173759e-13,7.819393480859532e-10,6.256451068867677e-10,4.636017439699151e-10,3.174642638540192e-10,2.173080477588287e-10,1.3006088041689048e-10,7.971841563194565e-11,4.4008448451047165e-11,2.320632725528225e-11,1.2957901291143522e-11,7.334515713179278e-12,5.044655059870005e-12,3.4515473122576404e-12,2.6864067514299253e-12,2.0631011601582135e-12,1.5542743519147653e-12,1.268756612679108e-12,8.900548638485413e-13,6.870950484489973e-13,4.576116332079959e-13,3.6264543227983165e-13
0.0,14,14.0,0.0,30.0,0.0,0.0,0.0,0.0,-13.0,0.0,2.0,0.0,0.0,0.0,8.342909956918967e-12,5.315075060638016e-12,4.093616738987039e-12,3.078462570255026e-12,2.677614305019238e-12,2.0397887740248912e-12,1.5528152935642155e-12,1.231956439921852e-12,1.068942587367359e-12,7.961725922111021e-13,6.489591017719624e-13,4.779897894486041e-13,3.7713763626621755e-13,2.7984915558228196e-13,2.0485510397204372e-13,1.4585383796780842e-13,1.0399328210911772e-13,7.741729344650393e-10,6.44044383292366e-10,4.805531527017787e-10,3.4271879657927565e-10,2.3635967206903775e-10,1.5137037034116e-10,8.871353560570644e-11,4.619044967119644e-11,2.5522349818904704e-11,1.4000117039127302e-11,7.870867694001552e-12,4.993125961266768e-12,3.5039319904398245e-12,2.753399418453326e-12,1.8897983791365854e-12,1.4735060886991183e-12,1.1175695583746471e-12,8.247646847296905e-13,6.163143948368351e-13,4.402805585458453e-13,3.2048282881512155e-13
0.0,15,15.0,0.0,30.0,0.0,0.0,0.0,0.0,-13.0,0.0,2.0,0.0,0.0,0.0,8.801748444646376e-12,5.25526398969127e-12,3.5130879812607862e-12,2.982623558953957e-12,2.36436241660029e-12,1.8313421237370093e-12,1.475743058177256e-12,1.1580900114376793e-12,9.882654361440926e-13,7.852384907118183e-13,5.922978807304554e-13,4.590660407592707e-13,3.3377471329351874e-13,2.4950178433411345e-13,1.9570894033302791e-13,1.3733532315665633e-13,9.926656062356712e-14,7.75763229918919e-10,6.267590769346135e-10,4.597932387111783e-10,3.5489591256244787e-10,2.347979708850598e-10,1.5576708770545083e-10,9.536047004357695e-11,5.353853997947477e-11,2.8879131045371326e-11,1.519229717514024e-11,8.426644232895548e-12,4.975727971062821e-12,3.4223143321710984e-12,2.303262042683651e-12,1.7075667824654154e-12,1.404477427140055e-12,1.062064144118998e-12,7.722208818390524e-13,5.812921679794941e-13,4.001365457879731e-13,2.8298507106083443e-13
0.0,16,16.0,0.0,30.0,0.0,0.0,0.0,0.0,-13.0,0.0,2.0,0.0,0.0,0.0,9.177216356238662e-12,5.229324354981576e-12,3.5049859314351817e-12,2.7497310609155946e-12,2.145822848924254e-12,1.7493399470013912e-12,1.4148267241022145e-12,1.1253243336344836e-12,8.495217408552099e-13,6.992288470043569e-13,5.556630684614957e-13,4.210225253898874e-13,3.169638538398621e-13,2.2925399457125564e-13,1.8337871097617e-13,1.2764177853589166e-13,9.17181120515684e-14,7.455546843636954e-10,6.661594767208617e-10,5.135526720710276e-10,3.5012935602054404e-10,2.548287065106637e-10,1.6508140088096635e-10,9.488651414720259e-11,5.695094934585914e-11,3.2041111120956244e-11,1.731098881821279e-11,8.62372134607396e-12,5.121035380245893e-12,3.2350443554931404e-12,2.2890021018881492e-12,1.6327577112414571e-12,1.271664360529068e-12,1.0043800939947833e-12,7.314368416459154e-13,5.157283169605006e-13,3.8730953342270047e-13,2.6740236323299173e-13
0.0,17,17.0,0.0,30.0,0.0,0.0,0.0,0.0,-13.0,0.0,2.0,0.0,0.0,0.0,1.0469414434835605e-11,5.6637926335518366e-12,3.3715026714872966e-12,2.5949792425278767e-12,2.011768904389264e-12,1.6275012186731772e-12,1.3056499133611743e-12,9.865889906477516e-13,8.229931506988504e-13,6.634065889874132e-13,4.999131385679861e-13,3.9154037979718714e-13,2.941039390524427e-13,2.2571140535619465e-13,1.6528630663846902e-13,1.205294963966254e-13,8.249308653635529e-14,8.256199982200021e-10,6.935707876490552e-10,4.942651220166274e-10,3.806186835386398e-10,2.597149421228883e-10,1.702099400042214e-10,1.027125292461641e-10,6.407150488643153e-11,3.644196064449552e-11,1.903452640761964e-11,1.0006473332213694e-11,5.255115001674246e-12,3.212913085099663e-12,2.230037603979043e-12,1.6602710628432803e-12,1.1563757044438036e-12,9.057267771440036e-13,6.993100970466721e-13,4.971992771773733e-13,3.577211172264337e-13,2.562754845829354e-13
0.0,18,18.0,0.0,30.0,0.0,0.0,0.0,0.0,-13.0,0.0,2.0,0.0,0.0,0.0,1.0814963798082536e-11,5.437897668893934e-12,3.497131694280169e-12,2.3361192422503697e-12,1.837151827822813e-12,1.521758197476436e-12,1.222394284358073e-12,9.27791138731397e-13,7.765017266705845e-13,6.005890353999253e-13,4.854920474344384e-13,3.612671373934344e-13,2.7606113881872834e-13,2.2178539089257884e-13,1.5477399745631566e-13,1.107111673335158e-13,7.85254194392161e-14,7.872674436004864e-10,6.678936401295579e-10,4.957084042513098e-10,3.8313145431474023e-10,2.6829590856510574e-10,1.702801833405366e-10,1.127905776806058e-10,6.502940349104466e-11,3.6172624226059717e-11,1.973541075310069e-11,1.0490142309039396e-11,5.744914959488115e-12,3.281308062553791e-12,2.1002251235334026e-12,1.564029399597569e-12,1.1035460239949976e-12,8.355677409804937e-13,6.361208620827324e-13,4.4158013431849555e-13,3.461789293650262e-13,2.576993225309814e-13
0.0,19,19.0,0.0,30.0,0.0,0.0,0.0,0.0,-13.0,0.0,2.0,0.0,0.0,0.0,1.129344502701765e-11,6.175329612097911e-12,3.4128976651715724e-12,2.303117388839957e-12,1.696677116241524e-12,1.3495902571486231e-12,1.1036161717854888e-12,9.177558330692213e-13,7.290218221335869e-13,5.753994254542074e-13,4.401502784448728e-13,3.4476465801926865e-13,2.6583809525381185e-13,2.0268047243582805e-13,1.4044561850085182e-13,1.0363827767015774e-13,7.446207983490879e-14,8.17012404635625e-10,7.034307187399334e-10,5.265743435621515e-10,3.6721347808230816e-10,2.7993714536425205e-10,1.7696595765725693e-10,1.227989680267857e-10,6.53368765764565e-11,3.7661920622583265e-11,2.2081511795816902e-11,1.0603488261052328e-11,6.1543277098910356e-12,3.2427639582161323e-12,2.182046029076267e-12,1.4780315994487308e-12,1.0657713488235914e-12,8.038932632523232e-13,5.861188736993777e-13,4.460442006608567e-13,3.074731495182859e-13,2.240841328021114e-13
0.0,20,20.0,0.0,30.0,0.0,0.0,0.0,0.0,-13.0,0.0,2.0,0.0,0.0,0.0,1.2337359560835157e-11,5.742965294235414e-12,3.1675426817281045e-12,2.293688325708536e-12,1.7007356927220512e-12,1.3306742046758582e-12,1.0277736207721065e-12,7.945128196355571e-13,6.645661952361415e-13,5.34491242752353e-13,4.26923492357631e-13,3.090673953345752e-13,2.5396065581255155e-13,1.8333979400828383e-13,1.4432638545311864e-13,9.545469114474682e-14,7.44056018182699e-14,8.631086877035606e-10,7.279518572027847e-10,5.26896574078358e-10,3.970067805389953e-10,2.7558224042544706e-10,1.8357943686204468e-10,1.2145124761816772e-10,7.652394554920597e-11,4.36141418852479e-11,2.53200331609889e-11,1.2490193624377178e-11,6.355217271234528e-12,3.6976507288242055e-12,2.0621868248103477e-12,1.3772260311650014e-12,9.805511795123984e-13,7.083187813217342e-13,5.573242696327379e-13,3.8905593528041647e-13,3.0698636532548985e-13,2.1079450418012547e-13
0.0,21,21.0,0.0,30.0,0.0,0.0,0.0,0.0,-13.0,0.0,2.0,0.0,0.0,0.0,1.2771583509927031e-11,6.147586013258592e-12,3.529540218592714e-12,2.217383393609684e-12,1.527242904438188e-12,1.1601945228638223e-12,9.381067567356668e-13,7.954477906482046e-13,6.27498528923004e-13,5.093841066520515e-13,3.9068765320157376e-13,3.1207318665097314e-13,2.4353102889795455e-13,1.6816343436010626e-13,1.3506228276630432e-13,8.781936281434824e-14,6.467250204028823e-14,8.547002225166914e-10,7.460717324369425e-10,5.433597843717819e-10,3.8395582170336855e-10,2.7549267805422857e-10,1.8965812018634414e-10,1.2632700985939202e-10,7.694374532969844e-11,4.402767458193246e-11,2.4795374172690868e-11,1.3199228081339317e-11,6.828487535124789e-12,3.660923700728405e-12,2.1294824562245145e-12,1.3322364885733817e-12,9.56725773334971e-13,7.23472546882181e-13,4.881726189273211e-13,3.650223201972971e-13,2.509296436803921e-13,2.1003567529040498e-13
0.0,22,22.0,0.0,30.0,0.0,0.0,0.0,0.0,-13.0,0.0,2.0,0.0,0.0,0.0,1.5159421119769117e-11,6.612126490728267e-12,3.413836038917256e-12,2.1256060140926603e-12,1.5499193191609617e-12,1.1340111765958455e-12,9.042739661862008e-13,7.579193778949095e-13,5.714939099303861e-13,4.650615741916631e-13,3.7609205670452907e-13,2.773177358294547e-13,2.1862722474611373e-13,1.6751852990187192e-13,1.1822449380893432e-13,8.958681248979844e-14,6.212858409529912e-14,8.252586070396913e-10,6.669761793174706e-10,5.490355570770328e-10,3.684200042081022e-10,2.716487030884512e-10,1.8371527707091114e-10,1.2328515341550056e-10,8.213539888975188e-11,4.717682217122078e-11,2.680719606614706e-11,1.4354892925910613e-11,7.475952104835847e-12,3.966779866667738e-12,2.15275151132535e-12,1.3469483701415835e-12,9.11983260370645e-13,6.590610647361591e-13,4.757680413934648e-13,3.5572966202316743e-13,2.6371436513995585e-13,1.7665108638980538e-13
0.0,23,23.0,0.0,30.0,0.0,0.0,0.0,0.0,-13.0,0.0,2.0,0.0,0.0,0.0,1.5867036811870725e-11,6.959985058682396e-12,3.5898556847002507e-12,2.195264519051526e-12,1.4899688641535449e-12,1.1343804272284725e-12,8.902124193337845e-13,6.883020590860865e-13,5.249299214480815e-13,4.435025805258636e-13,3.398160099631853e-13,2.7329362418512886e-13,1.9242121047852482e-13,1.556618588919216e-13,1.1386077889446705e-13,8.399497448146374e-14,6.154822014649361e-14,8.778312157379288e-10,6.960243219783258e-10,5.349594586532021e-10,4.0541451727865703e-10,2.88813480128279e-10,1.90490365812323e-10,1.303190860567058e-10,8.09921772476041e-11,5.3024787996778054e-11,2.785428840848901e-11,1.5087914706276273e-11,7.751761601808593e-12,4.268699775739442e-12,2.237023486919556e-12,1.2814221940600397e-12,8.606693845927633e-13,6.565578805799202e-13,4.654651797334689e-13,3.6382826029749337e-13,2.7188816067335036e-13,1.81084030013188e-13
0.0,24,24.0,0.0,30.0,0.0,0.0,0.0,0.0,-13.0,0.0,2.0,0.0,0.0,0.0,1.611534514155138e-11,7.39451932802597e-12,3.886992769662092e-12,2.0546151356967584e-12,1.3666728246085742e-12,1.1029352838921014e-12,7.852288012591715e-13,6.801768449155583e-13,4.916676689599739e-13,4.3313760895994273e-13,3.2274509562424017e-13,2.6121999138185796e-13,2.064841411145553e-13,1.4854726409486338e-13,1.0566824782050843e-13,7.837335187871406e-14,5.5200883441570174e-14,8.882406136187233e-10,7.404736514441046e-10,5.549404712909659e-10,3.993776984139978e-10,2.8429762812499934e-10,1.972900502470366e-10,1.308917713911235e-10,8.718260375818954e-11,5.074766387030157e-11,3.189168698055631e-11,1.7485057374725576e-11,8.648057266461083e-12,4.24622966603543e-12,2.3300740319603027e-12,1.3657634622523458e-12,8.798596750257828e-13,5.76804711024535e-13,4.563470264542846e-13,3.0714085255781237e-13,2.09520975332561e-13,1.580173706907459e-13
0.0,25,25.0,0.0,30.0,0.0,0.0,0.0,0.0,-13.0,0.0,2.0,0.0,0.0,0.0,1.7181973027266135e-11,8.203502196578977e-12,3.863910980091388e-12,2.030862653894815e-12,1.4241342468018778e-12,9.900863597570168e-13,8.218529677104635e-13,6.097949095313328e-13,4.843829805326332e-13,4.031160171618464e-13,3.0414094812878164e-13,2.429739668991792e-13,1.853243944352235e-13,1.3403240539574945e-13,1.0147488986693235e-13,6.896231956035589e-14,5.469828869330902e-14,9.307393581468131e-10,7.220364633515242e-10,5.895332878624791e-10,3.9406152825331743e-10,3.01428896535485e-10,2.0168698888083085e-10,1.3606828147062432e-10,9.085690980429723e-11,5.4777260684581853e-11,3.362267378990602e-11,1.7412698483204778e-11,9.122609092644163e-12,4.857952785807259e-12,2.4790118815319216e-12,1.3429804834680326e-12,8.353523618450824e-13,5.810581196474407e-13,4.2750024587854674e-13,2.8402496351386254e-13,2.1490696691941225e-13,1.571545591909205e-13
0.0,26,26.0,0.0,30.0,0.0,0.0,0.0,0.0,-13.0,0.0,2.0,0.0,0.0,0.0,1.8075949406217925e-11,8.366696909350468e-12,3.790192433808726e-12,2.1809575657984294e-12,1.3873536469520077e-12,9.633334040442432e-13,7.6754764031053e-13,5.632772054624636e-13,4.73700595404662e-13,3.538712766435992e-13,3.0048193640615275e-13,2.1622531021494062e-13,1.6883152216583173e-13,1.2887464145157688e-13,1.0228132803569931e-13,6.884479984087266e-14,5.09232511192392e-14,8.936994425621067e-10,8.051015923807208e-10,5.755958041514794e-10,4.3386952134499537e-10,3.107150529993726e-10,2.0429070121253166e-10,1.5234530854441482e-10,9.092463822615136e-11,5.604751742121933e-11,3.373084034905315e-11,1.8649374568832457e-11,9.651654757155195e-12,4.9708514769129735e-12,2.490917496008959e-12,1.340653621264783e-12,8.01924605765708e-13,5.359411794610906e-13,4.0511726719971816e-13,2.936187557894358e-13,1.9089887406340762e-13,1.3876888971275467e-13
0.0,27,27.0,0.0,30.0,0.0,0.0,0.0,0.0,-13.0,0.0,2.0,0.0,0.0,0.0,1.9260460242609635e-11,8.621244823433362e-12,4.3117191481600664e-12,2.2676897379954814e-12,1.3078772009550851e-12,9.13502239090354e-13,7.180977700937714e-13,5.423307565496836e-13,4.0787145726681257e-13,3.495746159431138e-13,2.507918496094427e-13,2.1464411775943353e-13,1.500935337087742e-13,1.1988181629467218e-13,9.570666505011903e-14,6.503425888409691e-14,4.757051405753349e-14,9.126196013671281e-10,7.548787537200345e-10,5.875174557549248e-10,4.405452066806112e-10,3.082659643077231e-10,2.0859031167267302e-10,1.4061899756098093e-10,9.405331638920002e-11,6.151865839697345e-11,3.6502239823300796e-11,1.899392635626023e-11,1.1163409882475593e-11,5.4736572234973185e-12,2.604880011123111e-12,1.448370751745882e-12,8.329898274333703e-13,5.395915270553799e-13,3.489115543105782e-13,2.7074932623131786e-13,1.7589872063707474e-13,1.2123781160089784e-13
0.0,28,28.0,0.0,30.0,0.0,0.0,0.0,0.0,-13.0,0.0,2.0,0.0,0.0,0.0,1.9634160497351644e-11,9.768037908886907e-12,4.533213621054061e-12,2.3664213578397698e-12,1.323817213079192e-12,9.256953776966237e-13,6.745013046290119e-13,4.970718993922895e-13,4.183471932145939e-13,3.293457240993085e-13,2.4671183590812824e-13,2.057607719053597e-13,1.5040395499160344e-13,1.1474202571204174e-13,8.936113217186848e-14,6.030880471892378e-14,4.5420803260612226e-14,1.003192897660001e-09,7.895932096025922e-10,5.931702991248257e-10,4.2451645770565104e-10,3.1078825045403874e-10,2.0681876228605794e-10,1.338503332906832e-10,9.874755549748322e-11,5.890455225415446e-11,3.436743578873284e-11,2.0716156773124144e-11,1.0812836183832621e-11,5.87476429980607e-12,2.8822795477482406e-12,1.4213270160830797e-12,8.821224114111737e-13,5.402587177022766e-13,3.693029365031493e-13,2.1695768488404285e-13,1.7918650684895992e-13,1.1153147181140776e-13
0.0,29,29.0,0.0,30.0,0.0,0.0,0.0,0.0,-13.0,0.0,2.0,0.0,0.0,0.0,2.0113025705296606e-11,9.825808908899598e-12,4.508237921459382e-12,2.3791648807673316e-12,1.3545395102314153e-12,8.85151047364021e-13,6.624305186925693e-13,4.726696586611209e-13,4.114834790360801e-13,3.310170637579299e-13,2.3539894138576926e-13,1.898377826449464e-13,1.3708626673423877e-13,1.1446504549503427e-13,7.933210056634653e-14,5.584114283345077e-14,4.270370418704066e-14,9.219756520896119e-10,7.757883165803218e-10,5.723552779656053e-10,4.368545429783699e-10,3.064756536433444e-10,2.133623138252638e-10,1.445075196583818e-10,9.899993818006482e-11,6.271345893426195e-11,3.902513762188519e-11,2.2146106618336023e-11,1.2074399107108582e-11,5.7371586046858665e-12,2.96817010464338e-12,1.4570544466072316e-12,8.570555835395978e-13,5.112152314281506e-13,3.2738110014986413e-13,2.2527814675491761e-13,1.7537780448702656e-13,1.4333471920610572e-13
0.0,30,30.0,0.0,30.0,0.0,0.0,0.0,0.0,-13.0,0.0,2.0,0.0,0.0,0.0,2.1885441749918214e-11,1.0423193721294959e-11,5.197707342452946e-12,2.301843940212489e-12,1.3023271677391644e-12,8.592629375990904e-13,6.259221276380379e-13,4.898884518324967e-13,3.7802033455603036e-13,2.9352050060661877e-13,2.320857441272834e-13,1.7927984256840241e-13,1.3617423476239276e-13,1.0136656750935425e-13,7.489848599340648e-14,5.836268344081032e-14,4.250920727684843e-14,9.43932608104762e-10,7.847128713059145e-10,6.436988893233292e-10,4.504729043100724e-10,3.2729950051333086e-10,2.0782141380147915e-10,1.5237774890824551e-10,9.856422361352155e-11,6.548319852820117e-11,4.0748267067191205e-11,2.2415585257783467e-11,1.1907177680830876e-11,5.878446621814172e-12,3.165680267465887e-12,1.5913899400632194e-12,8.290100832896982e-13,5.027021875017979e-13,3.443308468779869e-13,2.0189752692760433e-13,1.432278898957762e-13,1.0099833950724602e-13
0.0,31,31.0,0.0,30.0,0.0,0.0,0.0,0.0,-13.0,0.0,2.0,0.0,0.0,0.0,2.308578157618639e-11,1.0923153490715485e-11,5.119881236408969e-12,2.5811749962146285e-12,1.3514164303248608e-12,7.828235435528565e-13,5.890540528537511e-13,4.5234812784154495e-13,3.3872595182040723e-13,2.5976021196973317e-13,2.0913902820667454e-13,1.6582850744313304e-13,1.2135617519235692e-13,9.976418673836151e-14,6.951724308894797e-14,5.211949911224242e-14,3.7548724390999675e-14,9.980978910504092e-10,8.184807049296633e-10,6.161649611353193e-10,4.5590915788986067e-10,3.249796931075481e-10,2.2476143412736686e-10,1.4457446794845315e-10,9.961351935556599e-11,6.577750478469362e-11,4.094492829484901e-11,2.3133851689106034e-11,1.2828574369576488e-11,6.661628467418213e-12,3.3292769048269102e-12,1.5818488658378657e-12,8.785600072970901e-13,5.044987067827297e-13,2.972891208851962e-13,2.314909133949386e-13,1.5134591993448823e-13,1.0536753551936689e-13
0.0,32,32.0,0.0,30.0,0.0,0.0,0.0,0.0,-13.0,0.0,2.0,0.0,0.0,0.0,2.3202691384149217e-11,1.1497909564499109e-11,5.681848238395645e-12,2.5024985632653564e-12,1.3714732401710705e-12,8.617010572829115e-13,5.399145065397877e-13,4.3058277505907546e-13,3.3912187596473235e-13,2.5728578464364467e-13,2.0133966406673444e-13,1.5507500558465015e-13,1.2617978939252553e-13,9.467818093790323e-14,6.962156409572277e-14,5.0833883231140086e-14,3.7403157536091106e-14,1.0386282599640675e-09,8.0880079585354e-10,6.076198654088282e-10,4.4735294138659663e-10,3.4024045179142665e-10,2.2857270927445568e-10,1.447413610758799e-10,9.974797766838014e-11,6.864885683090448e-11,4.2811454036158906e-11,2.2792854124730777e-11,1.3237213464708412e-11,7.010355603399058e-12,3.4437338665549405e-12,1.6929061009359673e-12,8.604224727205138e-13,5.035446896033736e-13,3.153576045141531e-13,2.0893030350186344e-13,1.484927496436226e-13,1.0074702685524843e-13
0.0,33,33.0,0.0,30.0,0.0,0.0,0.0,0.0,-13.0,0.0,2.0,0.0,0.0,0.0,2.3180015301499827e-11,1.1699454154609799e-11,5.796356286403463e-12,2.7553944891174994e-12,1.4049073844889127e-12,8.175721615817266e-13,5.325969299346686e-13,4.1801894623135455e-13,3.142127963521186e-13,2.4707388852956693e-13,1.9806426835121835e-13,1.390837562348717e-13,1.1134100369957359e-13,8.233957992451099e-14,6.217842735693485e-14,4.503240530807641e-14,3.180696604332186e-14,1.0309672340901683e-09,8.509513413155887e-10,6.333215612925521e-10,4.498563718789712e-10,3.3965960444411663e-10,2.171481460761398e-10,1.5018318005492453e-10,1.0704811879048203e-10,6.395080069813569e-11,4.445393152422531e-11,2.396159274740939e-11,1.4443271070840044e-11,7.711705803919816e-12,3.7608533318900065e-12,1.905876325485327e-12,9.435363987586729e-13,5.061018659969517e-13,3.045151761527676e-13,2.0119343326499918e-13,1.4351445128408817e-13,9.464753329974549e-14
0.0,34,34.0,0.0,30.0,0.0,0.0,0.0,0.0,-13.0,0.0,2.0,0.0,0.0,0.0,2.4907078981046043e-11,1.2743267938911657e-11,6.008292119960936e-12,2.9495423836266805e-12,1.4298889915718211e-12,8.170733296583068e-13,5.291621518924424e-13,3.9494582000578624e-13,3.009307286928863e-13,2.2540363965039922e-13,1.8912971505109108e-13,1.4485135574027702e-13,1.1217852442932887e-13,8.659350430531357e-14,5.747530571452616e-14,4.6803406875124346e-14,3.15329620032127e-14,9.76703476981027e-10,8.349213404069961e-10,6.665853062370444e-10,4.659808023960866e-10,3.330415743770604e-10,2.140279091083226e-10,1.6141289456247622e-10,1.0963532818655477e-10,7.182113188092036e-11,4.302369898729914e-11,2.5248574341222954e-11,1.455021410241661e-11,7.434826890298244e-12,3.94075308029529e-12,1.9847886210833827e-12,9.868064947073262e-13,5.270133901601407e-13,3.0952725086124933e-13,1.997365810111681e-13,1.3522671976869142e-13,8.20004740731001e-14
0.0,35,35.0,0.0,30.0,0.0,0.0,0.0,0.0,-13.0,0.0,2.0,0.0,0.0,0.0,2.5934372727523105e-11,1.30644326920816e-11,6.1579926973479564e-12,2.859278964887887e-12,1.4387258226735914e-12,8.33111764606535e-13,5.198391606940633e-13,3.8501836140724844e-13,2.98970630847477e-13,2.2320887081592197e-13,1.7324174400000761e-13,1.3135975999249098e-13,1.0820757517407159e-13,8.302577047726636e-14,5.969157072292091e-14,4.3176195335442365e-14,3.178504888270744e-14,1.0622744561180105e-09,8.109003797104592e-10,6.735850852572272e-10,5.06312143650605e-10,3.4036866920824076e-10,2.3059007865181058e-10,1.5641313335270182e-10,1.0781484216085909e-10,7.022483471445996e-11,4.437264156191952e-11,2.6551095400936375e-11,1.5156296452393423e-11,8.08038095130901e-12,4.303291628143297e-12,2.075396057013869e-12,1.0391140134026878e-12,5.011049626925653e-13,2.848082222747462e-13,2.0479629113845013e-13,1.2043344153390046e-13,1.0373500914671599e-13
0.0,36,36.0,0.0,30.0,0.0,0.0,0.0,0.0,-13.0,0.0,2.0,0.0,0.0,0.0,2.5055621280967616e-11,1.3039704499008186e-11,6.5382396110728045e-12,3.201239707720688e-12,1.5769129327619533e-12,8.467416059070072e-13,5.185597908243647e-13,3.640924092700083e-13,2.788545606357638e-13,2.0818155633797553e-13,1.705835670417806e-13,1.2322816129366749e-13,9.584571063581049e-14,7.472175962130311e-14,5.71665697301288e-14,4.1516768913494426e-14,3.1219914630874685e-14,1.0426484389256863e-09,8.570320275939778e-10,6.912520669636061e-10,5.092850104016755e-10,3.1411624460646264e-10,2.2954240644010834e-10,1.632712935099713e-10,1.0606672599471354e-10,7.076791600497175e-11,4.463231181427984e-11,2.725876129834389e-11,1.605545741136516e-11,8.405170569588647e-12,4.2147995645875594e-12,2.2697528852732784e-12,1.0678200018578077e-12,5.107591222372784e-13,2.763885552296424e-13,1.9014634443338224e-13,1.44548004375154e-13,9.26697784215561e-14
0.0,37,37.0,0.0,30.0,0.0,0.0,0.0,0.0,-13.0,0.0,2.0,0.0,0.0,0.0,2.7730778434005932e-11,1.3284108722393256e-11,6.707334255224284e-12,3.3134953348278606e-12,1.5770652844998011e-12,8.308518996706659e-13,5.398798342553959e-13,3.4815694012911073e-13,2.6836984704613744e-13,1.973697265558694e-13,1.5525787835861425e-13,1.2153303749122037e-13,9.512817488410956e-14,7.266597484346149e-14,5.406741341360249e-14,3.893102411151956e-14,2.7449314195793146e-14,1.0605676290043913e-09,8.751070443895111e-10,6.702712268363354e-10,4.758253934677485e-10,3.596764488095469e-10,2.3888387958639633e-10,1.66529517875713e-10,1.0867498203174376e-10,6.776125019735767e-11,4.654541414499245e-11,2.7971696047117304e-11,1.6491115669758112e-11,8.964938440817287e-12,4.727703723879684e-12,2.225800947843278e-12,1.11168847489528e-12,5.475308058417131e-13,3.0134006769604507e-13,1.8700658513630404e-13,1.356430389697427e-13,6.188997510548218e-14
0.0,38,38.0,0.0,30.0,0.0,0.0,0.0,0.0,-13.0,0.0,2.0,0.0,0.0,0.0,2.759113954351682e-11,1.396362305079177e-11,7.368889438711852e-12,3.313312178731317e-12,1.6320929062131303e-12,8.7507970274942e-13,4.891572593331907e-13,3.423430937296198e-13,2.5630183484766256e-13,1.867102354156026e-13,1.4840799861635153e-13,1.1505765938515596e-13,8.644974201401583e-14,6.88738135862233e-14,5.024749930656945e-14,3.7532376722636903e-14,2.464940276480689e-14,1.0679572880768491e-09,9.125709524210241e-10,7.083815084362515e-10,5.075743538387019e-10,3.472339160150798e-10,2.4142699000239246e-10,1.6733572059919032e-10,1.0540594270660261e-10,7.012305594122108e-11,4.701048410908359e-11,2.8463053615865375e-11,1.6319913943461062e-11,9.561396231860529e-12,4.603625780221612e-12,2.3919369596182686e-12,1.1644202214895763e-12,5.694978338088219e-13,3.1473572101643154e-13,1.927351500013159e-13,1.0183677951613813e-13,8.583514766901153e-14
0.0,39,39.0,0.0,30.0,0.0,0.0,0.0,0.0,-13.0,0.0,2.0,0.0,0.0,0.0,2.6731271623176643e-11,1.432031214464501e-11,7.122045174542221e-12,3.386888375238223e-12,1.6928230431528541e-12,8.966923301474455e-13,5.103750778722597e-13,3.3763497579012287e-13,2.347220097565388e-13,1.7102778737935047e-13,1.441638601896329e-13,1.153688624487689e-13,8.853971167192375e-14,6.376115401011292e-14,4.958616796239642e-14,3.6492467815987574e-14,2.5766742615868824e-14,1.065320117249468e-09,9.15652606220473e-10,6.849469418834727e-10,4.870660743720127e-10,3.4918841319197946e-10,2.321655145239713e-10,1.639979918366741e-10,1.0681099126597061e-10,7.261602900662795e-11,4.657841584475215e-11,2.8264253367742632e-11,1.7662783254250622e-11,9.433506688198868e-12,4.950773345888442e-12,2.470565374030813e-12,1.1938723246887593e-12,5.969846140170671e-13,3.124340622355296e-13,1.776900930355115e-13,9.80889438657741e-14,8.642613826972919e-14
0.0,40,40.0,0.0,30.0,0.0,0.0,0.0,0.0,-13.0,0.0,2.0,0.0,0.0,0.0,2.718777808924769e-11,1.5564874047350256e-11,7.628669135989371e-12,3.753618626900163e-12,1.7818886750414926e-12,8.920289253710312e-13,5.105394270326699e-13,3.232792730817355e-13,2.3383862849765346e-13,1.672818516071201e-13,1.383936345195732e-13,1.0116996056235907e-13,7.851772762568456e-14,6.149403424131283e-14,4.489221517412601e-14,3.139669207984759e-14,2.4643617385968558e-14,1.1395423349199783e-09,9.311659889599701e-10,6.845530523382965e-10,4.780706482746817e-10,3.440666130183055e-10,2.4523430604285616e-10,1.6706148076591322e-10,1.0991165092433959e-10,7.162842620236048e-11,4.625107201205534e-11,2.9485063510897546e-11,1.700622110036771e-11,1.0177586419846835e-11,5.180795823538998e-12,2.6931648062862634e-12,1.309149872333047e-12,6.050268390845922e-13,3.0142794711238764e-13,1.9013861073038786e-13,8.670007788562485e-14,5.380061762185118e-14
0.0,41,41.0,0.0,30.0,0.0,0.0,0.0,0.0,-13.0,0.0,2.0,0.0,0.0,0.0,2.9006047181320256e-11,1.4348251896492402e-11,7.549842127853496e-12,3.9044467872148345e-12,1.893146030217117e-12,9.051916116680074e-13,5.094581127455122e-13,3.119168325246809e-13,2.2476493559921346e-13,1.694414770456287e-13,1.3186433569750987e-13,9.851810427867057e-14,7.801339504120074e-14,6.110481353882288e-14,4.432336565029493e-14,3.208136213185099e-14,2.4531870153185272e-14,1.2110702883191412e-09,9.156834056735407e-10,6.948553881994295e-10,5.252080315356444e-10,3.5950760161410063e-10,2.5334658137783834e-10,1.5989298613173413e-10,1.114965033464926e-10,7.33679434979532e-11,4.857000292934567e-11,3.060685219043887e-11,1.8148117210354232e-11,9.41620671189275e-12,5.4924614920023e-12,2.6589572666999755e-12,1.3392862517099587e-12,6.036890800087785e-13,3.11880905616653e-13,1.8882977921611044e-13,1.186991394691467e-13,6.141618518379346e-14
0.0,42,42.0,0.0,30.0,0.0,0.0,0.0,0.0,-13.0,0.0,2.0,0.0,0.0,0.0,2.7542420476405734e-11,1.5866051049816074e-11,7.97142412810109e-12,4.179187346957125e-12,1.887975685164398e-12,9.40868046966015e-13,5.297014452659276e-13,2.987243517537315e-13,2.2809701514059245e-13,1.6090441392833955e-13,1.2964905420272391e-13,9.463029018900227e-14,7.306742291756452e-14,5.66720891593995e-14,4.291559033636099e-14,2.822752420355774e-14,2.2765960175813006e-14,1.164557404803372e-09,9.479588489269074e-10,7.309241047494733e-10,5.023489968270069e-10,3.606143281796422e-10,2.3612369029041443e-10,1.618280671702042e-10,1.1418109705042464e-10,7.455171014392715e-11,5.1989967115054755e-11,3.2189547539906154e-11,1.780504825703535e-11,1.0331971698815908e-11,5.774582294853075e-12,2.8484328025726907e-12,1.3742804513751511e-12,6.81239708106198e-13,3.051666127536787e-13,1.5406317372619786e-13,1.0445342643807203e-13,7.060159123226861e-14
0.0,43,43.0,0.0,30.0,0.0,0.0,0.0,0.0,-13.0,0.0,2.0,0.0,0.0,0.0,3.06756106956607e-11,1.521342134700979e-11,8.201089852718308e-12,3.991193663241467e-12,1.9831414667314315e-12,9.66271756602082e-13,5.390292937485358e-13,3.0888822453929377e-13,2.133962396700455e-13,1.5861265132058015e-13,1.178130860722918e-13,8.650035322378687e-14,6.959971880631647e-14,5.723461778937579e-14,3.739515331221421e-14,2.967520138961479e-14,2.0826469275841352e-14,1.1795475258534336e-09,9.491638585642615e-10,7.533481462779323e-10,5.166799517181677e-10,3.641158768441471e-10,2.3916020850205773e-10,1.7165351145391974e-10,1.164481377016418e-10,7.722495515176061e-11,4.957944902684185e-11,3.0558448656989124e-11,1.924350146712976e-11,1.0652878407945416e-11,5.6593136372938314e-12,3.0396172952234585e-12,1.4326093003853758e-12,7.027561911816176e-13,3.1335122521997004e-13,1.9624422839445969e-13,9.46085705245677e-14,6.271340659465936e-14
0.0,44,44.0,0.0,30.0,0.0,0.0,0.0,0.0,-13.0,0.0,2.0,0.0,0.0,0.0,2.940532935384591e-11,1.5812857817767478e-11,8.577329905729553e-12,4.388510788705247e-12,2.0687315691798525e-12,1.0539690434683592e-12,5.07957996252691e-13,3.089898006185088e-13,2.135088680514586e-13,1.4607988086914058e-13,1.130788786052959e-13,9.342175865171512e-14,6.264316938064921e-14,5.012691925857324e-14,4.0051945090463565e-14,2.6552006231992004e-14,1.8922351062380725e-14,1.2078483813491398e-09,9.67001802775895e-10,7.359866362408177e-10,5.311349593575971e-10,3.7056129393190644e-10,2.5634854993843336e-10,1.689488782832855e-10,1.1586047865471155e-10,7.527947232271505e-11,5.027919994184654e-11,3.1875947719574364e-11,1.948260577843959e-11,1.1619936260007615e-11,6.019048590838674e-12,3.2162458470451733e-12,1.5024968418583114e-12,6.988284547831532e-13,3.5366357007998967e-13,1.7369272927935995e-13,1.0736431256944768e-13,6.604118085731364e-14
0.0,45,45.0,0.0,30.0,0.0,0.0,0.0,0.0,-13.0,0.0,2.0,0.0,0.0,0.0,3.027056471619003e-11,1.6819695434684476e-11,8.652535313746088e-12,4.287976036966404e-12,2.2213772243435223e-12,1.019177927188728e-12,5.44969768045743e-13,3.0617562924865854e-13,2.0611107334007783e-13,1.444573491629519e-13,1.078094420153363e-13,7.744072330310632e-14,6.416245152382657e-14,4.380313300800406e-14,3.558581793686156e-14,2.7374497166122248e-14,1.9782973178680264e-14,1.1697710898015872e-09,9.811679774221625e-10,7.684499822186907e-10,5.515210515324631e-10,3.629407377841801e-10,2.5734725261141136e-10,1.6957979604935333e-10,1.1379014039964244e-10,7.824855468238937e-11,5.11804074902495e-11,3.16545813054012e-11,1.9123161197639443e-11,1.1408885659303068e-11,6.0290121404084094e-12,3.2716140054400267e-12,1.6099140555003295e-12,7.665932381415273e-13,3.6299013756280315e-13,1.7313248174187402e-13,9.087888908609182e-14,6.466366695678674e-14
0.0,46,46.0,0.0,30.0,0.0,0.0,0.0,0.0,-13.0,0.0,2.0,0.0,0.0,0.0,3.120590245876494e-11,1.7160838749527053e-11,8.95070158228339e-12,4.517838027273904e-12,2.291067273080344e-12,1.1050111816401043e-12,5.551465044290839e-13,2.948305593709799e-13,1.9481824571216803e-13,1.3610147024766723e-13,1.0173675457940838e-13,7.905299743465776e-14,6.032485868120629e-14,4.616655737231735e-14,3.236402949458283e-14,2.487128231790321e-14,1.8455430414737212e-14,1.2425136306288673e-09,1.0383123837421456e-09,7.398651970472275e-10,5.576068663454778e-10,3.7005165779768764e-10,2.589681664690055e-10,1.8746466066009483e-10,1.1670587199921519e-10,7.668459404000171e-11,5.0834555898924275e-11,3.260795517874494e-11,1.9853391826273917e-11,1.148096233523654e-11,6.467025066687999e-12,3.266934135713884e-12,1.694577809855009e-12,8.054394532097679e-13,3.7050050691051945e-13,1.9026003158972198e-13,1.2160995081402551e-13,6.963004076806017e-14
0.0,47,47.0,0.0,30.0,0.0,0.0,0.0,0.0,-13.0,0.0,2.0,0.0,0.0,0.0,3.082574713984643e-11,1.7256388376078027e-11,8.81184694446929e-12,4.640020424221833e-12,2.2813419308783614e-12,1.1104780046304066e-12,5.543012897826512e-13,3.0464742418720553e-13,1.9215706167503242e-13,1.339371219750827e-13,9.922860186097557e-14,7.440895631023193e-14,5.549462459216434e-14,4.1652267581794946e-14,3.5252217083547394e-14,2.4740367527261434e-14,1.8415120890464073e-14,1.3302501604161144e-09,1.0234799414737424e-09,7.828330724403923e-10,5.317680954690947e-10,3.7754591578965014e-10,2.638065524344819e-10,1.7510144654151044e-10,1.2137325929793173e-10,8.481746831060837e-11,5.0370085155896714e-11,3.328557810749815e-11,2.022951982762528e-11,1.155529978704595e-11,6.381062882025431e-12,3.345791552796987e-12,1.7506315446320604e-12,8.277369946006195e-13,3.833891939921351e-13,1.7213581606212272e-13,8.05179280501957e-14,5.118536202295338e-14
0.0,48,48.0,0.0,30.0,0.0,0.0,0.0,0.0,-13.0,0.0,2.0,0.0,0.0,0.0,3.013644120839768e-11,1.6945739039828468e-11,9.146773539151175e-12,4.927144045755668e-12,2.3137211082471884e-12,1.0786355792125205e-12,5.699019022675915e-13,3.018211520788995e-13,1.924632614056515e-13,1.2778994566606963e-13,1.001434146692484e-13,7.513493792336369e-14,5.396582859287311e-14,4.2216273357503714e-14,2.977565515707441e-14,2.355772035314778e-14,1.4884904106662353e-14,1.2465444655205512e-09,1.0081148743458942e-09,8.331208159799943e-10,5.592084955116823e-10,3.9025303246153174e-10,2.6690833265696577e-10,1.8490878205004605e-10,1.2292741070415187e-10,8.00126673946778e-11,4.9962768670750693e-11,3.439897981652777e-11,1.9414858140648835e-11,1.140378284967071e-11,6.69283515158071e-12,3.5658118726206602e-12,1.7769724139659375e-12,8.382164355026083e-13,3.578060022518451e-13,2.01789465000794e-13,8.928402751062632e-14,9.055763806860634e-14
0.0,49,49.0,0.0,30.0,0.0,0.0,0.0,0.0,-13.0,0.0,2.0,0.0,0.0,0.0,3.153346443448758e-11,1.7426997121757878e-11,9.521681145521298e-12,5.014794950032555e-12,2.570372790750363e-12,1.1822956739757758e-12,5.912397551743021e-13,3.1680278202992415e-13,1.8219708554171044e-13,1.1816827981345787e-13,9.203440333599798e-14,7.259554052299244e-14,5.3536888401507453e-14,4.398925024943004e-14,2.914867863782653e-14,2.251284575170677e-14,1.469081545282792e-14,1.3200079871029393e-09,1.0812672113827607e-09,6.878328798709395e-10,6.046534783481598e-10,3.9613348258805364e-10,2.6100359375003504e-10,1.7529017504150754e-10,1.2294863279541534e-10,8.224442534175253e-11,5.037689415984169e-11,3.304799093263467e-11,2.053175754761784e-11,1.3035075667677979e-11,6.819047388726387e-12,3.7043666935194684e-12,1.831217978228613e-12,9.369546200977151e-13,4.3760969321588595e-13,2.0693330266794202e-13,8.019542704359841e-14,6.544232447106528e-14
0.0,50,50.0,0.0,30.0,0.0,0.0,0.0,0.0,-13.0,0.0,2.0,0.0,0.0,0.0,3.233520812075698e-11,1.775743729761595e-11,9.256995484637892e-12,5.149134305234467e-12,2.6232944175234096e-12,1.259196339609964e-12,6.197193198969192e-13,3.29418314809202e-13,1.9039925259423527e-13,1.2008989799893995e-13,9.416914367297921e-14,7.002618994154432e-14,5.1723294443564515e-14,4.093655619357521e-14,3.032463375002139e-14,2.1635389452392055e-14,1.4634036122544388e-14,1.355043770562166e-09,1.0677078305298889e-09,8.439571355943526e-10,5.735497743922992e-10,3.817634886946939e-10,2.7852350254481295e-10,1.8621631865717562e-10,1.2282050237578654e-10,8.183994646088255e-11,5.144655869765073e-11,3.4686705194734255e-11,2.1301512398613313e-11,1.2844888571435328e-11,6.810860703227362e-12,3.878560954767405e-12,1.852193033243633e-12,9.656521535420888e-13,4.104937740506124e-13,2.021005629028775e-13,1.0628210652421177e-13,5.2280117504532454e-14
0.0,51,51.0,0.0,30.0,0.0,0.0,0.0,0.0,-13.0,0.0,2.0,0.0,0.0,0.0,3.3325475163561326e-11,1.8598723072088818e-11,1.0026696631921051e-11,4.9919350942475706e-12,2.603640452288922e-12,1.2714435462688766e-12,6.255063995367071e-13,3.46132841395123e-13,1.8775178678329173e-13,1.2382772233337803e-13,8.928723414177046e-14,6.62717246243863e-14,4.615279227787793e-14,3.579054733718459e-14,2.741044219230934e-14,2.101963142791084e-14,1.4028008584251384e-14,1.326647168858734e-09,1.1506971434408261e-09,8.6521843420092e-10,5.428064705933501e-10,4.0030625040373727e-10,2.811293873402065e-10,1.7900248553021327e-10,1.3032020320279508e-10,8.521413260010745e-11,5.2485108504071565e-11,3.50008053649852e-11,2.1469095688064898e-11,1.3017782935215572e-11,7.531755651339424e-12,3.881370158170108e-12,1.8952772052506755e-12,9.862131887772875e-13,4.309701615803527e-13,1.998903659767154e-13,1.0551398652747968e-13,4.868742895853321e-14
0.0,52,52.0,0.0,30.0,0.0,0.0,0.0,0.0,-13.0,0.0,2.0,0.0,0.0,0.0,3.2991766711708247e-11,1.890366619798771e-11,9.91434470822596e-12,5.414070346152119e-12,2.7075126778710566e-12,1.3672766449307643e-12,6.435091852249891e-13,3.1853667611809254e-13,1.8568125808983582e-13,1.1781786662231913e-13,9.029427211319821e-14,6.513129759834403e-14,4.9107256992762163e-14,3.4766080427999354e-14,2.707062805274441e-14,1.9905309567527783e-14,1.349634490487741e-14,1.3538959152980685e-09,1.1080689551958977e-09,8.258826615254425e-10,5.865824542642857e-10,4.1209469636394685e-10,2.7726962251205366e-10,1.8816237983242564e-10,1.262765725460783e-10,8.204917384356418e-11,5.7194357202639165e-11,3.371529465926732e-11,2.2257574327269138e-11,1.2855051601052627e-11,7.58054445865106e-12,4.0282579941347495e-12,2.091305338112013e-12,9.51143599592155e-13,4.673043587158394e-13,2.1691257539946248e-13,1.0868628093324756e-13,5.2563747116573516e-14
0.0,53,53.0,0.0,30.0,0.0,0.0,0.0,0.0,-13.0,0.0,2.0,0.0,0.0,0.0,3.250790730901711e-11,1.9674324913110206e-11,9.943300803408386e-12,5.827724138815979e-12,2.87090603892335e-12,1.3577202213688434e-12,6.182009831808887e-13,3.0914605327553475e-13,1.8872481325775253e-13,1.15066435498973e-13,7.637251161609305e-14,6.18410706466074e-14,4.5339365799477345e-14,3.311892972850086e-14,2.7596835758563666e-14,2.11238928499491e-14,1.3726153661586114e-14,1.3435801933403005e-09,1.1448023078823423e-09,8.768002260366899e-10,6.3551298353059e-10,4.24985475105847e-10,2.7972805391022733e-10,1.9552660546727753e-10,1.2557416403466627e-10,8.56462113803951e-11,5.5246365939137646e-11,3.469128257008654e-11,2.1816423360550547e-11,1.3413618436449155e-11,7.588569086652991e-12,4.0820418709570365e-12,2.1760829772325272e-12,1.0266105472307675e-12,4.972579309835776e-13,2.3412048501905946e-13,9.61595824675901e-14,5.6142663051677995e-14
0.0,54,54.0,0.0,30.0,0.0,0.0,0.0,0.0,-13.0,0.0,2.0,0.0,0.0,0.0,3.36533475391374e-11,1.9050744704089166e-11,1.037071357691267e-11,5.63697017917051e-12,2.83026597193675e-12,1.3002679716192154e-12,6.623908086911133e-13,3.3131264595030163e-13,1.858547436279325e-13,1.0523487763336255e-13,7.594147990518577e-14,5.923459745816383e-14,4.560926998787846e-14,3.5463521198441064e-14,2.317592607210335e-14,1.8892219437977133e-14,1.493684422415419e-14,1.3839547161435763e-09,1.1377809354895574e-09,8.304686169765358e-10,6.17267693887208e-10,4.244371243519902e-10,2.7410984013679376e-10,1.9491901773961137e-10,1.2885582931199146e-10,8.685541655330473e-11,5.5208510631736764e-11,3.517101608618312e-11,2.108334228001446e-11,1.320787132546069e-11,7.801129833099863e-12,3.956260232770743e-12,2.0948801421444323e-12,1.0394821257434645e-12,4.8476714754236e-13,2.2485336969088518e-13,1.2132343254696149e-13,5.1504474972079824e-14
0.0,55,55.0,0.0,30.0,0.0,0.0,0.0,0.0,-13.0,0.0,2.0,0.0,0.0,0.0,3.358107484950123e-11,1.8479843903457444e-11,1.1141766666867512e-11,5.6881599593874606e-12,2.9753377411170145e-12,1.4460802179752149e-12,7.040202079848516e-13,3.545616976089619e-13,1.8802567757273298e-13,1.1459632550016499e-13,8.213188831207449e-14,5.907941408860288e-14,4.1327088862920126e-14,3.351103629608948e-14,2.6537271071167795e-14,1.6907608736959413e-14,1.2824020503696815e-14,1.3777151395404262e-09,1.1503879783546289e-09,8.884737944575923e-10,6.308308151063777e-10,4.3982843768299814e-10,2.8264535408078457e-10,1.8894302396002056e-10,1.2741206532944368e-10,8.741550568849444e-11,5.6477499990634725e-11,3.677310571054114e-11,2.1553304516226967e-11,1.2907434572835724e-11,7.81819835946745e-12,4.513515669076123e-12,2.3084032325872172e-12,1.123407529158566e-12,5.137820905771957e-13,2.2374979370072395e-13,1.2685685410859997e-13,7.300573845601763e-14
0.0,56,56.0,0.0,30.0,0.0,0.0,0.0,0.0,-13.0,0.0,2.0,0.0,0.0,0.0,3.4477421311187897e-11,1.870099910325129e-11,1.0648741848535106e-11,5.839481099749329e-12,3.055891838665569e-12,1.4502592274519427e-12,7.208215001282429e-13,3.653261893550699e-13,1.866309537913834e-13,1.1251950541938338e-13,7.550113060801133e-14,5.5389079309768007e-14,4.194268424544838e-14,3.068123430001973e-14,2.1964584345416253e-14,1.891629532316961e-14,1.0580881180943692e-14,1.424806301018676e-09,1.184688062431749e-09,8.808094794061209e-10,6.153772880987165e-10,4.3629824633181266e-10,3.041509992335046e-10,2.1267495940177716e-10,1.298598261022664e-10,8.931714718506922e-11,5.4970419260626486e-11,3.490638871676614e-11,2.1449745363572083e-11,1.3718780965582935e-11,8.209596898777508e-12,4.493878549238486e-12,2.301731932051516e-12,1.147481818857885e-12,5.236081520744687e-13,2.382646532964337e-13,1.232189256213256e-13,5.440129458351985e-14
0.0,57,57.0,0.0,30.0,0.0,0.0,0.0,0.0,-13.0,0.0,2.0,0.0,0.0,0.0,3.374022742605834e-11,1.940079298010253e-11,1.0518642704674861e-11,6.098136537109912e-12,3.172035852991817e-12,1.4566732614989598e-12,7.432273795324279e-13,3.74049255821285e-13,1.8282565700337512e-13,1.1199685111257004e-13,6.993031445595723e-14,5.3795007891496365e-14,4.1982798538779777e-14,3.048894359565146e-14,2.2014575000467106e-14,1.7895551311632667e-14,1.0732079863201142e-14,1.5347310290536133e-09,1.1993319841770644e-09,8.65267822587672e-10,6.320603974286047e-10,4.4417629075068024e-10,2.9887718167120397e-10,2.0912372519941796e-10,1.3836533176016423e-10,8.410712577522201e-11,5.829920621644215e-11,3.6750091205055324e-11,2.2331026919260578e-11,1.3412171993606229e-11,7.748837747937938e-12,4.583790419386303e-12,2.319159285711574e-12,1.1617672985852038e-12,5.450111226028664e-13,2.2867864799517846e-13,1.2701139412121447e-13,6.500816274542975e-14
0.0,58,58.0,0.0,30.0,0.0,0.0,0.0,0.0,-13.0,0.0,2.0,0.0,0.0,0.0,3.5520246777373015e-11,1.9778885850790966e-11,1.1079827504893711e-11,6.0982337914674956e-12,3.209857824672352e-12,1.5768413411433806e-12,7.31769304767862e-13,3.629724586833509e-13,1.8794239486912872e-13,1.0480086725034751e-13,7.32001112763124e-14,5.186138058885986e-14,3.896477171266299e-14,2.864831108491873e-14,2.27484552945281e-14,1.7240816589310864e-14,9.368343081599489e-15,1.4767184409181934e-09,1.1921363112792744e-09,9.540431955105131e-10,6.746938768409032e-10,4.39469783799622e-10,2.9630570782916664e-10,1.8815941564026318e-10,1.3684723225589918e-10,8.754207052564226e-11,5.927307387071792e-11,3.548054991266814e-11,2.2560176558782404e-11,1.3592620859453801e-11,7.922370592735757e-12,4.732164793117454e-12,2.535197100051595e-12,1.2101966248851468e-12,5.713398612859418e-13,2.526140650256273e-13,1.1930750164067869e-13,4.874900787270105e-14
0.0,59,59.0,0.0,30.0,0.0,0.0,0.0,0.0,-13.0,0.0,2.0,0.0,0.0,0.0,3.399593031577286e-11,1.948750570179299e-11,1.1772799242029259e-11,6.139714184824893e-12,3.112282953579533e-12,1.6405818389944081e-12,7.668124716681544e-13,3.647704994357906e-13,1.9296633332722158e-13,1.089395098176505e-13,7.12381125784493e-14,4.74624150845948e-14,3.6149622991218054e-14,2.7870744855444657e-14,1.979306752367087e-14,1.550758398845225e-14,1.0949041813050158e-14,1.5352660487764595e-09,1.2513929403469618e-09,8.824629195678314e-10,6.329828611185518e-10,4.413993911625932e-10,3.0736534535940676e-10,1.970327184727362e-10,1.282963937654088e-10,8.888958818359179e-11,5.8151664601707e-11,3.5449459503416106e-11,2.295212197880438e-11,1.3984809075349054e-11,8.853623694339046e-12,4.616956011178181e-12,2.366852807908742e-12,1.2882614566488433e-12,5.914583528852994e-13,2.7018653495708246e-13,1.1182649557093944e-13,5.52529811703845e-14
0.0,60,60.0,0.0,30.0,0.0,0.0,0.0,0.0,-13.0,0.0,2.0,0.0,0.0,0.0,3.534197090946126e-11,1.9379641935967317e-11,1.0644090371546899e-11,5.8215213580973235e-12,3.2300338944163236e-12,1.6451141675860533e-12,7.780659882432506e-13,3.6892975457474457e-13,1.92539263171065e-13,1.0636406159720054e-13,6.980022225470614e-14,4.683434009392887e-14,3.410503143797461e-14,2.7201734068093117e-14,1.8809732566780094e-14,1.3921241041921371e-14,1.1195118947999695e-14,1.5420970171300587e-09,1.2168168293156392e-09,9.17156530304514e-10,6.163313697586964e-10,4.852434669151884e-10,3.032098463548892e-10,1.9595169425467034e-10,1.3953064616102126e-10,9.138855292138369e-11,5.889577026134718e-11,3.7323625173024037e-11,2.380118366149869e-11,1.4178802155849669e-11,8.721245992969401e-12,4.577744480512406e-12,2.5396468247079525e-12,1.2532870321586938e-12,5.902792626226042e-13,2.919853054191665e-13,1.2972610220873954e-13,5.835396049493312e-14
0.0,61,61.0,0.0,30.0,0.0,0.0,0.0,0.0,-13.0,0.0,2.0,0.0,0.0,0.0,3.558309918749207e-11,2.0489942497201193e-11,1.0965253334449426e-11,6.5388691001547424e-12,3.3425144605097673e-12,1.7573913633014492e-12,8.227827717611013e-13,4.137265082852684e-13,1.9493083956791704e-13,1.0486418830628991e-13,7.015751723535823e-14,4.902223852403561e-14,3.3242875384198724e-14,2.652365535156221e-14,1.8602007233543195e-14,1.332407719626585e-14,1.1062135845350016e-14,1.5263009257955233e-09,1.2526559292970265e-09,9.477870154907807e-10,6.776392178753724e-10,4.633659057891636e-10,2.9769621157236823e-10,2.123366342855753e-10,1.4379294449566975e-10,9.119715316522746e-11,5.682252088589158e-11,3.6076436999627715e-11,2.3683207574449754e-11,1.3622102967211008e-11,7.823823043866556e-12,4.7812173044995145e-12,2.707792736287134e-12,1.2771030988136138e-12,6.659786739506151e-13,2.651309228164567e-13,1.2109579598514476e-13,5.514055849805922e-14
0.0,62,62.0,0.0,30.0,0.0,0.0,0.0,0.0,-13.0,0.0,2.0,0.0,0.0,0.0,3.5696202900745735e-11,2.0138258549285593e-11,1.1187537916935005e-11,6.248284870808208e-12,3.439690641669892e-12,1.6910014219235709e-12,8.013030320340822e-13,3.945299369121641e-13,2.1259530362447415e-13,1.0490268820336653e-13,6.718684059096268e-14,4.509958833815558e-14,3.499370309354862e-14,2.3219231190382016e-14,1.668898000258168e-14,1.3147258405890813e-14,9.928615120511108e-15,1.6510060009240075e-09,1.3476569430454347e-09,9.585361722992794e-10,6.647784854983081e-10,4.935445643243529e-10,3.1431930187285405e-10,2.16686534957462e-10,1.3698515521318312e-10,9.35289282759604e-11,5.6473313237759534e-11,3.7407249976430134e-11,2.2769728402243583e-11,1.4561690456901796e-11,8.173554817283208e-12,4.8656611592786905e-12,2.626713907946397e-12,1.4022803245854827e-12,6.592378554130684e-13,2.973676446108527e-13,1.317747296165323e-13,6.044673078496313e-14
0.0,63,63.0,0.0,30.0,0.0,0.0,0.0,0.0,-13.0,0.0,2.0,0.0,0.0,0.0,3.483953272283468e-11,2.1249497688277906e-11,1.1807460630411055e-11,6.478393131640944e-12,3.569761375132294e-12,1.7449503368381759e-12,8.724571265526582e-13,4.1058060670473956e-13,2.0286118474255224e-13,1.0972645768163979e-13,7.181306242639765e-14,4.4737967113524834e-14,3.242779615525954e-14,2.624156639903381e-14,1.8126050923097647e-14,1.6479526365041758e-14,6.095099121728058e-15,1.6154792281280572e-09,1.3009323114711409e-09,1.0393676365730595e-09,6.836031801324717e-10,4.992877095426742e-10,3.179935447841221e-10,2.3004287461727415e-10,1.4352120136370612e-10,8.937256845780823e-11,6.145092378396204e-11,3.6448651318906196e-11,2.2506028679779492e-11,1.467147565244579e-11,8.891736772607819e-12,5.042478425517401e-12,2.8604201586099438e-12,1.427483679537821e-12,6.892961817256927e-13,2.9630222176062833e-13,1.4202250638570934e-13,5.943359586370655e-14
