Line_number,Fiducial,Easting,Northing,Height,Elevation,tx_pitch,tx_roll,tx_yaw,txrx_dx,txrx_dy,txrx_dz,rx_pitch,rx_roll,rx_yaw,S0Z_time_3.834e-04,S0Z_time_3.924e-04,S0Z_time_4.039e-04,S0Z_time_4.184e-04,S0Z_time_4.364e-04,S0Z_time_4.589e-04,S0Z_time_4.869e-04,S0Z_time_5.224e-04,S0Z_time_5.679e-04,S0Z_time_6.249e-04,S0Z_time_6.969e-04,S0Z_time_7.879e-04,S0Z_time_9.019e-04,S0Z_time_1.046e-03,S0Z_time_1.227e-03,S0Z_time_1.456e-03,S0Z_time_1.744e-03,S0Z_time_2.109e-03,S0Z_time_2.567e-03,S0Z_time_3.145e-03,S0Z_time_3.864e-03,S0Z_time_4.745e-03,S0Z_time_5.821e-03,S0Z_time_7.140e-03,S0Z_time_8.754e-03,S0Z_time_1.073e-02,S1Z_time_2.057e-05,S1Z_time_2.607e-05,S1Z_time_3.307e-05,S1Z_time_4.206e-05,S1Z_time_5.356e-05,S1Z_time_6.807e-05,S1Z_time_8.607e-05,S1Z_time_1.086e-04,S1Z_time_1.366e-04,S1Z_time_1.721e-04,S1Z_time_2.176e-04,S1Z_time_2.746e-04,S1Z_time_3.466e-04,S1Z_time_4.376e-04,S1Z_time_5.516e-04,S1Z_time_6.956e-04,S1Z_time_8.771e-04,S1Z_time_1.106e-03,S1Z_time_1.394e-03
0.0,0,0.0,0.0,30.0,0.0,0.0,0.0,0.0,-13.0,0.0,2.0,0.0,0.0,0.0,3.3044210296916284e-11,2.95729160975831e-11,2.432769435924822e-11,2.07621135374362e-11,1.879945098016855e-11,1.650679466258555e-11,1.3217493096975182e-11,1.2058389680427227e-11,1.0038015282628742e-11,8.576117576977125e-12,7.49343178334025e-12,6.082568210767371e-12,4.86383508188391e-12,4.052956890445168e-12,3.2147923684883777e-12,2.5165889320752765e-12,2.0209701928336005e-12,1.4398774571472131e-12,1.0528050397267276e-12,7.785133566129715e-13,5.512062869244539e-13,3.7027717800050866e-13,2.40958015689907e-13,1.658153279292874e-13,1.1499206076609216e-13,6.901644244221998e-14,3.3731139747936418e-09,1.5890129952630818e-09,8.22576545619937e-10,4.545124423523435e-10,2.548904587220632e-10,1.664942493022576e-10,9.588867375159403e-11,5.6941852647681776e-11,3.5189614739242984e-11,2.0957867032113356e-11,1.2434446860296894e-11,8.693979889504467e-12,5.9057972129218174e-12,4.1432085076246355e-12,2.925395281250306e-12,2.0602985667465457e-12,1.3460164382044739e-12,9.09011637264668e-13,6.158612043982228e-13
0.0,1,1.0,0.0,30.0,0.0,0.0,0.0,0.0,-13.0,0.0,2.0,0.0,0.0,0.0,3.586027097527194e-11,3.1574683919004494e-11,2.7384992755425828e-11,2.3788435935201784e-11,1.9259620233482717e-11,1.6970109539087815e-11,1.3974503885055259e-11,1.1690341348284917e-11,1.0288761116985826e-11,8.099461041856097e-12,6.6704954726689846e-12,5.89843158829765e-12,4.628573538714881e-12,3.877246524410211e-12,3.026762947829628e-12,2.2194705972496967e-12,1.8167892018562237e-12,1.3818867879175714e-12,9.950682868220079e-13,7.291140452060339e-13,5.199850937218069e-13,3.6128233068701235e-13,2.391178918624698e-13,1.5061672191261308e-13,1.0066123799827151e-13,6.22060555155184e-14,3.4861272415163076e-09,1.603588331871584e-09,8.168827858472331e-10,4.544099500163364e-10,2.864973783337226e-10,1.694461645659423e-10,1.11246974676567e-10,6.489853618946957e-11,4.019470856301048e-11,2.334266812709589e-11,1.4361269948876686e-11,8.898361750764553e-12,6.099069662437355e-12,3.944335041211986e-12,2.7368248439125226e-12,1.902319293331182e-12,1.2989740414152233e-12,8.759856917692605e-13,5.606740052474637e-13
0.0,2,2.0,0.0,30.0,0.0,0.0,0.0,0.0,-13.0,0.0,2.0,0.0,0.0,0.0,3.6410874894542053e-11,3.121541719672376e-11,2.8191961382920352e-11,2.417942902109071e-11,2.0221748193314342e-11,1.67186997437954e-11,1.4375455075199068e-11,1.1572076300440194e-11,9.542176352384131e-12,7.69707117775949e-12,6.808568245115893e-12,5.2743393472008385e-12,4.0278160191066716e-12,3.411734678984671e-12,2.6655498052298975e-12,2.0794933332389685e-12,1.691630759830346e-12,1.3461548495639087e-12,8.908816218287907e-13,6.559856395402828e-13,4.557890682960636e-13,3.0136237694945094e-13,2.2574675443527587e-13,1.4060186036375694e-13,9.647733561636824e-14,6.275790599097403e-14,3.5068425135420127e-09,1.566630763264876e-09,7.477184616558605e-10,4.618459701019322e-10,2.92545144115345e-10,1.7374654567375193e-10,1.1592945358077003e-10,7.173384203358907e-11,4.4010207826437244e-11,2.8172370672271032e-11,1.6069457890909902e-11,9.728008755583514e-12,6.134621573270417e-12,3.999282994935177e-12,2.526764826267822e-12,1.779967362273564e-12,1.2652976742900035e-12,8.220378626033423e-13,5.189387631792753e-13
0.0,3,3.0,0.0,30.0,0.0,0.0,0.0,0.0,-13.0,0.0,2.0,0.0,0.0,0.0,4.083698346400144e-11,3.729127133726147e-11,3.146383188067244e-11,2.849914705399391e-11,2.2325339041980563e-11,1.832088947963077e-11,1.4338733489304553e-11,1.1360561959489564e-11,9.902829819849704e-12,7.645890879827755e-12,6.114835945385781e-12,5.144670949378566e-12,4.008456822195592e-12,3.340566074301583e-12,2.608120888122107e-12,1.9816466323094556e-12,1.562412543384674e-12,1.1152606722264699e-12,8.704241972092945e-13,6.084356782729222e-13,4.3442308601725416e-13,3.121637833569944e-13,2.0430865743029113e-13,1.3308494094536184e-13,9.136875553573274e-14,5.6509891552910795e-14,3.6304089734409273e-09,1.5728570000158086e-09,8.048166040121447e-10,4.3997378425788404e-10,2.66818224474415e-10,1.8210823528588228e-10,1.1842938798971244e-10,7.71341891281748e-11,5.018764714769217e-11,2.9482330284800836e-11,1.7936222460849246e-11,1.0483790093125563e-11,6.790045376003362e-12,3.927756824890883e-12,2.494732902292712e-12,1.686722204225372e-12,1.1410609741843631e-12,7.28752977414507e-13,4.848351915032149e-13
0.0,4,4.0,0.0,30.0,0.0,0.0,0.0,0.0,-13.0,0.0,2.0,0.0,0.0,0.0,4.143223110051556e-11,3.730946871729887e-11,3.3657422720661484e-11,2.918354886634344e-11,2.3980882160982543e-11,1.9983919620753172e-11,1.5646767138723252e-11,1.2712128897593194e-11,9.937701347675612e-12,7.73288643685367e-12,5.681732085041353e-12,4.846986118730726e-12,3.9904518736052334e-12,3.0096051149501527e-12,2.5601230696257926e-12,1.9334764747739648e-12,1.5116103086716393e-12,1.1446242344392533e-12,7.498741870537332e-13,5.926154424331041e-13,4.0895394434430437e-13,2.9141549436363327e-13,1.9693191837596414e-13,1.2526443013333396e-13,8.0722376477982e-14,5.1536963340355733e-14,3.505800011345318e-09,1.5552639139094573e-09,7.8591388032278e-10,4.4518391941241313e-10,2.824529650948896e-10,1.8006092144163005e-10,1.2907733449464137e-10,8.183522545099706e-11,5.668986366576599e-11,3.281530853895626e-11,2.002005374843951e-11,1.1839714316513919e-11,6.729945125082079e-12,4.0836973255138146e-12,2.6203610734370052e-12,1.6457138545934875e-12,1.0653312644751914e-12,6.981056395404521e-13,4.680749808382395e-13
0.0,5,5.0,0.0,30.0,0.0,0.0,0.0,0.0,-13.0,0.0,2.0,0.0,0.0,0.0,4.421380802541484e-11,4.248897613824367e-11,3.337854076699266e-11,3.034104609535048e-11,2.5220369477129217e-11,2.0540904995409723e-11,1.599674405798202e-11,1.339459025820265e-11,9.680467485190595e-12,7.995673503785453e-12,6.0842345443781235e-12,4.6771918547402195e-12,3.587245201548253e-12,2.8663209515777872e-12,2.1275550424269226e-12,1.8031223949288379e-12,1.3585149279086086e-12,1.0312797665997645e-12,7.205536295629323e-13,5.284559206228876e-13,3.8637552153990815e-13,2.653202321296046e-13,1.854378192190624e-13,1.214610995075548e-13,7.943411257751039e-14,5.072042378639997e-14,3.618478962915929e-09,1.568355695299436e-09,7.906575336848664e-10,4.5392179548254445e-10,2.808467014704019e-10,1.8537345729163747e-10,1.316024583365452e-10,8.849052450197984e-11,5.725651659001462e-11,3.9330520244758987e-11,2.1928158659271303e-11,1.3322418591072677e-11,7.372787945698454e-12,4.348090999319626e-12,2.627412169545564e-12,1.745546085589012e-12,1.0517138904307272e-12,6.776927181859065e-13,4.1551442603570737e-13
0.0,6,6.0,0.0,30.0,0.0,0.0,0.0,0.0,-13.0,0.0,2.0,0.0,0.0,0.0,4.773741167466162e-11,4.1152694357621876e-11,3.6528741774399994e-11,3.2512024561850487e-11,2.6551929108979795e-11,2.3135552736297262e-11,1.8484257963216716e-11,1.4022605532680349e-11,1.0714944693274966e-11,8.079940228618114e-12,6.2304112062403004e-12,4.7721041632948004e-12,3.597127704895295e-12,2.7088617486768935e-12,2.18853803434926e-12,1.677880520845596e-12,1.2450305156183304e-12,9.50234257529909e-13,6.827623522637322e-13,5.128585813238741e-13,3.572662652472809e-13,2.484528366475914e-13,1.7228935318778363e-13,1.2054399696444496e-13,7.422253935470006e-14,4.8766440476299265e-14,3.568395313942267e-09,1.5780456793923894e-09,8.25247207648253e-10,4.711933623626436e-10,2.826167293021454e-10,2.0452156761112172e-10,1.2356789732817555e-10,8.807827078920866e-11,5.891752679741924e-11,4.09730582233293e-11,2.4563690675417745e-11,1.4104097102723342e-11,8.499603856381953e-12,4.706636531937901e-12,2.9839428251255912e-12,1.6369690362396747e-12,1.0617119700969397e-12,6.248878118646354e-13,4.2609937809428054e-13
0.0,7,7.0,0.0,30.0,0.0,0.0,0.0,0.0,-13.0,0.0,2.0,0.0,0.0,0.0,4.859568914027969e-11,4.253808612396263e-11,3.662166238907092e-11,3.3441349863250385e-11,2.928537557368945e-11,2.3497644026133586e-11,1.8111168105849186e-11,1.5434258445442373e-11,1.142734493558216e-11,8.670097187295408e-12,6.4067585053619956e-12,5.0817909509412056e-12,3.584483219471603e-12,2.649660260148981e-12,2.142238143942449e-12,1.4780199404271112e-12,1.2085947520773366e-12,8.845598582375425e-13,6.823824644396577e-13,4.732308558857969e-13,3.261210136669174e-13,2.3303907668024284e-13,1.5221133419690704e-13,1.124566653976406e-13,6.947691543234182e-14,4.636238125102962e-14,3.3744056383099577e-09,1.5946134213897235e-09,7.991345295962362e-10,4.808942662838444e-10,2.713680234680626e-10,1.8759829648120873e-10,1.3003627721623674e-10,8.874494550027895e-11,6.305886899755825e-11,4.2903253531414584e-11,2.5643376310554206e-11,1.5737148116855605e-11,9.213585446321064e-12,5.227763914495998e-12,2.8763789275188034e-12,1.5768725396336891e-12,1.0053639041675578e-12,6.722498762796936e-13,3.8451991881547673e-13
0.0,8,8.0,0.0,30.0,0.0,0.0,0.0,0.0,-13.0,0.0,2.0,0.0,0.0,0.0,4.930800062330517e-11,4.616032480673847e-11,4.05951592280372e-11,3.45018626177383e-11,2.983679127604527e-11,2.4620497166846864e-11,2.0240234468682263e-11,1.5904056939740407e-11,1.154576323235175e-11,9.076625607501777e-12,6.501234734632214e-12,4.706170242028698e-12,3.6606325782765725e-12,2.650590179995762e-12,1.9763434192386297e-12,1.495403046366687e-12,1.1525886175990562e-12,8.484830062011742e-13,6.310069132095459e-13,4.1989854264769633e-13,3.2447828871673625e-13,2.1774028355525894e-13,1.5192838662360256e-13,1.0467970825941748e-13,6.924598650399795e-14,4.0599749628979354e-14,3.526911318237349e-09,1.5777694493427186e-09,8.235809536054723e-10,4.3373571349776213e-10,2.7690853893569994e-10,1.9287262880131834e-10,1.298153033977537e-10,9.25573533576412e-11,6.777399355506244e-11,4.655540997696334e-11,2.767813943863084e-11,1.7467363535108665e-11,9.944348509685889e-12,5.740536477264188e-12,3.1716787856899416e-12,1.7025560670009128e-12,1.069911789690672e-12,5.990908997575964e-13,3.645884316323213e-13
0.0,9,9.0,0.0,30.0,0.0,0.0,0.0,0.0,-13.0,0.0,2.0,0.0,0.0,0.0,5.4282215567003835e-11,4.684856197688456e-11,4.3051007668360645e-11,3.717553177108821e-11,3.0232202679761233e-11,2.4681721415898965e-11,2.218093531405733e-11,1.6922934083921498e-11,1.316645752259753e-11,9.310314301479886e-12,7.0781515256541906e-12,5.178387340172536e-12,3.5474457962327632e-12,2.598352477244461e-12,1.9453447597919878e-12,1.4438212043447677e-12,9.930317550305888e-13,7.758021305353685e-13,5.885666292700052e-13,4.2237298155551414e-13,2.978644848150127e-13,2.0378625631712675e-13,1.320825734948195e-13,9.504246987509514e-14,6.312062984023474e-14,3.919092386915613e-14,3.4418736260028007e-09,1.5689053106702331e-09,7.838355569356536e-10,4.5443886690846966e-10,2.9419839313731356e-10,1.9456703589684916e-10,1.3088919579092883e-10,9.929533453775926e-11,6.865847114183568e-11,4.3969615060067783e-11,2.8584034481723104e-11,1.776634940612203e-11,1.0868199277497348e-11,6.171320729609741e-12,3.4130259475791345e-12,1.9014271449694986e-12,1.0085850030723015e-12,6.022151052495455e-13,3.4464196895471545e-13
0.0,10,10.0,0.0,30.0,0.0,0.0,0.0,0.0,-13.0,0.0,2.0,0.0,0.0,0.0,5.508531714739028e-11,5.010722302959724e-11,4.46705316847201e-11,3.7339480001648326e-11,3.2613958855627e-11,2.7325826481066248e-11,2.3060653014572038e-11,1.6429845518797902e-11,1.3591085834425205e-11,9.760018753055741e-12,7.069542361139738e-12,5.192044808663786e-12,3.68248205814898e-12,2.5466673680979704e-12,1.9301343810886e-12,1.4125442120821358e-12,1.082685155872281e-12,7.64240416043759e-13,5.65376613893404e-13,3.777684926614411e-13,2.751154490575159e-13,1.883313902605782e-13,1.3289819880700251e-13,9.44023860981187e-14,5.585909569565639e-14,3.807256241045196e-14,3.384197067585875e-09,1.5251451012155152e-09,8.279343874972658e-10,4.724954089495487e-10,2.9747575005500775e-10,1.9263542473423515e-10,1.3542229464748025e-10,9.736304602897132e-11,6.767749861178128e-11,4.5076993399118856e-11,3.103861276672179e-11,1.7900582248309695e-11,1.1792928783681167e-11,6.859221591738173e-12,3.647041650547927e-12,2.02598033923142e-12,1.086820554256664e-12,5.965435529498346e-13,3.860017756885197e-13
0.0,11,11.0,0.0,30.0,0.0,0.0,0.0,0.0,-13.0,0.0,2.0,0.0,0.0,0.0,5.3495044329322036e-11,5.310683048376538e-11,4.3911142172255077e-11,3.895744337772344e-11,3.333980356552747e-11,2.8343723859463135e-11,2.2570090684554648e-11,1.8056480778548432e-11,1.447182168976027e-11,9.926074720389964e-12,7.341088556865962e-12,5.159307835142373e-12,3.716613110880376e-12,2.6374533839231613e-12,1.8666921503127648e-12,1.3691656219786396e-12,1.0197724356782793e-12,7.407087295179067e-13,5.216051638413172e-13,3.7690854299165413e-13,2.5681476004327e-13,1.9081714626792335e-13,1.266099596706743e-13,7.806744261509114e-14,5.5651343405491797e-14,3.5247501807564396e-14,3.471555030199228e-09,1.5130188414230245e-09,7.770245776550934e-10,4.513300947335464e-10,2.7522948709982763e-10,1.874133013348489e-10,1.3925683502327237e-10,9.447016946896837e-11,7.063738496975882e-11,4.564056514055688e-11,3.1359005204414886e-11,1.9776520618440305e-11,1.1693994489084511e-11,7.0135733867491336e-12,3.7998812304533514e-12,2.1026146860040394e-12,1.1522950923516133e-12,6.11144085191451e-13,3.987794671208943e-13
0.0,12,12.0,0.0,30.0,0.0,0.0,0.0,0.0,-13.0,0.0,2.0,0.0,0.0,0.0,5.506542851783498e-11,5.206585381431746e-11,4.530130702431419e-11,3.997437665097082e-11,3.445161017355691e-11,2.827114412546202e-11,2.376991281678446e-11,1.900118653218485e-11,1.4679016095831225e-11,1.0756116904933074e-11,7.852935438491081e-12,5.317810642296393e-12,3.814765913651299e-12,2.6257833414488533e-12,1.8753754621425152e-12,1.3450699888869485e-12,9.586714031105024e-13,7.294511296451723e-13,4.789115405178424e-13,3.6794999102336315e-13,2.5358987110445507e-13,1.7363622545436681e-13,1.122169049070442e-13,8.148795247076315e-14,5.2789443923813077e-14,3.5095225339646674e-14,3.2119745237507205e-09,1.5056208790230009e-09,7.891188700301753e-10,4.785698625622948e-10,2.887447206912372e-10,1.863945150369191e-10,1.3949813646074854e-10,1.0208523283241561e-10,6.837411862034284e-11,4.67802732793568e-11,3.237576128533057e-11,1.984123803091941e-11,1.2785146219341445e-11,7.392012811095786e-12,4.115291085932118e-12,2.228785516447261e-12,1.171266431413514e-12,6.373494013947568e-13,3.515702908868687e-13
0.0,13,13.0,0.0,30.0,0.0,0.0,0.0,0.0,-13.0,0.0,2.0,0.0,0.0,0.0,5.752860703184671e-11,5.19508401621801e-11,4.566528901249596e-11,4.139804467733215e-11,3.5619041593935633e-11,3.126603951805088e-11,2.5220220087197282e-11,1.9669632300606274e-11,1.473218082737318e-11,1.1464478195038085e-11,7.939586683116288e-12,5.8925179368989556e-12,3.951754072050079e-12,2.8344251279775385e-12,1.8213755848778548e-12,1.3114398746206854e-12,9.378519524207342e-13,6.539399177128474e-13,4.968356134467496e-13,3.6675315569825577e-13,2.4461859102119747e-13,1.6055545051991358e-13,1.0922988018859988e-13,7.542801808094686e-14,5.054778189899154e-14,3.238986351809864e-14,3.2031451924807237e-09,1.5481812777189198e-09,7.78735212851266e-10,4.652685984308073e-10,3.161993637049972e-10,1.882651382709781e-10,1.393483835519879e-10,9.878763309370624e-11,6.968430914166755e-11,4.837108999534148e-11,3.292098939958185e-11,2.060918884689198e-11,1.3272157393449062e-11,7.717928394573966e-12,4.271691862057754e-12,2.36617210818734e-12,1.1922361503320352e-12,6.147053495225563e-13,3.6936001380251377e-13
0.0,14,14.0,0.0,30.0,0.0,0.0,0.0,0.0,-13.0,0.0,2.0,0.0,0.0,0.0,5.718291009299097e-11,5.307755839745212e-11,4.827061587413126e-11,4.326638011069002e-11,3.664017492542993e-11,3.10473562789942e-11,2.523567137358696e-11,2.1134660511999325e-11,1.538325919496614e-11,1.1708335899442478e-11,8.259133018271595e-12,6.100236718801101e-12,4.079799850329082e-12,2.84549188107667e-12,1.9229000659645966e-12,1.3868950697947112e-12,8.872193318554734e-13,6.465728693969995e-13,4.552780633682015e-13,3.356674633075806e-13,2.2382514703502642e-13,1.501863863268486e-13,1.0180755685826004e-13,7.248988520702956e-14,5.061227247798373e-14,3.122213464860806e-14,3.398190316600079e-09,1.5136198035680648e-09,7.716914634002673e-10,4.797303192155606e-10,2.7705673437519404e-10,1.9811816072495312e-10,1.4170974360839476e-10,9.666592087877869e-11,7.098974856160862e-11,5.0385524172682394e-11,3.3046746749054936e-11,2.164812677093709e-11,1.358657363682893e-11,8.05639725741421e-12,4.660101664942619e-12,2.5110435145554568e-12,1.3307417321641655e-12,7.642449229511718e-13,3.6152097039411135e-13
0.0,15,15.0,0.0,30.0,0.0,0.0,0.0,0.0,-13.0,0.0,2.0,0.0,0.0,0.0,5.933071358276815e-11,5.381810614845476e-11,5.090458092254916e-11,4.1073698840386657e-11,3.6551807655754334e-11,3.0425217769302414e-11,2.6062622759632213e-11,2.1527139668303675e-11,1.5934484643158553e-11,1.2220014144405662e-11,9.190082594360336e-12,6.298261468581869e-12,4.323207727553486e-12,2.834897771681349e-12,2.0305851714111644e-12,1.2925034667499534e-12,8.913829342454389e-13,6.205777620568012e-13,4.5280398397515226e-13,3.192461802999619e-13,2.1385457305659313e-13,1.4877903428370877e-13,1.037485391513646e-13,6.932329545930382e-14,4.7402412862676696e-14,3.137536669874636e-14,3.2379792360223258e-09,1.4991410078431905e-09,7.871801938060483e-10,4.576818702441961e-10,2.7881308425553195e-10,1.9837508894815753e-10,1.3896055532241703e-10,1.0126134918526517e-10,7.19295837555277e-11,4.994396143910747e-11,3.392717642266728e-11,2.1682949227856344e-11,1.3541937498761077e-11,8.769018772874389e-12,4.70438330265508e-12,2.85455269200957e-12,1.4316306507966608e-12,7.40524816262754e-13,3.9038288197716673e-13
0.0,16,16.0,0.0,30.0,0.0,0.0,0.0,0.0,-13.0,0.0,2.0,0.0,0.0,0.0,5.895393050562597e-11,5.5585534093781705e-11,4.856098099335844e-11,4.194208826052204e-11,3.774301981578492e-11,3.42840004546703e-11,2.5549766578293507e-11,2.1275394448664716e-11,1.7451331490239264e-11,1.2538005564903559e-11,9.690488728239803e-12,6.773874586412749e-12,4.494376310024934e-12,2.9905792826678285e-12,2.0452304364340574e-12,1.2896084188762104e-12,9.11842261458852e-13,6.376117286653677e-13,4.408480093353533e-13,3.0482853914706426e-13,1.9934353986912344e-13,1.4472214340186277e-13,9.701901932741038e-14,6.326635622694645e-14,4.366984760318765e-14,2.6586814087586052e-14,3.2655857747685615e-09,1.4964719414999935e-09,8.004869820583734e-10,4.814111710615723e-10,2.886691461992289e-10,1.970646427092752e-10,1.3506076075734927e-10,1.0410666999566354e-10,7.019536730020403e-11,4.912261619599906e-11,3.398512888427729e-11,2.265556951926075e-11,1.4813713894723263e-11,8.293248839751169e-12,5.122699727538808e-12,2.7377334310697227e-12,1.5789824124362944e-12,7.892506415426536e-13,4.0350250350708346e-13
0.0,17,17.0,0.0,30.0,0.0,0.0,0.0,0.0,-13.0,0.0,2.0,0.0,0.0,0.0,6.455849741373122e-11,5.49379690406658e-11,5.080334615060819e-11,4.1769924705223626e-11,3.808356033589411e-11,3.4456296798853306e-11,2.735744082101416e-11,2.1409681849179016e-11,1.6718306060701828e-11,1.2499095956192665e-11,9.76967851277825e-12,6.993161373516776e-12,4.690295322246831e-12,3.0409058742085908e-12,2.0595657298281872e-12,1.3114995723491089e-12,9.221280744637407e-13,5.937061215566913e-13,4.015443862044826e-13,2.8008229217403334e-13,1.9904184901905789e-13,1.3019869340701665e-13,9.468246862082637e-14,6.198380629306628e-14,4.20095479274539e-14,2.696686643367787e-14,3.4869302581439e-09,1.4872612984624308e-09,8.073215515967205e-10,5.031330215363877e-10,3.077080308065144e-10,2.187980185727667e-10,1.4584899169661575e-10,1.0506084550361774e-10,7.109171582140615e-11,4.874659365492612e-11,3.3377739892365126e-11,2.29541807477801e-11,1.4942721793913046e-11,8.83113311574444e-12,5.142767298208682e-12,2.817682572483705e-12,1.6872731932025377e-12,8.193945666252196e-13,3.799521178875265e-13
0.0,18,18.0,0.0,30.0,0.0,0.0,0.0,0.0,-13.0,0.0,2.0,0.0,0.0,0.0,6.139716820049729e-11,5.5661121377687714e-11,4.8090355258635386e-11,4.585668494551163e-11,3.790138820352185e-11,3.2819221677868074e-11,2.7200995204983928e-11,2.2376828529099205e-11,1.816537514914932e-11,1.3726969142242998e-11,9.818157164794779e-12,7.39974785996817e-12,5.077528460674303e-12,3.0910750190907693e-12,2.0372441234789153e-12,1.339511891167585e-12,9.335994041223994e-13,5.906064911858829e-13,3.951649297262956e-13,2.747136199178952e-13,1.8754310118985582e-13,1.2883504389742276e-13,8.54878730595268e-14,5.810841207151391e-14,3.956597210844395e-14,2.7630679851039905e-14,3.372561751513241e-09,1.5287925380253933e-09,7.957598653397129e-10,4.3405149805678206e-10,3.227933982543935e-10,2.1647357349829344e-10,1.4537706697664785e-10,1.0168775962955549e-10,7.350202164051864e-11,5.0967040006686977e-11,3.398144097189499e-11,2.4284817094652346e-11,1.4775861313632704e-11,9.443121469086416e-12,5.3564198727838315e-12,3.0988873615365115e-12,1.7217094992522466e-12,8.603217433837524e-13,4.228647596208548e-13
0.0,19,19.0,0.0,30.0,0.0,0.0,0.0,0.0,-13.0,0.0,2.0,0.0,0.0,0.0,5.856863357771381e-11,5.607990030084042e-11,5.029163436204636e-11,4.591117294736494e-11,4.0522072470645225e-11,3.205582260960154e-11,2.8553109381908642e-11,2.209226281743151e-11,1.8620007016998394e-11,1.3636640245022631e-11,1.0416487470395971e-11,7.643724214055203e-12,4.77489139335531e-12,3.367452405163063e-12,2.279578486773468e-12,1.4284895615214296e-12,9.592003752118196e-13,5.81076997415067e-13,4.0661545014697747e-13,2.7227398337293293e-13,1.820021180339546e-13,1.2017256169774873e-13,8.525733056462706e-14,6.094642214614986e-14,4.0109306499940805e-14,2.531722403195224e-14,3.180888166344721e-09,1.4186522210145217e-09,7.825419387861523e-10,4.605244287606882e-10,3.058346361708499e-10,2.1866347346934148e-10,1.5410295547339158e-10,1.082604196971853e-10,7.505211655774927e-11,5.056407179895185e-11,3.548017296043632e-11,2.2270155706624738e-11,1.5799627406343843e-11,9.261497171305669e-12,5.960581728382055e-12,3.188364203838671e-12,1.8664485388675294e-12,8.951720445568948e-13,4.505863837994478e-13
0.0,20,20.0,0.0,30.0,0.0,0.0,0.0,0.0,-13.0,0.0,2.0,0.0,0.0,0.0,6.442640946133045e-11,5.506969328779762e-11,5.182597824684611e-11,4.414093410384279e-11,4.030556735829907e-11,3.424827513368283e-11,2.8494050273303875e-11,2.3990495734227843e-11,1.8421614491845858e-11,1.319740090913148e-11,1.0280033903220116e-11,7.314442199178927e-12,5.310505790785966e-12,3.452800439824396e-12,2.2064072209924494e-12,1.3972080604916258e-12,9.034511248549139e-13,5.964061352948749e-13,3.9777722094588266e-13,2.594827895718905e-13,1.7298202923129575e-13,1.1929987140266314e-13,7.787640772437023e-14,5.378833204268903e-14,3.8665040623042113e-14,2.492762728846381e-14,3.4258047432953886e-09,1.4422720733429972e-09,8.489852393188586e-10,4.688479195104936e-10,3.0584026714279146e-10,2.1585322581926432e-10,1.525392137820823e-10,1.0663305713317776e-10,7.445435097266354e-11,5.5088320616594614e-11,3.4064354655620287e-11,2.293223571439343e-11,1.558463397851505e-11,9.726932991878634e-12,5.894490968847596e-12,3.604078125093125e-12,1.9182908706929384e-12,9.661371500436581e-13,4.606147284592984e-13
0.0,21,21.0,0.0,30.0,0.0,0.0,0.0,0.0,-13.0,0.0,2.0,0.0,0.0,0.0,6.425162832464827e-11,5.505780318020056e-11,5.080782778300794e-11,4.712951897013723e-11,3.8888466840261085e-11,3.35649244594833e-11,2.8896740987585338e-11,2.1418164980856045e-11,1.8780099128868365e-11,1.45496682513702e-11,1.0954687310996187e-11,8.13675942109439e-12,5.2928259339900685e-12,3.5727865260332344e-12,2.2713014421892225e-12,1.4451915132571109e-12,9.086464824283624e-13,5.780852439482783e-13,3.6033143780794273e-13,2.4431192495748027e-13,1.7382147291236227e-13,1.1345438230618228e-13,7.64985194915381e-14,5.158534405998138e-14,3.5442279977746857e-14,2.0987639309613368e-14,3.2792331082127175e-09,1.3768632709434463e-09,8.121736754740218e-10,4.850420468053785e-10,2.9542835920916557e-10,2.1686503499156755e-10,1.5388230329517258e-10,1.0338541833326178e-10,7.528949689281156e-11,5.001242518878517e-11,3.6582679449851914e-11,2.4432427872717476e-11,1.565045369014825e-11,9.15133225232277e-12,6.012014235037407e-12,3.4585496399053853e-12,1.860735201955065e-12,9.447476805149412e-13,4.811570106019901e-13
0.0,22,22.0,0.0,30.0,0.0,0.0,0.0,0.0,-13.0,0.0,2.0,0.0,0.0,0.0,6.358813905545578e-11,5.861919186266988e-11,5.3821027652912437e-11,4.754363861488484e-11,4.0765503447388486e-11,3.35654559267078e-11,2.926193264253582e-11,2.429398473289542e-11,1.9351142072336418e-11,1.5102074088993376e-11,1.0240039715620831e-11,7.603467456006551e-12,5.473306973311783e-12,3.801968758569344e-12,2.465237788009139e-12,1.4878752195387028e-12,1.0072968137736798e-12,5.620760950390074e-13,3.7655400606458627e-13,2.532271505285655e-13,1.623650734432102e-13,1.0735322832362199e-13,7.766513272014865e-14,5.004507518806997e-14,3.382962643411817e-14,2.3069311210939264e-14,3.0975116966713856e-09,1.4714022143309322e-09,7.790966522379638e-10,4.6458531066291504e-10,3.2810177904135987e-10,2.2226737432772676e-10,1.5515491993981865e-10,1.0874344805939328e-10,7.949342520838685e-11,4.8836028116312254e-11,3.567211080682575e-11,2.3083816739638468e-11,1.5928000580171123e-11,1.0415037272302205e-11,5.986860974295843e-12,3.740562267717287e-12,1.9920098959302848e-12,1.058765031008381e-12,5.340758725771078e-13
0.0,23,23.0,0.0,30.0,0.0,0.0,0.0,0.0,-13.0,0.0,2.0,0.0,0.0,0.0,6.60973612442488e-11,5.7846300839519836e-11,5.225801704921866e-11,4.7186651661194925e-11,4.043519488886076e-11,3.565736701237537e-11,2.745481884309044e-11,2.4393542091287102e-11,1.9181744539333e-11,1.4819647441500514e-11,1.119344760331294e-11,7.601144081968564e-12,5.812332326092622e-12,3.835030193522952e-12,2.6663532724610565e-12,1.596520175544344e-12,9.764940044779438e-13,5.826395635921613e-13,3.691634588265819e-13,2.3712661849387485e-13,1.6981240361206184e-13,1.0415722768113077e-13,6.825688626657859e-14,4.9937850498841276e-14,3.3375727425851147e-14,2.063009150115479e-14,3.2442259762719098e-09,1.468824812028451e-09,7.598231782840448e-10,5.157472654891465e-10,2.9972495940091914e-10,2.1895694720141588e-10,1.6252433361777688e-10,1.1624608032495529e-10,7.499934990490167e-11,5.348107745923069e-11,3.5245757185656424e-11,2.5433955349138517e-11,1.609258101047379e-11,1.0059733736942182e-11,6.355124840452934e-12,3.4951940366237303e-12,1.95777812681785e-12,1.0840512520666654e-12,5.668639010516109e-13
0.0,24,24.0,0.0,30.0,0.0,0.0,0.0,0.0,-13.0,0.0,2.0,0.0,0.0,0.0,6.562078405083839e-11,6.085344609231257e-11,5.239102961378052e-11,5.0331496316184496e-11,4.256388607372086e-11,3.6909297503020137e-11,3.132020057668258e-11,2.428081985207282e-11,1.929569870621267e-11,1.4234760749152745e-11,1.1278164498912954e-11,8.481437195265427e-12,6.031048169488302e-12,3.978064335162148e-12,2.5538360850767527e-12,1.6588651183837646e-12,1.0071811995574475e-12,5.998824972713847e-13,3.782272947097498e-13,2.4312716105531257e-13,1.5136787955114836e-13,9.463314261968649e-14,7.103386853601153e-14,4.479833021531218e-14,3.212619934310214e-14,2.0690508844810096e-14,3.124664329563615e-09,1.5310072327560946e-09,8.074026619235587e-10,4.83279618400112e-10,3.4008926665383213e-10,2.1649087465490355e-10,1.4561017425307773e-10,1.0988683067560404e-10,8.025008655656769e-11,5.4776202746404095e-11,3.637585906149081e-11,2.507437663745653e-11,1.5721390133037916e-11,9.90838004715898e-12,6.239220323514086e-12,3.662902583632761e-12,2.03131966211883e-12,1.109125422578969e-12,5.898718567268848e-13
0.0,25,25.0,0.0,30.0,0.0,0.0,0.0,0.0,-13.0,0.0,2.0,0.0,0.0,0.0,6.626761151027815e-11,5.927261834764446e-11,5.382593326499288e-11,4.804371984502552e-11,4.270263054843167e-11,3.67478296206448e-11,3.1777856175049514e-11,2.433552333178751e-11,2.0058605511327485e-11,1.5291117713654153e-11,1.127113953559874e-11,8.480234454701233e-12,5.584031498634511e-12,4.007281417830446e-12,2.6340464189928953e-12,1.6468218202447153e-12,9.988908994309102e-13,6.31340667071577e-13,3.7589828813659915e-13,2.3295285689366603e-13,1.5346847157986727e-13,9.96148959895686e-14,6.899022878051049e-14,4.5546377304068753e-14,3.117614119787426e-14,1.8166024191835945e-14,3.068441941617794e-09,1.4394376388522234e-09,8.019876552985979e-10,5.159153206250456e-10,3.04029725333452e-10,2.1986978381743117e-10,1.6286148769602596e-10,1.1316144260397491e-10,7.455612895693824e-11,5.251170738698641e-11,3.574505081422452e-11,2.4377415155966105e-11,1.5991736805040492e-11,1.0563235538009878e-11,6.712670572852189e-12,3.850647330011084e-12,2.153086486055736e-12,1.1363534530766146e-12,5.735691884965395e-13
0.0,26,26.0,0.0,30.0,0.0,0.0,0.0,0.0,-13.0,0.0,2.0,0.0,0.0,0.0,6.737924433266531e-11,6.099951809735919e-11,5.738499463868212e-11,5.1115067168462934e-11,4.110761421966284e-11,3.407748226422861e-11,2.969549022896837e-11,2.3554011983219848e-11,2.0540070934699975e-11,1.5964585860228717e-11,1.208193621457541e-11,8.832486282991642e-12,6.234665768492841e-12,4.323629239664925e-12,2.7326653399451463e-12,1.7312732621804433e-12,1.0427636026302598e-12,6.492422966529666e-13,3.574557468282363e-13,2.4345032616723997e-13,1.5455630119189126e-13,1.037212454888141e-13,6.173706529697935e-14,4.351413079498545e-14,2.8320200140771495e-14,1.6700076119199142e-14,3.215829221636673e-09,1.460701105632113e-09,8.127351324028879e-10,4.683785295510108e-10,3.202612697048493e-10,2.255717017062278e-10,1.5915020977535136e-10,1.0657351052834617e-10,7.799067676403886e-11,5.4998012056989145e-11,3.698069216124638e-11,2.521886323297561e-11,1.619560522994644e-11,1.004175798471831e-11,6.48671586315232e-12,3.925843569200607e-12,2.1781476221647736e-12,1.194523468595023e-12,6.71455433310093e-13
0.0,27,27.0,0.0,30.0,0.0,0.0,0.0,0.0,-13.0,0.0,2.0,0.0,0.0,0.0,7.18710303082994e-11,6.177553967147939e-11,5.430645225101811e-11,4.97175808839752e-11,4.280686858226912e-11,3.645940826954638e-11,3.163887988634859e-11,2.539443453447488e-11,2.0604280376877815e-11,1.5854971070561727e-11,1.2945850781653469e-11,8.355420739203788e-12,6.52059730081984e-12,3.955723483413534e-12,2.8701507508621697e-12,1.7039467841369241e-12,1.0851970915476726e-12,6.852873359476458e-13,3.947005642776977e-13,2.4432060235406924e-13,1.545940668364406e-13,9.576618322983044e-14,6.120639306450157e-14,4.1981959094475524e-14,2.8096593376680574e-14,1.820112786122911e-14,3.2250918810140686e-09,1.4058231692949314e-09,8.204010036864304e-10,4.803198106158116e-10,3.558672648176215e-10,2.335099182735714e-10,1.579504394695871e-10,1.1426536405955283e-10,7.905919553630418e-11,5.15755169412357e-11,3.647519054422982e-11,2.5969352356291333e-11,1.5890455417433126e-11,1.0768370154878002e-11,6.727053221228058e-12,4.050874891045774e-12,2.2672049203069862e-12,1.1865236334859055e-12,6.087857429300899e-13
0.0,28,28.0,0.0,30.0,0.0,0.0,0.0,0.0,-13.0,0.0,2.0,0.0,0.0,0.0,6.936965289281885e-11,6.561826595697704e-11,5.8118770395901756e-11,4.854940660685235e-11,4.168451246528234e-11,3.7104295494053064e-11,3.161605123762237e-11,2.6180760722421797e-11,2.037457037962144e-11,1.5921538815515105e-11,1.163460415147352e-11,9.371211909059112e-12,6.332878492091743e-12,4.498091454159001e-12,2.849647922127491e-12,1.8393603315302643e-12,1.1163815774220543e-12,6.802271596675441e-13,3.886750811361769e-13,2.398977934331763e-13,1.4634632120490833e-13,9.300313437837033e-14,6.333270076993044e-14,4.108462902009947e-14,2.5048332102051138e-14,1.6993351924221814e-14,3.029191874279168e-09,1.4381057596995414e-09,7.7229901702991e-10,5.18346964309448e-10,3.4016034194218746e-10,2.2668347623117243e-10,1.6279263766056574e-10,1.2520837035003394e-10,8.682580270055381e-11,5.709835338287096e-11,3.940891037093337e-11,2.6542494206481097e-11,1.5951662179652605e-11,1.0854673665954582e-11,6.593715546446492e-12,3.997297070932693e-12,2.2688181382937143e-12,1.2004478241410702e-12,6.526659843078819e-13
0.0,29,29.0,0.0,30.0,0.0,0.0,0.0,0.0,-13.0,0.0,2.0,0.0,0.0,0.0,6.65440989357415e-11,6.275628131884297e-11,5.93651356738089e-11,5.188177826213087e-11,4.32865894814346e-11,3.913660307861479e-11,3.100834622258704e-11,2.520401949097439e-11,2.2122599751840196e-11,1.649516334036087e-11,1.252716873508381e-11,9.288082635463835e-12,6.567694104996046e-12,4.3500590508865486e-12,2.8761263212763363e-12,1.8798506894429147e-12,1.1573238338647227e-12,6.998899899719782e-13,4.011962458802257e-13,2.532770402272888e-13,1.4049301016476567e-13,9.791511074013182e-14,6.231520070300539e-14,3.96460919036518e-14,2.603572050230718e-14,1.6289707285508967e-14,2.9710970839024835e-09,1.410134297697558e-09,8.121489486550403e-10,5.420671963128831e-10,3.5133731872711747e-10,2.274369988657486e-10,1.626666643872214e-10,1.215147739003126e-10,8.292242731551767e-11,5.5458897940876056e-11,3.751928845548774e-11,2.4804666743976876e-11,1.7671264523822125e-11,1.0708695768163222e-11,6.690378314584914e-12,3.997444674074205e-12,2.2903553457691243e-12,1.2236013608334647e-12,6.786293645008154e-13
0.0,30,30.0,0.0,30.0,0.0,0.0,0.0,0.0,-13.0,0.0,2.0,0.0,0.0,0.0,7.380645881092146e-11,6.403209251002927e-11,5.866961296511321e-11,5.3049546380708975e-11,4.560415603221728e-11,3.7111724875394775e-11,3.162733722684154e-11,2.6313136707740096e-11,2.1992632156466668e-11,1.6953033885364907e-11,1.2388886992686496e-11,8.650523805152249e-12,6.552929670364393e-12,4.4176748622420215e-12,3.086880741101591e-12,1.859337882597161e-12,1.1480822428648632e-12,6.998036242771842e-13,4.0899515155450946e-13,2.354480300084421e-13,1.5273369377554663e-13,8.77828376503728e-14,5.187299960379633e-14,3.5380464827905584e-14,2.5072624979239038e-14,1.593647532612264e-14,2.877814186422689e-09,1.346597570390441e-09,8.056200399569882e-10,5.345713215669893e-10,3.507288521820544e-10,2.3471502026433925e-10,1.7212818897644778e-10,1.167223015276008e-10,7.81393015442414e-11,5.844275579857907e-11,3.933921139575288e-11,2.670748067734853e-11,1.7309777932649414e-11,1.079927626157232e-11,6.903586812573085e-12,3.9793891035404614e-12,2.2668477011745998e-12,1.2377073013564868e-12,6.739776991216506e-13
0.0,31,31.0,0.0,30.0,0.0,0.0,0.0,0.0,-13.0,0.0,2.0,0.0,0.0,0.0,7.321215781286201e-11,6.715045195520194e-11,5.723678575953978e-11,5.257041443227107e-11,4.585778305586348e-11,3.9457470524328386e-11,3.2658937870440867e-11,2.571544184001985e-11,2.10894027926245e-11,1.6000663307347624e-11,1.2114056695013666e-11,9.696243073996405e-12,6.797109900901131e-12,4.618142376329151e-12,2.984375087089454e-12,1.9258582768741936e-12,1.2018897507177136e-12,7.356055711971891e-13,4.2643103140946705e-13,2.4455319987396546e-13,1.496103937024757e-13,8.790699911131374e-14,6.040654903533121e-14,3.7805600106028266e-14,2.11653975812677e-14,1.486731789652614e-14,2.979557663766027e-09,1.4967633646865059e-09,8.079000888992193e-10,5.170239781661131e-10,3.605489762576606e-10,2.523366900499081e-10,1.6146911940044532e-10,1.2343635159131963e-10,8.161954698069097e-11,5.842743816429209e-11,3.910704804962204e-11,2.6959328164193322e-11,1.8602959307253335e-11,1.0375848917185955e-11,6.903163214800409e-12,4.2775115262454675e-12,2.386671760313445e-12,1.3092699430815721e-12,7.488743976187147e-13
0.0,32,32.0,0.0,30.0,0.0,0.0,0.0,0.0,-13.0,0.0,2.0,0.0,0.0,0.0,7.201004600728761e-11,6.549715695478335e-11,5.958601267717266e-11,5.1718964781329054e-11,4.640961198295885e-11,3.753981699969357e-11,3.194219036851435e-11,2.6444448294061283e-11,2.1857913727043775e-11,1.703280870955714e-11,1.3259273327296817e-11,9.312024202586292e-12,6.8312115067443375e-12,4.8702970245451664e-12,3.1373339536831156e-12,2.053871749321398e-12,1.1930927092657374e-12,7.533117854786268e-13,4.3070790357495196e-13,2.443825715281907e-13,1.4102269962714943e-13,8.892225558623202e-14,5.6764522338900586e-14,3.6356915457541113e-14,2.3185498525369823e-14,1.6210322070709765e-14,3.0903386676451814e-09,1.3850576172886588e-09,8.08204798043021e-10,5.157343032834689e-10,3.559149060457061e-10,2.464880683514961e-10,1.779387890921561e-10,1.1900644277482829e-10,8.679340739091951e-11,6.457587479303277e-11,3.7644377644826054e-11,2.6407362431242772e-11,1.6631000784119086e-11,1.1043251320518609e-11,7.0510367954464975e-12,4.1964138064164595e-12,2.5357233904570297e-12,1.3823251234477716e-12,7.551602442082215e-13
0.0,33,33.0,0.0,30.0,0.0,0.0,0.0,0.0,-13.0,0.0,2.0,0.0,0.0,0.0,7.397002884680772e-11,6.5134693607531e-11,6.080364315756007e-11,5.33766491976372e-11,4.6349619863994854e-11,4.032851485467143e-11,3.2295348535177117e-11,2.7152891135058677e-11,2.1117975604185703e-11,1.7314761518448078e-11,1.2590484293704342e-11,9.602883939922958e-12,6.600808786134164e-12,4.7620162370209746e-12,3.224786017688986e-12,2.115035855425742e-12,1.2819574448791454e-12,7.684372844879587e-13,4.347323886632312e-13,2.5131383721802866e-13,1.448257047318768e-13,8.917182232246855e-14,5.5834630928909944e-14,3.5925412428311515e-14,2.318742247330321e-14,1.600904461590029e-14,2.955153830678665e-09,1.491734100572355e-09,8.227685717177885e-10,5.15244553211248e-10,3.622052933818664e-10,2.497109350500692e-10,1.7650643224233065e-10,1.2798312793315166e-10,8.556828599507097e-11,5.82885661657603e-11,4.0665324369945707e-11,2.6276579595925523e-11,1.7476783204877592e-11,1.1334301841127843e-11,6.621146968837769e-12,4.308987387087741e-12,2.491260767080384e-12,1.3898989894173378e-12,7.043434241240528e-13
0.0,34,34.0,0.0,30.0,0.0,0.0,0.0,0.0,-13.0,0.0,2.0,0.0,0.0,0.0,7.21957342361408e-11,6.63558366054104e-11,6.001236954093514e-11,5.3881580463165185e-11,4.8410023754600455e-11,4.0405067877122064e-11,3.2949368593651586e-11,2.685451681883825e-11,2.273527499847489e-11,1.725793542035145e-11,1.338201611364347e-11,9.373099657416883e-12,6.982848898493271e-12,4.7315029385606675e-12,3.231850887269703e-12,2.0526600717582613e-12,1.290207675436289e-12,7.677544210180143e-13,4.289564902692527e-13,2.4691388691873697e-13,1.4993322765135665e-13,8.846284925275832e-14,5.247511504410477e-14,3.356896929775842e-14,2.256489981249247e-14,1.560090647226814e-14,3.032892664907592e-09,1.4087558472272491e-09,8.233810441247628e-10,5.160405991980352e-10,3.675904188925992e-10,2.567369891136113e-10,1.77964949837254e-10,1.2430141389191355e-10,8.83992123989328e-11,6.187793212712226e-11,4.140210174249024e-11,2.8261735557749354e-11,1.746568666354477e-11,1.1211618653326917e-11,7.133421679678999e-12,4.203024652853297e-12,2.5388531497088854e-12,1.422957950909985e-12,7.687725208667861e-13
0.0,35,35.0,0.0,30.0,0.0,0.0,0.0,0.0,-13.0,0.0,2.0,0.0,0.0,0.0,7.403621638041485e-11,7.20410223058287e-11,5.892446442352171e-11,5.413104040264494e-11,4.8478504291885775e-11,3.8835977850942386e-11,3.494481625153293e-11,2.6875575032963277e-11,2.107687311767964e-11,1.788579517483862e-11,1.2915637077975574e-11,9.441920290038715e-12,7.307198536803038e-12,4.708648972026845e-12,3.2482162817513895e-12,2.142809775773336e-12,1.2999946761958437e-12,7.804458618642228e-13,4.798849263742972e-13,2.755744358062007e-13,1.5533441379838112e-13,8.607503557892345e-14,5.33279268286418e-14,3.368655683314296e-14,2.151464994584331e-14,1.3902692961939873e-14,2.957629803066017e-09,1.4261882112987289e-09,8.507767017386173e-10,5.56350524701233e-10,3.9043652181766716e-10,2.4486403222050885e-10,1.8461555282089965e-10,1.2194865359720904e-10,8.68849781328293e-11,6.44209646906335e-11,4.117395327982026e-11,2.6967186008838427e-11,1.7663693816001693e-11,1.1459109708682779e-11,7.166992234366717e-12,4.115832391363657e-12,2.5235732010648413e-12,1.3796444947761042e-12,7.554084620293174e-13
0.0,36,36.0,0.0,30.0,0.0,0.0,0.0,0.0,-13.0,0.0,2.0,0.0,0.0,0.0,7.480345834431422e-11,7.273847369590793e-11,6.168618465201733e-11,5.290145251636679e-11,4.801192003262709e-11,4.1540364600507155e-11,3.5448294455124656e-11,2.7754677372948758e-11,2.20520454527662e-11,1.7880714260847754e-11,1.2778966529159893e-11,1.0068393523686018e-11,7.163122820364566e-12,5.043060599334312e-12,3.4101084369774163e-12,2.114350063230334e-12,1.3627395635518079e-12,7.82704869012608e-13,4.837193052138613e-13,2.60990142418674e-13,1.568554844403702e-13,8.89200656499601e-14,5.101812146424475e-14,3.155263138955966e-14,1.9862618690695492e-14,1.2856939445268903e-14,2.9629882708832613e-09,1.328774486586344e-09,8.062444097607784e-10,5.377503437935686e-10,3.8900539742560286e-10,2.5825895594862576e-10,1.8308352922268027e-10,1.2310682342875194e-10,9.03285466678892e-11,6.030045657858241e-11,4.2842190755030845e-11,2.9495755152587326e-11,1.8243662578482988e-11,1.0983434202927537e-11,7.199886779561534e-12,4.173493017682149e-12,2.498404357728834e-12,1.4387077053935744e-12,8.105690962170568e-13
0.0,37,37.0,0.0,30.0,0.0,0.0,0.0,0.0,-13.0,0.0,2.0,0.0,0.0,0.0,7.764658379020115e-11,7.17006566148682e-11,6.325201604064635e-11,5.673305713032078e-11,4.8102487235358516e-11,4.2663980896571135e-11,3.301259558824007e-11,2.7592913301139183e-11,2.1769220429080144e-11,1.720351760755469e-11,1.298266232187912e-11,1.005721450712481e-11,7.023967691027446e-12,5.01813554947648e-12,3.3454107362547394e-12,2.1613988363380223e-12,1.3868079063457236e-12,7.964044421817485e-13,4.638665872414657e-13,2.5740634336180836e-13,1.4982092369294312e-13,8.820518261168915e-14,5.470948512524028e-14,3.129521237603373e-14,2.2312107249818495e-14,1.292903104031683e-14,2.948453467069479e-09,1.422999782326231e-09,8.507264780677907e-10,5.792707620732342e-10,3.930281749727265e-10,2.5607406793911844e-10,1.8411728407936497e-10,1.3299560946454802e-10,8.885134331501616e-11,6.387201068085842e-11,4.227390769152726e-11,2.7164860784649532e-11,1.829800693855434e-11,1.1795699631843009e-11,6.915644302267295e-12,4.5233978425726365e-12,2.5607634069293316e-12,1.4418174321640791e-12,8.003086880594764e-13
0.0,38,38.0,0.0,30.0,0.0,0.0,0.0,0.0,-13.0,0.0,2.0,0.0,0.0,0.0,7.2277803287965e-11,7.29683597590457e-11,6.440672661837797e-11,5.559646547930793e-11,4.9312092695045503e-11,4.2124617409380204e-11,3.376994653370267e-11,2.8621642541009533e-11,2.1667436383455526e-11,1.8710230020509468e-11,1.3464084984563169e-11,9.915245023239154e-12,6.9323145085657975e-12,5.025600036575383e-12,3.4362997798360897e-12,2.266848409129536e-12,1.344044356618894e-12,8.381382625939157e-13,5.016988451609423e-13,2.7942176070361376e-13,1.5608757540803827e-13,9.084016791693907e-14,5.1570817697084537e-14,3.088610636632513e-14,1.9384071961844992e-14,1.3504656732989355e-14,2.972685998322808e-09,1.4165489223331094e-09,8.172753460423221e-10,5.522300579768092e-10,3.924668270990017e-10,2.7316245893820063e-10,1.8325408581196014e-10,1.340273515149226e-10,9.256667415874842e-11,6.317116421336935e-11,3.946281782546845e-11,2.7469493756815138e-11,1.9061576623678496e-11,1.1540986933703333e-11,7.203376953352783e-12,4.33301605222064e-12,2.5925180326387896e-12,1.489556987127753e-12,8.154933497328857e-13
0.0,39,39.0,0.0,30.0,0.0,0.0,0.0,0.0,-13.0,0.0,2.0,0.0,0.0,0.0,8.217714692314759e-11,7.319211130400903e-11,6.799051547492523e-11,5.963419305027683e-11,4.942176262808004e-11,4.056469827054e-11,3.404192006034805e-11,2.798654223798933e-11,2.311553549005853e-11,1.7245154146807704e-11,1.3632060879241442e-11,1.047251843105694e-11,7.444988004935127e-12,5.105585557519444e-12,3.484369161661547e-12,2.207165692232971e-12,1.4523929280998538e-12,8.720909496575946e-13,4.799013260504353e-13,2.8429242514204114e-13,1.5900475845211387e-13,8.90127586386293e-14,5.06772572921714e-14,3.122504826678437e-14,1.9014089817001626e-14,1.1058918466748118e-14,2.987813082530472e-09,1.4810635368623192e-09,8.427136086240802e-10,5.700611304326457e-10,3.68947929642737e-10,2.651606709353991e-10,1.9132739834278353e-10,1.3122212777144697e-10,9.91853344777491e-11,6.594885773890703e-11,4.356884221761645e-11,2.712899087282802e-11,1.8040123824058426e-11,1.1594393549497002e-11,7.178494101365034e-12,4.2500803289301994e-12,2.551334450519114e-12,1.4660221149726436e-12,7.61667124548796e-13
0.0,40,40.0,0.0,30.0,0.0,0.0,0.0,0.0,-13.0,0.0,2.0,0.0,0.0,0.0,8.153294293628685e-11,7.25816772683294e-11,6.504348190023581e-11,5.63661471703998e-11,4.9964938837433466e-11,4.2436154482979206e-11,3.442023663195924e-11,2.9647649874187396e-11,2.2394432483273596e-11,1.8792931676753045e-11,1.3543230833259774e-11,9.963005483413499e-12,6.928174030828332e-12,5.060226205642657e-12,3.7245859777018535e-12,2.3636435669251483e-12,1.4437824043409652e-12,8.84169465095717e-13,5.22709243272362e-13,2.8613698786071174e-13,1.6485893991911632e-13,8.8965393186031e-14,5.0173254626248227e-14,3.1449573802165835e-14,1.914559547566424e-14,1.049596119350432e-14,2.9028413696973023e-09,1.4123320324011845e-09,8.886341589542734e-10,5.54940800275802e-10,3.9040667555634563e-10,2.6548196305495056e-10,1.9753559301187346e-10,1.3655521737749306e-10,9.554310596768707e-11,6.476076144248662e-11,4.279447592528099e-11,2.9265684480481245e-11,1.8563041282993108e-11,1.18506458967657e-11,7.307502825547315e-12,4.471247599773204e-12,2.603416229391427e-12,1.4775140200920787e-12,7.846398912607553e-13
0.0,41,41.0,0.0,30.0,0.0,0.0,0.0,0.0,-13.0,0.0,2.0,0.0,0.0,0.0,8.117557341526433e-11,7.73807441769779e-11,6.743483708073527e-11,5.749250738161487e-11,5.072476098440258e-11,4.43584629616915e-11,3.608223186973041e-11,2.970051894469533e-11,2.296825554134294e-11,1.8885336640655405e-11,1.4211658160866085e-11,1.007963707127701e-11,7.310933991486272e-12,5.105016569901463e-12,3.721905660439369e-12,2.245766338572543e-12,1.4289615926823442e-12,8.703806621102814e-13,4.955967974658131e-13,2.7645902483959285e-13,1.555375056925152e-13,9.092891129552784e-14,5.720457495641079e-14,2.9823011842142426e-14,1.953846458213416e-14,1.24970141143802e-14,2.8032725154591602e-09,1.4053563458684922e-09,8.569910690872704e-10,5.781198058264632e-10,4.0169219595855813e-10,2.6384092562015506e-10,2.0376806606605194e-10,1.4799644758414376e-10,9.60490467923444e-11,6.728958115866158e-11,4.497081295767232e-11,2.8875729979664232e-11,1.9373103443644306e-11,1.2138128935483876e-11,7.67418473928349e-12,4.46414587913307e-12,2.8521992573846362e-12,1.5006937290358476e-12,8.220305909805622e-13
0.0,42,42.0,0.0,30.0,0.0,0.0,0.0,0.0,-13.0,0.0,2.0,0.0,0.0,0.0,8.250603707102615e-11,7.475603444109517e-11,6.736901988680903e-11,5.926827118593163e-11,5.0821136516470167e-11,4.220128448720358e-11,3.665227892775639e-11,2.9362251657492804e-11,2.351124259484164e-11,1.777089435988118e-11,1.408534053947099e-11,1.0527176475063881e-11,7.35973895141177e-12,5.31971159110273e-12,3.5761767115835763e-12,2.3678144659338407e-12,1.4795777357847943e-12,8.999507550349855e-13,5.146020723651567e-13,3.0308796599371855e-13,1.5907783687249177e-13,9.249539088329034e-14,5.404217533557305e-14,2.976460101569714e-14,2.0231386373653828e-14,1.1084307789149063e-14,2.8151263138885052e-09,1.4207184830425017e-09,8.778685493909582e-10,5.869287844297629e-10,4.1414689286623336e-10,2.787948033956205e-10,2.1162012503562261e-10,1.3935344576062877e-10,9.215099396822923e-11,6.77872409963453e-11,4.523863405911761e-11,3.258699657264849e-11,1.880701173036904e-11,1.2353636559509999e-11,7.50965953658199e-12,4.3083660037549495e-12,2.6029236833696207e-12,1.4610805333826158e-12,8.576139018722144e-13
0.0,43,43.0,0.0,30.0,0.0,0.0,0.0,0.0,-13.0,0.0,2.0,0.0,0.0,0.0,7.687529985690884e-11,7.363055463354644e-11,6.65618437399123e-11,5.7401428391642e-11,5.1603675721199774e-11,4.341605379598494e-11,3.8320935911543555e-11,2.9059401226251712e-11,2.4266287994386772e-11,1.8372959240669688e-11,1.3765201839704001e-11,1.0543494837655062e-11,7.555198867215821e-12,5.6053027305536946e-12,3.513660605931098e-12,2.4419607620139682e-12,1.5690810265559845e-12,9.643016385666326e-13,5.692640292513475e-13,3.0429663586450424e-13,1.6565909149164885e-13,9.622281736924973e-14,5.175149329053757e-14,2.839969250758156e-14,2.0570982808639864e-14,1.0873527191703961e-14,2.944722651066542e-09,1.4070879230259555e-09,9.019732788660898e-10,5.815797521785555e-10,4.2376047419260926e-10,2.9525494061942135e-10,2.1840780010180453e-10,1.447184888903648e-10,9.459054067159893e-11,6.415032433168469e-11,4.658545102813003e-11,3.0304452775132786e-11,1.9079587748938297e-11,1.2723421241450783e-11,7.0846091297619265e-12,4.464630475341598e-12,2.626667181281909e-12,1.4955879913920257e-12,8.457551028976676e-13
0.0,44,44.0,0.0,30.0,0.0,0.0,0.0,0.0,-13.0,0.0,2.0,0.0,0.0,0.0,8.612174574589115e-11,7.790754593423531e-11,7.048349827103669e-11,6.052186873939564e-11,5.078368392488357e-11,4.537122421452879e-11,3.823834475674546e-11,3.009238577359662e-11,2.3224517017530124e-11,1.9187139484447444e-11,1.4435054184188094e-11,1.0580908837460953e-11,7.849040809304444e-12,5.683091470368045e-12,3.576570717643989e-12,2.6720771485937465e-12,1.5469063067514999e-12,1.0014452692591198e-12,5.514189765548218e-13,3.116998398277934e-13,1.7248917049626782e-13,9.0010140969267e-14,5.40423686467333e-14,2.9663320647598723e-14,1.8934606666801368e-14,1.169740770281396e-14,2.8668229962108092e-09,1.3842134897201013e-09,8.738386159169491e-10,5.889888571822309e-10,4.2549065945996587e-10,2.9113333464951466e-10,1.9976766714417267e-10,1.4465161192042743e-10,9.747181466708788e-11,7.159562861148192e-11,4.4904146348030954e-11,3.0066330649005075e-11,1.9133935267293078e-11,1.2640514496894975e-11,7.355505016200336e-12,4.536795994869163e-12,2.751300906623619e-12,1.5935031875893652e-12,8.57582482152655e-13
0.0,45,45.0,0.0,30.0,0.0,0.0,0.0,0.0,-13.0,0.0,2.0,0.0,0.0,0.0,8.657929488533188e-11,7.902213283032544e-11,6.916748098738156e-11,6.110868846135839e-11,5.386928106464784e-11,4.3400705598564654e-11,3.825952756450616e-11,3.354845097726249e-11,2.4350269488351855e-11,1.8605141504391118e-11,1.4451403498128426e-11,1.063525207729372e-11,7.909667364144525e-12,5.275062238998766e-12,3.647382315094056e-12,2.467855713890361e-12,1.583851196108486e-12,9.723038787632982e-13,5.348642235554582e-13,3.297202075655721e-13,1.8647761143050872e-13,9.803285014732285e-14,5.116220452277843e-14,3.040570001156202e-14,1.6625490653665266e-14,1.0638332530145425e-14,2.8208096139075198e-09,1.4967315911918892e-09,8.649915856627377e-10,5.990420689659215e-10,4.54768283056042e-10,3.00521171684255e-10,2.169299879884064e-10,1.510289314260505e-10,1.0185642954945078e-10,6.90919883683058e-11,4.521773056716947e-11,3.0331370133924596e-11,1.9572914545341804e-11,1.2343064600950002e-11,7.864886436541192e-12,4.164610755948019e-12,2.5908994941890165e-12,1.536653566375732e-12,8.634739275979423e-13
0.0,46,46.0,0.0,30.0,0.0,0.0,0.0,0.0,-13.0,0.0,2.0,0.0,0.0,0.0,8.573575512173932e-11,7.686843483973978e-11,7.273928018233778e-11,6.287335147523963e-11,5.3941826062284604e-11,4.4959396297984745e-11,3.909023545377697e-11,2.8194134500564597e-11,2.4920597321353437e-11,1.9675014602367347e-11,1.490289999212138e-11,1.0537894889273451e-11,7.464153098309925e-12,5.403164132002404e-12,3.7657588371744164e-12,2.424183285209739e-12,1.624976030445985e-12,9.764700486180758e-13,5.826163931923924e-13,3.127756103429122e-13,1.773172074255755e-13,9.436532480519873e-14,5.71017252535348e-14,3.147404268377204e-14,1.7518802474249237e-14,1.0579588523028335e-14,2.9514048194502123e-09,1.4719752744682786e-09,8.919552535007385e-10,5.927470233446675e-10,3.950144835664982e-10,3.0363458736449425e-10,2.0910622786647163e-10,1.578053230414568e-10,1.0562644139682327e-10,7.02909898002473e-11,4.7275881858984554e-11,3.099159922924305e-11,1.942098400856173e-11,1.2408150656224073e-11,7.957307075101903e-12,4.539757815649651e-12,2.579803159906011e-12,1.48157802428545e-12,8.608845094252666e-13
0.0,47,47.0,0.0,30.0,0.0,0.0,0.0,0.0,-13.0,0.0,2.0,0.0,0.0,0.0,8.781392854063672e-11,7.931212070619625e-11,6.871850622741939e-11,6.322819837275403e-11,5.40032024713377e-11,4.738497966089828e-11,3.905850719494139e-11,3.0332997379879625e-11,2.402703786578923e-11,2.032348711425307e-11,1.4736664433345194e-11,1.0809153221669239e-11,7.716012531073163e-12,5.460725715968977e-12,3.791851236860759e-12,2.6159400458171394e-12,1.691703349747915e-12,9.860606246258521e-13,6.29465746800555e-13,3.269010955941927e-13,1.8843772298302938e-13,9.924614358329667e-14,5.65675860827909e-14,3.093164304871763e-14,1.8230271488389466e-14,1.1098351296018576e-14,2.9549333190351333e-09,1.476516614745344e-09,9.216710138530879e-10,6.283601259229242e-10,4.28207361215412e-10,3.1410055199250144e-10,2.1803438123915925e-10,1.4960796378102526e-10,1.0049200000676577e-10,6.992599026735127e-11,4.893738940948773e-11,3.1131182109423074e-11,2.0419328198048137e-11,1.2495674398851753e-11,7.360641248490065e-12,4.626160952861707e-12,2.5883623250253993e-12,1.5870003040110095e-12,9.353201364654396e-13
0.0,48,48.0,0.0,30.0,0.0,0.0,0.0,0.0,-13.0,0.0,2.0,0.0,0.0,0.0,8.992233457307431e-11,8.397256433573431e-11,7.308282277470437e-11,6.119436177657753e-11,5.58998960679628e-11,4.565348375689409e-11,3.7142216201258556e-11,3.20679114747861e-11,2.5381110275079127e-11,1.8944596327838216e-11,1.483794316639432e-11,1.0483769022995671e-11,8.469570099475603e-12,5.59697514712804e-12,3.75518156477246e-12,2.5360638894336145e-12,1.6707460903398573e-12,1.0312878329202714e-12,5.776867773694155e-13,3.433508585546073e-13,1.8558821966551908e-13,1.0647274226003434e-13,5.530332240943253e-14,3.032652851229375e-14,1.7320861182150585e-14,9.612582942197195e-15,2.657467463355699e-09,1.4016299486213724e-09,9.352157623099804e-10,6.197502402924835e-10,4.153171701865436e-10,2.9663229473592256e-10,2.1930126264457747e-10,1.6084070551627128e-10,1.1130989386749349e-10,7.001738396019093e-11,4.7986436092775076e-11,3.118778404069466e-11,2.0235746777116753e-11,1.2987700282200924e-11,7.779367113948783e-12,4.70138979057506e-12,2.6275031477004666e-12,1.540705067847698e-12,9.002679115860921e-13
0.0,49,49.0,0.0,30.0,0.0,0.0,0.0,0.0,-13.0,0.0,2.0,0.0,0.0,0.0,9.138645213611961e-11,8.579925637293459e-11,7.227418929917299e-11,6.379502071034712e-11,5.68153195433324e-11,4.5369713534655533e-11,3.781194151969689e-11,3.0940763336124305e-11,2.6416969251735972e-11,1.928148413059811e-11,1.510112340137474e-11,1.1456401237023553e-11,7.589322129091221e-12,5.680592401969745e-12,3.871477458017116e-12,2.631550390382505e-12,1.7198885002887563e-12,9.597658585230227e-13,6.15208765665331e-13,3.28129932883361e-13,2.0703078682391061e-13,1.0126872574568249e-13,5.3899785479742147e-14,2.870167433841531e-14,1.7839178689890327e-14,9.103102255922792e-15,2.82454961085063e-09,1.4587961972569868e-09,9.402942869926171e-10,6.186644023729274e-10,4.540545939671174e-10,3.1702877761277623e-10,2.2643884421665603e-10,1.4673712234068318e-10,1.0721840662550756e-10,7.241297322323732e-11,5.039725642683434e-11,3.116601811570723e-11,2.062704085531354e-11,1.2642109003570429e-11,8.083162942747804e-12,4.739476343454653e-12,2.608922159091005e-12,1.6476484436351169e-12,9.3886024100123e-13
0.0,50,50.0,0.0,30.0,0.0,0.0,0.0,0.0,-13.0,0.0,2.0,0.0,0.0,0.0,9.28603743967129e-11,8.533425737722752e-11,7.24605321940643e-11,6.559204557640959e-11,5.909022997680771e-11,5.0257663249054206e-11,3.979728630433779e-11,3.247731657271822e-11,2.534339402627138e-11,1.9788834013868984e-11,1.5328658894069142e-11,1.1057123189599548e-11,8.185680097420653e-12,5.754236215302783e-12,3.96103601495674e-12,2.6785444914221397e-12,1.729453047483082e-12,1.0333777666799897e-12,6.193746554985359e-13,3.523156491384374e-13,1.8636673036366658e-13,1.0323569303313507e-13,5.912945339132599e-14,3.243855625147112e-14,1.6574174031613334e-14,1.1299865198142052e-14,2.967492042363435e-09,1.5301155034185833e-09,9.282068134281782e-10,6.5836715596294e-10,4.232617227326372e-10,3.0327409862593414e-10,2.1027919637506799e-10,1.5191257953406458e-10,1.0942462160874547e-10,7.346046910332162e-11,5.118784859921861e-11,3.0894550767023365e-11,2.0959107259849276e-11,1.3123650644881805e-11,8.035939697167531e-12,4.746284618846469e-12,2.819592414864571e-12,1.5321029878151431e-12,8.913813409532609e-13
0.0,51,51.0,0.0,30.0,0.0,0.0,0.0,0.0,-13.0,0.0,2.0,0.0,0.0,0.0,9.341842645372531e-11,8.443843478981337e-11,7.511557023886753e-11,6.529434106197583e-11,5.744381825117428e-11,4.905775628521804e-11,4.055569550345572e-11,3.303953235119025e-11,2.535881113446766e-11,2.0241237302444457e-11,1.5379232545817113e-11,1.1175112642336903e-11,8.441615564554315e-12,5.435327350269256e-12,3.9901092934601686e-12,2.582968053266964e-12,1.6906570470824543e-12,1.0720998035109174e-12,6.345529114466904e-13,3.5887359636124245e-13,2.0625856964791784e-13,1.0248353722974512e-13,5.400830578380624e-14,3.050793408319197e-14,1.7995108579047895e-14,1.1031264676747852e-14,2.7028761362104865e-09,1.4794885674678536e-09,9.577613534453026e-10,6.315408428128838e-10,4.582743015721946e-10,3.2445322678905786e-10,2.3501644537915366e-10,1.617572427891496e-10,1.104209626080192e-10,7.74501157929369e-11,5.200680117905696e-11,3.309821468352317e-11,2.0782709306932098e-11,1.3080630702538382e-11,8.008785291811943e-12,4.95051204917046e-12,2.8276801573877367e-12,1.5947028817698528e-12,9.331908134821769e-13
0.0,52,52.0,0.0,30.0,0.0,0.0,0.0,0.0,-13.0,0.0,2.0,0.0,0.0,0.0,8.864339002645016e-11,8.305127231699078e-11,7.785696621382779e-11,6.880122147608813e-11,5.619769210327942e-11,4.818741616359321e-11,4.15333553941737e-11,3.404344281811665e-11,2.6137096319925915e-11,2.1273164495504302e-11,1.5170334428829193e-11,1.1406791335843957e-11,8.039877245137316e-12,5.7212486512011455e-12,3.9541687945788675e-12,2.669393384435731e-12,1.7377115241962462e-12,1.0442675758370233e-12,6.400349528738899e-13,3.8921060226495073e-13,2.1179933825091322e-13,1.0865560439435895e-13,6.072570702819174e-14,3.4318559978407577e-14,2.02443443426355e-14,1.1419463817426072e-14,2.759102419706087e-09,1.5069386607918927e-09,9.572969092144293e-10,6.465733635062415e-10,4.664934033288184e-10,3.446173192220439e-10,2.3148084664631472e-10,1.60158085619611e-10,1.1576497257087689e-10,7.332669716089712e-11,5.297356186565468e-11,3.207161513621291e-11,2.1501328674855653e-11,1.3566858768412865e-11,8.02292115338908e-12,4.912358000171504e-12,2.8522717425789747e-12,1.7099591580333938e-12,8.87266338332114e-13
0.0,53,53.0,0.0,30.0,0.0,0.0,0.0,0.0,-13.0,0.0,2.0,0.0,0.0,0.0,9.055639221921025e-11,8.567125590785927e-11,7.948020486543607e-11,6.922773416218913e-11,5.875498639258696e-11,4.931533825160312e-11,4.228577341475671e-11,3.446939343284265e-11,2.5800387342795515e-11,2.099192879351586e-11,1.521411321038379e-11,1.1572543666646617e-11,8.182237516179396e-12,5.879789701500277e-12,4.085186276410108e-12,2.641133755249729e-12,1.8758819960105186e-12,1.0266202093843994e-12,6.496399073563212e-13,3.823182017226956e-13,2.0396772765813908e-13,1.086518649474463e-13,5.99818449165806e-14,3.216074179878604e-14,1.5999343212277692e-14,1.2572649014085348e-14,2.887258240982628e-09,1.4234457915502748e-09,9.2041632680541e-10,6.502361699535102e-10,4.725647922823641e-10,3.3706380375869717e-10,2.3529773680067107e-10,1.7233249838446258e-10,1.137551954664027e-10,7.851234679596873e-11,5.293324174338675e-11,3.396311577100573e-11,2.069361324898385e-11,1.359704070069026e-11,8.438620098476897e-12,4.723225336897746e-12,2.8913042666097843e-12,1.6915052382712706e-12,8.759950023764806e-13
0.0,54,54.0,0.0,30.0,0.0,0.0,0.0,0.0,-13.0,0.0,2.0,0.0,0.0,0.0,9.475836246761725e-11,8.438834462999023e-11,7.976798223401322e-11,6.860336118276633e-11,5.91288403338942e-11,5.15147285334463e-11,4.305720812283382e-11,3.382905598478319e-11,2.7092302303109496e-11,2.1287765328618146e-11,1.5797123156139737e-11,1.1483312508233678e-11,7.95851392627961e-12,5.343050648657221e-12,4.0905657687881474e-12,2.6831256529352084e-12,1.7623357954847382e-12,1.0869583479201162e-12,6.192396738103326e-13,3.9248836270613164e-13,2.2177330820952174e-13,1.092166436198343e-13,6.011028977417685e-14,2.936790021239671e-14,1.7111703092716323e-14,1.0520635103758176e-14,2.799621325106224e-09,1.491166454391251e-09,9.681184787605176e-10,6.938057603486606e-10,4.738389773228551e-10,3.26042696597229e-10,2.37888773591974e-10,1.6142765352081397e-10,1.2065057393660938e-10,7.552353196025031e-11,5.210608576041113e-11,3.295785539845372e-11,2.116140560893848e-11,1.3900153441680279e-11,8.401926366211624e-12,5.122044989542162e-12,2.834803854035876e-12,1.6907780962160275e-12,9.086169011953788e-13
