Line_number,Fiducial,Easting,Northing,Height,Elevation,tx_pitch,tx_roll,tx_yaw,txrx_dx,txrx_dy,txrx_dz,rx_pitch,rx_roll,rx_yaw,S0Z_time_1.431e-04,S0Z_time_1.801e-04,S0Z_time_2.266e-04,S0Z_time_2.846e-04,S0Z_time_3.581e-04,S0Z_time_4.506e-04,S0Z_time_5.671e-04,S0Z_time_7.136e-04,S0Z_time_8.981e-04,S0Z_time_1.131e-03,S0Z_time_1.423e-03,S0Z_time_1.791e-03,S0Z_time_2.255e-03,S0Z_time_2.838e-03,S0Z_time_3.573e-03,S0Z_time_4.498e-03,S0Z_time_5.662e-03,S1Z_time_1.409e-05,S1Z_time_1.610e-05,S1Z_time_1.909e-05,S1Z_time_2.360e-05,S1Z_time_2.960e-05,S1Z_time_3.709e-05,S1Z_time_4.609e-05,S1Z_time_5.759e-05,S1Z_time_7.209e-05,S1Z_time_9.060e-05,S1Z_time_1.141e-04,S1Z_time_1.431e-04,S1Z_time_1.801e-04,S1Z_time_2.266e-04,S1Z_time_2.846e-04,S1Z_time_3.581e-04,S1Z_time_4.506e-04,S1Z_time_5.671e-04,S1Z_time_7.136e-04,S1Z_time_8.981e-04,S1Z_time_1.131e-03
0.0,0,0.0,0.0,30.0,0.0,0.0,0.0,0.0,-13.0,0.0,2.0,0.0,0.0,0.0,1.9638513980779523e-11,1.6544288694908505e-11,1.3082155855712592e-11,1.0934062578167232e-11,8.810240780213051e-12,7.1008493356058376e-12,6.17668226096756e-12,4.4659870700927344e-12,3.5432085561385103e-12,2.7126163390289623e-12,2.142675641965382e-12,1.5690964300363758e-12,1.2170383996933376e-12,9.009501550088632e-13,6.042571808695493e-13,4.1370540331624607e-13,2.7267291852944747e-13,1.55068437366541e-10,1.12733784215014e-10,8.777525586749258e-11,6.628763762317776e-11,5.53019912845624e-11,4.045604278659292e-11,3.61608256549977e-11,3.0307024354722335e-11,2.491155669260107e-11,1.9965153347609867e-11,1.7140559427760335e-11,1.39818083978441e-11,1.1086240154404651e-11,8.261623511935857e-12,7.173541482668933e-12,5.5079606034516036e-12,3.9866615515432314e-12,3.0380127703837694e-12,2.2673101607081507e-12,1.6637944174537947e-12,1.1938265083374898e-12
0.0,1,1.0,0.0,30.0,0.0,0.0,0.0,0.0,-13.0,0.0,2.0,0.0,0.0,0.0,1.8226548624045154e-11,1.4845404179478866e-11,1.1408597378168005e-11,1.0112760711752807e-11,7.904352091034889e-12,6.360404455953091e-12,4.962008986777984e-12,4.1738528447699644e-12,3.1686139689181703e-12,2.3822998782316605e-12,2.0205854273605252e-12,1.4780242632091489e-12,1.0884055771617633e-12,7.795696226064884e-13,5.437167800774529e-13,3.772696938303341e-13,2.510785965954609e-13,2.1992208665353656e-10,1.5142592833118752e-10,1.0215108289301814e-10,6.635409301978779e-11,4.93299387373029e-11,3.9901790472005586e-11,3.0623808684830514e-11,2.7231439206602135e-11,2.1784178818899458e-11,1.8370827752298368e-11,1.5272259910885534e-11,1.229824219656636e-11,1.0458514613641193e-11,7.979651999531461e-12,6.2034610363202515e-12,4.709807759663048e-12,3.643352838389603e-12,2.912546263694516e-12,2.062712237486162e-12,1.4211172323807645e-12,1.0683819832107935e-12
0.0,2,2.0,0.0,30.0,0.0,0.0,0.0,0.0,-13.0,0.0,2.0,0.0,0.0,0.0,1.574349439686374e-11,1.3254720885532105e-11,1.0190713729585183e-11,8.99734119697596e-12,6.938613615933941e-12,5.619398847384714e-12,4.7173156434862934e-12,3.798572479929115e-12,3.1191796063089633e-12,2.3533924432346672e-12,1.6486997042236733e-12,1.288135401421018e-12,1.0437907190371819e-12,7.232198679784357e-13,4.853108299990582e-13,3.584020577668713e-13,2.362957183994707e-13,2.8435449450996675e-10,2.0031745876724016e-10,1.319297267157066e-10,7.696202085811174e-11,5.1747770244857896e-11,3.752816299372491e-11,2.961841514748795e-11,2.566112159929694e-11,2.1005222114606218e-11,1.6515897819394786e-11,1.3611643326888485e-11,1.0760628627040985e-11,9.225119182409166e-12,6.7703288723620625e-12,5.485852820576195e-12,4.186628163073248e-12,3.412037610703415e-12,2.452657087313794e-12,1.8118704305321028e-12,1.2988841024270143e-12,9.490895640957605e-13
0.0,3,3.0,0.0,30.0,0.0,0.0,0.0,0.0,-13.0,0.0,2.0,0.0,0.0,0.0,1.469305438773359e-11,1.1514891664156714e-11,9.732652847760324e-12,7.785463402408672e-12,6.2789350138985195e-12,5.404201174191994e-12,4.224064317044759e-12,3.2736616755016682e-12,2.6523082517944115e-12,2.0716805121227315e-12,1.6075331595844221e-12,1.210848676866412e-12,8.972236950891566e-13,6.427884954193152e-13,4.804247621972867e-13,3.3484229070041856e-13,2.200644418410692e-13,3.817320998560387e-10,2.517832835088602e-10,1.604250466343129e-10,9.427542329316403e-11,6.146575619905168e-11,3.792653695176206e-11,2.8590239406807184e-11,2.2190422392594363e-11,1.821532952051968e-11,1.5284930691066256e-11,1.2670013268453719e-11,9.393001273495388e-12,7.91444511997504e-12,6.3081262961182445e-12,5.253179821922221e-12,3.919916817200404e-12,3.1234405630424356e-12,2.1456542877097807e-12,1.6701770074679541e-12,1.2485203039780246e-12,8.123972557473515e-13
0.0,4,4.0,0.0,30.0,0.0,0.0,0.0,0.0,-13.0,0.0,2.0,0.0,0.0,0.0,1.3197417640924909e-11,1.1115388535730063e-11,8.75427906821394e-12,6.967094886608337e-12,5.753984011405397e-12,4.577675330508585e-12,3.5946877777389923e-12,3.0779058449612036e-12,2.4470661197299893e-12,1.844735991884418e-12,1.448296066351936e-12,1.1221337153696536e-12,7.97445387657907e-13,6.145478030336662e-13,4.280080476370677e-13,2.8597360757981885e-13,1.8749941563001594e-13,4.4241172270969716e-10,3.149290843605884e-10,2.0297971592017753e-10,1.151479583427418e-10,6.581838153183452e-11,4.019908177440452e-11,2.728381565762762e-11,2.1627983094590225e-11,1.7374697906896093e-11,1.385892391605135e-11,1.1033742444987205e-11,9.128473174642739e-12,7.282115225452116e-12,5.9370669878993915e-12,4.312757284835188e-12,3.5957214086717027e-12,2.68262351967601e-12,1.9881750396227123e-12,1.5656596575184722e-12,1.1303109658085367e-12,7.570660781638272e-13
0.0,5,5.0,0.0,30.0,0.0,0.0,0.0,0.0,-13.0,0.0,2.0,0.0,0.0,0.0,1.193534339767983e-11,9.696828513863036e-12,7.661430254706408e-12,6.302683689025238e-12,5.248971892623082e-12,4.277323326932246e-12,3.3774776518947094e-12,2.8636305081084677e-12,2.1636469946416676e-12,1.6975554119410376e-12,1.3954610465430935e-12,1.038158232943022e-12,8.081552622416423e-13,5.83117595519576e-13,3.6779099619465517e-13,2.7434163318473037e-13,1.94194820468525e-13,5.315214413482235e-10,3.86314923539824e-10,2.591683561998875e-10,1.446751725655771e-10,8.229552765955433e-11,4.2603183732933427e-11,3.050262372195595e-11,2.0933694596114157e-11,1.6192615897004885e-11,1.285763483256282e-11,9.7260292173426e-12,7.999828210958674e-12,6.594102234258696e-12,5.214740959249261e-12,4.015812660058282e-12,3.118216833203499e-12,2.3653268477070333e-12,1.8478325185769168e-12,1.3253847425145357e-12,1.012190759406136e-12,7.143460006236388e-13
0.0,6,6.0,0.0,30.0,0.0,0.0,0.0,0.0,-13.0,0.0,2.0,0.0,0.0,0.0,1.1036478064356163e-11,9.28206793110847e-12,7.161071925712282e-12,6.198742571118148e-12,5.035132231769388e-12,3.911141145902548e-12,3.1877499621750844e-12,2.3234364082002954e-12,2.0000818717886316e-12,1.5924043813798424e-12,1.1158226454065749e-12,9.534653916410377e-13,7.031174197664698e-13,4.905649232157001e-13,3.6518934968152305e-13,2.5708499554789847e-13,1.7002364848450044e-13,5.598436617723805e-10,4.437713917599887e-10,3.039657149588113e-10,1.7516411498802327e-10,9.945386203983528e-11,5.0872309772153556e-11,3.2317084740682654e-11,2.0525674456284865e-11,1.532063804321534e-11,1.1641694955340233e-11,9.183983904819502e-12,7.452646052999478e-12,6.149265067817475e-12,4.29341028000239e-12,3.770385070103457e-12,2.9319871472142406e-12,2.2418092183934002e-12,1.6381276112115596e-12,1.1775584385326691e-12,9.464802758626215e-13,6.752640016650088e-13
0.0,7,7.0,0.0,30.0,0.0,0.0,0.0,0.0,-13.0,0.0,2.0,0.0,0.0,0.0,1.011183498172814e-11,7.885764058268664e-12,6.527822042793528e-12,5.37424885803937e-12,4.4382587908756585e-12,3.4901411667272744e-12,2.82992782581178e-12,2.333422007827769e-12,1.7223482201772165e-12,1.403767976520388e-12,1.0971091421566919e-12,8.445592483540813e-13,6.2646598943634e-13,5.056896916630045e-13,3.504910853565619e-13,2.555791900846193e-13,1.643344420843407e-13,6.185830508778994e-10,4.773450883539042e-10,3.255775089919591e-10,2.1290168435488827e-10,1.1511878774496071e-10,6.355357197280773e-11,3.657380040350824e-11,2.1942927097064653e-11,1.5419021263358003e-11,1.0513981896790039e-11,8.683682726702659e-12,6.942588025751759e-12,5.2587267596112675e-12,4.458083618663703e-12,3.3919953077932937e-12,2.545458705892014e-12,2.0390309273041445e-12,1.5488175372602691e-12,1.1010318046797025e-12,8.210487474695159e-13,5.662053452518742e-13
0.0,8,8.0,0.0,30.0,0.0,0.0,0.0,0.0,-13.0,0.0,2.0,0.0,0.0,0.0,9.806629626278496e-12,7.103307361647578e-12,6.044448949920475e-12,5.133660104238325e-12,3.9466272698678546e-12,3.2950622027799266e-12,2.614013006255908e-12,2.0703572712136645e-12,1.7336544878906095e-12,1.3141145974323136e-12,1.0492818092249714e-12,7.748002014997699e-13,6.088622425140972e-13,4.341401619548161e-13,3.116573348518534e-13,2.1758589940654253e-13,1.3743747973318267e-13,6.686049606058461e-10,5.091815157501723e-10,3.747726127197236e-10,2.3316431904554076e-10,1.3749790675683822e-10,7.203152414799115e-11,4.1389995601724816e-11,2.4010944069486718e-11,1.5155779233920627e-11,1.0542870472424898e-11,7.606171577381706e-12,5.938328699547855e-12,4.993853953092978e-12,3.941587414424563e-12,3.2147867413836235e-12,2.389535508152581e-12,1.836005929782208e-12,1.3881402309892587e-12,9.86122511054525e-13,7.092421401830892e-13,5.220269946017337e-13
0.0,9,9.0,0.0,30.0,0.0,0.0,0.0,0.0,-13.0,0.0,2.0,0.0,0.0,0.0,9.412754146410096e-12,7.21558427212608e-12,5.4094801305461274e-12,4.4478274041940304e-12,3.66845430739754e-12,3.026451238526499e-12,2.3629211236307964e-12,1.880679923308818e-12,1.5414620772425549e-12,1.2307378802181486e-12,9.594069527273971e-13,7.849505395375159e-13,5.63864851995849e-13,4.1104009059928655e-13,2.8920003935027054e-13,2.0947774471694182e-13,1.4490521930464596e-13,7.02552083519093e-10,5.485387610974055e-10,3.925197688295314e-10,2.7096169957173937e-10,1.6558704859273102e-10,8.83352936018986e-11,4.7779642585932064e-11,2.6281528072555322e-11,1.5977087075177268e-11,1.0536731743581707e-11,7.711503576126539e-12,5.944262208520744e-12,4.570716347461038e-12,3.617917590059809e-12,2.868559927321297e-12,2.3441555971730184e-12,1.661213928811932e-12,1.1802660312209815e-12,9.014750829668954e-13,7.651976207246786e-13,4.674823948321634e-13
0.0,10,10.0,0.0,30.0,0.0,0.0,0.0,0.0,-13.0,0.0,2.0,0.0,0.0,0.0,8.447386581830152e-12,6.141703629449822e-12,5.300318823026468e-12,4.134843395160419e-12,3.4492270467254664e-12,2.708149233272549e-12,2.1516141261171223e-12,1.7528233490812523e-12,1.4413297480364935e-12,1.1225112417994125e-12,8.741943624095718e-13,6.269817154515803e-13,4.776584433843438e-13,3.6366352059945443e-13,2.7356339298890113e-13,1.9193208606810077e-13,1.2848080815764269e-13,6.870116065605147e-10,5.851356971701144e-10,4.252188887507881e-10,2.84146925086185e-10,1.7475446432279913e-10,1.0526260043800454e-10,5.722420169257231e-11,3.024870196304096e-11,1.7091389174276247e-11,1.0708360814015052e-11,7.111416768619225e-12,5.698913345606796e-12,4.3017570005370005e-12,3.3579564520857617e-12,2.678518947914113e-12,1.951811932054755e-12,1.4704771846280307e-12,1.1220279374811177e-12,8.606982996398619e-13,6.423587429016257e-13,4.57257424778819e-13
0.0,11,11.0,0.0,30.0,0.0,0.0,0.0,0.0,-13.0,0.0,2.0,0.0,0.0,0.0,8.684055554196094e-12,5.9756607852233635e-12,4.902389707227457e-12,3.855279796937886e-12,3.2224724559181795e-12,2.450233521436564e-12,2.0425937139596573e-12,1.6403547142227933e-12,1.283352316593916e-12,1.0346404412334504e-12,8.193886264859419e-13,6.205212563305488e-13,4.805556776596888e-13,3.4747365095912387e-13,2.5112123530547156e-13,1.8650489672763204e-13,1.2419347762303126e-13,6.888689826401587e-10,6.253786477047576e-10,4.469252597588101e-10,2.9695179830454506e-10,1.999627539427112e-10,1.103095035251684e-10,6.093702676319063e-11,3.334270363122229e-11,1.9353598083616608e-11,1.0767494886975287e-11,7.583939282461663e-12,5.4532143010593e-12,4.109983742521854e-12,3.0695123837983244e-12,2.3766565279455277e-12,1.7578048102632685e-12,1.4422669049780724e-12,1.0608377060957527e-12,7.640071577896233e-13,5.727406033859719e-13,3.872319025022102e-13
0.0,12,12.0,0.0,30.0,0.0,0.0,0.0,0.0,-13.0,0.0,2.0,0.0,0.0,0.0,8.011878429231725e-12,5.612312835951609e-12,4.400334749953457e-12,3.4941415621904543e-12,2.7455898716487094e-12,2.3027380476318583e-12,1.7824332876833863e-12,1.4537771064929813e-12,1.2061681178009446e-12,9.584754606025153e-13,7.43334505392447e-13,5.305777563010082e-13,4.767502625600148e-13,3.33916558518966e-13,2.4834786500380834e-13,1.6834208098044783e-13,1.216453534372581e-13,7.336492081273231e-10,6.327233663583126e-10,4.5310908440808337e-10,3.262475761499741e-10,1.9273929596097458e-10,1.2341287582991688e-10,7.324942667472497e-11,3.926791544147902e-11,2.1439075752867483e-11,1.1593471018727911e-11,7.271859766521139e-12,5.300766929770028e-12,3.797096115716965e-12,2.9344991522370473e-12,2.1425069627258427e-12,1.6983905241967978e-12,1.2464920437096132e-12,9.861458415320164e-13,7.672519149209029e-13,5.424079262655799e-13,3.5015936192068976e-13
0.0,13,13.0,0.0,30.0,0.0,0.0,0.0,0.0,-13.0,0.0,2.0,0.0,0.0,0.0,8.258077844325355e-12,5.5194502167976835e-12,3.940891059459734e-12,3.417707732008653e-12,2.581718196114955e-12,2.084643294859013e-12,1.6739375744475438e-12,1.3765354048711027e-12,1.1275830356613442e-12,8.661172798094688e-13,6.724509851676777e-13,5.318631160344019e-13,3.829678586295688e-13,3.000412674195662e-13,2.1853610849956432e-13,1.5987691039731295e-13,1.0437548371526164e-13,7.629047699492465e-10,6.10824820687551e-10,4.872758119638003e-10,3.434887945749293e-10,2.2011461130501984e-10,1.3268117231384887e-10,7.952310310865644e-11,4.1381270357062334e-11,2.290931181066679e-11,1.245542511253495e-11,7.335462809068556e-12,5.09921115508462e-12,3.6058465768872744e-12,2.621120190954443e-12,2.0370735750492548e-12,1.6276211278025099e-12,1.18107428351067e-12,8.675682493863484e-13,6.904930016742465e-13,5.155171284465927e-13,3.5229626518687164e-13
0.0,14,14.0,0.0,30.0,0.0,0.0,0.0,0.0,-13.0,0.0,2.0,0.0,0.0,0.0,8.527511632820023e-12,5.622878916658893e-12,3.8861090533956145e-12,3.03301997707911e-12,2.458240044175394e-12,1.9505276930772427e-12,1.603425883059754e-12,1.2874266833089273e-12,1.0542869784967023e-12,8.135653250434972e-13,6.471211747632267e-13,4.818132148983428e-13,3.873516525401035e-13,2.7992883620955607e-13,2.045570388964892e-13,1.4249117576885658e-13,1.0410417481849443e-13,7.290162224962366e-10,6.430363443388926e-10,4.891437252247066e-10,3.5079534508460596e-10,2.2844608524356266e-10,1.471340149640729e-10,8.725474854094432e-11,4.809589917896488e-11,2.494568757815203e-11,1.3599448997370765e-11,7.982867455166638e-12,4.972687309979228e-12,3.3399746686368217e-12,2.6353838851836223e-12,1.8800646832638617e-12,1.4684369160326933e-12,1.0948996685713572e-12,8.408459114866794e-13,6.101164478291011e-13,4.430063073805155e-13,3.0825130062913716e-13
0.0,15,15.0,0.0,30.0,0.0,0.0,0.0,0.0,-13.0,0.0,2.0,0.0,0.0,0.0,9.029554907375394e-12,5.434169502856658e-12,3.883359994672095e-12,2.930337161534339e-12,2.326533054060351e-12,1.833171752478495e-12,1.5635866348442275e-12,1.1755675316092737e-12,9.347614868947607e-13,7.603242123106927e-13,5.83166634273439e-13,4.558723188915504e-13,3.6098159866326887e-13,2.6383969370988117e-13,2.001960014277949e-13,1.3797775512200726e-13,9.697242608149208e-14,7.704957485051436e-10,6.532924269306236e-10,4.691567312305204e-10,3.646990113690632e-10,2.334861118203574e-10,1.533950569421052e-10,9.501142004024674e-11,5.341823235116586e-11,2.8939441644395533e-11,1.4482162892776898e-11,8.443889875932324e-12,5.2197177379201744e-12,3.282957609583919e-12,2.394483879509632e-12,1.8312395198935866e-12,1.4383046118804065e-12,1.0347913376140831e-12,8.037023337806138e-13,5.671270366645825e-13,4.2347289835599077e-13,2.8099538546680947e-13
0.0,16,16.0,0.0,30.0,0.0,0.0,0.0,0.0,-13.0,0.0,2.0,0.0,0.0,0.0,8.87513911927112e-12,5.407218965136224e-12,3.5772698328387856e-12,2.660478725284821e-12,2.0973844622271934e-12,1.7053051907990994e-12,1.3462979825152409e-12,1.0529716345499646e-12,8.872392074489881e-13,7.233923095962835e-13,5.277243262779065e-13,4.448373388549608e-13,3.3884169412902277e-13,2.5024408612531517e-13,1.7281450741084128e-13,1.3196312462202987e-13,8.824096362342408e-14,8.043920863543764e-10,6.30501972032461e-10,5.169680521311371e-10,3.631146515164284e-10,2.4293664203724603e-10,1.5729234407361064e-10,9.654420890625453e-11,5.7668438357762287e-11,3.405363559270851e-11,1.561071601213741e-11,9.259523067702481e-12,4.918116125796463e-12,3.2404703761559122e-12,2.2062833959433864e-12,1.6849685431179641e-12,1.2227452601835483e-12,9.590054763644514e-13,7.578232330375356e-13,5.312304920315903e-13,3.855632746639481e-13,2.794620256741125e-13
0.0,17,17.0,0.0,30.0,0.0,0.0,0.0,0.0,-13.0,0.0,2.0,0.0,0.0,0.0,1.0107486729669968e-11,5.3410749009445696e-12,3.4420357994225223e-12,2.5905671066673418e-12,2.0685059338548466e-12,1.6413263764883338e-12,1.295152471728514e-12,1.0829871672472576e-12,7.921586861958916e-13,6.495920730065106e-13,5.048948008119279e-13,4.048694385496857e-13,3.129811063491475e-13,2.168074685876672e-13,1.7320143087669893e-13,1.184363976662674e-13,8.37631617963463e-14,7.937778861075629e-10,6.448784054749762e-10,5.185952424697365e-10,3.6623116950988e-10,2.6079288059331814e-10,1.6312909858648557e-10,1.0191255308380863e-10,6.329499791689619e-11,3.3805583895324256e-11,1.8604880419305822e-11,9.643597678359374e-12,5.090760369457807e-12,3.237482279614602e-12,2.1833100896306306e-12,1.6678365766177554e-12,1.2470363028113128e-12,8.899293433156578e-13,6.463279734635045e-13,4.872061570890433e-13,3.242431074106568e-13,2.5064701836815734e-13
0.0,18,18.0,0.0,30.0,0.0,0.0,0.0,0.0,-13.0,0.0,2.0,0.0,0.0,0.0,1.1191860187895406e-11,5.491016573183251e-12,3.587298731484428e-12,2.3006868279614723e-12,1.879348336136327e-12,1.37333463026967e-12,1.1907938595189796e-12,9.790098634797734e-13,8.228615355323764e-13,5.913665380174504e-13,4.631092780205462e-13,3.8196481747263076e-13,2.9002877628667987e-13,2.1815502910467773e-13,1.540563536110554e-13,1.1087454399901548e-13,7.676067921278678e-14,8.203972032848524e-10,6.76049778032334e-10,5.238347090372685e-10,3.792721726232528e-10,2.431886171897662e-10,1.7082768255127352e-10,1.0455204014013908e-10,6.877693575599579e-11,3.592297476025131e-11,1.9795234378481572e-11,1.0523087964806299e-11,5.781250309038598e-12,3.2239651690684794e-12,2.161587523819893e-12,1.570578780130076e-12,1.1612694838187806e-12,8.519595493610624e-13,6.298994052240886e-13,4.566542457509221e-13,3.68006216906131e-13,2.3365434197252685e-13
0.0,19,19.0,0.0,30.0,0.0,0.0,0.0,0.0,-13.0,0.0,2.0,0.0,0.0,0.0,1.1234990226201584e-11,5.906675413605729e-12,3.415515460663105e-12,2.438892347341061e-12,1.6826937305688512e-12,1.3849226017494347e-12,1.1296692934345883e-12,8.951864780511917e-13,7.193333036963283e-13,5.082513291386328e-13,4.399244717060374e-13,3.463382104177105e-13,2.6776249727094107e-13,1.9348429501806685e-13,1.399235161779185e-13,1.082453512046357e-13,7.597613184438567e-14,7.969961436303878e-10,7.105998447793823e-10,5.270509562706782e-10,3.830310917328408e-10,2.561292983985103e-10,1.7825549463110953e-10,1.0764781570493088e-10,6.945339307442235e-11,4.1211211156080115e-11,2.2091662335568002e-11,1.143764187972111e-11,6.196473851745764e-12,3.3440247385373524e-12,2.1526223727325185e-12,1.450090995604047e-12,1.1274284605241657e-12,7.977526366855152e-13,5.758046845503774e-13,4.213151600387445e-13,3.0545503956379115e-13,2.0896767482818182e-13
0.0,20,20.0,0.0,30.0,0.0,0.0,0.0,0.0,-13.0,0.0,2.0,0.0,0.0,0.0,1.155130667195491e-11,5.869778174168677e-12,3.550897133499647e-12,2.308799429153544e-12,1.6275463595807082e-12,1.3689885312273852e-12,1.1056667218185125e-12,8.333316272184723e-13,6.536196600707742e-13,5.045804003723532e-13,4.0754851977177977e-13,3.3614006519258064e-13,2.3451958727755976e-13,1.9368734798999957e-13,1.358147971363815e-13,9.69957309616115e-14,6.89912906503312e-14,8.506306755794953e-10,6.919736108363805e-10,5.166530710140992e-10,3.810995808400893e-10,2.750537860313044e-10,1.8837301042424407e-10,1.285102850587249e-10,7.561042314165781e-11,4.4315053124507067e-11,2.4159800881318428e-11,1.2182698420065575e-11,6.068933219001833e-12,3.530048817177022e-12,2.1756965520053065e-12,1.4469135563588776e-12,9.745365165779693e-13,7.557553692095625e-13,5.90826326218043e-13,4.019176436180514e-13,2.7980095378717537e-13,2.1329714616000437e-13
0.0,21,21.0,0.0,30.0,0.0,0.0,0.0,0.0,-13.0,0.0,2.0,0.0,0.0,0.0,1.3514029962457492e-11,6.605548738377513e-12,3.425780309731573e-12,2.1511548628912154e-12,1.5878691949488488e-12,1.1655436363669798e-12,9.772758102453272e-13,7.849567237409424e-13,6.104425552085293e-13,5.105961902921025e-13,3.8865747182347785e-13,3.0406051828908785e-13,2.3779630046052214e-13,1.7512265872976316e-13,1.3163219972307057e-13,9.509053362934673e-14,6.297288049055182e-14,8.785606220116877e-10,6.76933614983334e-10,5.64813361266396e-10,4.0362342016127875e-10,2.7766102323328337e-10,1.7571829265143752e-10,1.237879257853833e-10,7.470800480294831e-11,4.710339451120851e-11,2.626652655416518e-11,1.3011976650732624e-11,6.783361263992426e-12,3.696510738502838e-12,2.166644467566037e-12,1.3499333370494826e-12,9.317223338910743e-13,7.028236137477858e-13,5.376881840512078e-13,3.576839721599807e-13,2.667580260493704e-13,1.8956625753544064e-13
0.0,22,22.0,0.0,30.0,0.0,0.0,0.0,0.0,-13.0,0.0,2.0,0.0,0.0,0.0,1.3780258156365761e-11,6.6432465727712475e-12,3.537929002631949e-12,2.1376191158256657e-12,1.535883277361899e-12,1.2203256488079833e-12,9.700523292950673e-13,7.083115445097357e-13,5.980496311044138e-13,4.757764642010592e-13,3.684028301989391e-13,2.926015441114737e-13,2.198597169004688e-13,1.7035664152854139e-13,1.245524156954202e-13,8.494997391177409e-14,6.319409076370863e-14,8.506067336697221e-10,7.375280208154355e-10,5.765096093718334e-10,3.939888677150506e-10,2.86588038579039e-10,2.009894048486597e-10,1.2821923780330822e-10,7.787273569057659e-11,4.7396864288326945e-11,2.731895814569621e-11,1.4062730789575063e-11,7.124784802205643e-12,3.676115289151533e-12,2.2642555992493305e-12,1.3415951684872299e-12,9.131402793105919e-13,6.750777445961685e-13,5.264405322820607e-13,3.331939466646795e-13,2.7022860461771426e-13,1.752405820468695e-13
0.0,23,23.0,0.0,30.0,0.0,0.0,0.0,0.0,-13.0,0.0,2.0,0.0,0.0,0.0,1.5176251695582042e-11,7.238954885651078e-12,3.608270086580967e-12,2.1939757450052988e-12,1.5169454731494802e-12,1.1119304626033672e-12,8.946091650543334e-13,7.21776595302463e-13,5.527326163287106e-13,4.577077966823531e-13,3.478736420628253e-13,2.6408408538668476e-13,2.097784756617317e-13,1.547820522456805e-13,1.1688502912618902e-13,7.822387345030737e-14,5.588228378428511e-14,8.546214597540985e-10,6.710249688095161e-10,5.39888458225512e-10,4.1844028590523754e-10,2.8808287143513904e-10,1.9105564578674337e-10,1.237705395321656e-10,8.339494498180886e-11,5.1837237040863995e-11,2.908184468158077e-11,1.4921911734035852e-11,7.863785977765891e-12,4.224332608657429e-12,2.2289064711024276e-12,1.3717902530520207e-12,8.833197876916464e-13,6.296726330097561e-13,4.677021566497671e-13,3.0998033241380455e-13,2.525455290704559e-13,1.816026543856358e-13
0.0,24,24.0,0.0,30.0,0.0,0.0,0.0,0.0,-13.0,0.0,2.0,0.0,0.0,0.0,1.6153435669522747e-11,7.727767074161108e-12,3.6555868719804915e-12,2.0771396456945895e-12,1.44966483936534e-12,1.102620739820926e-12,7.999422066176518e-13,6.552793257806893e-13,5.02458207748865e-13,3.9084852097518744e-13,3.154251550806255e-13,2.4359377544780757e-13,1.9860198959357585e-13,1.4890823489926485e-13,1.1127848191518098e-13,7.889655956848105e-14,5.485223335892601e-14,9.356014281354616e-10,7.03381668672973e-10,6.033405515129651e-10,4.109736140121147e-10,2.94856722543317e-10,1.9387953017507141e-10,1.3426437187994575e-10,8.736478837147874e-11,5.170940203131835e-11,3.1404707890798737e-11,1.630476002984767e-11,8.668951398775837e-12,4.463936815180559e-12,2.336863960604663e-12,1.2785538424032155e-12,8.445910759779342e-13,5.881570114861526e-13,4.183230494479288e-13,3.1922545787429403e-13,2.0855461427104457e-13,1.6700029860354597e-13
0.0,25,25.0,0.0,30.0,0.0,0.0,0.0,0.0,-13.0,0.0,2.0,0.0,0.0,0.0,1.645096329148895e-11,7.614045802940103e-12,3.641869777036088e-12,2.129009513158632e-12,1.3134205075023316e-12,1.0113761538124014e-12,7.713859785857506e-13,5.93650795784888e-13,4.875468282349007e-13,3.983560843789489e-13,3.072458650428408e-13,2.4033574878990265e-13,1.816107555527537e-13,1.3659401600665885e-13,9.974749385460242e-14,7.576177487397807e-14,5.323047462757115e-14,8.716319249655258e-10,7.631361167663829e-10,5.67005003235954e-10,4.1707197490517703e-10,2.9106127643371635e-10,2.000575010185477e-10,1.3766991879827028e-10,8.551507805704894e-11,5.601216151545076e-11,3.22765939623388e-11,1.747245246358686e-11,9.481927410136519e-12,4.5566251542902265e-12,2.274312290170575e-12,1.2820451035415812e-12,8.589602083697351e-13,5.517690025750654e-13,4.0390085082742887e-13,2.9494102395417394e-13,1.7143186404653613e-13,1.5548111649878737e-13
0.0,26,26.0,0.0,30.0,0.0,0.0,0.0,0.0,-13.0,0.0,2.0,0.0,0.0,0.0,1.741111102638692e-11,8.150227446286419e-12,4.014994412687388e-12,2.021176143505056e-12,1.3641057680195051e-12,9.13039127649028e-13,7.271617429842237e-13,6.061230948740268e-13,4.653899832706288e-13,3.536420944597339e-13,2.7737199191900507e-13,2.2814951902465437e-13,1.681985730770193e-13,1.3225697752034138e-13,9.31842825750108e-14,7.151909682436153e-14,5.223493236224143e-14,9.03232647720285e-10,7.71151105360234e-10,5.679946003162887e-10,4.160643542468055e-10,2.943394940948035e-10,2.1448413488563363e-10,1.3764663927996718e-10,9.229155125994312e-11,5.8069406196135625e-11,3.5392721893921635e-11,1.8734875192487797e-11,1.0268776509715564e-11,5.093249263086515e-12,2.389365595740534e-12,1.3980088032439598e-12,8.27820344195589e-13,5.888775674153773e-13,4.030453054544034e-13,2.726131824336236e-13,2.1053075213164382e-13,1.575331543471036e-13
0.0,27,27.0,0.0,30.0,0.0,0.0,0.0,0.0,-13.0,0.0,2.0,0.0,0.0,0.0,1.944616650873785e-11,9.467980449596697e-12,4.43745049688589e-12,2.274896499416348e-12,1.4256179004570477e-12,9.38692448379461e-13,7.028364756459011e-13,5.4473092369623e-13,4.534781937666897e-13,3.3794649884316766e-13,2.754715181415266e-13,2.0492916149897922e-13,1.7141281722259256e-13,1.220949239576573e-13,9.691761932238301e-14,6.875245534107206e-14,4.775922407585215e-14,9.165063209988101e-10,7.79342189125106e-10,5.820666901951743e-10,4.312526662366399e-10,2.984198866916491e-10,2.0053588047155027e-10,1.420351228890964e-10,9.406240654458285e-11,5.7592169771922986e-11,3.642172471426251e-11,1.9916863557265833e-11,1.0251559689182945e-11,5.301773854476171e-12,2.6616991750531296e-12,1.4402500454255921e-12,8.153521237042387e-13,5.152564666322571e-13,3.876033634345469e-13,2.359055638344491e-13,1.85968588897343e-13,1.227373240398041e-13
0.0,28,28.0,0.0,30.0,0.0,0.0,0.0,0.0,-13.0,0.0,2.0,0.0,0.0,0.0,1.8996554790291272e-11,9.115270390653512e-12,4.409886350545843e-12,2.4040395598074565e-12,1.3457484590632854e-12,8.954413333044898e-13,6.787027523105145e-13,5.138047501952064e-13,3.9978279755055346e-13,3.1817327908678156e-13,2.391449613942642e-13,1.971118545065803e-13,1.4514337863537034e-13,1.1754645462003958e-13,8.333515858049733e-14,6.242984592583168e-14,4.46208790928045e-14,8.759163842832368e-10,8.020663961255701e-10,6.154622455162698e-10,4.3723358360366763e-10,2.9662923165760395e-10,2.118552735547907e-10,1.4331470193958077e-10,1.0294553097621323e-10,5.991392356080338e-11,3.650609088354054e-11,2.0865295387829772e-11,1.0563824945126378e-11,5.7110639141128e-12,2.6826209480264956e-12,1.4640339793675684e-12,8.681171608280039e-13,5.4300017820609e-13,3.5965456490195074e-13,2.4413150055857693e-13,1.7192942686819537e-13,1.0893739229823996e-13
0.0,29,29.0,0.0,30.0,0.0,0.0,0.0,0.0,-13.0,0.0,2.0,0.0,0.0,0.0,2.120491607040575e-11,1.0008807848344708e-11,4.7622569474011195e-12,2.332868940633944e-12,1.386891948730151e-12,8.628058510224563e-13,6.322928048676875e-13,5.058690743738445e-13,3.9412650281841423e-13,3.0071624688048887e-13,2.4078585342065134e-13,1.9020493472294007e-13,1.4148936346588922e-13,1.1024246618008423e-13,7.655611019358299e-14,6.214943209597041e-14,4.2355067525131824e-14,9.190599535557992e-10,7.92075283231807e-10,6.074817436731151e-10,4.400752945388628e-10,3.0407425685287464e-10,2.1289235956497002e-10,1.440850511253089e-10,9.48233434934652e-11,6.085438411757375e-11,3.9942481878889454e-11,2.1299082058823935e-11,1.2375929573100713e-11,6.2435682653495496e-12,3.0655924551173164e-12,1.487597789978028e-12,8.210520795050068e-13,4.937712501743573e-13,3.417546003241663e-13,2.117956619560584e-13,1.7237196604964607e-13,1.342560040124816e-13
0.0,30,30.0,0.0,30.0,0.0,0.0,0.0,0.0,-13.0,0.0,2.0,0.0,0.0,0.0,2.1375169769675715e-11,1.0116673179530018e-11,4.96969044291462e-12,2.392307345162521e-12,1.3848538405296103e-12,8.594414351979142e-13,5.95018214187581e-13,4.7919502777555e-13,3.7254185289170054e-13,2.911272554766014e-13,2.237021562726607e-13,1.7479103243241639e-13,1.4110731076094473e-13,1.061994945790567e-13,7.625923799926115e-14,5.502187826569239e-14,4.1714302091430855e-14,9.74099263256405e-10,8.227170438104901e-10,5.937095072332601e-10,4.74095649822737e-10,3.12938643004541e-10,2.1429837612935287e-10,1.4715738713897923e-10,9.487023068347583e-11,6.367609213969125e-11,3.761528684853911e-11,2.2821902659745687e-11,1.1783019109374784e-11,6.337218692374162e-12,3.157113572173926e-12,1.5927737980855505e-12,8.05308569539688e-13,4.931031857899553e-13,3.337797753618343e-13,2.0829137770256168e-13,1.4553880202786171e-13,1.1732948555700058e-13
0.0,31,31.0,0.0,30.0,0.0,0.0,0.0,0.0,-13.0,0.0,2.0,0.0,0.0,0.0,2.2159806020008622e-11,1.075484840180234e-11,4.984773237291003e-12,2.3759496761647745e-12,1.297140594722932e-12,8.274172301290977e-13,5.56709091140712e-13,4.5333491314290296e-13,3.5179601650494013e-13,2.680834086629211e-13,2.2233987960680778e-13,1.6848449823632424e-13,1.2908043518378399e-13,9.466837595133659e-14,7.599227141109073e-14,5.1827386989103315e-14,3.815329456315391e-14,1.0086528348145541e-09,8.024733075246854e-10,6.080929321782958e-10,4.5911576422692725e-10,3.077911017065045e-10,2.148988772084247e-10,1.4677872251962714e-10,1.0177337465974089e-10,6.54562371806199e-11,3.863010236349645e-11,2.3513009940258303e-11,1.3482160010113312e-11,6.7833404317620956e-12,3.2807915057677897e-12,1.6370835151288385e-12,8.80295878640575e-13,4.986807904691671e-13,3.3837120391790804e-13,2.209584938194034e-13,1.558611222948746e-13,9.963137630969558e-14
0.0,32,32.0,0.0,30.0,0.0,0.0,0.0,0.0,-13.0,0.0,2.0,0.0,0.0,0.0,2.2136534722609305e-11,1.114029130335702e-11,5.224161060474397e-12,2.4954037021686553e-12,1.381841858302773e-12,8.15959068566536e-13,5.901449640150468e-13,4.5738291215674e-13,3.3429926150998964e-13,2.513584036933389e-13,1.9998679804638484e-13,1.5502627062585437e-13,1.2365807432365247e-13,9.481497081798507e-14,7.294702957546848e-14,4.612045166546869e-14,3.707717142810342e-14,1.0085903754028848e-09,8.125529492233005e-10,6.179010382395683e-10,4.1785830627838297e-10,3.127446817301973e-10,2.186972802886982e-10,1.536593613717579e-10,1.0136157349528503e-10,6.297923388428975e-11,4.3109150608098474e-11,2.357452343647163e-11,1.3604036840920023e-11,7.1014427748569495e-12,3.6283168877225466e-12,1.847865927533847e-12,9.108101480366633e-13,4.979426656789451e-13,3.0677484721400136e-13,1.9576288570841928e-13,1.6065815217355255e-13,9.798905199523574e-14
0.0,33,33.0,0.0,30.0,0.0,0.0,0.0,0.0,-13.0,0.0,2.0,0.0,0.0,0.0,2.323913885298931e-11,1.171301065541305e-11,5.63534069609674e-12,2.7690748520331554e-12,1.5070130334281014e-12,8.173649659784052e-13,5.56184267179244e-13,4.034807888151398e-13,3.169679740895039e-13,2.505820028801166e-13,1.907495224203863e-13,1.4967035987088752e-13,1.1223677201764607e-13,8.43949539117834e-14,6.331896931127934e-14,4.6037165471389165e-14,3.2587113125198674e-14,1.015764467006891e-09,8.660340966919418e-10,6.443344373010234e-10,4.3439070644475254e-10,3.089156071302436e-10,2.1828582964552544e-10,1.4575195572641948e-10,9.867007858796055e-11,6.78784714071059e-11,4.066428193453897e-11,2.5256671546051238e-11,1.4611208576287987e-11,7.451677454985553e-12,3.3942527348682126e-12,1.7714781653916235e-12,9.60798171515881e-13,5.162737926642374e-13,3.155845660956369e-13,2.1889795959087664e-13,1.3259398258611653e-13,1.0248699819050007e-13
0.0,34,34.0,0.0,30.0,0.0,0.0,0.0,0.0,-13.0,0.0,2.0,0.0,0.0,0.0,2.4128605635288667e-11,1.239000679692235e-11,5.852122642307787e-12,2.913226303463001e-12,1.5185066715772355e-12,7.986985369887097e-13,4.973238611299881e-13,3.954459606422474e-13,2.849210717216659e-13,2.456710740289028e-13,1.866452828165045e-13,1.398814010849728e-13,1.0883314197577971e-13,8.193248197973902e-14,6.297476081360818e-14,4.308558885315743e-14,3.100949166012024e-14,1.0725089534787177e-09,8.39338142976801e-10,6.899080145917594e-10,4.679949051630281e-10,3.3430258447963883e-10,2.220148820422343e-10,1.5593030754371078e-10,1.0246154532956187e-10,7.009139053404118e-11,4.5510605456313965e-11,2.622034376788548e-11,1.4398220949938203e-11,7.874201297081244e-12,3.992157541793603e-12,1.9570394683492167e-12,9.426556949023178e-13,5.122756135221406e-13,3.025845707064277e-13,2.068002848799813e-13,1.3267851978809422e-13,8.949093981982812e-14
0.0,35,35.0,0.0,30.0,0.0,0.0,0.0,0.0,-13.0,0.0,2.0,0.0,0.0,0.0,2.442175192648113e-11,1.2530834465627506e-11,6.132231188882213e-12,2.953809077564939e-12,1.4848058926459248e-12,8.529859408520397e-13,5.613549309688062e-13,3.9177090595361597e-13,2.854379300406202e-13,2.165135080403584e-13,1.7045124588311084e-13,1.3636324346273444e-13,1.0422574039834219e-13,8.006228585411644e-14,5.830211447500304e-14,4.2566913835497916e-14,3.213447015289322e-14,1.0777932447608827e-09,8.418006658929073e-10,6.496575845528661e-10,5.112301685848752e-10,3.3299763581755e-10,2.283888708889938e-10,1.5623476634728106e-10,1.036664294954271e-10,7.014302860575419e-11,4.48859797141719e-11,2.6013440738305114e-11,1.5355656392679994e-11,7.852618981331162e-12,4.1497300638499826e-12,2.0626394621828634e-12,1.0214425980109027e-12,5.055160906025631e-13,3.0006143110684843e-13,1.8578068678740772e-13,1.066694377979603e-13,1.009947351758963e-13
0.0,36,36.0,0.0,30.0,0.0,0.0,0.0,0.0,-13.0,0.0,2.0,0.0,0.0,0.0,2.5666838311416105e-11,1.3901102773575795e-11,6.488474040751271e-12,3.161334201043006e-12,1.5101004094594412e-12,8.535540247141617e-13,5.170329485358307e-13,3.657864798671272e-13,2.82823571586433e-13,2.0722717574794667e-13,1.6399172813114214e-13,1.2874791887974572e-13,9.750381367067494e-14,7.195695169516989e-14,5.693127947039888e-14,3.830578360417068e-14,2.8939401955613335e-14,1.0830017562044204e-09,8.793227743431954e-10,6.679414419342741e-10,4.950714686913319e-10,3.301865960266737e-10,2.2825583312868424e-10,1.6696149008359276e-10,1.052690635142897e-10,6.806494153241015e-11,4.535261758186281e-11,2.7054991226478528e-11,1.6165360439827575e-11,8.486340654343285e-12,4.467939847297687e-12,2.2559518468741892e-12,1.0719805774518053e-12,5.161624209951582e-13,2.9182399162359884e-13,1.8831274372530022e-13,1.18696177232233e-13,6.948824587715197e-14
0.0,37,37.0,0.0,30.0,0.0,0.0,0.0,0.0,-13.0,0.0,2.0,0.0,0.0,0.0,2.6659120716987473e-11,1.3045572531442283e-11,6.503050885890092e-12,3.2360592634082704e-12,1.6754582928996396e-12,8.183390020616688e-13,5.241150035191853e-13,3.6265362515409455e-13,2.698856395824693e-13,2.0253958098109668e-13,1.5675599551575817e-13,1.2012247169285831e-13,9.496063345251838e-14,7.15781744091469e-14,5.247181579195215e-14,4.051440595345772e-14,2.650515456518917e-14,1.074828242296052e-09,8.927398889255619e-10,6.906474746161217e-10,4.5935316912511136e-10,3.2155754626748983e-10,2.3547036548699725e-10,1.5474396665142161e-10,1.0716770316379634e-10,7.100711032685228e-11,4.5410041226450644e-11,2.9265592929799005e-11,1.6339238367998817e-11,9.04313715349891e-12,4.578249491840338e-12,2.396844158108163e-12,1.0933931224261993e-12,5.237492681625843e-13,3.1478048579740297e-13,1.7083916020105702e-13,1.1101494666663185e-13,7.854141855861529e-14
0.0,38,38.0,0.0,30.0,0.0,0.0,0.0,0.0,-13.0,0.0,2.0,0.0,0.0,0.0,2.6516244573262643e-11,1.3674066131136031e-11,7.324730129638795e-12,3.345200983249983e-12,1.692089580303222e-12,8.506482946486655e-13,5.099611453574468e-13,3.4859088789355883e-13,2.5266770086188116e-13,1.8711254369160483e-13,1.5290373047307348e-13,1.166386781707626e-13,9.530741135258141e-14,7.065343947545159e-14,5.21728349974002e-14,3.4940134706931265e-14,2.7024280921558275e-14,1.1464062517186235e-09,8.912017653671453e-10,6.793579660883208e-10,5.274179914288181e-10,3.5801916008040366e-10,2.4093302558304347e-10,1.64305540473197e-10,1.0829529772968012e-10,7.45487632436522e-11,4.668008858818508e-11,2.8415516327724636e-11,1.716680069523455e-11,9.14053006451233e-12,5.006585015584164e-12,2.3598089624098773e-12,1.1307192110608418e-12,5.806890247666152e-13,3.0334575083077134e-13,1.7458474158625292e-13,1.1988417291239013e-13,6.277597150350624e-14
0.0,39,39.0,0.0,30.0,0.0,0.0,0.0,0.0,-13.0,0.0,2.0,0.0,0.0,0.0,2.672887402596345e-11,1.500314482300771e-11,7.353066791080371e-12,3.496677786501545e-12,1.7734921874462423e-12,8.58339418154365e-13,4.978171180780891e-13,3.3577495270728825e-13,2.507313948252674e-13,1.8437810522693966e-13,1.431085235546995e-13,1.1525587851721874e-13,8.770127453496137e-14,6.694246654475185e-14,4.920910958824838e-14,3.584135807198647e-14,2.6008466421114284e-14,1.0860858481274567e-09,8.873998973299133e-10,6.889437104973811e-10,4.852768539723801e-10,3.4605889587057857e-10,2.1858458351419082e-10,1.640766529632984e-10,1.1067360168522226e-10,7.635789019870696e-11,4.644992668736849e-11,2.931138480165167e-11,1.5759399656027025e-11,9.634299761157657e-12,5.028421654642359e-12,2.5138301409388936e-12,1.2383236002989034e-12,6.126953275682377e-13,2.920524513723745e-13,1.7616071926742807e-13,9.916487938451584e-14,6.105898429766284e-14
0.0,40,40.0,0.0,30.0,0.0,0.0,0.0,0.0,-13.0,0.0,2.0,0.0,0.0,0.0,2.930882814065539e-11,1.4684714812047145e-11,7.299295256555145e-12,3.7174552733541375e-12,1.8038500058006782e-12,8.753610767856781e-13,5.228013476654558e-13,3.2894099151203956e-13,2.302189127817866e-13,1.827077101841522e-13,1.3782722966005508e-13,1.0599457694561963e-13,7.861496609520614e-14,5.981192069834853e-14,4.555721430904456e-14,3.2406808734675247e-14,2.3868360753721748e-14,1.0218452645744731e-09,9.109008133991361e-10,7.204549579478073e-10,5.092547593758337e-10,3.6522306614093225e-10,2.389436957595857e-10,1.7058783875342395e-10,1.0973331853236624e-10,7.243216931278852e-11,4.869998324720055e-11,2.831164915926747e-11,1.7162706049195094e-11,9.916926452180309e-12,5.3387615648068474e-12,2.61804010663121e-12,1.2486481061939123e-12,6.023712592560715e-13,3.130584033087342e-13,1.7345035690030117e-13,9.102808351824235e-14,7.181981350516924e-14
0.0,41,41.0,0.0,30.0,0.0,0.0,0.0,0.0,-13.0,0.0,2.0,0.0,0.0,0.0,2.8920917369539812e-11,1.5689248735156047e-11,7.782190727443579e-12,3.876947628747857e-12,1.845100409196063e-12,9.207116652825655e-13,5.131431512587225e-13,3.0309687818862334e-13,2.2383140807986238e-13,1.6543830906401438e-13,1.263141794862193e-13,1.0060828931487238e-13,8.225035073021897e-14,5.696768625347922e-14,4.316967613746936e-14,3.28960498951685e-14,2.403559539615977e-14,1.1794287644809767e-09,9.086009084795086e-10,6.97065156185731e-10,5.207907232928778e-10,3.65804557939952e-10,2.4366655828168306e-10,1.691277291728253e-10,1.1520372969253877e-10,7.640263390375399e-11,4.9090091150069513e-11,2.991878599775365e-11,1.8819688462025315e-11,1.0061875846402051e-11,5.31068058480259e-12,2.8062910890521196e-12,1.339646950224513e-12,6.343561751073605e-13,3.1254377068767205e-13,1.6433401990814218e-13,1.0030683532892902e-13,6.748986322267268e-14
0.0,42,42.0,0.0,30.0,0.0,0.0,0.0,0.0,-13.0,0.0,2.0,0.0,0.0,0.0,2.9573430031104916e-11,1.522092739472201e-11,8.232944061158224e-12,3.9811938798148945e-12,1.9275485652448944e-12,9.401781214932446e-13,5.30065231776667e-13,3.237630345572607e-13,2.1349577581717784e-13,1.5742730314941904e-13,1.2423945371001195e-13,1.0108950093644059e-13,7.203562540221893e-14,5.631184166205448e-14,4.023210627457103e-14,3.232308402229084e-14,2.2838615340590778e-14,1.1490859820160067e-09,9.173574134127823e-10,7.348802872147957e-10,4.923677874681037e-10,3.5975702081886033e-10,2.442809762316036e-10,1.7133847910818303e-10,1.1113984035653749e-10,7.865397058306175e-11,4.796189555130118e-11,3.026959605839079e-11,1.9224626076916372e-11,1.0096028189374216e-11,5.722009390732054e-12,2.7788238968159095e-12,1.342815846311828e-12,6.709925654149847e-13,3.4107621868815385e-13,1.609530245916237e-13,9.255882529410273e-14,6.853211164628047e-14
0.0,43,43.0,0.0,30.0,0.0,0.0,0.0,0.0,-13.0,0.0,2.0,0.0,0.0,0.0,2.8293644023347422e-11,1.62854482045765e-11,8.410743779004816e-12,4.0530834407310974e-12,1.9977643282317787e-12,9.955260842001506e-13,5.293528845423955e-13,3.095266455551221e-13,2.1346316294946118e-13,1.5304609568812243e-13,1.1798203444617407e-13,9.601694139119921e-14,7.036535188271625e-14,5.5212631241058e-14,4.120289990307789e-14,2.955755344583826e-14,1.9407116934029567e-14,1.2266161521578022e-09,9.781232709652687e-10,7.31799155686594e-10,5.249340272124033e-10,3.6183536095740683e-10,2.4104370596920064e-10,1.6661418729955446e-10,1.1042037564276202e-10,7.021474168358487e-11,5.132873219106576e-11,3.205841535079731e-11,1.860162321401076e-11,1.0218067197773674e-11,5.781772772213367e-12,2.890630112401439e-12,1.5042478124461068e-12,7.131522607370422e-13,3.384646812567641e-13,1.7545598908660683e-13,9.1651673829698e-14,9.698374474372762e-14
0.0,44,44.0,0.0,30.0,0.0,0.0,0.0,0.0,-13.0,0.0,2.0,0.0,0.0,0.0,2.7130569307877234e-11,1.627213385796251e-11,8.431363154170702e-12,4.2040951393352034e-12,2.1883025500710448e-12,1.0337760904132358e-12,5.484217669798408e-13,3.274627521583921e-13,2.0129157656052966e-13,1.5178211941788607e-13,1.1826337516767666e-13,9.068443905853416e-14,7.21838837772444e-14,5.321583028672969e-14,3.934722114596361e-14,2.901562974576447e-14,2.0444499562226752e-14,1.1684145065037083e-09,1.0110665218283793e-09,7.098458481517778e-10,5.367960080394497e-10,3.6236383538366596e-10,2.422217012122629e-10,1.8070714929808101e-10,1.2458387600672148e-10,7.592740451480485e-11,4.8357514956330824e-11,3.083253630149441e-11,1.8926963508013607e-11,1.1143142775482615e-11,5.846193665989366e-12,3.2074750922751384e-12,1.494466054861112e-12,7.03251099091538e-13,3.3018227035966506e-13,1.6035010399270608e-13,1.005426207978212e-13,6.2751440409352e-14
0.0,45,45.0,0.0,30.0,0.0,0.0,0.0,0.0,-13.0,0.0,2.0,0.0,0.0,0.0,3.0798072048225494e-11,1.7536515386318523e-11,8.641896304385955e-12,4.358998354885547e-12,2.160699021992609e-12,1.0678748245602997e-12,5.352621601571718e-13,3.183993213273246e-13,2.0414307903139554e-13,1.4426011604770113e-13,1.0735533667822883e-13,8.757718118156683e-14,6.645618350604027e-14,4.830149060988218e-14,3.6943752446747637e-14,2.7953169688717396e-14,2.053972921151997e-14,1.2577129567796357e-09,9.483190620977752e-10,7.797458820327828e-10,5.597663761939816e-10,3.8834260176205805e-10,2.551789967728442e-10,1.7809735985482214e-10,1.1973841441646276e-10,7.78014567864173e-11,5.2396647233842335e-11,3.205745077505133e-11,1.861879038877313e-11,1.1111732819090764e-11,6.323486566322376e-12,3.208693668704348e-12,1.5374798634508683e-12,7.485774141980797e-13,3.640568785829443e-13,1.643571959902277e-13,9.89688537846837e-14,7.771530619722335e-14
0.0,46,46.0,0.0,30.0,0.0,0.0,0.0,0.0,-13.0,0.0,2.0,0.0,0.0,0.0,3.1002030189186816e-11,1.6822894192525628e-11,9.436879093028195e-12,4.913247078460463e-12,2.249764542629783e-12,1.1631878530703054e-12,5.635212131064919e-13,3.137118651342321e-13,2.063133288989529e-13,1.343499065506948e-13,1.0935430702217981e-13,7.84599085388533e-14,6.162189658249419e-14,4.437919759604532e-14,3.679017939186588e-14,2.6740679336224836e-14,1.9592171693785403e-14,1.2517663002636193e-09,1.071892577692444e-09,7.580605463278385e-10,5.656356186006251e-10,4.0623719102699713e-10,2.541680020143655e-10,1.8716708220052225e-10,1.164984114833781e-10,8.00990434484737e-11,5.0740551578825785e-11,3.146480381296311e-11,2.059119570702877e-11,1.1553570428558426e-11,6.469460824035467e-12,3.3058382228983927e-12,1.6788365580728144e-12,7.806109206913861e-13,3.765680150068789e-13,1.6760514801575025e-13,8.467627941642136e-14,6.70057656306871e-14
0.0,47,47.0,0.0,30.0,0.0,0.0,0.0,0.0,-13.0,0.0,2.0,0.0,0.0,0.0,3.0056908243143223e-11,1.6784368557375002e-11,9.32319494291312e-12,4.855814595290113e-12,2.295312330258859e-12,1.1405790318659905e-12,5.594304265493471e-13,2.9369630544110853e-13,1.889487947506903e-13,1.3652668304376784e-13,1.0085954299401432e-13,7.736705708162694e-14,6.050150638999838e-14,4.541021968901348e-14,3.5493603837783733e-14,2.249131639676818e-14,1.7863800699254472e-14,1.2821948000723096e-09,9.828784816968976e-10,7.591563434709568e-10,5.858705059505726e-10,3.904619139669092e-10,2.7032639366317243e-10,1.7912741239398428e-10,1.2428213540161108e-10,7.881956058747883e-11,5.175201915599744e-11,3.2858878982800785e-11,1.998557080543251e-11,1.1256192512134552e-11,6.548360965497998e-12,3.4021478379901933e-12,1.7073069306666527e-12,8.629661531662964e-13,3.725065573844286e-13,1.8330298634868224e-13,7.876773611074786e-14,6.357937424901034e-14
0.0,48,48.0,0.0,30.0,0.0,0.0,0.0,0.0,-13.0,0.0,2.0,0.0,0.0,0.0,3.0425108313745896e-11,1.7134198499044746e-11,9.043302541609376e-12,4.770966821385241e-12,2.3352314905744566e-12,1.1560143111386943e-12,5.645964645963903e-13,3.1567037505928546e-13,1.8934546576574473e-13,1.257493118118613e-13,9.908952705016989e-14,7.409055801332479e-14,5.3019613310273476e-14,4.346001006290059e-14,3.183445202775273e-14,2.2728579793392364e-14,1.749521863252191e-14,1.2957009734208238e-09,1.0537821791953684e-09,7.767766168625569e-10,5.549464256700953e-10,3.973844493803037e-10,2.675732219746941e-10,1.7706390420242072e-10,1.1946743707174984e-10,7.669658270443548e-11,5.2762648426922206e-11,3.229970002254992e-11,2.117881271768343e-11,1.2359516124510116e-11,6.671627853496881e-12,3.2678778638870894e-12,1.8158630184456163e-12,8.612918579373139e-13,3.8939003870240344e-13,1.8150010397781333e-13,9.518863023690687e-14,7.143838921167879e-14
0.0,49,49.0,0.0,30.0,0.0,0.0,0.0,0.0,-13.0,0.0,2.0,0.0,0.0,0.0,3.276253828166472e-11,1.7586006049251438e-11,9.28692821303532e-12,5.190909844821075e-12,2.4020513539208428e-12,1.1947064198975623e-12,5.703900151056878e-13,3.1994641393954636e-13,1.859863721052996e-13,1.329367338279033e-13,9.441302795110155e-14,7.39530844447563e-14,5.607239247534996e-14,4.286202873312746e-14,3.1553004724887066e-14,2.2609513685999388e-14,1.646501386986076e-14,1.2670155069024717e-09,1.0768311514061047e-09,7.634888136433898e-10,5.542771420383105e-10,3.893695689542245e-10,2.59480624397075e-10,1.8628928771812591e-10,1.2493096675194143e-10,7.54463387302165e-11,5.3076544192669145e-11,3.424956450672721e-11,1.9914891202030003e-11,1.2614148631670989e-11,7.351395181332749e-12,3.665922949134237e-12,1.877569176940885e-12,8.88274483612303e-13,4.132390261743328e-13,2.0037096645295295e-13,1.184201962873285e-13,5.6323993280673574e-14
0.0,50,50.0,0.0,30.0,0.0,0.0,0.0,0.0,-13.0,0.0,2.0,0.0,0.0,0.0,3.1807908333442546e-11,1.6758898535640928e-11,9.92525377451245e-12,5.285111092687212e-12,2.6316723441484973e-12,1.2456769342495942e-12,5.695034148863548e-13,2.941451940885378e-13,1.9095250614706101e-13,1.2525975764158504e-13,9.524100937100168e-14,6.737404575854385e-14,5.1991355106036806e-14,4.0735348816550235e-14,2.78931566174233e-14,2.233509143663535e-14,1.3124395365829434e-14,1.2702259457184702e-09,1.074205559610968e-09,8.234596079598865e-10,5.762364383081247e-10,3.927139967800802e-10,2.7129230562841457e-10,1.8898219347454984e-10,1.2295444486748758e-10,7.656683068101779e-11,5.208319434227576e-11,3.4458288714336785e-11,2.0367091916587102e-11,1.2509333953671448e-11,7.14078330558902e-12,3.7146095734519664e-12,1.929967433586745e-12,9.828396193290604e-13,4.01674946350705e-13,2.0396044236960944e-13,1.0387530631820754e-13,6.629445387631085e-14
0.0,51,51.0,0.0,30.0,0.0,0.0,0.0,0.0,-13.0,0.0,2.0,0.0,0.0,0.0,3.122349226683296e-11,1.7504226292274622e-11,9.418770583751124e-12,5.152593167167698e-12,2.6025163477489487e-12,1.2980431499043255e-12,6.193476057694598e-13,2.998377070372869e-13,1.880747953102006e-13,1.199936446204363e-13,9.153805623700136e-14,6.541492325823377e-14,4.845827029551201e-14,3.618781235175967e-14,3.155534458769413e-14,2.045913497284467e-14,1.5468306665370585e-14,1.3427659974255073e-09,1.1315314251191487e-09,8.283601126178231e-10,5.775266573154018e-10,4.036356627981528e-10,2.6844797754360847e-10,1.8243928036895049e-10,1.2586695402163973e-10,8.302139287439628e-11,5.293965827974816e-11,3.280811370042479e-11,2.0913479979836414e-11,1.2939567753470907e-11,7.391139358670233e-12,4.043391828009986e-12,1.966115420583758e-12,9.324499733046105e-13,4.3787830268257407e-13,2.0261062223600205e-13,9.694824185736952e-14,5.29479839684433e-14
0.0,52,52.0,0.0,30.0,0.0,0.0,0.0,0.0,-13.0,0.0,2.0,0.0,0.0,0.0,3.1364517397597e-11,1.788637816048757e-11,9.7090594191744e-12,5.464359809614487e-12,2.7641438408364243e-12,1.230486126867636e-12,6.350534139856585e-13,3.2456824664976246e-13,1.7847467492787766e-13,1.219158950003339e-13,8.094198830183419e-14,6.47397423276829e-14,4.8556011127350665e-14,3.451040561610021e-14,2.803172078537053e-14,1.9482760371530923e-14,1.263356336965541e-14,1.3293635112228988e-09,1.0750427881656024e-09,8.848346715883904e-10,6.103412106666356e-10,3.974591696504578e-10,2.8317835062382456e-10,1.9318808238825193e-10,1.2605494535848322e-10,8.789563872531632e-11,5.332052564335571e-11,3.320961388018415e-11,2.1351579262523936e-11,1.2495093906408406e-11,7.290401932804029e-12,4.166534450379682e-12,2.014725851039004e-12,1.040511786765573e-12,4.554175993322584e-13,2.0938007397785498e-13,1.0163637774616506e-13,6.77616539689184e-14
0.0,53,53.0,0.0,30.0,0.0,0.0,0.0,0.0,-13.0,0.0,2.0,0.0,0.0,0.0,3.156858229972115e-11,1.7792660745643557e-11,1.0336089076760431e-11,5.374182741050355e-12,2.559501232291877e-12,1.3330778814221438e-12,6.574093474811989e-13,3.2594285731582116e-13,1.7917557745054606e-13,1.1375177052272566e-13,8.385995697972362e-14,6.535748676639197e-14,4.665424529747095e-14,3.4220371296016667e-14,2.4991997276396925e-14,1.9214775492404067e-14,1.4844253081794423e-14,1.3600959126819045e-09,1.1395357439410783e-09,8.339550774338186e-10,5.915084670328403e-10,4.334797133430366e-10,2.8259079725508127e-10,1.9123633813692424e-10,1.2485451479259027e-10,8.394047576513118e-11,5.58152038277354e-11,3.50026274569207e-11,2.154015915105951e-11,1.2440804103276635e-11,7.452443708670838e-12,4.0606208729336574e-12,2.179129438620831e-12,1.0499046433591017e-12,4.864721464433346e-13,2.2875640641935985e-13,1.1003258994660762e-13,4.479899458811164e-14
0.0,54,54.0,0.0,30.0,0.0,0.0,0.0,0.0,-13.0,0.0,2.0,0.0,0.0,0.0,3.212718003398451e-11,1.8902066092298174e-11,1.0051600118296731e-11,5.4139689091360095e-12,2.8314696753023447e-12,1.4261947983052028e-12,6.854024350237282e-13,3.227921649699563e-13,1.8894724232845184e-13,1.164110577952109e-13,8.069457533827674e-14,5.753368166188075e-14,4.3632484258850134e-14,3.356464842965631e-14,2.4643272917690342e-14,1.618871470299971e-14,1.4344764127563402e-14,1.3774940776487122e-09,1.1794707521101136e-09,8.486169611257026e-10,6.204478036034813e-10,3.9434555125300183e-10,2.997028435016773e-10,1.9512182285577857e-10,1.2777933813399332e-10,8.634952254971885e-11,5.3911495433538156e-11,3.534808904745678e-11,2.1040214998920876e-11,1.3398092178206999e-11,7.28551638309785e-12,3.9960801573618765e-12,2.3041611225543266e-12,1.0675857737855802e-12,4.902601513632489e-13,2.2931651715913457e-13,9.394203268633313e-14,4.837832062808656e-14
0.0,55,55.0,0.0,30.0,0.0,0.0,0.0,0.0,-13.0,0.0,2.0,0.0,0.0,0.0,3.360520051375238e-11,1.9341697002771348e-11,1.0889494963221351e-11,5.716467073245806e-12,2.987629585797499e-12,1.3574291423470994e-12,6.712034829720651e-13,3.468159940453574e-13,1.7587194634658575e-13,1.1054306528122125e-13,8.072909769406784e-14,5.6289163187315853e-14,4.474050585046917e-14,3.254054395675385e-14,2.3952567122040606e-14,1.7701953697329953e-14,1.5131011967065062e-14,1.4316537331332938e-09,1.1090289208002823e-09,9.21803592606042e-10,6.208693777805721e-10,4.262735866289611e-10,2.8104236979192613e-10,1.9147681059970734e-10,1.2768408774114523e-10,8.31584191018391e-11,5.5983219586577115e-11,3.5050396689576184e-11,2.1043653616766962e-11,1.2707362455267622e-11,7.514236364332301e-12,4.36762298233215e-12,2.213689375971929e-12,1.1344051372911949e-12,5.029937972390344e-13,2.3702833752834997e-13,8.92008793234293e-14,6.695083261717936e-14
0.0,56,56.0,0.0,30.0,0.0,0.0,0.0,0.0,-13.0,0.0,2.0,0.0,0.0,0.0,3.390653151632887e-11,1.8398125358163653e-11,1.0127884180458281e-11,5.687252998240528e-12,3.008800459317684e-12,1.4911308288981836e-12,7.143419563544154e-13,3.5294085819685555e-13,1.842723745412468e-13,1.0830461047266389e-13,7.214160483612827e-14,6.240542882716698e-14,4.177891850358771e-14,3.327748075953069e-14,2.1828259708040996e-14,1.6409940117559407e-14,1.2099339352395315e-14,1.393765410470619e-09,1.1704451497443552e-09,8.788558349441338e-10,6.08966101970992e-10,4.529846523845883e-10,2.890458295737523e-10,2.0054462511975865e-10,1.3321633883921834e-10,8.983159496932005e-11,5.546764467725551e-11,3.297369090572221e-11,2.1533624143041862e-11,1.3670273222536483e-11,8.0466889217766e-12,4.642404442385007e-12,2.393272535585023e-12,1.1814442267670406e-12,5.34723738197863e-13,2.2032478579007555e-13,1.026429440941309e-13,6.020894618375197e-14
0.0,57,57.0,0.0,30.0,0.0,0.0,0.0,0.0,-13.0,0.0,2.0,0.0,0.0,0.0,3.4740216833854696e-11,1.969639165968943e-11,1.0533110943878124e-11,5.673433338176699e-12,3.177130669363109e-12,1.4692915575071633e-12,6.910320531636966e-13,3.513335718565178e-13,1.844069841351439e-13,1.0952901149485105e-13,7.920372449882601e-14,5.3893981780656065e-14,4.1231384139895995e-14,3.1907182932314045e-14,1.8493275108486328e-14,1.7344272284885254e-14,1.266933825920893e-14,1.4170853416504208e-09,1.2079939974039895e-09,9.095580032942291e-10,6.163576242163391e-10,4.578800721819318e-10,2.850615764669696e-10,1.9646934533611344e-10,1.410571566003472e-10,8.557056944686073e-11,5.594519694846235e-11,3.626014961682803e-11,2.1823533686841333e-11,1.370170154381857e-11,8.066563112441222e-12,4.438685944550482e-12,2.47752161447311e-12,1.198549490440051e-12,5.541265352225442e-13,2.467590087306969e-13,1.0189399842801401e-13,6.00271795247216e-14
0.0,58,58.0,0.0,30.0,0.0,0.0,0.0,0.0,-13.0,0.0,2.0,0.0,0.0,0.0,3.559926839654135e-11,1.8952256242494643e-11,1.1040103881977966e-11,5.7935246176713954e-12,3.1313521234426148e-12,1.5225147428023306e-12,7.551110856724582e-13,3.6075030233945476e-13,1.9883091174582047e-13,1.1121415171746325e-13,7.103147988233785e-14,5.17615606535869e-14,3.823350943968858e-14,2.7957504721363552e-14,2.039038326565617e-14,1.6209383312175117e-14,1.26775761091799e-14,1.5553751234422867e-09,1.219530393620287e-09,9.043098183670621e-10,6.70243060994959e-10,4.3909302516904983e-10,3.0382454958098607e-10,1.9856886472668425e-10,1.3451876790614116e-10,9.120204635248031e-11,5.926244289255496e-11,3.7699399481608604e-11,2.2437874857766446e-11,1.4467291718236489e-11,7.818407314704604e-12,4.64884731168078e-12,2.4098261890506513e-12,1.248187817403592e-12,5.744304343843151e-13,2.609597960775493e-13,1.0633753930389645e-13,5.5966556224687985e-14
0.0,59,59.0,0.0,30.0,0.0,0.0,0.0,0.0,-13.0,0.0,2.0,0.0,0.0,0.0,3.412965237026602e-11,1.985824824868728e-11,1.0309539232338812e-11,5.996515973767333e-12,3.173615552839887e-12,1.6201819786079682e-12,7.799916890594911e-13,3.7808395499966955e-13,1.9447167477390864e-13,1.0449380999124401e-13,7.194490360203103e-14,5.143806745854595e-14,3.730699853334079e-14,3.01225153050787e-14,1.9722763562632692e-14,1.500767098824209e-14,1.0579885204567925e-14,1.5514593884012993e-09,1.1663097042130203e-09,9.650843636200055e-10,6.6506578613629e-10,4.602584607076514e-10,3.115678569417185e-10,2.102700938093977e-10,1.397194827302867e-10,8.992194070691624e-11,5.996256783776398e-11,3.4757375894582205e-11,2.349493590928845e-11,1.465653753038734e-11,8.451929801813097e-12,4.787876857383793e-12,2.527248080246897e-12,1.2041879157899093e-12,5.914522587770754e-13,2.74039625528412e-13,1.241519265795882e-13,5.4932530645908995e-14
0.0,60,60.0,0.0,30.0,0.0,0.0,0.0,0.0,-13.0,0.0,2.0,0.0,0.0,0.0,3.3356164876763044e-11,2.052209852277119e-11,1.1554597365590754e-11,6.161107649200069e-12,3.361643054457574e-12,1.5943682220956477e-12,7.715888696647893e-13,3.611752051884464e-13,1.889992388237142e-13,1.0966544692666829e-13,7.105363883981165e-14,4.894426243186005e-14,3.8213236046684643e-14,2.7471547318442076e-14,1.970075907108856e-14,1.563495512515797e-14,9.99027156648728e-15,1.604874207522212e-09,1.214649866505919e-09,9.80546432317694e-10,6.850197021434729e-10,4.3235647247143854e-10,3.141491533349823e-10,1.9973045255143563e-10,1.3446924807268395e-10,9.152554949960213e-11,5.639241612277846e-11,3.7961147700358354e-11,2.3232086779091326e-11,1.4766160180039564e-11,8.433922543116766e-12,4.692498881617626e-12,2.5066023606595837e-12,1.2669525000325232e-12,6.328477594403469e-13,2.938953988347641e-13,1.4303819476186104e-13,6.395433768684785e-14
0.0,61,61.0,0.0,30.0,0.0,0.0,0.0,0.0,-13.0,0.0,2.0,0.0,0.0,0.0,3.444595055327571e-11,2.0496935356926723e-11,1.1127716799867559e-11,6.006691480699697e-12,3.2282926440617347e-12,1.6702514679167833e-12,8.160613569965705e-13,4.0165258630852205e-13,1.948147386456514e-13,1.1085775562153522e-13,6.726635610361846e-14,4.5692088833563774e-14,3.657847567883181e-14,2.66103229873157e-14,2.1002003491723982e-14,1.2954134927576957e-14,9.316394562866882e-15,1.5385952256498111e-09,1.2944681610617343e-09,9.57464867456721e-10,6.757981354365612e-10,4.5298733664879334e-10,3.099784467691439e-10,2.1165954533687947e-10,1.2990951880070257e-10,9.009262908941485e-11,5.98812497729807e-11,3.727463877567109e-11,2.340159422520389e-11,1.5115352561186305e-11,8.140489194467487e-12,4.6253685915464715e-12,2.5880907531560113e-12,1.2781381835793446e-12,6.577483005465573e-13,2.809439997343302e-13,1.3606897875849018e-13,4.390112510461005e-14
0.0,62,62.0,0.0,30.0,0.0,0.0,0.0,0.0,-13.0,0.0,2.0,0.0,0.0,0.0,3.5312419459692965e-11,2.095416058772518e-11,1.1139850880659006e-11,6.268187107609601e-12,3.331512041550259e-12,1.7159503257399488e-12,8.501662337669237e-13,4.1002593942525676e-13,2.1954896475688808e-13,1.0350457194136956e-13,6.917389147105463e-14,4.720513594764075e-14,3.473518555461552e-14,2.5025697743884364e-14,1.979521891559624e-14,1.3757846884009383e-14,9.208594885466434e-15,1.6026754421669558e-09,1.3966218071001162e-09,9.829327798156986e-10,6.630742905506336e-10,4.673662407609143e-10,3.177315227181427e-10,2.196985597682939e-10,1.3813331251389254e-10,9.600184112650584e-11,5.792203595753824e-11,3.81993886327334e-11,2.3314969346343754e-11,1.4675010490462914e-11,8.720976590744597e-12,4.826443299601703e-12,2.527934279388891e-12,1.39012128970019e-12,6.667840217520867e-13,3.051614116247337e-13,1.4228593545233274e-13,7.816314489817272e-14
0.0,63,63.0,0.0,30.0,0.0,0.0,0.0,0.0,-13.0,0.0,2.0,0.0,0.0,0.0,3.585039736780205e-11,2.0275216600348128e-11,1.1212560675470994e-11,6.121071198768837e-12,3.4091555153952636e-12,1.8113081143261886e-12,8.652232323257676e-13,4.020415277428577e-13,2.1599679350612854e-13,1.1133758087039604e-13,6.706332195944767e-14,4.494279996856209e-14,3.152022167156964e-14,2.3084554330693974e-14,1.6869283353312524e-14,1.3736457240422106e-14,9.764514089453645e-15,1.6640096948096431e-09,1.3314279513329738e-09,9.808788123076578e-10,6.865288021948128e-10,4.711970629610678e-10,3.189175734130794e-10,2.2059309243272453e-10,1.3570372659286472e-10,9.480746980502018e-11,5.877257545948747e-11,3.702380811281961e-11,2.3558765329246924e-11,1.3533413603449471e-11,8.406632684394245e-12,4.910218152445187e-12,2.7098518050454916e-12,1.3499832738309825e-12,6.946561011476661e-13,3.0840976532618127e-13,1.448019042787727e-13,6.421850177915062e-14
