Line_number,Fiducial,Easting,Northing,Height,Elevation,tx_pitch,tx_roll,tx_yaw,txrx_dx,txrx_dy,txrx_dz,rx_pitch,rx_roll,rx_yaw,S0Z_time_1.431e-04,S0Z_time_1.801e-04,S0Z_time_2.266e-04,S0Z_time_2.846e-04,S0Z_time_3.581e-04,S0Z_time_4.506e-04,S0Z_time_5.671e-04,S0Z_time_7.136e-04,S0Z_time_8.981e-04,S0Z_time_1.131e-03,S0Z_time_1.423e-03,S0Z_time_1.791e-03,S0Z_time_2.255e-03,S0Z_time_2.838e-03,S0Z_time_3.573e-03,S0Z_time_4.498e-03,S0Z_time_5.662e-03,S1Z_time_1.409e-05,S1Z_time_1.610e-05,S1Z_time_1.909e-05,S1Z_time_2.360e-05,S1Z_time_2.960e-05,S1Z_time_3.709e-05,S1Z_time_4.609e-05,S1Z_time_5.759e-05,S1Z_time_7.209e-05,S1Z_time_9.060e-05,S1Z_time_1.141e-04,S1Z_time_1.431e-04,S1Z_time_1.801e-04,S1Z_time_2.266e-04,S1Z_time_2.846e-04,S1Z_time_3.581e-04,S1Z_time_4.506e-04,S1Z_time_5.671e-04,S1Z_time_7.136e-04,S1Z_time_8.981e-04,S1Z_time_1.131e-03
0.0,0,0.0,0.0,30.0,0.0,0.0,0.0,0.0,-13.0,0.0,2.0,0.0,0.0,0.0,2.0393191751339486e-11,1.6541531984230494e-11,1.3506007426235826e-11,1.0571255992678311e-11,9.095557566921177e-12,7.53473226115549e-12,5.976354309197076e-12,4.789775367233247e-12,3.5636003250726425e-12,2.7625594446049794e-12,2.1610975156970926e-12,1.6564837687685952e-12,1.1400780037128284e-12,8.56772405505573e-13,6.30063325303124e-13,4.1844242920076623e-13,2.772593453397404e-13,1.4979038802601625e-10,1.126673305986084e-10,8.378143242980752e-11,6.666991538027325e-11,4.940480365537562e-11,4.12096870674563e-11,3.585600508981749e-11,2.991208944687281e-11,2.3591398972127764e-11,2.0475412555602594e-11,1.64505255223193e-11,1.3867067225047833e-11,1.0765975146025594e-11,8.627282166289884e-12,7.35663708779565e-12,5.416939837384415e-12,4.117606724939609e-12,3.1367012789766555e-12,2.1955070367001552e-12,1.6659017201597102e-12,1.0076234358069593e-12
0.0,1,1.0,0.0,30.0,0.0,0.0,0.0,0.0,-13.0,0.0,2.0,0.0,0.0,0.0,1.8034883834527847e-11,1.4890065810285266e-11,1.1627944487182683e-11,9.855890236368417e-12,7.717285100606999e-12,6.168381267188667e-12,5.080709279466439e-12,4.156150158771127e-12,3.326851746507871e-12,2.520471425237185e-12,1.8944317510214096e-12,1.4906577416132258e-12,1.0538599403684486e-12,7.720567355005486e-13,5.632050214379285e-13,3.6666097914686925e-13,2.6830163184487025e-13,2.1468145328729713e-10,1.4140586599615313e-10,1.0691842178117454e-10,6.811020471541831e-11,4.888325511301232e-11,3.7441736342829453e-11,3.09746422484174e-11,2.6150412658017615e-11,2.2498357681846357e-11,1.8462733206708478e-11,1.510315285672106e-11,1.1998659368626494e-11,9.805359528152764e-12,7.922328565707519e-12,6.378683418547992e-12,4.635903931401076e-12,3.648016873513338e-12,2.825371852776867e-12,2.0369813851485287e-12,1.627725833518437e-12,1.0417929358673345e-12
0.0,2,2.0,0.0,30.0,0.0,0.0,0.0,0.0,-13.0,0.0,2.0,0.0,0.0,0.0,1.5291259205235523e-11,1.3646776061045786e-11,1.0498691563894583e-11,9.208714188554577e-12,6.556065851866853e-12,5.354887628857976e-12,4.6993354762257975e-12,3.482639227870595e-12,3.02415662730352e-12,2.200735950739397e-12,1.8165137164697181e-12,1.339261238016167e-12,9.839676183345012e-13,7.251965475747586e-13,5.09500293157483e-13,3.6879698651306855e-13,2.348187020969901e-13,2.784623849357404e-10,1.9256692720388004e-10,1.206387120527186e-10,7.210556591033963e-11,5.167001306287253e-11,3.7918451780682717e-11,3.016301184830525e-11,2.3778184047044036e-11,1.8863473360412895e-11,1.623826903733259e-11,1.3492119962251211e-11,1.1176747796347773e-11,8.388438977085845e-12,7.2418944020160836e-12,5.475921508615985e-12,4.619839606435783e-12,3.1680228257749047e-12,2.7585933285752145e-12,1.9770260913622124e-12,1.546323369804208e-12,8.880178618400105e-13
0.0,3,3.0,0.0,30.0,0.0,0.0,0.0,0.0,-13.0,0.0,2.0,0.0,0.0,0.0,1.4717397654284796e-11,1.1884135155225516e-11,9.540878595904333e-12,7.890905186630303e-12,6.561811738939078e-12,5.225503397187086e-12,4.493382555537647e-12,3.4157175526788136e-12,2.6398597108541164e-12,2.1982425585517752e-12,1.5687454799900775e-12,1.1793212796039843e-12,8.725361456619315e-13,6.219393509317013e-13,4.757659984793089e-13,3.1608370834731515e-13,2.3550370532820937e-13,3.5819960531687967e-10,2.421188975956163e-10,1.5859917699057173e-10,9.72061607982017e-11,5.678938726233888e-11,3.5966242327749446e-11,2.6545133915598626e-11,2.1417279759825827e-11,1.845243734950553e-11,1.4880434564604502e-11,1.2427704751497401e-11,9.837105658782608e-12,8.176202210430734e-12,6.67374122266202e-12,4.78053144928735e-12,4.133107274167411e-12,2.7437987179635705e-12,2.191827952701063e-12,1.6932602575540579e-12,1.4478149613501183e-12,8.517194461418908e-13
0.0,4,4.0,0.0,30.0,0.0,0.0,0.0,0.0,-13.0,0.0,2.0,0.0,0.0,0.0,1.2746775470483211e-11,1.0575950736145973e-11,8.698510769769755e-12,7.172787194296178e-12,5.690909080364762e-12,4.487514402859505e-12,3.699636443257242e-12,3.0198974499277504e-12,2.395597379197726e-12,1.8899237816047975e-12,1.4672981736787359e-12,1.071071157427895e-12,8.184556227143689e-13,6.19720679225403e-13,4.0683256708375175e-13,2.929673402367615e-13,1.85656670243858e-13,4.481268141243236e-10,3.335540453623427e-10,2.0369910014481958e-10,1.1511246517554406e-10,6.519575042490216e-11,4.0800498752157626e-11,2.716271471746316e-11,2.0737317491257913e-11,1.7319831334928106e-11,1.321469802440888e-11,1.0997340790662857e-11,9.166509131455247e-12,6.9675057074617305e-12,5.728516821317656e-12,4.6201161244290605e-12,3.3920016105841675e-12,2.771223816416928e-12,2.0320315201217272e-12,1.349838551652092e-12,8.8334978769269e-13,7.575178300853935e-13
0.0,5,5.0,0.0,30.0,0.0,0.0,0.0,0.0,-13.0,0.0,2.0,0.0,0.0,0.0,1.1017864934175156e-11,9.337081290314286e-12,7.484145215719592e-12,6.164124398252282e-12,5.285719980021109e-12,4.128646687507732e-12,3.393065728541176e-12,2.7650253285120224e-12,2.2176758566561034e-12,1.7698888236745685e-12,1.331106717454068e-12,1.0099786680865985e-12,7.46803098795129e-13,5.478566237000262e-13,3.8904528257182543e-13,2.8316774042266347e-13,1.9826063781413912e-13,4.904339289582333e-10,3.878671870828885e-10,2.459054154451627e-10,1.4521430030564154e-10,8.220370977114488e-11,4.6033937782120956e-11,2.9771456587202913e-11,2.1062985516614007e-11,1.5678818540283377e-11,1.1914345183622994e-11,1.0230333312567505e-11,8.01476535334873e-12,6.670470589899403e-12,4.803230861411064e-12,4.120002690993691e-12,3.1591151809679135e-12,2.486420846080117e-12,1.9987936925131547e-12,1.3741079608045485e-12,8.755578883110526e-13,5.529265750925678e-13
0.0,6,6.0,0.0,30.0,0.0,0.0,0.0,0.0,-13.0,0.0,2.0,0.0,0.0,0.0,1.0989970219994829e-11,8.93668892567125e-12,6.933813254306762e-12,5.777945449606157e-12,4.569805333367756e-12,4.018967509382394e-12,3.015182703970852e-12,2.4623509894698863e-12,1.948136850784335e-12,1.6403049600951127e-12,1.2317413586876747e-12,8.876505682830421e-13,6.71039214160993e-13,5.305898131947079e-13,3.734363931230218e-13,2.891106410091001e-13,2.0679007680878206e-13,5.691326966391931e-10,4.222397915701367e-10,2.8821648199860686e-10,1.823941020809214e-10,9.312927094488797e-11,5.09417592752199e-11,3.313777996378742e-11,1.9824347361446076e-11,1.5765712382284997e-11,1.1057711087839775e-11,9.813131658749565e-12,7.420265792058436e-12,6.199407721531731e-12,5.10978067593905e-12,3.8089778594034794e-12,2.800654733071337e-12,2.2153450531865124e-12,1.6507972903593536e-12,1.2366759405624187e-12,9.478776718305905e-13,5.643730164569615e-13
0.0,7,7.0,0.0,30.0,0.0,0.0,0.0,0.0,-13.0,0.0,2.0,0.0,0.0,0.0,9.882619593560618e-12,7.960114389278331e-12,6.451153049051459e-12,5.1776994296904e-12,4.344394239023906e-12,3.3553419021672278e-12,2.9777713565297324e-12,2.4365945203287734e-12,1.8499753102955236e-12,1.4004835073002624e-12,1.1346719525381271e-12,8.701766897953058e-13,6.518484214829828e-13,4.4844682315250493e-13,3.591450305480615e-13,2.367674350246284e-13,1.501970103215585e-13,5.958052638464408e-10,4.694458577707149e-10,3.4139945501777713e-10,2.0305903433793623e-10,1.0882064817338929e-10,6.437274485219426e-11,3.514287033576368e-11,2.3037244190724702e-11,1.4721943009087486e-11,1.0956011328395989e-11,9.00551407397703e-12,6.840605770367682e-12,5.605511667324867e-12,4.40860566757223e-12,3.274471934295903e-12,2.6165734155195065e-12,1.7727002406494557e-12,1.6470746971192303e-12,1.239195110456173e-12,7.319439069941949e-13,6.658636045063286e-13
0.0,8,8.0,0.0,30.0,0.0,0.0,0.0,0.0,-13.0,0.0,2.0,0.0,0.0,0.0,8.978815960717266e-12,7.67753635031938e-12,5.9537901970893945e-12,4.829517943521568e-12,4.0239873948517254e-12,3.1838311634373205e-12,2.727100416375185e-12,2.0830788430479527e-12,1.667311078854599e-12,1.3796860731276683e-12,1.0626346822310877e-12,7.783317844455807e-13,5.823334591888396e-13,4.3731145903914005e-13,3.280206852477593e-13,2.1462350601311042e-13,1.5601906716039155e-13,6.469427456837415e-10,5.046652324141677e-10,3.622658724406827e-10,2.1612389394688307e-10,1.341822294279579e-10,7.519015341050437e-11,4.102471543976005e-11,2.465249282625466e-11,1.4604698833206214e-11,1.0963873513043918e-11,7.824166611902255e-12,6.679895493218928e-12,4.82159876515667e-12,3.871495210402099e-12,3.07342225038307e-12,2.651038616790025e-12,1.7844997997842119e-12,1.4586903995015962e-12,9.451274623648264e-13,9.91206353807871e-13,4.870959017679944e-13
0.0,9,9.0,0.0,30.0,0.0,0.0,0.0,0.0,-13.0,0.0,2.0,0.0,0.0,0.0,9.204459395614308e-12,7.239854666964244e-12,5.469896455794014e-12,4.8776179976513604e-12,3.5995340418424603e-12,2.8819814531291764e-12,2.3923148023975433e-12,1.9296985446308285e-12,1.514746835209205e-12,1.2135414036576363e-12,9.336424346700847e-13,7.014653446230508e-13,5.222785606631962e-13,3.857157839004979e-13,3.0280304052154363e-13,2.220619433723483e-13,1.3447039592429895e-13,6.585147998896251e-10,5.416148566205516e-10,3.807757174254469e-10,2.5976141912201763e-10,1.55590322225087e-10,8.330962776788194e-11,4.669140519535869e-11,2.7029217297663392e-11,1.5576845958451094e-11,9.815743359556988e-12,7.806787681059078e-12,5.4203462708097255e-12,4.73956472486588e-12,3.285958564303068e-12,2.7575469839947636e-12,2.4028387863742714e-12,1.6260737432430868e-12,1.297624197694435e-12,8.787611017851349e-13,6.503190815007628e-13,4.64483869708475e-13
0.0,10,10.0,0.0,30.0,0.0,0.0,0.0,0.0,-13.0,0.0,2.0,0.0,0.0,0.0,8.821598883302374e-12,6.61316521636569e-12,5.089007710617009e-12,4.078233977231936e-12,3.346355083431456e-12,2.8169804429930954e-12,2.280356925440262e-12,1.7096548663093237e-12,1.515998244231071e-12,1.1542176626376074e-12,8.527619890261182e-13,6.836227703109836e-13,5.069998379983339e-13,3.73371469562014e-13,2.488148442724827e-13,2.001005266506206e-13,1.2117952614757923e-13,6.628177723998751e-10,5.506529099384914e-10,4.3368804004804677e-10,2.8239237619681736e-10,1.763141588117176e-10,9.682216680617088e-11,5.625001738038533e-11,3.007518756065942e-11,1.6206783483428347e-11,1.0815704359384634e-11,7.510925237629286e-12,5.339319861606413e-12,4.4909071079303855e-12,3.2873064694815922e-12,2.5871676008101927e-12,2.17047621127877e-12,1.4246431078940595e-12,1.2131976835643815e-12,1.0822480996267952e-12,6.980506982516569e-13,4.1015651968650336e-13
0.0,11,11.0,0.0,30.0,0.0,0.0,0.0,0.0,-13.0,0.0,2.0,0.0,0.0,0.0,8.154605257179997e-12,6.186150149137931e-12,4.618825890881512e-12,3.531823991311874e-12,3.1733801395771055e-12,2.412925145098081e-12,1.8995141654966926e-12,1.634291797612305e-12,1.2716154731257479e-12,1.0725572735386983e-12,8.263658441303367e-13,5.964162634613209e-13,5.002853504891304e-13,3.578427094932762e-13,2.6050437647801065e-13,1.4992338927494884e-13,1.2498332018323214e-13,6.758365381421507e-10,5.590283147585643e-10,4.339695588232168e-10,2.8550473565623634e-10,1.880920567509206e-10,1.1108824525362473e-10,6.29676644583763e-11,3.5022456469446163e-11,1.7821840316148503e-11,1.16805769300666e-11,7.892416711745968e-12,5.1277449942147915e-12,4.0762706329279004e-12,2.8911836074722673e-12,2.603937101864482e-12,1.7806912637181386e-12,1.2362932331503827e-12,1.0942043475947191e-12,6.665100327089987e-13,5.380727057245957e-13,2.1352204581412365e-13
0.0,12,12.0,0.0,30.0,0.0,0.0,0.0,0.0,-13.0,0.0,2.0,0.0,0.0,0.0,8.196424530302691e-12,5.712752975547326e-12,4.384050226023058e-12,3.4853857329639664e-12,2.885851353141469e-12,2.312042466866604e-12,1.9241639762236728e-12,1.5400806601317512e-12,1.2418444155319673e-12,9.054150821925376e-13,7.414217289985671e-13,5.426498393842744e-13,4.4470394477785846e-13,3.19028727662692e-13,2.1899689266587926e-13,1.5611792954567002e-13,1.2209105562309165e-13,7.6914475133708e-10,6.006223023942765e-10,4.5467610738179755e-10,3.3031784055707e-10,1.8936777043169923e-10,1.1711320065996684e-10,7.029280959210295e-11,3.898522441504751e-11,2.158418023262402e-11,1.1998081408912005e-11,7.377567890383967e-12,5.1816122814588745e-12,3.831002457263775e-12,2.890986472007424e-12,2.164289916565514e-12,1.6322233688041337e-12,1.4294356645511964e-12,1.1425554659160987e-12,6.332022113326272e-13,4.82623994715963e-13,5.265543392606239e-13
0.0,13,13.0,0.0,30.0,0.0,0.0,0.0,0.0,-13.0,0.0,2.0,0.0,0.0,0.0,8.408903527536683e-12,5.777387640369384e-12,3.950218942106153e-12,3.3729962064446713e-12,2.6168642209553476e-12,2.182786691663886e-12,1.7998817769342027e-12,1.3800874740326197e-12,1.0718017923313474e-12,8.064431153564403e-13,6.915337860413463e-13,5.289280023100984e-13,3.891969313290447e-13,2.955408659598542e-13,2.2731655865489565e-13,1.3333587589443703e-13,9.228219694145371e-14,7.086443426025113e-10,6.244813216801063e-10,4.684594909906275e-10,3.233522380294828e-10,2.1745117365181567e-10,1.3057773970887812e-10,7.228841679656845e-11,4.276546050574995e-11,2.3312950925124802e-11,1.2205657346299898e-11,7.017748989402012e-12,4.773013802806612e-12,3.5270095076149375e-12,2.4623351693012747e-12,2.1530319466541458e-12,1.441806403491891e-12,1.1457420749393415e-12,8.712181318553626e-13,7.156025607104633e-13,5.350750750727281e-13,3.015447199157221e-13
0.0,14,14.0,0.0,30.0,0.0,0.0,0.0,0.0,-13.0,0.0,2.0,0.0,0.0,0.0,8.615829855186427e-12,5.500324590048436e-12,3.979159880370319e-12,2.9476659499505475e-12,2.4185198306541826e-12,1.990252089377855e-12,1.6270915334859027e-12,1.2682847979767858e-12,1.0197297028514208e-12,8.040026113385431e-13,6.36202667004241e-13,4.607324500198616e-13,3.777263578919608e-13,2.789593886248612e-13,1.81394648883862e-13,1.588254869989551e-13,1.0051824389057066e-13,7.421958992203228e-10,6.184063496139932e-10,4.835470715965388e-10,3.5413110788339177e-10,2.1310953486384902e-10,1.3985088625515554e-10,8.820861401250355e-11,4.5101644456004015e-11,2.5888206483728216e-11,1.4058139927204402e-11,7.684517510045084e-12,4.8315778512947645e-12,3.3216435499590937e-12,2.6814665753581162e-12,2.017816781059639e-12,1.5098716136594253e-12,1.1390375200635319e-12,9.262583722785748e-13,7.515912031465986e-13,4.09242419189941e-13,1.8484383127337026e-13
0.0,15,15.0,0.0,30.0,0.0,0.0,0.0,0.0,-13.0,0.0,2.0,0.0,0.0,0.0,8.689676084761591e-12,5.5982548067838595e-12,3.796749224969e-12,2.730765388410859e-12,2.22274079383654e-12,1.8941544640296396e-12,1.5388948972053815e-12,1.1162257627698276e-12,9.319819032334673e-13,7.437058139158297e-13,5.755469285729598e-13,4.3709760702372024e-13,3.2974364347227966e-13,2.59620010396465e-13,1.8993353415352966e-13,1.3650289545407491e-13,9.828347807992402e-14,7.554876583630095e-10,6.090335666917155e-10,4.81945280706009e-10,3.5481306142750655e-10,2.34775007220855e-10,1.4885624079726903e-10,9.119861056758506e-11,5.0485372624369364e-11,2.91287699754601e-11,1.5022121713507275e-11,8.252432115346166e-12,5.098619832433456e-12,2.9786537040943447e-12,2.260756322774355e-12,1.5925428124898224e-12,1.2184059632966504e-12,8.657408485988325e-13,5.953192010554413e-13,6.279361140313392e-13,4.987438044295511e-13,2.511499709224426e-13
0.0,16,16.0,0.0,30.0,0.0,0.0,0.0,0.0,-13.0,0.0,2.0,0.0,0.0,0.0,9.091670542983096e-12,5.509762196238298e-12,3.4126315658986374e-12,2.6351541217532544e-12,2.1991835592068974e-12,1.6119114470637554e-12,1.4515832841498656e-12,1.0557717223488397e-12,9.084461477136211e-13,7.257626303042632e-13,5.557979593814884e-13,4.4193706049955755e-13,3.3196245855342375e-13,2.420251426059396e-13,1.7382503124426029e-13,1.2754821751467859e-13,9.393081301709757e-14,7.643635091454624e-10,6.458405263389189e-10,5.141729294902145e-10,3.6011068342468913e-10,2.4947518844581927e-10,1.5534805120823125e-10,9.77601293014499e-11,5.611974208868866e-11,3.161324980655832e-11,1.660582289780641e-11,8.48024459253027e-12,5.27161625463115e-12,3.3367802275152902e-12,2.3849752235013485e-12,1.842927384502031e-12,1.0530754868145462e-12,1.045816509618573e-12,6.398651773101289e-13,3.5756411086141255e-13,3.5506107455284937e-13,3.553197284807611e-13
0.0,17,17.0,0.0,30.0,0.0,0.0,0.0,0.0,-13.0,0.0,2.0,0.0,0.0,0.0,9.885385900367194e-12,5.39949140781377e-12,3.213877310221338e-12,2.6489510218554532e-12,2.0832066984165195e-12,1.6655968667887854e-12,1.2786230610518788e-12,1.0057506825391626e-12,8.171450336215551e-13,6.144324946836627e-13,5.134923303684476e-13,4.063080096230439e-13,3.131201799338401e-13,2.358547145436343e-13,1.7040736870751405e-13,1.241362636388508e-13,8.629821239854865e-14,7.574134457558985e-10,6.646279729891893e-10,5.166825047714766e-10,3.607670295193735e-10,2.386469587070046e-10,1.5850319826969275e-10,1.0539085694351812e-10,6.083649664799381e-11,3.5050501629013764e-11,1.898787265963221e-11,9.566863780679279e-12,5.263325836161507e-12,3.1189384462469014e-12,2.3603583088654408e-12,1.7818769660974171e-12,1.2443094214870036e-12,8.964827184159482e-13,7.259952489665128e-13,5.486817360634527e-13,1.8555630656930763e-13,3.241610573620639e-13
0.0,18,18.0,0.0,30.0,0.0,0.0,0.0,0.0,-13.0,0.0,2.0,0.0,0.0,0.0,1.133877464043758e-11,5.585526806350755e-12,3.345129921611631e-12,2.4131946070672356e-12,1.9009237060882234e-12,1.4992812426281031e-12,1.2069876486731548e-12,9.604068795948612e-13,7.652723423769926e-13,5.97499947456781e-13,5.003844815702196e-13,3.756634535876966e-13,2.9746392659965615e-13,1.9853732736151548e-13,1.4204705563571192e-13,1.264610212086286e-13,7.228637076641453e-14,8.281888831971213e-10,6.356236204955331e-10,5.060928068907762e-10,3.7416873707527333e-10,2.6253281584856587e-10,1.7455818949420585e-10,1.1180526050316194e-10,6.608930587062082e-11,3.730091009258091e-11,2.0261334846153154e-11,1.0162084518559539e-11,5.776107918255608e-12,3.0966697219949298e-12,2.0327032827805346e-12,1.5135574193753092e-12,1.195279125608674e-12,8.678266626358567e-13,7.530337234173418e-13,4.011854688873895e-13,2.931777984524438e-13,3.4761736041246137e-13
0.0,19,19.0,0.0,30.0,0.0,0.0,0.0,0.0,-13.0,0.0,2.0,0.0,0.0,0.0,1.2074899751809296e-11,5.2734321754176565e-12,3.251466136072511e-12,2.385741279414776e-12,1.7421057342893771e-12,1.3963221191181556e-12,1.1140596896392002e-12,8.978298808786817e-13,7.33393498073362e-13,5.55402143220633e-13,4.285804449539805e-13,3.696171582152026e-13,2.720444347691573e-13,1.8398110921607265e-13,1.2668810921200534e-13,1.1043172185664687e-13,9.552331602853342e-14,8.236088150210877e-10,6.975197302522267e-10,5.067350205508998e-10,3.7499867973110893e-10,2.66220585137128e-10,1.741123745826889e-10,1.1321635640992658e-10,7.400332994806721e-11,3.9716611635231963e-11,2.2164243479741424e-11,1.0980815201306172e-11,5.842528917912316e-12,3.335867709384836e-12,2.1556275322255922e-12,1.5229626303104546e-12,1.1138681772972606e-12,7.762959177940226e-13,5.314010701707637e-13,3.766909375624046e-13,2.915261258892958e-13,1.8046748713073338e-13
0.0,20,20.0,0.0,30.0,0.0,0.0,0.0,0.0,-13.0,0.0,2.0,0.0,0.0,0.0,1.1952269682237136e-11,6.234139611543946e-12,3.3416617808465743e-12,2.3213221654637915e-12,1.6712024450880198e-12,1.2375067176323138e-12,1.0714379857839694e-12,8.420842241920173e-13,6.823790940230633e-13,5.340809348662624e-13,4.3623722041912913e-13,3.136677338200322e-13,2.530075829215989e-13,1.8503236892171174e-13,1.3768667678939757e-13,1.046635384880028e-13,8.690273119286782e-14,7.709369242029185e-10,6.892107678933221e-10,5.243971107829393e-10,4.0276854489178397e-10,2.6031970609559035e-10,1.7865273071278123e-10,1.2183639345198288e-10,7.129456790860972e-11,4.303212541156606e-11,2.3878802883679458e-11,1.1812610605101669e-11,6.280303474633699e-12,3.4319169054911004e-12,1.975625737518391e-12,1.4571074991841045e-12,9.880944573322415e-13,7.61039567334798e-13,3.7722013562908786e-13,3.215194911954624e-13,3.6313395627128274e-13,3.049690027379865e-13
0.0,21,21.0,0.0,30.0,0.0,0.0,0.0,0.0,-13.0,0.0,2.0,0.0,0.0,0.0,1.3495859592216776e-11,6.25312812932019e-12,3.3703764891558145e-12,2.242775193181679e-12,1.52313725405905e-12,1.192092258961269e-12,9.997075313407802e-13,7.854597932373121e-13,6.11088566039717e-13,5.162723143679339e-13,3.7216604684582447e-13,3.0321143101834166e-13,2.373524252372714e-13,1.7609645572453458e-13,1.3850664526492683e-13,1.0669586325466469e-13,5.409773497538194e-14,8.481057420108702e-10,6.641122174851755e-10,5.303742293487587e-10,3.809790487667055e-10,2.599643199047584e-10,1.8288405189870197e-10,1.264718345517699e-10,7.824201764714616e-11,4.629172894250458e-11,2.4475820557281408e-11,1.2252112012192624e-11,6.88600186869176e-12,3.83804816162932e-12,2.2567642509881494e-12,1.3276091234170454e-12,1.0432139162801294e-12,7.695535325442284e-13,5.31124630079879e-13,2.3850245128202276e-13,3.0604753532579316e-13,1.315862470234289e-13
0.0,22,22.0,0.0,30.0,0.0,0.0,0.0,0.0,-13.0,0.0,2.0,0.0,0.0,0.0,1.3678991120136062e-11,6.563794209978556e-12,3.2654685157278774e-12,2.1307729597713387e-12,1.4592439840550202e-12,1.1532060585866078e-12,9.16706319205405e-13,7.15580254865526e-13,6.080635450163736e-13,4.561298373316416e-13,3.627096038038613e-13,2.773692184193084e-13,2.1448579096137051e-13,1.6950113439619644e-13,1.2620659992259745e-13,8.937072257227133e-14,5.008111887758467e-14,8.694905682214138e-10,6.727276792706758e-10,5.695015809781152e-10,3.999192369407493e-10,2.813888605199558e-10,1.8934442209422967e-10,1.265262846754703e-10,8.152511887638351e-11,4.788185730246248e-11,2.7071536906067346e-11,1.3517973429531728e-11,7.45328579589134e-12,3.6361868040126974e-12,2.0278845455931984e-12,1.3406814598229397e-12,8.573750735280782e-13,4.874503775862502e-13,5.056849360972882e-13,3.8716517435313113e-13,2.9609039544368404e-13,7.172889683360778e-14
0.0,23,23.0,0.0,30.0,0.0,0.0,0.0,0.0,-13.0,0.0,2.0,0.0,0.0,0.0,1.4140492063343849e-11,6.769241879379925e-12,3.5067921814966498e-12,2.1234640753037456e-12,1.4284440945868183e-12,1.064255614323765e-12,8.447491632943632e-13,6.903831276212008e-13,5.30745721417595e-13,4.515435104005507e-13,3.4250905852126533e-13,2.768672695037146e-13,2.1857798986145496e-13,1.518680151391919e-13,1.0670868978125463e-13,9.682132583642346e-14,3.85085826478924e-14,8.076024596608733e-10,7.157321007066471e-10,5.195115116091929e-10,3.884532681872175e-10,2.859307364905738e-10,1.973735748767212e-10,1.2832940447401565e-10,8.398945522862974e-11,4.944835128798325e-11,2.866059780543516e-11,1.535749100821629e-11,7.992378730848028e-12,3.9600921179195456e-12,2.235036341611359e-12,1.4596506284954996e-12,9.20181434716485e-13,6.142646131590982e-13,5.614181738353598e-13,5.236344090026717e-13,1.7551959973971699e-13,6.319371803018328e-14
0.0,24,24.0,0.0,30.0,0.0,0.0,0.0,0.0,-13.0,0.0,2.0,0.0,0.0,0.0,1.630591064035885e-11,7.412562609645517e-12,3.709260561396703e-12,2.003875182983537e-12,1.3865316601625745e-12,1.025435295524038e-12,8.290942997729428e-13,6.64767220670201e-13,5.240926726918796e-13,3.6870169750723756e-13,3.310209779789145e-13,2.366736641744233e-13,1.9698186836631972e-13,1.2971308394801483e-13,1.033328115341837e-13,9.132126974855424e-14,6.869258185103629e-14,8.451987923048804e-10,6.785163820816809e-10,5.69386464923903e-10,4.031817479320358e-10,2.991641103357528e-10,1.9280011742835854e-10,1.3264568562906715e-10,8.9434860417231e-11,5.0248428662157975e-11,3.177729970962926e-11,1.6252122260008318e-11,8.832155963334432e-12,4.24735619475513e-12,2.2463105599289816e-12,1.3689106888708189e-12,9.334105926974219e-13,4.068873629566077e-13,4.780154635736369e-13,3.161285096124372e-13,2.2700659407383837e-13,1.7282129914802412e-13
0.0,25,25.0,0.0,30.0,0.0,0.0,0.0,0.0,-13.0,0.0,2.0,0.0,0.0,0.0,1.63100254640885e-11,7.792003786281654e-12,3.5583616176643025e-12,2.01779289524068e-12,1.368032819634788e-12,9.838202335986037e-13,8.336283203542971e-13,6.518658639601835e-13,4.697429364603204e-13,3.7688951662133773e-13,3.178928447458975e-13,2.3218517869616477e-13,1.780786630343964e-13,1.4671116234443514e-13,8.6460233308636e-14,5.509586403404682e-14,5.398336721772471e-14,8.872695662733549e-10,7.552641023213393e-10,5.419496460097239e-10,4.0841039123264823e-10,2.79530868309176e-10,1.9816590717740372e-10,1.349141086178891e-10,9.254816751711805e-11,5.4662688610649637e-11,3.224853201440283e-11,1.7743676380532586e-11,8.966002234098965e-12,4.302182267329565e-12,2.3368744339578313e-12,1.559660520044246e-12,6.762697881866986e-13,5.932006965604094e-13,3.757277949827058e-13,2.895959244875458e-13,1.688914140606472e-13,2.174503215233163e-13
0.0,26,26.0,0.0,30.0,0.0,0.0,0.0,0.0,-13.0,0.0,2.0,0.0,0.0,0.0,1.7477383204877993e-11,8.237441386457661e-12,3.726944978691642e-12,2.147102479754919e-12,1.3533454651801002e-12,9.675521505531983e-13,7.416955515594008e-13,5.704156522599179e-13,4.751432706728909e-13,3.5650205924848067e-13,2.758113226406982e-13,2.278232197198047e-13,1.6626427514194343e-13,1.352535374046011e-13,8.039481265557067e-14,8.825867351033775e-14,4.3319965434145906e-14,8.8507658208264e-10,7.24238856882221e-10,5.599443851834966e-10,4.212382555118482e-10,3.010483377492781e-10,2.0217810205033438e-10,1.452624236631472e-10,8.814144413463189e-11,5.7092163818335914e-11,3.47290256323036e-11,1.799541080134322e-11,9.593825841018834e-12,5.275060829692087e-12,2.240790301824043e-12,1.3136513341577793e-12,9.603533252546878e-13,4.314291733051522e-13,2.7211305572858115e-13,3.010929651183491e-13,1.6923755625466662e-13,8.330710962187756e-14
0.0,27,27.0,0.0,30.0,0.0,0.0,0.0,0.0,-13.0,0.0,2.0,0.0,0.0,0.0,1.8648112464204332e-11,8.763172792868178e-12,4.14398260551091e-12,2.1327373487311305e-12,1.3143155537246891e-12,8.964036645515585e-13,7.076320811354304e-13,5.57527112686731e-13,4.452652711201525e-13,3.6599597348511484e-13,2.7201024712373404e-13,2.2167327168000474e-13,1.5777650407650455e-13,1.1250524534906031e-13,9.701254183723302e-14,6.248848657930585e-14,5.430832763353512e-14,9.1193603697553e-10,7.464260497878204e-10,5.928138318548549e-10,4.1970202220550165e-10,2.8846903587110683e-10,2.1231598069997197e-10,1.3831124779874477e-10,9.503113864785732e-11,5.864727307177479e-11,3.584120853985406e-11,1.9468228109702483e-11,1.0151178736254286e-11,4.792469841026155e-12,2.622868367898185e-12,1.099128548094006e-12,7.644646899972396e-13,5.735481638509288e-13,4.047503859522942e-13,1.299861243205089e-13,1.5692543831962275e-13,1.713306633106969e-13
0.0,28,28.0,0.0,30.0,0.0,0.0,0.0,0.0,-13.0,0.0,2.0,0.0,0.0,0.0,2.002525819017767e-11,8.952909048662581e-12,4.322279681392479e-12,2.173953293436395e-12,1.2682209814499778e-12,8.936146775451754e-13,6.801934341008205e-13,5.158892714855717e-13,4.0200274252635185e-13,3.261644618965279e-13,2.4478045467279983e-13,2.0144098298870235e-13,1.5811120330200856e-13,1.216567149009028e-13,9.042212526852195e-14,5.623455464478016e-14,3.679042153922521e-14,9.261265271529303e-10,7.709637317140612e-10,6.027300451554217e-10,4.2946041508418054e-10,2.984543349477345e-10,2.1421480816073284e-10,1.4737486488881849e-10,9.683205394820293e-11,5.816605465754481e-11,3.598182271439699e-11,1.9958454179431593e-11,1.0583645754668832e-11,5.478408911406059e-12,2.706741335695631e-12,1.4195668178041153e-12,6.476044672563162e-13,4.5293922496498886e-13,3.462378655741973e-13,2.636311280691954e-13,2.873191051401594e-13,-7.720819650472767e-15
0.0,29,29.0,0.0,30.0,0.0,0.0,0.0,0.0,-13.0,0.0,2.0,0.0,0.0,0.0,2.0864226574675113e-11,9.499075083862275e-12,4.52287029047671e-12,2.4552715554426222e-12,1.288443825358556e-12,8.409532440690381e-13,6.382455798878584e-13,4.998937286474025e-13,3.910941997835518e-13,3.0123694744371933e-13,2.4777129686086836e-13,1.7623383694324446e-13,1.5311729849450649e-13,1.1754569394854632e-13,8.221043357972241e-14,6.538275780955389e-14,6.470613111084763e-14,9.574461389802958e-10,7.635300530148219e-10,6.046365299169171e-10,4.188095626802523e-10,3.0140834058840924e-10,2.0877872019514846e-10,1.45358019328192e-10,9.632431556966928e-11,6.150798921088732e-11,3.7437619702571014e-11,2.12355586730341e-11,1.1349931245239558e-11,5.713745886993408e-12,2.720428391448769e-12,1.3113654445950356e-12,9.700300601190235e-13,5.202781638178529e-13,3.990159220773418e-13,4.3282927808094e-13,1.7804658679977854e-13,1.2305395557589185e-13
0.0,30,30.0,0.0,30.0,0.0,0.0,0.0,0.0,-13.0,0.0,2.0,0.0,0.0,0.0,2.0436343466751884e-11,1.0058806519951431e-11,4.791374212756805e-12,2.3484602335527652e-12,1.336465409051486e-12,9.059779579777481e-13,5.991518977806096e-13,4.805998455537606e-13,3.7248561898820874e-13,2.787467575868332e-13,2.1831443568984033e-13,1.62321068076383e-13,1.4241870738582316e-13,1.0669065926781309e-13,7.739477301526729e-14,4.2840266060300136e-14,2.2964734030894728e-14,9.235846979841824e-10,7.488105574789934e-10,5.92926252522684e-10,4.3120562720490225e-10,3.1514552589117514e-10,2.0740012666107286e-10,1.384504256358813e-10,9.83292242277403e-11,6.202772439496279e-11,3.930514345318122e-11,2.179496077097562e-11,1.2523988694045525e-11,6.391799270260224e-12,2.9471187883639257e-12,1.5381108021596741e-12,6.844612873399786e-13,5.017652357866782e-13,1.3890062406152717e-13,1.4779000844657541e-13,6.989048622632447e-14,2.8036516005458413e-13
0.0,31,31.0,0.0,30.0,0.0,0.0,0.0,0.0,-13.0,0.0,2.0,0.0,0.0,0.0,2.200414848076698e-11,1.0762395011770719e-11,5.038255668369618e-12,2.55047261014392e-12,1.3569370026424759e-12,8.275711735180127e-13,5.650139184707942e-13,4.705837991923859e-13,3.273538160404032e-13,2.5023775252550435e-13,2.1498900725658342e-13,1.642381290412458e-13,1.2663581489947701e-13,9.176377053980665e-14,4.692481188736564e-14,6.216412863050614e-14,2.918198262662158e-14,1.0519300402056014e-09,7.863982067043001e-10,6.094756952810141e-10,4.458057398881594e-10,3.162532901267651e-10,2.25879735094062e-10,1.4873410618366524e-10,1.0099920561323596e-10,6.592177067545775e-11,3.880094195978693e-11,2.15806709947853e-11,1.2547712482707766e-11,6.800610865869956e-12,3.2613007933678503e-12,1.862891280604929e-12,7.545476350593417e-13,4.932034104043426e-13,1.7386931646184084e-13,2.7634923120323187e-13,2.452224808967924e-13,-3.7764694196372494e-13
0.0,32,32.0,0.0,30.0,0.0,0.0,0.0,0.0,-13.0,0.0,2.0,0.0,0.0,0.0,2.4289358944599597e-11,1.1277206616235775e-11,5.114614578705775e-12,2.4896964610539168e-12,1.3673309105968912e-12,8.336436864050103e-13,5.450363368387835e-13,4.2174763409907644e-13,3.3008061312535475e-13,2.85585539250831e-13,2.0162851948385799e-13,1.5801397716596582e-13,1.173149295202659e-13,1.0979508781649389e-13,8.512895036119476e-14,5.946079593374914e-14,1.793634197047977e-14,9.977458280093074e-10,8.097189622934251e-10,6.212551347594521e-10,4.3095454177108195e-10,3.2059425435673396e-10,2.2622165327407253e-10,1.5522693076363648e-10,1.0457528589679843e-10,6.909508318423809e-11,4.1999892479031834e-11,2.330920986077097e-11,1.3892750839134314e-11,7.196338245308973e-12,3.4811544377854804e-12,1.8548472713240376e-12,9.669809758873826e-13,4.976136455455305e-13,2.2057590447855275e-13,3.032014570980007e-13,1.439315319499854e-13,2.134169085383692e-13
0.0,33,33.0,0.0,30.0,0.0,0.0,0.0,0.0,-13.0,0.0,2.0,0.0,0.0,0.0,2.3457000720285108e-11,1.1188469924271156e-11,5.658878645444607e-12,2.7301107722504504e-12,1.3825825781976561e-12,8.154600808793948e-13,5.359241175780137e-13,4.2384405863204425e-13,3.252890799474688e-13,2.58218009433247e-13,1.821726723145332e-13,1.5583108803556862e-13,1.0269034899327928e-13,1.0161098908884381e-13,5.4058039985314084e-14,4.780944405731413e-14,4.035330532893752e-14,9.760936259560692e-10,8.382945943359666e-10,6.514156219051527e-10,4.64655026214547e-10,3.0724544165912434e-10,2.2055993111415535e-10,1.5360204227907688e-10,1.0408211449785982e-10,7.288481711358763e-11,4.270624970289581e-11,2.540152349598444e-11,1.422119227524137e-11,7.446133982183029e-12,3.3889773750360733e-12,1.6822548605027973e-12,8.632236548289534e-13,5.236416423623741e-13,2.1646160770925958e-13,1.7068425496058413e-13,3.4206077029129294e-13,2.442040886336384e-13
0.0,34,34.0,0.0,30.0,0.0,0.0,0.0,0.0,-13.0,0.0,2.0,0.0,0.0,0.0,2.2544850088538445e-11,1.2046415385949362e-11,5.91147802247288e-12,2.7090072523957885e-12,1.493280254249195e-12,8.422376150096111e-13,5.287216942390988e-13,4.064037763810979e-13,3.084045480128494e-13,2.4472062694895087e-13,2.029176016324628e-13,1.382322943072361e-13,9.303269131299799e-14,9.105683595339144e-14,5.318754501017901e-14,3.8256716993403706e-14,3.66502015533263e-14,9.814569450444202e-10,8.339510684410458e-10,6.632925328811854e-10,4.578209611078983e-10,3.2981682337892977e-10,2.255514779900518e-10,1.6192159326490188e-10,1.0543749133910885e-10,6.71323178805002e-11,4.33375731262488e-11,2.547276010279106e-11,1.5419403816383845e-11,7.964775727340914e-12,4.005964901504378e-12,1.812227767673815e-12,9.619418604550113e-13,5.061090456584797e-13,2.1800766137534477e-13,1.7869249401930042e-13,1.5316375200624423e-13,3.315608157021902e-14
0.0,35,35.0,0.0,30.0,0.0,0.0,0.0,0.0,-13.0,0.0,2.0,0.0,0.0,0.0,2.4685080123760418e-11,1.270123125713156e-11,6.022689917944272e-12,2.9420779965468586e-12,1.474218810939786e-12,8.036100394733098e-13,5.663053717747298e-13,3.6737421270081085e-13,3.05815825439941e-13,2.219891224448011e-13,1.8826789060284375e-13,1.3488881647298242e-13,1.0972024612428657e-13,6.301396262057256e-14,6.142865874856593e-14,4.4854792505302185e-14,3.6506004902434056e-14,1.0087783020903108e-09,8.259875147610994e-10,6.920122331633045e-10,4.5797138701593106e-10,3.517979885748775e-10,2.354523654917981e-10,1.5769117718963392e-10,9.964146563492937e-11,6.499357393023862e-11,4.497605504739123e-11,2.6079242455449077e-11,1.4042977002716995e-11,8.210148408993371e-12,4.040607084048723e-12,1.8932602911935037e-12,1.1342329101781064e-12,6.919264690527064e-13,2.891280425126417e-13,9.542680228407746e-14,2.0604525914039416e-13,1.802470424553375e-13
0.0,36,36.0,0.0,30.0,0.0,0.0,0.0,0.0,-13.0,0.0,2.0,0.0,0.0,0.0,2.7040410020236413e-11,1.338296428844183e-11,6.264468159523156e-12,3.1575760983655264e-12,1.4986676687340808e-12,8.406479515925317e-13,5.288475860839866e-13,3.636317396106454e-13,2.7925324373311585e-13,2.228170426711477e-13,1.7283486074261863e-13,1.2399521935885228e-13,1.073808484855568e-13,7.149574630654737e-14,6.524066570479462e-14,5.1159976700836257e-14,2.109968844306447e-14,1.03530471064032e-09,8.597673639213007e-10,6.720866323629728e-10,4.768481016491539e-10,3.375776649005999e-10,2.2877032611600652e-10,1.4819476311848207e-10,1.0493987209253008e-10,6.926862718543757e-11,4.5052636593254276e-11,2.4946618670160598e-11,1.48593468157244e-11,8.505792625270217e-12,4.444029156874871e-12,2.3056199972068078e-12,8.962333520387027e-13,5.749580419071902e-13,4.515636784754934e-13,1.350362644625562e-13,1.2822719424773798e-13,-5.206330591862567e-14
0.0,37,37.0,0.0,30.0,0.0,0.0,0.0,0.0,-13.0,0.0,2.0,0.0,0.0,0.0,2.650344541038336e-11,1.3624351915311752e-11,6.315930060752602e-12,3.248408115337796e-12,1.57643211554561e-12,8.561532530586983e-13,5.162185581219958e-13,3.5408986271220503e-13,2.4895625629142354e-13,2.0146298143587084e-13,1.685395023187712e-13,9.900224153021323e-14,7.94104030060927e-14,6.037494246687726e-14,4.4727727316537066e-14,3.508196051051054e-14,4.15442294407228e-14,1.0363883460410535e-09,8.62818928491352e-10,6.542324422672876e-10,5.118564229026662e-10,3.382979817190529e-10,2.372874930683981e-10,1.6184058013545727e-10,1.0958051745238025e-10,7.355254074103071e-11,4.61645528461047e-11,2.812281104674838e-11,1.6943083314465174e-11,9.117177215312576e-12,4.387521773102335e-12,2.364665175846294e-12,1.3118455797933624e-12,4.768337524441204e-13,3.032989050607122e-13,6.408444958006335e-14,1.0890402393614473e-13,1.1758969629741794e-13
0.0,38,38.0,0.0,30.0,0.0,0.0,0.0,0.0,-13.0,0.0,2.0,0.0,0.0,0.0,2.7284714971680266e-11,1.4360511360919937e-11,6.6874894877423166e-12,3.2462560846691837e-12,1.5989162706479016e-12,8.682952630387086e-13,5.204600466163576e-13,3.61146769780614e-13,2.4354256971738016e-13,1.7885140059406723e-13,1.5562141888594096e-13,1.312933527116124e-13,9.795585082582215e-14,7.07659353962139e-14,4.778428982601776e-14,2.579278796576986e-14,4.296395752929857e-14,1.119241895579045e-09,8.910950962598053e-10,6.64689212842149e-10,4.891545529537367e-10,3.452573936973421e-10,2.4071950855315607e-10,1.595024169316907e-10,1.102070438687002e-10,7.506118812319099e-11,4.6256269366025975e-11,2.8567388925367274e-11,1.6514951446961837e-11,9.197152273396289e-12,4.827381562105245e-12,2.3381291510894863e-12,1.0503138197840406e-12,7.366416909792159e-13,1.4040831200371396e-13,1.1786734127834516e-13,1.5128239530314874e-13,3.610901889246949e-14
0.0,39,39.0,0.0,30.0,0.0,0.0,0.0,0.0,-13.0,0.0,2.0,0.0,0.0,0.0,2.6768932738732357e-11,1.44597542144598e-11,7.37493735208862e-12,3.765609068577417e-12,1.6742875843563396e-12,8.980720364819591e-13,4.966173597460275e-13,3.229943559262524e-13,2.282639284572963e-13,1.8897569618054637e-13,1.6096878298758418e-13,1.164569591973798e-13,8.324882698554919e-14,6.353927329163098e-14,4.0290653541723216e-14,2.9121836202337866e-14,3.545056107007731e-14,1.0754740652809325e-09,8.773686336742506e-10,6.925848290302845e-10,4.834683950501574e-10,3.5877693325296696e-10,2.470611659824903e-10,1.5756582959354107e-10,1.1161373599096075e-10,7.599816804361814e-11,4.560104677181053e-11,2.9287202510073e-11,1.6162347524362195e-11,9.552534753518156e-12,5.214471319023343e-12,2.5431468422912203e-12,1.185598915175473e-12,7.241529970048188e-13,2.0183686231396164e-13,3.1192483433971943e-13,1.3663935310472957e-13,-7.26954267454986e-14
0.0,40,40.0,0.0,30.0,0.0,0.0,0.0,0.0,-13.0,0.0,2.0,0.0,0.0,0.0,2.7612512486072332e-11,1.491405717873822e-11,7.411443805346298e-12,3.808685249546011e-12,1.8351516460948767e-12,8.538318227075499e-13,5.272979931756746e-13,3.35551069964713e-13,2.3206288998834343e-13,1.6826645291259898e-13,1.2801880588838933e-13,1.1115039971224991e-13,7.302101197276541e-14,5.41132368080075e-14,3.9046086118142484e-14,1.290483220773707e-14,3.481666922546545e-14,1.124612718668155e-09,9.294505373819932e-10,7.094411198046236e-10,5.099002826101321e-10,3.573414090215209e-10,2.474515177567309e-10,1.6789305807678552e-10,1.0795615759431486e-10,7.284312147130023e-11,4.700612337612945e-11,2.8186301508523233e-11,1.765292840989998e-11,9.823886993757652e-12,5.237063595815975e-12,2.591926082009679e-12,1.3841180395184964e-12,7.440652952963647e-13,1.1917247942266218e-13,1.253344690955156e-13,6.156137500622658e-14,1.995513533475223e-13
0.0,41,41.0,0.0,30.0,0.0,0.0,0.0,0.0,-13.0,0.0,2.0,0.0,0.0,0.0,2.9562922880706526e-11,1.4922944675647197e-11,7.49993463135253e-12,3.5189233877330788e-12,1.864907513584721e-12,9.058166638828143e-13,5.344163091574074e-13,3.0902792497364206e-13,2.2465624935939416e-13,1.6194446898912502e-13,1.248363371531225e-13,1.1083042591777397e-13,9.114026072517482e-14,5.4413402996986676e-14,4.0239410334633344e-14,2.332406755233139e-14,2.3146715986506584e-14,1.0858915855577304e-09,8.952741852645229e-10,7.02549189696392e-10,5.427955933670017e-10,3.5863314355961683e-10,2.377121599844149e-10,1.720939456456902e-10,1.1115640629425755e-10,7.222226154849124e-11,4.8268241621142037e-11,2.9907725315003317e-11,1.7958253092442353e-11,9.624428879945545e-12,5.253660613632626e-12,2.7369735943431592e-12,1.2484986439465117e-12,6.633650127494549e-13,3.161890026559454e-13,1.9989498798728713e-13,1.685967085922529e-13,-1.102117089618523e-13
0.0,42,42.0,0.0,30.0,0.0,0.0,0.0,0.0,-13.0,0.0,2.0,0.0,0.0,0.0,2.7785180020729623e-11,1.5132960652193714e-11,7.926639120445947e-12,3.780744638533234e-12,1.7947338340237274e-12,9.37732562816524e-13,5.211144390126939e-13,2.9996174352623317e-13,2.209356325942975e-13,1.618684032588436e-13,1.5498934405417386e-13,9.134347474594177e-14,5.6539850353779314e-14,6.245422231656951e-14,3.824585016923613e-14,2.8340660375420773e-14,1.1592361250373947e-14,1.1215370626147725e-09,9.368167241252102e-10,7.024289968265137e-10,4.91935072766983e-10,3.392422240410363e-10,2.4466052635573716e-10,1.701646253777021e-10,1.1086578966995756e-10,7.200637940338713e-11,4.807006310070989e-11,2.977769062443644e-11,1.832180220542952e-11,1.004446245210777e-11,5.341530383603735e-12,2.8899254143282515e-12,1.28819724979053e-12,5.940420796648817e-13,3.863072217988363e-13,1.6025418958007507e-13,2.0867635407718916e-14,-3.725442528598862e-14
0.0,43,43.0,0.0,30.0,0.0,0.0,0.0,0.0,-13.0,0.0,2.0,0.0,0.0,0.0,2.707452551308978e-11,1.677103623111076e-11,7.952385221501257e-12,3.851301220091246e-12,2.007438669709752e-12,9.851725427796866e-13,5.295485148427973e-13,3.1577413971289594e-13,2.2576503479530344e-13,1.570167987938083e-13,1.3911229864094946e-13,7.847290716650524e-14,6.891187102082126e-14,4.1721908635062344e-14,2.6136117026351073e-14,3.628902016079019e-14,2.372586294802112e-14,1.1460034878596257e-09,9.494930704423247e-10,7.46879742162177e-10,5.082547634798271e-10,3.804319086498233e-10,2.513123353909648e-10,1.7940324572849399e-10,1.1528930908574862e-10,7.953167165240263e-11,4.846452629827508e-11,2.98321537092946e-11,1.9071573250556444e-11,1.0991062629171812e-11,5.570015146656173e-12,3.038686159438501e-12,1.3987936463203228e-12,6.156089771455658e-13,4.1991441400253e-13,7.36101074582798e-14,6.234330641734648e-14,1.874481759860594e-14
0.0,44,44.0,0.0,30.0,0.0,0.0,0.0,0.0,-13.0,0.0,2.0,0.0,0.0,0.0,2.976223374340082e-11,1.6121377908289586e-11,7.92692242666449e-12,4.2694148029484296e-12,2.1244353282099724e-12,1.0040899361528156e-12,5.096235345745858e-13,2.940956684629548e-13,2.146793511629096e-13,1.334381640985622e-13,9.20829218132902e-14,8.365210008568553e-14,8.03475673495357e-14,3.6620306331342426e-14,5.038707586353989e-14,7.191870089613163e-15,1.087181481660293e-14,1.1487389830494912e-09,9.589553854271877e-10,7.383964076037678e-10,5.203104144096698e-10,3.63196147035831e-10,2.5693677399381554e-10,1.7052025224713994e-10,1.1047466952145266e-10,7.469802355064196e-11,5.2496771661525846e-11,3.021764978586469e-11,1.893360443393843e-11,1.0734139147943643e-11,6.1654431336301694e-12,2.8968567872817604e-12,1.3451505417774225e-12,6.761742163019727e-13,3.5668614286659313e-13,2.825798939419259e-13,2.5506328831670227e-13,4.417489852607997e-15
0.0,45,45.0,0.0,30.0,0.0,0.0,0.0,0.0,-13.0,0.0,2.0,0.0,0.0,0.0,2.916731912218087e-11,1.7263302346419706e-11,8.483994390317689e-12,4.449508745659814e-12,2.074659874134775e-12,1.0541636582571718e-12,5.095371854562717e-13,3.051068441756112e-13,1.9125781093892607e-13,1.4877907049309873e-13,9.829078479510735e-14,8.061991372261671e-14,6.00639324541333e-14,5.6109105615032e-14,3.603166136553035e-14,2.2714963281907984e-14,1.590743369589833e-14,1.1807170429147498e-09,9.423596147454628e-10,7.839137015309886e-10,5.512323988143098e-10,3.764804697962758e-10,2.651421518010131e-10,1.739649973825744e-10,1.184138697941232e-10,7.652908224963996e-11,4.9746355547699146e-11,3.185943966829519e-11,2.0713164042235512e-11,1.1148196061568214e-11,6.130782082585881e-12,3.4444881794520147e-12,1.6126688391821035e-12,1.0710991570850924e-12,3.1275457652056594e-14,1.556488033320125e-13,7.989504737255963e-14,2.2568322471841242e-13
0.0,46,46.0,0.0,30.0,0.0,0.0,0.0,0.0,-13.0,0.0,2.0,0.0,0.0,0.0,2.9940072810620856e-11,1.7536402178733812e-11,8.686846151029376e-12,4.8174637631832884e-12,2.2288215604131763e-12,1.0281603604387396e-12,5.681247445127552e-13,2.8947785246790705e-13,1.797221100194116e-13,1.4335955718650578e-13,1.1958686506927115e-13,8.43189430069858e-14,7.979234492170507e-14,5.15167700494876e-14,3.867840016608251e-14,1.3332961381179114e-14,2.0366376396688496e-14,1.1905326103561842e-09,9.624774727134517e-10,7.775887277962925e-10,5.553951642275345e-10,3.815550474123231e-10,2.415685407686745e-10,1.8209199649090205e-10,1.1938520257191844e-10,7.874701282353425e-11,5.052314978840823e-11,3.2213944695144595e-11,1.9993018014992507e-11,1.153417100188276e-11,6.192362987863226e-12,3.2297252680856016e-12,1.6737277856139718e-12,8.655284115401345e-13,3.5446169098091945e-13,2.5516175471314346e-13,1.2208025463731115e-13,1.555993998305492e-13
0.0,47,47.0,0.0,30.0,0.0,0.0,0.0,0.0,-13.0,0.0,2.0,0.0,0.0,0.0,3.056469886050349e-11,1.656885287767523e-11,8.785330847732657e-12,4.513198847420415e-12,2.168721724801089e-12,1.0825501034095734e-12,5.830794649841356e-13,3.089462751920337e-13,1.8122785528078802e-13,1.3728996059451026e-13,8.994039327739941e-14,7.614276593981752e-14,6.711485333500807e-14,5.0414529610080716e-14,1.9329900788996416e-14,1.443659867394638e-14,1.554952649812345e-14,1.292593609190246e-09,9.7134556643452e-10,7.909810272338948e-10,5.40785452324683e-10,3.751340424963117e-10,2.6200312944991317e-10,1.8016719021186252e-10,1.2189211355040407e-10,7.925751766534575e-11,5.279752412480762e-11,3.340319136011158e-11,1.9689993675384082e-11,1.1770292393263497e-11,6.684744509915529e-12,3.03275957431181e-12,1.4838137866977015e-12,7.765956706073434e-13,3.5418046819221004e-13,2.1061043146842152e-13,1.931080376552024e-13,9.716367786302933e-14
0.0,48,48.0,0.0,30.0,0.0,0.0,0.0,0.0,-13.0,0.0,2.0,0.0,0.0,0.0,3.119833643483928e-11,1.7673289435870953e-11,8.954091198448925e-12,4.692031905851443e-12,2.2447445954716525e-12,1.1090802874954123e-12,5.738954588833466e-13,2.803103801086547e-13,2.0205510819436667e-13,1.0940456981400002e-13,8.863682955587365e-14,6.094664682858518e-14,8.555076017806882e-14,3.9153215886731335e-14,2.9680109143239096e-14,6.1676771712125366e-15,8.208096365221247e-15,1.1589953454511287e-09,1.0115183320172957e-09,7.971955723707881e-10,5.634048140744083e-10,3.960855865344182e-10,2.6331561960813984e-10,1.9361013845336744e-10,1.1961838441932786e-10,8.134669848021429e-11,5.153168535208378e-11,3.299199844662215e-11,2.034678498838539e-11,1.162442542072187e-11,6.297078072774028e-12,3.6138151268425202e-12,1.6414229638592298e-12,7.839652601055935e-13,4.1834233691895676e-13,1.2116901162048352e-13,3.005827953275921e-14,-1.4941467038890645e-13
0.0,49,49.0,0.0,30.0,0.0,0.0,0.0,0.0,-13.0,0.0,2.0,0.0,0.0,0.0,3.137438830726618e-11,1.687315841945406e-11,9.357643844625761e-12,4.961430980328248e-12,2.484574906134022e-12,1.1545221538450675e-12,6.180626152028926e-13,2.9470105417731975e-13,1.87595923569613e-13,1.1485631352335335e-13,1.111500404307916e-13,5.5024825236659834e-14,5.5873563881787055e-14,5.1094046491629315e-14,3.743301727888801e-14,2.7274826287681333e-14,2.1079072403764495e-14,1.259448543215694e-09,1.0330351602196091e-09,8.064788089666854e-10,5.773938567541125e-10,3.7014838067999616e-10,2.712687790026049e-10,1.784895640667652e-10,1.1755957196394482e-10,7.942753394730197e-11,5.1781067850665805e-11,3.515462056756726e-11,2.097075791985392e-11,1.2610744162570378e-11,6.496187019042407e-12,3.929633211309566e-12,1.936604107093232e-12,7.648223597020734e-13,5.079163145967811e-13,2.526902006142359e-13,-6.447567105570191e-15,-2.7022263406141103e-14
0.0,50,50.0,0.0,30.0,0.0,0.0,0.0,0.0,-13.0,0.0,2.0,0.0,0.0,0.0,3.25288172724028e-11,1.7906741331737106e-11,9.70326115088165e-12,5.09442474765782e-12,2.6112810101216044e-12,1.2152469640096823e-12,6.090556631469672e-13,3.0368421902606344e-13,2.0068433619604527e-13,1.2499761421146643e-13,1.0378386897294012e-13,7.573189579281079e-14,6.348082281815237e-14,3.459690539461745e-14,3.0087861238463294e-14,2.1833147363535607e-14,2.2532201946785877e-14,1.2293215537580219e-09,1.1091952816000381e-09,8.545499617375975e-10,5.866847023027944e-10,3.98406391413427e-10,2.6793077346344197e-10,1.8192950652775167e-10,1.2051077649161734e-10,8.246798842032358e-11,5.2693201878463265e-11,3.484908805459599e-11,2.0495403247904394e-11,1.2358347098102119e-11,6.8368224420023075e-12,3.796665377803161e-12,1.9144972893738828e-12,8.162116613518826e-13,3.756572995845374e-13,1.9715524899896128e-13,2.1954614742801235e-15,2.196265613571445e-13
0.0,51,51.0,0.0,30.0,0.0,0.0,0.0,0.0,-13.0,0.0,2.0,0.0,0.0,0.0,3.2028048453500616e-11,1.7595016121065458e-11,9.074813592822112e-12,5.064909308510943e-12,2.5709205585147662e-12,1.2142154873067767e-12,6.215101930266323e-13,3.2636455354497323e-13,1.9056506053279408e-13,1.268757490133447e-13,9.523343962251905e-14,4.9796559668315204e-14,5.5103477102573544e-14,3.947786637072418e-14,3.2047935575203425e-14,2.998410764420708e-14,1.0112402445754558e-15,1.3381632389628663e-09,1.098005838321876e-09,8.147433522318693e-10,6.00829682582511e-10,3.964250002675306e-10,2.7066800065358357e-10,1.9291667125635024e-10,1.2264652190520312e-10,8.002560981443258e-11,5.378618318981905e-11,3.388310798804959e-11,2.1012894392020196e-11,1.2748721749903453e-11,7.225557785322198e-12,4.109619282312875e-12,1.9448242559232576e-12,1.0110792563937949e-12,4.355700605926905e-13,4.854674484046302e-14,5.802092929321789e-14,9.209813174135953e-15
0.0,52,52.0,0.0,30.0,0.0,0.0,0.0,0.0,-13.0,0.0,2.0,0.0,0.0,0.0,3.006839709555509e-11,1.8216881332090936e-11,9.647401458126283e-12,5.037318720085998e-12,2.565052839314359e-12,1.3040101100996369e-12,6.235523029285608e-13,3.366647419391847e-13,1.9482092465079061e-13,1.0527436220877339e-13,8.326780322983514e-14,6.281320679736812e-14,6.461035931396695e-14,2.7295265359588342e-14,3.0752019430740285e-14,8.408466968015878e-15,2.6711548475117178e-14,1.3313280983402875e-09,1.1073246909677764e-09,8.255603148062985e-10,6.194693139734793e-10,4.1526106419233967e-10,2.727011348382545e-10,1.833365469254492e-10,1.2195310660151163e-10,8.505100849850997e-11,5.418481877942224e-11,3.531307009516068e-11,2.1066909528619096e-11,1.3655420296968855e-11,7.411879273974887e-12,3.689588086400869e-12,2.2185449699589546e-12,9.307148854886204e-13,3.611895191979195e-13,2.0637579274857387e-13,6.317614456766778e-14,1.0986986535034463e-13
0.0,53,53.0,0.0,30.0,0.0,0.0,0.0,0.0,-13.0,0.0,2.0,0.0,0.0,0.0,3.3153794588269793e-11,1.879735692005572e-11,1.0294880213466444e-11,5.222898561717942e-12,2.7322687732116635e-12,1.3880927985431065e-12,6.282631457743167e-13,3.3142700925448676e-13,1.7923339734999837e-13,1.166707561792201e-13,9.493399447471702e-14,5.701043126690808e-14,5.76223215838148e-14,2.087735987643042e-14,2.80903305843404e-14,3.561361014870407e-14,6.4232509568493915e-15,1.364052837885303e-09,1.1375840534835104e-09,8.30644198190869e-10,5.767504272355748e-10,3.968724852802022e-10,2.729759940955838e-10,1.9259584395504342e-10,1.2291666884395084e-10,8.210418269951131e-11,5.4528596143886066e-11,3.385335902906416e-11,2.13001914515224e-11,1.2867827406674542e-11,7.443357759380553e-12,4.2959577910484705e-12,2.380316741786927e-12,9.959781953881217e-13,5.708015672169867e-13,1.6282367457228493e-13,1.9118809241795114e-13,1.601729977319744e-13
0.0,54,54.0,0.0,30.0,0.0,0.0,0.0,0.0,-13.0,0.0,2.0,0.0,0.0,0.0,3.403197229587225e-11,1.83287554353288e-11,9.922906739946029e-12,5.520751241257573e-12,2.731152110336035e-12,1.284843379775948e-12,6.956873012695217e-13,3.4149584361112734e-13,2.0373532044907676e-13,1.1820597364451632e-13,8.431401410066074e-14,8.619275839300667e-14,2.7490156462837784e-14,4.5009646043079836e-14,3.5650027393626e-14,8.165070589334328e-15,3.7411838417527024e-14,1.3365748905602177e-09,1.1301426588306382e-09,8.445463833444084e-10,6.001955905741156e-10,4.0025354604298455e-10,2.920578817221618e-10,1.9531807546639665e-10,1.3347751311382876e-10,8.288817725790695e-11,5.4649711288418074e-11,3.409487644845505e-11,2.159366823148406e-11,1.2958628700945994e-11,7.75786986400717e-12,4.590897478312405e-12,2.0869796324837573e-12,1.1135721505922382e-12,5.872679923082017e-13,3.994955438615352e-13,1.8765330413536323e-14,2.0819789909061673e-14
0.0,55,55.0,0.0,30.0,0.0,0.0,0.0,0.0,-13.0,0.0,2.0,0.0,0.0,0.0,3.250397798263319e-11,1.9454889553253028e-11,9.330083190415934e-12,5.645941166479548e-12,2.8801208689931337e-12,1.5023061207012727e-12,6.954635578210414e-13,3.223404931844959e-13,2.0849686735799693e-13,1.2052303617138417e-13,8.320110637148396e-14,6.946220501515268e-14,3.7366496312955613e-14,2.8515792953053324e-14,4.4707469243448686e-14,3.561174706482566e-14,4.1615799348794744e-14,1.386905339387287e-09,1.1173277649546459e-09,8.397669105510134e-10,5.879736327026873e-10,4.0267268221559517e-10,2.8732672257443267e-10,1.948198103218971e-10,1.2701564212969003e-10,8.552508421695895e-11,5.569043026277682e-11,3.4631378938618464e-11,2.2512580661550143e-11,1.4150128808418877e-11,7.672966554737552e-12,4.514766958841999e-12,2.209239593541351e-12,1.1720678436601827e-12,6.852185879575112e-13,2.0151972893468045e-13,1.2659404654421564e-14,3.180654594457491e-14
0.0,56,56.0,0.0,30.0,0.0,0.0,0.0,0.0,-13.0,0.0,2.0,0.0,0.0,0.0,3.2256379297499996e-11,1.8353396512366366e-11,1.0361905596200382e-11,5.293974549721316e-12,3.050187805880564e-12,1.4799392850931668e-12,7.042521261357677e-13,3.6131236412097355e-13,1.9404214510261759e-13,1.138080337287365e-13,9.078474410407095e-14,6.505454985467328e-14,4.570268170455557e-14,3.053524460623605e-14,2.383620748495845e-14,2.2975432992834794e-14,1.089985454519522e-14,1.3661983274573751e-09,1.13812007107533e-09,8.582133068560141e-10,6.128885051330694e-10,4.351952608070545e-10,2.7768391542650273e-10,2.0788008921029814e-10,1.3368254296903646e-10,8.580057846438121e-11,5.5732930092487506e-11,3.547793831320016e-11,2.3117112034651714e-11,1.3879980091285603e-11,7.962220304846472e-12,4.18273715072631e-12,2.4627632804280086e-12,1.1204485008351072e-12,4.086647061715892e-13,1.8072992854213827e-13,6.012135828488772e-14,1.5620505428861547e-14
0.0,57,57.0,0.0,30.0,0.0,0.0,0.0,0.0,-13.0,0.0,2.0,0.0,0.0,0.0,3.433564082162579e-11,1.868776368181236e-11,1.0580704170736772e-11,6.193631619669548e-12,3.179659089571735e-12,1.4635720758780564e-12,7.125932180838097e-13,3.561603676786919e-13,1.8132999929868798e-13,1.0897122471181128e-13,6.336302341565143e-14,5.6485402572334006e-14,3.0199670605432105e-14,2.9475229757298415e-14,1.5020250751759033e-14,2.29760830184046e-15,1.3406383404126113e-15,1.4127672425065268e-09,1.1134322155425916e-09,9.013215795944503e-10,6.489685788925147e-10,4.2564430763521e-10,2.9359613000255917e-10,1.9811956328222585e-10,1.280018158720205e-10,8.867187182993987e-11,5.550209276570413e-11,3.6292424433499376e-11,2.2232839507421967e-11,1.3251332615377651e-11,8.229236673128048e-12,4.82146263037482e-12,2.265249173236562e-12,1.1280867978651574e-12,7.250610105183014e-13,4.583963353400269e-13,6.027378081999061e-14,5.761911921435509e-14
0.0,58,58.0,0.0,30.0,0.0,0.0,0.0,0.0,-13.0,0.0,2.0,0.0,0.0,0.0,3.465156231630735e-11,1.986076223099838e-11,1.100099933428255e-11,5.906483368250836e-12,3.0505026092842617e-12,1.5684006359476336e-12,7.531032297145288e-13,3.5588669405244833e-13,1.7904675867997156e-13,1.1366301465208029e-13,8.373240776335908e-14,3.865936616958535e-14,5.906617983992586e-14,3.762066162618923e-14,-1.1013194147778365e-14,3.306345417694917e-14,1.4171588636804555e-14,1.4570172691111022e-09,1.2238945938707284e-09,8.768885012851106e-10,6.745709731001146e-10,4.4333528435896147e-10,2.9103175021390236e-10,1.989160486387984e-10,1.319385050809853e-10,8.44204577672549e-11,5.7725877649972116e-11,3.6334174993403175e-11,2.2024735616821586e-11,1.3822306761112904e-11,7.799135183482486e-12,4.4137264174569125e-12,2.2611924325606874e-12,1.1626838648666955e-12,4.3364514501145957e-13,1.0577314268023914e-13,2.0913465341774262e-13,1.2612784235473756e-13
0.0,59,59.0,0.0,30.0,0.0,0.0,0.0,0.0,-13.0,0.0,2.0,0.0,0.0,0.0,3.4786554332054536e-11,1.9221100724068492e-11,1.0645960622603674e-11,5.969896332569899e-12,3.072160159378215e-12,1.574947902746356e-12,7.825857333501426e-13,3.8554076064377376e-13,2.0093634629133296e-13,1.2061905863042356e-13,8.427444955772584e-14,4.869639182017705e-14,4.703472900820928e-14,3.325904533718827e-14,1.8348488871311426e-14,1.6832679150402914e-14,1.758201092044486e-14,1.4522284625642241e-09,1.177956360451546e-09,9.508083222747652e-10,6.758706502312316e-10,4.512461335390812e-10,2.818562123583006e-10,2.1762930216101603e-10,1.4223804839380423e-10,8.851158869200298e-11,5.926282742190242e-11,3.643557204730886e-11,2.2533095786210827e-11,1.4243708435277356e-11,8.010088341610735e-12,4.953185038698187e-12,2.4981010456100768e-12,1.098289632991388e-12,6.438012526757899e-13,1.6601478545306953e-13,9.682259800776087e-14,-6.242573242210606e-14
0.0,60,60.0,0.0,30.0,0.0,0.0,0.0,0.0,-13.0,0.0,2.0,0.0,0.0,0.0,3.594198595418586e-11,1.964367450187542e-11,1.025740497220721e-11,6.1712499852751745e-12,3.0697494013637587e-12,1.651991659093137e-12,8.568276396615689e-13,3.528869003226933e-13,1.96723236296285e-13,8.856721436342711e-14,6.712096900083158e-14,4.4435067007997197e-14,3.8755240997519394e-14,3.3544639332961527e-14,3.9484179558214105e-14,1.0215059252789445e-14,2.924839550760519e-14,1.5038983630617928e-09,1.1852279657939174e-09,9.274674031292287e-10,6.472658579376448e-10,4.4613560278456293e-10,3.041641386909707e-10,1.965908298349097e-10,1.380813627260789e-10,8.473879502839259e-11,5.4166357301640874e-11,3.5062125054850914e-11,2.336923576721019e-11,1.3806946983123214e-11,8.334149358215482e-12,4.92843417711172e-12,2.783899894027256e-12,1.4365884800807228e-12,5.477141917702643e-13,3.6929880330539486e-13,1.956238986123587e-13,2.6387670958916763e-13
0.0,61,61.0,0.0,30.0,0.0,0.0,0.0,0.0,-13.0,0.0,2.0,0.0,0.0,0.0,3.367692977629458e-11,1.98815326815732e-11,1.1158457568713932e-11,6.225931816876341e-12,3.1071774457390103e-12,1.6137410296716258e-12,8.103149445398401e-13,3.891784731640986e-13,1.91786134436616e-13,9.307569220132195e-14,9.063093293535774e-14,3.1898422447375226e-14,3.4466543693208865e-14,1.7437879084417567e-14,1.0111968530599356e-14,1.4149738189637685e-14,2.410429714696486e-16,1.4865863409746053e-09,1.2542827370235504e-09,9.33337891095487e-10,6.783771322290415e-10,4.676137136974284e-10,3.1390288722776717e-10,2.0269592037499647e-10,1.3686902915243498e-10,9.235075061035498e-11,5.7286044372692326e-11,3.801550382298382e-11,2.3580136631096852e-11,1.3684215372913667e-11,8.072211564024664e-12,5.065605368814495e-12,2.5919846812791635e-12,1.226714750093245e-12,6.580254485410882e-13,1.2859949261933653e-13,-1.8575319435554515e-14,1.1647303278566385e-13
0.0,62,62.0,0.0,30.0,0.0,0.0,0.0,0.0,-13.0,0.0,2.0,0.0,0.0,0.0,3.4987933010689115e-11,2.0004279107771107e-11,1.0870720535243008e-11,6.265447511551424e-12,3.5202981111714898e-12,1.792260899556733e-12,8.433225884993981e-13,4.26717743106269e-13,2.315432486154627e-13,1.0944439198543238e-13,6.750075508835695e-14,4.236179964775613e-14,4.3294290817430224e-14,3.448605541187044e-14,2.8034172610934446e-14,3.375677449045439e-14,2.707881822242918e-14,1.5624444733167447e-09,1.2453102955849963e-09,9.41420737277121e-10,6.756335505630931e-10,4.6537433131729197e-10,3.148956121051735e-10,2.1235737749041402e-10,1.4242899251704794e-10,8.886646048651509e-11,5.7399651846117383e-11,3.869729695510826e-11,2.2656308437799376e-11,1.4266812616124897e-11,8.939221587264853e-12,4.673873956218881e-12,2.6449570675901435e-12,1.332980882473574e-12,5.711279756080902e-13,3.5395280216996376e-13,1.4531271243311236e-13,-3.211916499339452e-14
0.0,63,63.0,0.0,30.0,0.0,0.0,0.0,0.0,-13.0,0.0,2.0,0.0,0.0,0.0,3.7121734903410853e-11,1.935522574313846e-11,1.1279343156911801e-11,6.4106515802886544e-12,3.2488389119837265e-12,1.6193305180298916e-12,8.226963000808738e-13,4.2245445181701836e-13,1.7266842833558306e-13,1.1061969633710537e-13,6.358215606675059e-14,6.416481814157603e-14,4.070510811264719e-14,1.3326485689822964e-14,1.964720948742243e-14,1.39332949865713e-14,1.169376828092023e-14,1.5204769391047076e-09,1.2551546574082101e-09,9.949068556079316e-10,6.702015912440619e-10,4.710497163715583e-10,3.1929904799434156e-10,2.1555518501700141e-10,1.472128399248987e-10,9.143774873536883e-11,5.967081514242702e-11,3.515289120877437e-11,2.4370354874889052e-11,1.4416775967058516e-11,9.004178340070864e-12,5.180452342811896e-12,2.9664714256195058e-12,1.2943481708191836e-12,8.303000968548238e-13,2.7959852775477983e-13,3.35472696211749e-13,2.339111824927115e-13
