Line_number,Fiducial,Easting,Northing,Height,Elevation,tx_pitch,tx_roll,tx_yaw,txrx_dx,txrx_dy,txrx_dz,rx_pitch,rx_roll,rx_yaw,S0Z_time_1.431e-04,S0Z_time_1.801e-04,S0Z_time_2.266e-04,S0Z_time_2.846e-04,S0Z_time_3.581e-04,S0Z_time_4.506e-04,S0Z_time_5.671e-04,S0Z_time_7.136e-04,S0Z_time_8.981e-04,S0Z_time_1.131e-03,S0Z_time_1.423e-03,S0Z_time_1.791e-03,S0Z_time_2.255e-03,S0Z_time_2.838e-03,S0Z_time_3.573e-03,S0Z_time_4.498e-03,S0Z_time_5.662e-03,S1Z_time_1.409e-05,S1Z_time_1.610e-05,S1Z_time_1.909e-05,S1Z_time_2.360e-05,S1Z_time_2.960e-05,S1Z_time_3.709e-05,S1Z_time_4.609e-05,S1Z_time_5.759e-05,S1Z_time_7.209e-05,S1Z_time_9.060e-05,S1Z_time_1.141e-04,S1Z_time_1.431e-04,S1Z_time_1.801e-04,S1Z_time_2.266e-04,S1Z_time_2.846e-04,S1Z_time_3.581e-04,S1Z_time_4.506e-04,S1Z_time_5.671e-04,S1Z_time_7.136e-04,S1Z_time_8.981e-04,S1Z_time_1.131e-03
0.0,0,0.0,0.0,30.0,0.0,0.0,0.0,0.0,-13.0,0.0,2.0,0.0,0.0,0.0,5.4961646119037045e-11,3.3754629430153186e-11,2.2474234306348174e-11,1.6094048988479026e-11,1.2043431583276678e-11,9.209915665712725e-12,7.12089114625814e-12,5.501157516955638e-12,4.2230645944242705e-12,3.2121164047170627e-12,2.421079493456801e-12,1.7956758492568623e-12,1.3080768012783684e-12,9.347283747134985e-13,6.519350990459249e-13,4.4438052848657645e-13,2.945809104409093e-13,4.231390948713285e-09,3.100617514114056e-09,2.084673260031196e-09,1.2651972033734556e-09,7.648313720292891e-10,4.739159225057427e-10,3.1025359111815034e-10,2.0366156196905086e-10,1.3252876759726638e-10,8.435152527276106e-11,5.314791457291292e-11,3.403786403014798e-11,2.2435883050041762e-11,1.5315191915244827e-11,1.0865878103836177e-11,7.826746537390592e-12,5.6665156472295555e-12,4.081687420074877e-12,2.9058308945104806e-12,2.046214349751145e-12,1.412614924769582e-12
0.0,1,1.0,0.0,30.0,0.0,0.0,0.0,0.0,-13.0,0.0,2.0,0.0,0.0,0.0,6.178791469617113e-11,3.7122691384400885e-11,2.3607203208984743e-11,1.6121577215248365e-11,1.1648405439614303e-11,8.720349019354182e-12,6.660744739303713e-12,5.111380755833347e-12,3.908353991973446e-12,2.96701478157786e-12,2.235671075394402e-12,1.6588498208095715e-12,1.210021640519414e-12,8.662028657730821e-13,6.054796289853112e-13,4.1380549188294825e-13,2.750917869161124e-13,4.213625189434281e-09,3.0854747697929485e-09,2.073883178321243e-09,1.259924659674028e-09,7.649474217965898e-10,4.792139045499214e-10,3.1991074881347757e-10,2.1617584236202618e-10,1.454453263450156e-10,9.530476077703593e-11,6.087776600546866e-11,3.8628939740808334e-11,2.4653924517865244e-11,1.6094418276123775e-11,1.0947029344689656e-11,7.632662253714675e-12,5.406094022281519e-12,3.843836993700085e-12,2.710078443065028e-12,1.8985307553348796e-12,1.3045882321849992e-12
0.0,2,2.0,0.0,30.0,0.0,0.0,0.0,0.0,-13.0,0.0,2.0,0.0,0.0,0.0,6.848756003975355e-11,4.111207148614196e-11,2.5411958293745964e-11,1.6618134719919962e-11,1.1526000102930182e-11,8.383899599209464e-12,6.293802495961795e-12,4.783285504329913e-12,3.6365284322129882e-12,2.752488205167158e-12,2.071730313229481e-12,1.5369901447615084e-12,1.122146363748504e-12,8.044110150338174e-13,5.63366307048776e-13,3.859304979079906e-13,2.5723240012866887e-13,4.1953223125417876e-09,3.0700099961932956e-09,2.062987143285247e-09,1.2544554360125037e-09,7.639633374505508e-10,4.818334426806441e-10,3.255860811988031e-10,2.244524589672756e-10,1.5509797089567206e-10,1.0459678241877379e-10,6.835409426392893e-11,4.372717105213913e-11,2.7560070700063624e-11,1.743217277998938e-11,1.1385264142260629e-11,7.637487527296678e-12,5.253468281141221e-12,3.66614932551174e-12,2.553610967756192e-12,1.7738737476201672e-12,1.2118786765497505e-12
0.0,3,3.0,0.0,30.0,0.0,0.0,0.0,0.0,-13.0,0.0,2.0,0.0,0.0,0.0,7.451430774901117e-11,4.527102341640761e-11,2.7674323995792654e-11,1.7526828126144298e-11,1.1675278533193102e-11,8.204988747306245e-12,6.018654803361001e-12,4.5122909867575954e-12,3.4031585751487392e-12,2.564958879041423e-12,1.9266633258780047e-12,1.4283345309592994e-12,1.0432692728702658e-12,7.486126971791985e-13,5.2513874422204e-13,3.604859065025487e-13,2.4084973856455336e-13,4.176507414522003e-09,3.054231289801675e-09,2.0519918102833007e-09,1.2490225335366136e-09,7.627696709721127e-10,4.83431175307979e-10,3.2918490572718624e-10,2.2991595867234318e-10,1.62010647728594e-10,1.1197397951872663e-10,7.499035811950098e-11,4.8802263383686464e-11,3.084214348332451e-11,1.9207905077511405e-11,1.2158891649539283e-11,7.849734284310574e-12,5.215584595683036e-12,3.5490040883972077e-12,2.4336700423836857e-12,1.6699991520824648e-12,1.1327394220197084e-12
0.0,4,4.0,0.0,30.0,0.0,0.0,0.0,0.0,-13.0,0.0,2.0,0.0,0.0,0.0,7.962901135546654e-11,4.925967660947849e-11,3.0167303017685456e-11,1.87517877660189e-11,1.2073896373972299e-11,8.183753664470373e-12,5.835762534534119e-12,4.2960581463424544e-12,3.20506772825179e-12,2.4015314242032956e-12,1.7983253651242594e-12,1.3313814948164497e-12,9.723698119643189e-13,6.981628565687428e-13,4.903938902857414e-13,3.3723253183180753e-13,2.2580659221875866e-13,4.157199851573425e-09,3.0381637872885755e-09,2.0409046915967496e-09,1.2436508908937848e-09,7.616268472682904e-10,4.84743612180981e-10,3.3184381080472357e-10,2.337213028274294e-10,1.6692574954422413e-10,1.1760708785793767e-10,8.054915485601782e-11,5.349165207672362e-11,3.4209958659822134e-11,2.1263001622329854e-11,1.3210180438791812e-11,8.26134178923239e-12,5.296764419274043e-12,3.4951377792125598e-12,2.3488579693573113e-12,1.585988631346422e-12,1.0658102156207069e-12
0.0,5,5.0,0.0,30.0,0.0,0.0,0.0,0.0,-13.0,0.0,2.0,0.0,0.0,0.0,8.380967876241779e-11,5.287100867635352e-11,3.269633868713077e-11,2.0182350897590305e-11,1.2681011279583391e-11,8.312085645699e-12,5.744763476122131e-12,4.13365409330915e-12,3.040187240281109e-12,2.259949345566211e-12,1.6849512202839999e-12,1.2448503060625225e-12,9.085704077367863e-13,6.52498318589801e-13,4.587752938939255e-13,3.1595804798095934e-13,2.1197990753790794e-13,4.137408310843252e-09,3.021828614538626e-09,2.0297456166870385e-09,1.2383431229464462e-09,7.605885351611067e-10,4.860467482750436e-10,3.3415017147880497e-10,2.366483165572381e-10,1.7052532162344606e-10,1.2184695803803722e-10,8.503360667737548e-11,5.760378052266247e-11,3.744255354403084e-11,2.3439908660450903e-11,1.4460323004703144e-11,8.84713257684046e-12,5.494587408231103e-12,3.507062649498419e-12,2.299058903733854e-12,1.5216423859816566e-12,1.0101972612740318e-12
0.0,6,6.0,0.0,30.0,0.0,0.0,0.0,0.0,-13.0,0.0,2.0,0.0,0.0,0.0,8.715829138695119e-11,5.6012014314210664e-11,3.5118693702710796e-11,2.171339562493589e-11,1.3445359423088828e-11,8.573439288071987e-12,5.7425347933759075e-12,4.0244513504213365e-12,2.9072713781018013e-12,2.1385494162651994e-12,1.5851083987913328e-12,1.1676500604919052e-12,8.511182271521089e-13,6.111268474352334e-13,4.299678480401751e-13,2.96473689523909e-13,1.9925928853421383e-13,4.117137212348877e-09,3.005240237011837e-09,2.018534904101374e-09,1.2331097347426203e-09,7.596605439282866e-10,4.874239571162526e-10,3.363700856997319e-10,2.3916113595734743e-10,1.7332942558788086e-10,1.250708526472968e-10,8.857895987393817e-11,6.108050800991105e-11,4.0398740722356286e-11,2.5606460452679768e-11,1.582592311381677e-11,9.569947546124369e-12,5.79885886002985e-12,3.5849195494951857e-12,2.284708729166951e-12,1.4771028666753156e-12,9.654080318650404e-13
0.0,7,7.0,0.0,30.0,0.0,0.0,0.0,0.0,-13.0,0.0,2.0,0.0,0.0,0.0,8.982984225145749e-11,5.867171426647833e-11,3.7344731149128995e-11,2.325732398715039e-11,1.4313617480477207e-11,8.945135606265385e-12,5.822518247973602e-12,3.967175325291745e-12,2.8054973480898992e-12,2.0361680450754084e-12,1.4976638355860952e-12,1.0988589370598208e-12,7.993677273030556e-13,5.736176934603686e-13,4.036934888659501e-13,2.786113944360738e-13,1.8754558460554362e-13,4.096391549654734e-09,2.988410481576064e-09,2.0072896501829532e-09,1.2279656539475399e-09,7.588459042248969e-10,4.888931920840423e-10,3.3860799828209865e-10,2.4150825142327564e-10,1.7569013609043298e-10,1.2760565857494998e-10,9.137205189257382e-11,6.39513019389271e-11,4.3007616659243764e-11,2.7665559673972848e-11,1.7231036114681663e-11,1.0387427272506725e-11,6.19302923784828e-12,3.725486557249593e-12,2.3058842081217034e-12,1.4525928890493243e-12,9.312249325819296e-13
0.0,8,8.0,0.0,30.0,0.0,0.0,0.0,0.0,-13.0,0.0,2.0,0.0,0.0,0.0,9.198688980368967e-11,6.088992762276165e-11,3.93299649363315e-11,2.47486490513483e-11,1.5236608682686736e-11,9.401506500596467e-12,5.975110572683603e-12,3.9593500598661335e-12,2.7340611966833632e-12,1.9519959922575845e-12,1.4217471439033294e-12,1.0377101354900407e-12,7.527660385371909e-13,5.395934409819989e-13,3.797072707185643e-13,2.622214040780003e-13,1.767495904831606e-13,4.075178660625562e-09,2.9713518438123307e-09,1.9960250701732657e-09,1.2229259183413695e-09,7.581518590812601e-10,4.9045698823777e-10,3.4089822396672525e-10,2.4380991722079093e-10,1.7782490770187067e-10,1.2970187636597898e-10,9.360114595128441e-11,6.629363921886761e-11,4.525159639716272e-11,2.955518119582634e-11,1.8613695878429736e-11,1.1257835921443505e-11,6.6567339971194844e-12,3.922293496518349e-12,2.3616408051367153e-12,1.4481647125498244e-12,9.075731796068721e-13
0.0,9,9.0,0.0,30.0,0.0,0.0,0.0,0.0,-13.0,0.0,2.0,0.0,0.0,0.0,9.377495644404148e-11,6.273226577390112e-11,4.1063924097930154e-11,2.6143720452033207e-11,1.6172882879136124e-11,9.916754973684107e-12,6.188638975515378e-12,3.997169516335717e-12,2.6918695194835758e-12,1.8854101162487424e-12,1.3567008767629814e-12,9.835787238817687e-13,7.10841854214337e-13,5.08723313866144e-13,3.577935774751686e-13,2.4717021967149265e-13,1.6679090902223429e-13,4.053508404585452e-09,2.9540788584774546e-09,1.9847564791011518e-09,1.2180046272278403e-09,7.575881717391195e-10,4.921177839089181e-10,3.4324992246714583e-10,2.4611859997379305e-10,1.7985785992420957e-10,1.315355454723934e-10,9.543002761843481e-11,6.820392491069924e-11,4.714889181302137e-11,3.1243409592020063e-11,1.9928095354103055e-11,1.2143985839424801e-11,7.168377519441672e-12,4.166421021423705e-12,2.4497540724548287e-12,1.4634737093290297e-12,8.944027100033134e-13
0.0,10,10.0,0.0,30.0,0.0,0.0,0.0,0.0,-13.0,0.0,2.0,0.0,0.0,0.0,9.531240178284991e-11,6.427248380065755e-11,4.255913686434628e-11,2.74178604201393e-11,1.709013970909096e-11,1.0467044602331092e-11,6.450483561577666e-12,4.075684257952742e-12,2.677371536421416e-12,1.83581810748986e-12,1.3020193841664853e-12,9.35964970584139e-13,6.731968630078095e-13,4.807179785036205e-13,3.3776254500021223e-13,2.3333880049591064e-13,1.5759699906425932e-13,4.031392883812914e-09,2.9366082761939117e-09,1.9735004083253255e-09,1.213215459315474e-09,7.571652743888859e-10,4.938805333985055e-10,3.456659711419285e-10,2.4845502653724703e-10,1.818549559063679e-10,1.3322220195067824e-10,9.698859991453229e-11,6.977869925384611e-11,4.873853038228466e-11,3.2721647739622626e-11,2.114400822092188e-11,1.3015322912000808e-11,7.707198080690528e-12,4.447546684508695e-12,2.5668067764576407e-12,1.4976334289304435e-12,8.915920829569132e-13
0.0,11,11.0,0.0,30.0,0.0,0.0,0.0,0.0,-13.0,0.0,2.0,0.0,0.0,0.0,9.668909833779546e-11,6.558142006879506e-11,4.384175440050257e-11,2.8561462258416177e-11,1.796519094835182e-11,1.1031760844825051e-11,6.74807226120622e-12,4.189156274351997e-12,2.688524458698522e-12,1.8025417346731802e-12,1.2572846312411572e-12,8.944728066901932e-13,6.394980997003816e-13,4.55325568251805e-13,3.1944687710681093e-13,2.2062093915134622e-13,1.4910239101311952e-13,4.0088461581862e-09,2.918958794324734e-09,1.9622748928172425e-09,1.2085723415958942e-09,7.568935252821872e-10,4.957519170167626e-10,3.4814931758987513e-10,2.5082718030135565e-10,1.838491499586778e-10,1.3483346979772677e-10,9.837318443355547e-11,7.110418229122191e-11,5.0068925809446824e-11,3.399776452994645e-11,2.2244738060370718e-11,1.3848614306335758e-11,8.254655099844838e-12,4.754939342048754e-12,2.7084820197628333e-12,1.5491842212940476e-12,8.988786678860013e-13
0.0,12,12.0,0.0,30.0,0.0,0.0,0.0,0.0,-13.0,0.0,2.0,0.0,0.0,0.0,9.796966459376312e-11,6.672107334910728e-11,4.4944324664907154e-11,2.9575974896599864e-11,1.8783068185297003e-11,1.1594086435469273e-11,7.069629971768723e-12,4.331458442787398e-12,2.722856544849392e-12,1.784748373824177e-12,1.2221083339012875e-12,8.587847782217445e-13,6.094699059183845e-13,4.3232843194028155e-13,3.0269917242680186e-13,2.089218027327384e-13,1.4124803011608306e-13,3.985884040133675e-09,2.901150721173614e-09,1.951099317219528e-09,1.2040897867839574e-09,7.567831229651953e-10,4.977392889738819e-10,3.507042454184864e-10,2.532391002579433e-10,1.8585633480183943e-10,1.3641170155432986e-10,9.96515229076298e-11,7.225179939861996e-11,5.118997077922909e-11,3.5090060316338346e-11,2.3224459286349178e-11,1.4627716533727e-11,8.795198726935029e-12,5.078254944552716e-12,2.8699305225897237e-12,1.6161662135488767e-12,9.158168452372387e-13
0.0,13,13.0,0.0,30.0,0.0,0.0,0.0,0.0,-13.0,0.0,2.0,0.0,0.0,0.0,9.919845372665951e-11,6.774228514432549e-11,4.590069284065094e-11,3.047026860795711e-11,1.9535712853439572e-11,1.2141084282201298e-11,7.404666500963241e-12,4.496439309585531e-12,2.7775855104182024e-12,1.781427701289127e-12,1.196087040960578e-12,8.286362243042941e-13,5.828849519717421e-13,4.115400919436381e-13,2.8738975327238477e-13,1.9815665354680842e-13,1.339807059757865e-13,3.962523951330119e-09,2.8832057002983672e-09,1.9399941216756688e-09,1.1997829122384855e-09,7.568442011568892e-10,4.998500504483124e-10,3.5333602945940763e-10,2.556943087597343e-10,1.8788448303976827e-10,1.3798110121094696e-10,1.0086926104569822e-10,7.327753355687305e-11,5.214814202148044e-11,3.6022407508462225e-11,2.4085477109551623e-11,1.5342808972448444e-11,9.316561377464482e-12,5.408094280724395e-12,3.0461231853464023e-12,1.6962604795216636e-12,9.417635629371503e-13
0.0,14,14.0,0.0,30.0,0.0,0.0,0.0,0.0,-13.0,0.0,2.0,0.0,0.0,0.0,1.004046697819533e-10,6.868469452290161e-11,4.674274300760785e-11,3.1257609907240626e-11,2.0220534629379853e-11,1.2663462580292323e-11,7.744239083017898e-12,4.678214639451993e-12,2.8497562982010922e-12,1.7914032097272581e-12,1.1787729178266109e-12,8.037914905860685e-13,5.59554488184011e-13,3.928020426112771e-13,2.7340488657675165e-13,1.8824975851776898e-13,1.272525379871905e-13,3.938784818194439e-09,2.8651465130336615e-09,1.9289805203883567e-09,1.1956672867083609e-09,7.570868865738567e-10,5.020913860448898e-10,3.560503461243838e-10,2.5819675889664e-10,1.899383819116114e-10,1.3955535538652524e-10,1.020561330358064e-10,7.422340294720576e-11,5.298393396698504e-11,3.682062728927587e-11,2.483570609856987e-11,1.5989366420654507e-11,9.809715699814161e-12,5.736341473851462e-12,3.2321437524117506e-12,1.7869559489135443e-12,9.758883711970895e-13
0.0,15,15.0,0.0,30.0,0.0,0.0,0.0,0.0,-13.0,0.0,2.0,0.0,0.0,0.0,1.0160681439167136e-10,6.957793817996694e-11,4.749859286600154e-11,3.195331206760577e-11,2.0839013764414114e-11,1.3155156855865614e-11,8.081041758273544e-12,4.871375706564558e-12,2.936373398834417e-12,1.8133660801733062e-12,1.1696596693325194e-12,7.840242511244554e-13,5.393184272995319e-13,3.759802295900496e-13,2.60645245573029e-13,1.7913347702895442e-13,1.2102050021158578e-13,3.9146869967682435e-09,2.8469969454678766e-09,1.9180802853935175e-09,1.1917587291608742e-09,7.575212777975148e-10,5.044701867904479e-10,3.58852842782045e-10,2.607508243157109e-10,1.9202180238633827e-10,1.4114245300629557e-10,1.0323105947245811e-10,7.511986532520465e-11,5.3730936079329945e-11,3.75099993209959e-11,2.5486520248002614e-11,1.656705265745666e-11,1.026861936173432e-11,6.056324990356148e-12,3.4234074876375495e-12,1.885707649446448e-12,1.0172031314117604e-12
0.0,16,16.0,0.0,30.0,0.0,0.0,0.0,0.0,-13.0,0.0,2.0,0.0,0.0,0.0,1.028161895544096e-10,7.044338001405945e-11,4.819184475794071e-11,3.257303213839463e-11,2.139544775162628e-11,1.3612824745152215e-11,8.409372300793012e-12,5.071120462646502e-12,3.0345137819231486e-12,1.8459201017490434e-12,1.1681809553012514e-12,7.691029958209771e-13,5.220359811516837e-13,3.609612406784892e-13,2.490244736910282e-13,1.7074749735350482e-13,1.1524597958490289e-13,3.890252224995815e-09,2.8287817028775644e-09,1.9073155989933156e-09,1.1880731283098925e-09,7.581573724766513e-10,5.069930384775232e-10,3.617489052020445e-10,2.633610344536427e-10,1.9413832105772081e-10,1.427475040456443e-10,1.0440597125691378e-10,7.598839582999041e-11,5.441596020031886e-11,3.811371945298153e-11,2.6051032914710905e-11,1.7078650654578747e-11,1.0689837704490604e-11,6.3628462043941275e-12,3.6158091666095925e-12,1.9900655632121263e-12,1.064605265369211e-12
0.0,17,17.0,0.0,30.0,0.0,0.0,0.0,0.0,-13.0,0.0,2.0,0.0,0.0,0.0,1.0403946970870404e-10,7.129592089628682e-11,4.884154052423168e-11,3.313163264793144e-11,2.189589234975878e-11,1.4035318501591324e-11,8.725018749101858e-12,5.2733207491959005e-12,3.1414148023836376e-12,1.8876290006559857e-12,1.1737177889351348e-12,7.587818104442623e-13,5.075774698580154e-13,3.4764836465002927e-13,2.384677566738058e-13,1.6303818058762252e-13,1.0989436657714981e-13,3.865503601749887e-09,2.810526358643209e-09,1.8967089611701476e-09,1.1846263078493515e-09,7.590049798003128e-10,5.096662202564011e-10,3.6474356247555813e-10,2.6603182633666656e-10,1.9629151657244706e-10,1.4437425974204087e-10,1.0558847898107541e-10,7.684382733023208e-11,5.505975415945942e-11,3.865209250722169e-11,2.6542804083514086e-11,1.752909867135464e-11,1.1072109871324498e-11,6.6521152741410455e-12,3.8058110557915104e-12,2.0977663668998312e-12,1.1169279278804882e-12
0.0,18,18.0,0.0,30.0,0.0,0.0,0.0,0.0,-13.0,0.0,2.0,0.0,0.0,0.0,1.052804869119541e-10,7.214564152550635e-11,4.9462536256415915e-11,3.3642502541894624e-11,2.234731316909098e-11,1.4423177668662222e-11,9.025097825622103e-12,5.474540229191728e-12,3.2545367936225447e-12,1.937060479672399e-12,1.185611438575093e-12,7.527959079670369e-13,4.958177027015289e-13,3.359577274539065e-13,2.2891036192623633e-13,1.5595797012371247e-13,1.0493467845462471e-13,3.840465590966687e-09,2.7922573288982706e-09,1.886283136229344e-09,1.1814339383271363e-09,7.600736435582883e-10,5.124956983598435e-10,3.678414662661327e-10,2.687673846702754e-10,1.9848492626586395e-10,1.4602585603332204e-10,1.0678362573993795e-10,7.769627721509722e-11,5.5677971194887107e-11,3.914225408135242e-11,2.697493493987828e-11,1.792466884668703e-11,1.1415904314132716e-11,6.921626432555257e-12,3.9904831203306114e-12,2.206789565032331e-12,1.172990887028966e-12
0.0,19,19.0,0.0,30.0,0.0,0.0,0.0,0.0,-13.0,0.0,2.0,0.0,0.0,0.0,1.0654141013262507e-10,7.299917006017123e-11,5.0066086482242514e-11,3.411722795783911e-11,2.2756941665303398e-11,1.477816818386015e-11,9.30786902199949e-12,5.672016474382778e-12,3.371602947948255e-12,1.992823805044045e-12,1.2031788950809093e-12,7.508609966373093e-13,4.866310891239697e-13,3.25814708877209e-13,2.2029614950765715e-13,1.4946483198846644e-13,1.003392140652879e-13,3.815164048001618e-09,2.774001866956228e-09,1.8760611259997398e-09,1.1785114869090687e-09,7.613725872874369e-10,5.154871167362906e-10,3.7104690288148555e-10,2.715715648814486e-10,2.0072194617284467e-10,1.4770512962464459e-10,1.0799497436919858e-10,7.855262802616409e-11,5.628218122362416e-11,3.959824233796131e-11,2.735948956862509e-11,1.827230181394817e-11,1.1722994786702546e-11,7.1699975314154696e-12,4.1675066533008985e-12,2.315384487602564e-12,1.2316470164775307e-12
0.0,20,20.0,0.0,30.0,0.0,0.0,0.0,0.0,-13.0,0.0,2.0,0.0,0.0,0.0,1.0782348864491853e-10,7.386075220394696e-11,5.066049414540149e-11,3.456551196855383e-11,2.3131815446596282e-11,1.510288251037362e-11,9.572541435140625e-12,5.8636184012950566e-12,3.490620269873689e-12,2.053599660312227e-12,1.225728707702563e-12,7.526754457738721e-13,4.798884334175664e-13,3.1715079900127465e-13,2.125760893406004e-13,1.4352170301521056e-13,9.608323728893354e-14,3.78962626436442e-09,2.755788072982964e-09,1.8660661606139725e-09,1.1758741944401211e-09,7.629106833348495e-10,5.186457902754895e-10,3.743638167233419e-10,2.744478733098924e-10,2.030057474322602e-10,1.4941472158799137e-10,1.0922524435352609e-10,7.941760520566214e-11,5.688080109354078e-11,4.0031276730447484e-11,2.7707176273330723e-11,1.857909480442921e-11,1.1996076748760648e-11,7.396792636624006e-12,4.335150711383455e-12,2.4220761489666453e-12,1.2918208574567405e-12
0.0,21,21.0,0.0,30.0,0.0,0.0,0.0,0.0,-13.0,0.0,2.0,0.0,0.0,0.0,1.091274987249523e-10,7.473304827993752e-11,5.125173729271994e-11,3.499525776174493e-11,2.3478475259608184e-11,1.5400406910045904e-11,9.819085356744572e-12,6.0477879181185646e-12,3.6098855568499836e-12,2.1181622198888724e-12,1.2525757255785042e-12,7.579242591635786e-13,4.754552229612181e-13,3.099009936946823e-13,2.057068331081072e-13,1.380959362145165e-13,9.214468503217771e-14,3.763881026469289e-09,2.7376449149756153e-09,1.8563217007057193e-09,1.1735370706425051e-09,7.646964426452165e-10,5.219767049295181e-10,3.7779583638383804e-10,2.7739948023770984e-10,2.0533922855235392e-10,1.511570902394905e-10,1.1047666276170942e-10,8.02945263948724e-11,5.7479885812608394e-11,4.0450137658372806e-11,2.8027222651449738e-11,1.8851930171215024e-11,1.2238435536354726e-11,7.602341646205514e-12,4.49222902868011e-12,2.5256573305281486e-12,1.3525373755800508e-12
0.0,22,22.0,0.0,30.0,0.0,0.0,0.0,0.0,-13.0,0.0,2.0,0.0,0.0,0.0,1.1045399818339375e-10,7.561770241588948e-11,5.1844024233982494e-11,3.541274760175949e-11,2.3802788286351728e-11,1.5674055869218972e-11,1.0048056756818186e-11,6.223472606092537e-12,3.727980019504639e-12,2.1853940998157094e-12,1.2830539016893838e-12,7.662840137122996e-13,4.731911397137278e-13,3.0400176786863984e-13,1.9964938981138715e-13,1.3315874331260174e-13,8.850389530483154e-14,3.737958683986154e-09,2.719602257408852e-09,1.8468514466887666e-09,1.1715149005547966e-09,7.667380203337091e-10,5.2548452649305e-10,3.813463010452966e-10,2.804292488402213e-10,2.0772500077282285e-10,1.529344960697673e-10,1.1175114479334839e-10,8.118580150377246e-11,5.808376482938795e-11,4.086157432294593e-11,2.832738578059569e-11,1.909722517227868e-11,1.2453671094934192e-11,7.787567034345348e-12,4.638043710076293e-12,2.6251726162598405e-12,1.412940543008409e-12
0.0,23,23.0,0.0,30.0,0.0,0.0,0.0,0.0,-13.0,0.0,2.0,0.0,0.0,0.0,1.1180346233760101e-10,7.651573359420544e-11,5.244025716985546e-11,3.582286744008787e-11,2.4109868063353184e-11,1.5927169477329407e-11,1.026043982104656e-11,6.39005460283936e-12,3.843755618657792e-12,2.2542951706273252e-12,1.3165267830878225e-12,7.774281086648438e-13,4.729504980265452e-13,2.993896140199955e-13,1.9436794545346587e-13,1.2868464194283055e-13,8.514335143177498e-14,3.7118912237478906e-09,2.7016908942378965e-09,1.83767935193201e-09,1.1698222573844486e-09,7.690432321654601e-10,5.291736177653861e-10,3.850182872966172e-10,2.8353977015625736e-10,2.1016539709820752e-10,1.5474898708461566e-10,1.1305037986871673e-10,8.209325416490343e-11,5.869553186445571e-11,4.1270695234967636e-11,2.8614048896911042e-11,1.932078123794093e-11,1.2645479177394775e-11,7.953824672627917e-12,4.772320944403573e-12,2.7198982941991673e-12,1.47230253457215e-12
0.0,24,24.0,0.0,30.0,0.0,0.0,0.0,0.0,-13.0,0.0,2.0,0.0,0.0,0.0,1.131763505268887e-10,7.742779440706874e-11,5.304240216524621e-11,3.6229342492883015e-11,2.4404064205680115e-11,1.616296689233749e-11,1.0457510374776312e-11,6.547279543781397e-12,3.956315642943852e-12,2.323986304669221e-12,1.3523956298116166e-12,7.910318583473101e-13,4.745833236784404e-13,2.960000961028675e-13,1.8982885415932087e-13,1.2465091912035778e-13,8.204743953757555e-14,3.6857123457839026e-09,2.6839425833834496e-09,1.8288296374055327e-09,1.1684735185247721e-09,7.716195778870667e-10,5.330480626427656e-10,3.888146369597545e-10,2.8673339908687124e-10,2.1266249562178e-10,1.566023944905224e-10,1.1437587003659374e-10,8.301832142213284e-11,5.931740875608989e-11,4.1681316353916426e-11,2.889236671058733e-11,1.9527710900357716e-11,1.281748545439453e-11,8.102763086423766e-12,4.895143109101686e-12,2.809320492109283e-12,1.530025060586086e-12
0.0,25,25.0,0.0,30.0,0.0,0.0,0.0,0.0,-13.0,0.0,2.0,0.0,0.0,0.0,1.145731343402603e-10,7.835433574469666e-11,5.365177345835242e-11,3.663496170269784e-11,2.4688999172217842e-11,1.638444761437803e-11,1.0640721216784404e-11,6.695188377709648e-12,4.064991556029161e-12,2.3937090828289585e-12,1.3901053000816303e-12,8.067771261920988e-13,4.779368244099793e-13,2.9376734557247907e-13,1.8599981374459734e-13,1.210371237978736e-13,7.920221774644908e-14,3.6594575387159265e-09,2.666390080310717e-09,1.8203268059168532e-09,1.1674828825880918e-09,7.744742683504534e-10,5.371116952402407e-10,3.927379862320969e-10,2.90012289311435e-10,2.1521815000690873e-10,1.5849633983848384e-10,1.1572894758668411e-10,8.396217425766693e-11,5.995100770492664e-11,4.209625622914279e-11,2.916643163914833e-11,1.972242223997168e-11,1.2973126770371783e-11,8.236203388408794e-12,5.0068808606672984e-12,2.893112811572015e-12,1.5856346878523326e-12
0.0,26,26.0,0.0,30.0,0.0,0.0,0.0,0.0,-13.0,0.0,2.0,0.0,0.0,0.0,1.1599430636976797e-10,7.929570720871218e-11,5.426924481486483e-11,3.7041778611109425e-11,2.496763377104705e-11,1.6594331852393055e-11,1.0811609013774755e-11,6.834054035920861e-12,4.16931772801765e-12,2.46282237508481e-12,1.4291481425123576e-12,8.243563299015308e-13,4.828570487378764e-13,2.9262391581494893e-13,1.828492256905101e-13,1.1782460022104393e-13,7.659519677386646e-14,3.6331641523239296e-09,2.6490671687660197e-09,1.8121956544601732e-09,1.1668643860336327e-09,7.776142542601456e-10,5.413681321555224e-10,3.96790796012131e-10,2.933784264469107e-10,2.1783402243841117e-10,1.604322512315872e-10,1.1711078604117521e-10,8.492578908928416e-11,6.059751554818797e-11,4.251757682312461e-11,2.943944197890034e-11,1.990864338290649e-11,1.311557259839107e-11,8.356040452453134e-12,5.108128063605095e-12,2.9711140539246083e-12,1.6387740055050138e-12
0.0,27,27.0,0.0,30.0,0.0,0.0,0.0,0.0,-13.0,0.0,2.0,0.0,0.0,0.0,1.1744038022312375e-10,8.025221528771146e-11,5.4895401902076253e-11,3.7451283043785385e-11,2.5242347437269824e-11,1.679503154464669e-11,1.0971721416524004e-11,6.9643242522419725e-12,4.269005326755221e-12,2.5307965791857586e-12,1.4690661766213793e-12,8.434757456527798e-13,4.891905784471863e-13,2.9250091032428874e-13,1.8034572900656266e-13,1.1499607129146282e-13,7.421513255722783e-14,3.6068714655189915e-09,2.632008687104497e-09,1.8044612835046285e-09,1.1666319184332308e-09,7.810462550715542e-10,5.458208062366517e-10,4.0097538293934163e-10,2.968336593535071e-10,2.2051161628924955e-10,1.6241138536339417e-10,1.185224110812739e-10,8.590999046875555e-11,6.125782060942159e-11,4.2946774122669906e-11,2.971386006818877e-11,2.0089472692071598e-11,1.3247679380894893e-11,8.464164621792835e-12,5.199641692563427e-12,3.0433062992689858e-12,1.6891902821093958e-12
0.0,28,28.0,0.0,30.0,0.0,0.0,0.0,0.0,-13.0,0.0,2.0,0.0,0.0,0.0,1.1891188750299322e-10,8.122415489204889e-11,5.55306489203457e-11,3.786454259804587e-11,2.5515023190507956e-11,1.6988644344228488e-11,1.1122562401967141e-11,7.0865712731485716e-12,4.363916367109203e-12,2.597206175424433e-12,1.5094518448922058e-12,8.638581067567797e-13,4.967861451475131e-13,2.9332830591112293e-13,1.7845789006680523e-13,1.1253527794202788e-13,7.205183219210291e-14,3.5806207482620015e-09,2.6152505489321357e-09,1.7971491022852139e-09,1.166799235718252e-09,7.847767870738536e-10,5.504730005488586e-10,4.0529395050615706e-10,3.00379729632937e-10,2.232523070538913e-10,1.6443485247890927e-10,1.1996471372169435e-10,8.691547787975188e-11,6.193259875375815e-11,4.3384925310929013e-11,2.99915538205107e-11,2.0267443419774724e-11,1.3371970673833849e-11,8.56240235252782e-12,5.282288162471405e-12,3.1097934889222262e-12,1.7367229396723306e-12
0.0,29,29.0,0.0,30.0,0.0,0.0,0.0,0.0,-13.0,0.0,2.0,0.0,0.0,0.0,1.2040937449371582e-10,8.221182484956433e-11,5.617528099656185e-11,3.8282315729425113e-11,2.5787130431953292e-11,1.7176963902129513e-11,1.126555347179222e-11,7.201448745229723e-12,4.4540386852760655e-12,2.6617211429050852e-12,1.5499476005848095e-12,8.852445348465525e-13,5.054960995773135e-13,2.950354022057161e-13,1.7715402611349184e-13,1.1042667721481713e-13,7.009597469930537e-14,3.5544553161852415e-09,2.5988297570167698e-09,1.7902848293599084e-09,1.1673799709589941e-09,7.888121900474889e-10,5.553278815697727e-10,4.097486195694525e-10,3.040182993342688e-10,2.2605737088873762e-10,1.6650364205083962e-10,1.2143846590646064e-10,8.794284440272123e-11,6.262237140001246e-11,4.38328001196537e-11,3.027391880009642e-11,2.044459446334775e-11,1.349063663838961e-11,8.6524736329713e-12,5.356996924835396e-12,3.170780667825222e-12,1.781290822254129e-12
0.0,30,30.0,0.0,30.0,0.0,0.0,0.0,0.0,-13.0,0.0,2.0,0.0,0.0,0.0,1.2193339965004804e-10,8.321553428671993e-11,5.682953176396538e-11,3.8705139735125084e-11,2.60598013277779e-11,1.736150091278343e-11,1.1402008194084222e-11,7.309655710504258e-12,4.539462409429992e-12,2.7240976864048387e-12,1.5902445671276291e-12,9.073958656045226e-13,5.151776928371791e-13,2.97551340559912e-13,1.7640213832440979e-13,1.0865519870957838e-13,6.833894809496079e-14,3.5284205768473796e-09,2.5827844096233413e-09,1.7838944878822318e-09,1.1683876423924106e-09,7.931586521385334e-10,5.603885309374393e-10,4.1434145765611485e-10,3.077509768141338e-10,2.2892801053212134e-10,1.686186476748385e-10,1.2294433778859538e-10,8.899259160584361e-11,6.332754483582949e-11,4.429094372876307e-11,3.056198054098196e-11,2.062254134038483e-11,1.3605547277320244e-11,8.735963737260818e-12,5.42472163822854e-12,3.2265540902004383e-12,1.822879917035597e-12
0.0,31,31.0,0.0,30.0,0.0,0.0,0.0,0.0,-13.0,0.0,2.0,0.0,0.0,0.0,1.234845321417683e-10,8.423560422948935e-11,5.749360350615073e-11,3.913339753571414e-11,2.633389848150943e-11,1.754351051286593e-11,1.1533117606664983e-11,7.411907370113872e-12,4.620358330154754e-12,2.7841686415936614e-12,1.630080474357739e-12,9.300934418134196e-13,5.25694151598693e-13,3.008056475524075e-13,1.761699305675952e-13,1.0720605657948565e-13,6.677270394863926e-14,3.5025640667018072e-09,2.567153698611097e-09,1.7780043952186024e-09,1.1698356585612917e-09,7.978222327780827e-10,5.656579753214326e-10,4.1907450657786567e-10,3.115793406515545e-10,2.3186537859001168e-10,1.7078069026965742e-10,1.2448291571030995e-10,9.006514287441832e-11,6.404843741337566e-11,4.475973774547597e-11,3.085647835563679e-11,2.0802543520105995e-11,1.3718274757545183e-11,8.814306809064631e-12,5.486408792527512e-12,3.2774624324584653e-12,1.8615319229946213e-12
0.0,32,32.0,0.0,30.0,0.0,0.0,0.0,0.0,-13.0,0.0,2.0,0.0,0.0,0.0,1.250633513320638e-10,8.527236700651316e-11,5.8167685427156804e-11,3.9567367184587574e-11,2.6610073001131266e-11,1.7724022665741847e-11,1.1659944158366669e-11,7.50891208527668e-12,4.696958429917038e-12,2.841833857408215e-12,1.6692370478728856e-12,9.531394486989546e-13,5.369155454598983e-13,3.0472876960034627e-13,1.7642489162745333e-13,1.0606461239107688e-13,6.538963017648313e-14,3.476935477988366e-09,2.5519778987978186e-09,1.7726411467144414e-09,1.1717373205672521e-09,8.028088836183543e-10,5.711392141844532e-10,4.239498080116161e-10,3.1550496150894196e-10,2.348705982681026e-10,1.7299053909405141e-10,1.2605471997615415e-10,9.116085611923922e-11,6.478529907649014e-11,4.5239444723471136e-11,3.115793270360593e-11,2.0985565817297335e-11,1.3830121099220041e-11,8.888778869848807e-12,5.5429733444629605e-12,3.3238993698399783e-12,1.8973338656417266e-12
0.0,33,33.0,0.0,30.0,0.0,0.0,0.0,0.0,-13.0,0.0,2.0,0.0,0.0,0.0,1.2667044694229543e-10,8.632616489904668e-11,5.88519641023446e-11,4.0007257727890995e-11,2.6888813014366874e-11,1.7903873076286342e-11,1.1783422102635961e-11,7.601353961640444e-12,4.7695387082188e-12,2.8970507951131867e-12,1.7075370019173486e-12,9.76356863589828e-13,5.487194552154371e-13,3.092525750692561e-13,1.7713442123906002e-13,1.0521628294449168e-13,6.418244230903945e-14,3.4515866748679483e-09,2.537298348245531e-09,1.7678315935754433e-09,1.1741058215700572e-09,8.081244675722107e-10,5.768352453560667e-10,4.2896942684071167e-10,3.1952942185509163e-10,2.3794478166838406e-10,1.7524893038092167e-10,1.2766022171387966e-10,9.228003610980176e-11,6.553832611210088e-11,4.573024058702188e-11,3.146669851732483e-11,2.117233271813707e-11,1.3942148379611499e-11,8.960498052727399e-12,5.595280702121143e-12,3.3662877526971344e-12,1.9304088213838267e-12
0.0,34,34.0,0.0,30.0,0.0,0.0,0.0,0.0,-13.0,0.0,2.0,0.0,0.0,0.0,1.2830641965269653e-10,8.739734877452143e-11,5.954662897388607e-11,4.04532345647269e-11,2.7170483276821898e-11,1.808373294429508e-11,1.1904362539156057e-11,7.689880298862258e-12,4.838404336933277e-12,2.9498255319195347e-12,1.7448407638583722e-12,9.995890862945174e-13,5.609914571446518e-13,3.1431080848992085e-13,1.7826598326456734e-13,1.0464648650517951e-13,6.314409295993305e-14,3.426571698203097e-09,2.523157419249136e-09,1.763602814975603e-09,1.176954243782689e-09,8.137747761340322e-10,5.827490884570997e-10,4.341354721767431e-10,3.236543335119782e-10,2.4108904578335635e-10,1.775565835731664e-10,1.2929985834376542e-10,9.342294634465733e-11,6.63076729251944e-11,4.623223832442895e-11,3.178300688813002e-11,2.1363375324653777e-11,1.4055209360521968e-11,9.030430132156047e-12,5.644134266855234e-12,3.405065569894062e-12,1.9609077312187276e-12
0.0,35,35.0,0.0,30.0,0.0,0.0,0.0,0.0,-13.0,0.0,2.0,0.0,0.0,0.0,1.2997188193549424e-10,8.848627702254973e-11,6.025187485042527e-11,4.090543693002584e-11,2.745535684302719e-11,1.8264136477903476e-11,1.202346159429057e-11,7.775093170347965e-12,4.9038770978682815e-12,3.0002043115183092e-12,1.7810430390932549e-12,1.0226993098911358e-12,5.736254416534991e-13,3.1983948800670006e-13,1.7978727244580544e-13,1.0434062073779828e-13,6.226769875307272e-14,3.401946758446346e-09,2.5095984799139434e-09,1.7599820846272348e-09,1.1802955533102786e-09,8.197655452302991e-10,5.888838062984829e-10,4.3945011608424913e-10,3.2788135304230533e-10,2.4430452633022566e-10,1.7991421525658342e-10,1.3097404737915995e-10,9.458982025036078e-11,6.709346190125871e-11,4.6745505463724395e-11,3.210699733295578e-11,2.1559071143938436e-11,1.4169977084903533e-11,9.099397715674922e-12,5.690267687295094e-12,3.440673820445533e-12,1.9890022377400126e-12
0.0,36,36.0,0.0,30.0,0.0,0.0,0.0,0.0,-13.0,0.0,2.0,0.0,0.0,0.0,1.3166745897594265e-10,8.95933148815074e-11,6.09679027072146e-11,4.136398960879386e-11,2.7743639907218343e-11,1.8445505561636305e-11,1.214131051868752e-11,7.857544417711467e-12,4.966284990822503e-12,3.0482657436805205e-12,1.8160693085886215e-12,1.0455696848095134e-12,5.865237857132861e-13,3.257772421257781e-13,1.8166638413056877e-13,1.0428406584452543e-13,6.1546483571523e-14,3.3777702161331417e-09,2.4966658462913164e-09,1.7569968321509132e-09,1.1841425932600126e-09,8.261024698984029e-10,5.952425244363198e-10,4.449156101097292e-10,3.3221219504956755e-10,2.475923895767933e-10,1.823225509479128e-10,1.3268319844196684e-10,9.578087149475701e-11,6.78957919479649e-11,4.727007715592106e-11,3.243874258516771e-11,2.1759677274102483e-11,1.4286972500705044e-11,9.168091759941335e-12,5.734340984909634e-12,3.473546340821304e-12,2.0148784597422254e-12
0.0,37,37.0,0.0,30.0,0.0,0.0,0.0,0.0,-13.0,0.0,2.0,0.0,0.0,0.0,1.3339378959027254e-10,9.07188341290296e-11,6.169491961191665e-11,4.1829010527940293e-11,2.803549093119964e-11,1.8628171323872254e-11,1.22584067459714e-11,7.93773339047554e-12,5.025953853934376e-12,3.09411371972995e-12,1.849872336615966e-12,1.0681003226650978e-12,5.995973982892319e-13,3.3206558540894143e-13,1.8387197904519177e-13,1.0446220688918014e-13,6.097373668954872e-14,3.3541025494941065e-09,2.484404725109285e-09,1.7546745996672862e-09,1.188508075608327e-09,8.327912181239892e-10,6.018284491005523e-10,4.50534299772677e-10,3.3664864351024186e-10,2.509538423210582e-10,1.8478233492840852e-10,1.3442772349501973e-10,9.699630324900819e-11,6.871474602101777e-11,4.7805966158183233e-11,3.2778267544076216e-11,2.1965357708328327e-11,1.4406589566657674e-11,9.23708435125555e-12,5.776939757486523e-12,3.5041015635034105e-12,2.0387316151431727e-12
0.0,38,38.0,0.0,30.0,0.0,0.0,0.0,0.0,-13.0,0.0,2.0,0.0,0.0,0.0,1.3515152709126152e-10,9.18632130629278e-11,6.243313827710235e-11,4.230061547715644e-11,2.833103510873845e-11,1.8812392595446063e-11,1.2375165191599712e-11,8.01610682480294e-12,5.083200807207393e-12,3.1378710800279415e-12,1.8824287531406503e-12,1.0902081804943538e-12,6.127656569141872e-13,3.3864913520957387e-13,1.8637343749254685e-13,1.0486046993561948e-13,6.054278414355055e-14,3.331006308707887e-09,2.4728611471923373e-09,1.7530429941025593e-09,1.193404572353027e-09,8.398374441819954e-10,6.086448837312949e-10,4.563086372122396e-10,3.4119256129504236e-10,2.543901401963825e-10,1.8729433832711865e-10,1.3620804537416777e-10,9.823631629997309e-11,6.955039777715668e-11,4.835317061100113e-11,3.3125563715822105e-11,2.2176205538637065e-11,1.4529117589798545e-11,9.306841939636355e-12,5.818576741265635e-12,3.5327361191313982e-12,2.0607614080503445e-12
0.0,39,39.0,0.0,30.0,0.0,0.0,0.0,0.0,-13.0,0.0,2.0,0.0,0.0,0.0,1.3694134008133312e-10,9.30268366893479e-11,6.318277652476228e-11,4.277892088675396e-11,2.8630375104767526e-11,1.8998371414902805e-11,1.2491929271773018e-11,8.09306032801444e-12,5.138329312667432e-12,3.1796740435191868e-12,1.9137357634178723e-12,1.1118258608781397e-12,6.259562521369213e-13,3.4547577311326003e-13,1.8914099926615755e-13,1.0546436736562786e-13,6.024697158516702e-14,3.308546056317514e-09,2.4620818917173657e-09,1.7521296357591131e-09,1.1988445065045802e-09,8.472468018277125e-10,6.156952443593845e-10,4.6224119220212687e-10,3.4584589806190826e-10,2.579025944816095e-10,1.8985936566038677e-10,1.380246047537406e-10,9.950111598078347e-11,7.040281741567109e-11,4.8911680215501535e-11,3.3480600205265264e-11,2.239226082969061e-11,1.4654760754493474e-11,9.377738429771939e-12,5.85969510206227e-12,3.55982014396328e-12,2.0811681046040394e-12
0.0,40,40.0,0.0,30.0,0.0,0.0,0.0,0.0,-13.0,0.0,2.0,0.0,0.0,0.0,1.3876391317161133e-10,9.421009704344459e-11,6.394405680995908e-11,4.326404533373275e-11,2.8933598877814425e-11,1.9186265835230682e-11,1.2608981288246952e-11,8.16894101223424e-12,5.191625638430947e-12,3.219667387775662e-12,1.9438080264523923e-12,1.132900358863013e-12,6.391049550178401e-13,3.5249675564042475e-13,1.9214588709625348e-13,1.062595485008347e-13,6.00796568288162e-14,3.2867882933361696e-09,2.4521144015063954e-09,1.7519621037562388e-09,1.2048401434849532e-09,8.550249576735706e-10,6.229830740587023e-10,4.683346617517392e-10,3.5061069671774765e-10,2.6149257759950884e-10,1.9247826002961272e-10,1.398778657073078e-10,1.007909179434441e-10,7.12720767368782e-11,4.948148121548115e-11,3.384333208411445e-11,2.2613524878438832e-11,1.478365494415486e-11,9.450067710524506e-12,5.900672920968888e-12,3.58569411816207e-12,2.100149231587246e-12
0.0,41,41.0,0.0,30.0,0.0,0.0,0.0,0.0,-13.0,0.0,2.0,0.0,0.0,0.0,1.4061994763575887e-10,9.541339358332743e-11,6.471720586620153e-11,4.3756110249502627e-11,2.9240785261840806e-11,1.9376200338126647e-11,1.2726551957773886e-11,8.244050896076078e-12,5.243356516781435e-12,3.2580003506814077e-12,1.9726747340014883e-12,1.1533917825090786e-12,6.52155321315365e-13,3.5966677918263814e-13,1.9536041261716197e-13,1.0723185239067098e-13,6.003421034499603e-14,3.2658013705771956e-09,2.4430066896149894e-09,1.7525678789964377e-09,1.2114035835067276e-09,8.631776050675471e-10,6.305120566809709e-10,4.745918785070546e-10,3.5548909865072056e-10,2.6516152748655834e-10,1.9515190717031966e-10,1.4176832003754566e-10,1.0210595283973712e-10,7.215825344031734e-11,5.0062560452223865e-11,3.4213706767186125e-11,2.2839971498202677e-11,1.49158820451134e-11,9.524055348531514e-12,5.941828434105164e-12,3.6106670384754797e-12,2.117896840076525e-12
0.0,42,42.0,0.0,30.0,0.0,0.0,0.0,0.0,-13.0,0.0,2.0,0.0,0.0,0.0,1.4251016201219157e-10,9.663713361454247e-11,6.550245448654358e-11,4.4255240154056757e-11,2.9552007859036093e-11,1.9568274178700483e-11,1.2844828967912853e-11,8.318650764574811e-12,5.293767795999818e-12,3.2948232116723276e-12,2.0003769127215162e-12,1.1732720702078823e-12,6.650583445813192e-13,3.669440042270989e-13,1.9875806471215656e-13,1.083673603099947e-13,6.010402204339468e-14,3.2456553847634972e-09,2.434807237541923e-09,1.7539742853618283e-09,1.218546755501234e-09,8.717104787620083e-10,6.382860300612322e-10,4.810158181530883e-10,3.6048334793149324e-10,2.68910951012475e-10,1.9788123853381496e-10,1.4369649054958237e-10,1.0344647000557599e-10,7.306143469299895e-11,5.0654908670895476e-11,3.45916688741756e-11,2.3071555879991688e-11,1.5051481970624414e-11,9.599869283992097e-12,5.983425673646353e-12,3.635015719845452e-12,2.1345952828730957e-12
0.0,43,43.0,0.0,30.0,0.0,0.0,0.0,0.0,-13.0,0.0,2.0,0.0,0.0,0.0,1.44435292669395e-10,9.788173271697418e-11,6.630003742905678e-11,4.476156263249609e-11,2.9867337683591186e-11,1.976256797704767e-11,1.296396451801134e-11,8.392964242441411e-12,5.343083900202539e-12,3.330284500953859e-12,2.0269649638974854e-12,1.1925237245445894e-12,6.777720690962856e-13,3.7429004379330393e-13,2.0231358070356238e-13,1.0965244611695685e-13,6.028251282243922e-14,3.2264220590067593e-09,2.427564885463565e-09,1.7562084298956383e-09,1.2262814131543942e-09,8.806293706293449e-10,6.463089988562002e-10,4.876096060035358e-10,3.6559579467263106e-10,2.727424266193658e-10,2.0066723356898799e-10,1.4566293343527882e-10,1.048127402609932e-10,7.39817200103099e-11,5.125852320105769e-11,3.4977163934065934e-11,2.330822149859621e-11,1.5190462662973974e-11,9.677629452020472e-12,6.025680236122942e-12,3.65898502224574e-12,2.1504194590830063e-12
0.0,44,44.0,0.0,30.0,0.0,0.0,0.0,0.0,-13.0,0.0,2.0,0.0,0.0,0.0,1.4639609434813694e-10,9.914761515768944e-11,6.711019342431887e-11,4.527520819198093e-11,3.0186844900431464e-11,1.9959148851900644e-11,1.3084081859456152e-11,8.467181892985472e-12,5.391507929076721e-12,3.364528778956656e-12,2.0524964479798116e-12,1.2111385793655632e-12,6.902611724257187e-13,3.816699207507995e-13,2.0600300126244765e-13,1.1107382314475513e-13,6.056314952062438e-14,3.2081746073025435e-09,2.4213287149877392e-09,1.7592971427745156e-09,1.2346191335921448e-09,8.899401466440147e-10,6.545851471499106e-10,4.943765229443521e-10,3.708288977218559e-10,2.7665760633875686e-10,2.0351092135690404e-10,1.4766823992422567e-10,1.0620505794525477e-10,7.491922350424966e-11,5.187341009989244e-11,3.5370141197889514e-11,2.3549905451764267e-11,1.5332808332079466e-11,9.757416315329736e-12,6.068764972327957e-12,3.682788809185844e-12,2.1655334821985986e-12
0.0,45,45.0,0.0,30.0,0.0,0.0,0.0,0.0,-13.0,0.0,2.0,0.0,0.0,0.0,1.4839334069239547e-10,1.0043521428181724e-10,6.793316525991592e-11,4.579631008301931e-11,3.051059992262975e-11,2.0158074362008623e-11,1.3205280886858291e-11,8.541465204243523e-12,5.439222248724028e-12,3.3976949250160616e-12,2.077034114909433e-12,1.2291166138188498e-12,7.024965263494471e-13,3.8905199836617383e-13,2.098037101600541e-13,1.12618586737863e-13,6.093946207780505e-14,3.1909875827659624e-09,2.416147925028632e-09,1.7632669179312554e-09,1.2435713192363034e-09,8.996487653109539e-10,6.631188509327777e-10,5.013200108783079e-10,3.761852268489347e-10,2.8065821733072567e-10,2.064133817351973e-10,1.4971303734292585e-10,1.0762374230666945e-10,7.587407556306549e-11,5.2499585827092834e-11,3.577055575737967e-11,2.3796542550370868e-11,1.5478486176803112e-11,9.839278337757178e-12,6.112815450765263e-12,3.706611460397536e-12,2.1800897298494393e-12
0.0,46,46.0,0.0,30.0,0.0,0.0,0.0,0.0,-13.0,0.0,2.0,0.0,0.0,0.0,1.504278247785224e-10,1.0174497287940548e-10,6.876919991876271e-11,4.6325004132406304e-11,3.083867406585938e-11,2.0359395487639038e-11,1.3327642855409967e-11,8.61595036505662e-12,5.486389444665656e-12,3.429914873402451e-12,2.100644175943007e-12,1.246464824440972e-12,7.144547439890733e-13,3.964078880857336e-13,2.1369446011284924e-13,1.142742518973247e-13,6.140506189144414e-14,3.1749367094402876e-09,2.4120717015279937e-09,1.7681438552418672e-09,1.2531492033250294e-09,9.09761297679106e-10,6.719146905326439e-10,5.084436777977642e-10,3.81667464568577e-10,2.847460630740032e-10,2.0937574603348522e-10,1.517979897080392e-10,1.0906913836144101e-10,7.684642403218433e-11,5.313707850949333e-11,3.6178370117104955e-11,2.4048068416966786e-11,1.5627451815606912e-11,9.923238457104775e-12,6.157935093811759e-12,3.730609781032176e-12,2.1942282344427997e-12
0.0,47,47.0,0.0,30.0,0.0,0.0,0.0,0.0,-13.0,0.0,2.0,0.0,0.0,0.0,1.5250035964990174e-10,1.0307734352987189e-10,6.961854875186828e-11,4.686142861125795e-11,3.1171139906177614e-11,2.0563158850805574e-11,1.345123431250304e-11,8.690751767499685e-12,5.533153527525727e-12,3.461312735926642e-12,2.1233948083806832e-12,1.263196163866096e-12,7.261177201078386e-13,4.03712338219949e-13,2.1765538601844954e-13,1.1602878577908594e-13,6.195366052674877e-14,3.1600986976496505e-09,2.4091490818896967e-09,1.7739536052476245e-09,1.2633638595610203e-09,9.202839490360943e-10,6.809774630502418e-10,5.157513025944969e-10,3.872784077243454e-10,2.8892302431975505e-10,2.1239919752535803e-10,1.5392379796370797e-10,1.1054161732729586e-10,7.783643496854795e-11,5.3785928847544744e-11,3.6593555331561225e-11,2.4304421799375572e-11,1.5779653629896068e-11,1.0009299633416577e-11,6.204199923526141e-12,3.754915171341141e-12,2.2080763746265877e-12
0.0,48,48.0,0.0,30.0,0.0,0.0,0.0,0.0,-13.0,0.0,2.0,0.0,0.0,0.0,1.5461177886241613e-10,1.0443278892770543e-10,7.048146767055213e-11,4.740572414669855e-11,3.1508071446805745e-11,2.0769408340591466e-11,1.357611033661818e-11,8.765965198866312e-12,5.579641300350569e-12,3.4920042529555625e-12,2.1453548812071483e-12,1.2793285524352665e-12,7.374721707659053e-13,4.1094310687338827e-13,2.2166800686791433e-13,1.1787063500092962e-13,6.257908810303506e-14,3.146551043042237e-09,2.407428815154841e-09,1.7807213174387882e-09,1.2742262163143483e-09,9.312230823377121e-10,6.903121948279274e-10,5.232468396984721e-10,3.930209689414448e-10,2.9319105990562093e-10,2.1548497168739034e-10,1.560911999575614e-10,1.120415767269565e-10,7.884429303948827e-11,5.444619071222724e-11,3.7016091792842236e-11,2.456554626432375e-11,1.5935036199008042e-11,1.0097449557954846e-11,6.251662883427604e-12,3.7796359427865985e-12,2.2217488282172572e-12
0.0,49,49.0,0.0,30.0,0.0,0.0,0.0,0.0,-13.0,0.0,2.0,0.0,0.0,0.0,1.567629370444194e-10,1.0581178219399739e-10,7.135821734728201e-11,4.7958033677037066e-11,3.1849544168469304e-11,2.0978186280460134e-11,1.3702317175780609e-11,8.841670707171228e-12,5.625963813496302e-12,3.522096518392992e-12,2.1665928871217733e-12,1.2948839668928908e-12,7.485091777680723e-13,4.180808221645682e-13,2.2571521757202563e-13,1.1978874786963763e-13,6.32753108298127e-14,3.1343718096841884e-09,2.4069592191225785e-09,1.7884715931816083e-09,1.2857470757654803e-09,9.425852433837215e-10,6.999241539596403e-10,5.309344236228063e-10,3.988981780404649e-10,2.975522075110168e-10,2.1863435634130737e-10,1.5830097023539747e-10,1.1356944024489684e-10,7.987020163384718e-11,5.511793147843871e-11,3.744596973604346e-11,2.4831391402373416e-11,1.6093542981968987e-11,1.0187664611180587e-11,6.300357724807703e-12,3.8048596877011804e-12,2.2353477481671973e-12
0.0,50,50.0,0.0,30.0,0.0,0.0,0.0,0.0,-13.0,0.0,2.0,0.0,0.0,0.0,1.5895471047370185e-10,1.0721480717852482e-10,7.224906341786164e-11,4.8518502445674954e-11,3.219563501453357e-11,2.118953424836793e-11,1.3829894373357791e-11,8.91793513969447e-12,5.67221784826463e-12,3.551687928656828e-12,2.187176064680768e-12,1.3098876084828935e-12,7.592237426284022e-13,4.251088325049862e-13,2.297812718708369e-13,1.21772591747848e-13,6.403644729992194e-14,3.1236393978208005e-09,2.4077880358175945e-09,1.7972284444219139e-09,1.2979371383268134e-09,9.543771877105194e-10,7.098188628326889e-10,5.388183734797758e-10,4.0491318348956414e-10,3.020085844199966e-10,2.2184869174221134e-10,1.605539197211198e-10,1.1512565740904605e-10,8.091438274775754e-11,5.5801232138424195e-11,3.788318951634009e-11,2.5101913648470563e-11,1.6255118378888377e-11,1.0279913156825693e-11,6.35030246242943e-12,3.830655629202784e-12,2.2489631244606685e-12
0.0,51,51.0,0.0,30.0,0.0,0.0,0.0,0.0,-13.0,0.0,2.0,0.0,0.0,0.0,1.6118799767306336e-10,1.0864235875684498e-10,7.315427668054045e-11,4.90872780269919e-11,3.254642234497811e-11,2.1403493638001074e-11,1.3958876462095901e-11,8.994814365313509e-12,5.718487383863259e-12,3.580868310602431e-12,2.2071696932099155e-12,1.3243671511042683e-12,7.696143540962427e-13,4.3201304945539884e-13,2.338517574178909e-13,1.2381216585125272e-13,6.485678326442569e-14,3.114432297221757e-09,2.4099622869152825e-09,1.8070152593438055e-09,1.3108070326277387e-09,9.666059091318984e-10,7.200021106781946e-10,5.469031975228956e-10,4.1106925395974774e-10,3.065623883444972e-10,2.2512937066366884e-10,1.6285089533637097e-10,1.1671070315772287e-10,8.197707670111599e-11,5.6496187236058446e-11,3.8327761702026446e-11,2.537707680106111e-11,1.6419709284717483e-11,1.037415825511935e-11,6.401502415927574e-12,3.857076895590131e-12,2.262673296591403e-12
0.0,52,52.0,0.0,30.0,0.0,0.0,0.0,0.0,-13.0,0.0,2.0,0.0,0.0,0.0,1.6346372002550392e-10,1.1009494312630577e-10,7.407413328974335e-11,4.966451037708869e-11,3.290198588089022e-11,2.1620106030481397e-11,1.40892942991162e-11,9.072355199034732e-12,5.764845013801346e-12,3.6097191884589233e-12,2.22663654268273e-12,1.3383520687571365e-12,7.796825726347656e-13,4.387817854443788e-13,2.3791356405087543e-13,1.258980098079419e-13,6.573078471346837e-14,3.106828827373506e-09,2.413528130958896e-09,1.8178547761986206e-09,1.3243673512879407e-09,9.7927866982216e-10,7.304799660972102e-10,5.551935977625025e-10,4.173697800366296e-10,3.1121589834872206e-10,2.284778385197584e-10,1.651927796035312e-10,1.183250773414374e-10,8.305854173375901e-11,5.72029046596016e-11,3.877970702062153e-11,2.5656852305884395e-11,1.6587266230294275e-11,1.0470359872490748e-11,6.453952860862022e-12,3.884162678668199e-12,2.276545583484567e-12
0.0,53,53.0,0.0,30.0,0.0,0.0,0.0,0.0,-13.0,0.0,2.0,0.0,0.0,0.0,1.6578282240971733e-10,1.1157307810429694e-10,7.500891494363955e-11,5.0250351902764794e-11,3.326240665244027e-11,2.183941343016977e-11,1.4221176105925262e-11,9.15059705196236e-12,5.811353287562714e-12,3.638314154948801e-12,2.2456364607931872e-12,1.3518730403055629e-12,7.894326346225991e-13,4.4540558841908303e-13,2.4195484618315254e-13,1.280212083307978e-13,6.665310916978155e-14,3.1009068661740383e-09,2.418530724434274e-09,1.8297690665433617e-09,1.338628692636159e-09,9.924030318012694e-10,7.412587895236289e-10,5.636944746970777e-10,4.2381827613248363e-10,3.1597147590476664e-10,2.318955935547433e-10,1.6758049026638425e-10,1.1996930419956532e-10,8.415905352321504e-11,5.7921505326978914e-11,3.9239056189548653e-11,2.5941219357316827e-11,1.675774419010685e-11,1.0568476658417075e-11,6.507641318044407e-12,3.911940248314235e-12,2.2906370003392647e-12
0.0,54,54.0,0.0,30.0,0.0,0.0,0.0,0.0,-13.0,0.0,2.0,0.0,0.0,0.0,1.6814627385637065e-10,1.1307729343140154e-10,7.595890906576088e-11,5.084495754306815e-11,3.3627766957351034e-11,2.2061458405406198e-11,1.4354548268878487e-11,9.229573332562347e-12,5.858065961454551e-12,3.666719316701543e-12,2.2642260798947614e-12,1.364961428593076e-12,7.988710784598078e-13,4.5187707529419283e-13,2.4596498017862505e-13,1.301733923573641e-13,6.761861516800103e-14,3.09674356922335e-09,2.425014089002628e-09,1.84277952913549e-09,1.3536017084562507e-09,1.0059868896508704e-09,7.523452455832615e-10,5.724109321991577e-10,4.3041838263424534e-10,3.208315661004454e-10,2.353841871229947e-10,1.7001497995471162e-10,1.2164393184331222e-10,8.52789046589475e-11,5.865212279378543e-11,3.9705849658371266e-11,2.623016485970966e-11,1.6931103122930814e-11,1.0668467353071276e-11,6.562549512192418e-12,3.940426806193699e-12,2.304995034801498e-12
0.0,55,55.0,0.0,30.0,0.0,0.0,0.0,0.0,-13.0,0.0,2.0,0.0,0.0,0.0,1.7055506822562672e-10,1.146081310815767e-10,7.692440898150008e-11,5.144848485884462e-11,3.399815033293082e-11,2.2286284164773187e-11,1.4489435947348304e-11,9.309312626025256e-12,5.90502914905679e-12,3.6949937887331275e-12,2.282458627238157e-12,1.377648830163249e-12,8.080063942090466e-13,4.581907658725487e-13,2.499345175063831e-13,1.3234673700343667e-13,6.862236994535601e-14,3.094415082283701e-09,2.4330209874243502e-09,1.856906895719141e-09,1.3692971577596113e-09,1.0200385042626204e-09,7.637463153103988e-10,5.813482825930299e-10,4.371738683163334e-10,3.257986990125619e-10,2.3894522407503404e-10,1.7249723591229754e-10,1.2334953176896262e-10,8.641840410147e-11,5.939490281025228e-11,4.0180137285746465e-11,2.6523683282924006e-11,1.7107308300196397e-11,1.0770291882448577e-11,6.6186550317508e-12,3.969631170031922e-12,2.3196584580341667e-12
0.0,56,56.0,0.0,30.0,0.0,0.0,0.0,0.0,-13.0,0.0,2.0,0.0,0.0,0.0,1.7301022490638345e-10,1.1616614558095933e-10,7.790571409063746e-11,5.2061094126799257e-11,3.4373641542259635e-11,2.2513934591385688e-11,1.4625863529313687e-11,9.389839678254384e-12,5.95228236686785e-12,3.723190217065611e-12,2.300383822937626e-12,1.3899666912455581e-12,8.168486978922073e-13,4.643429187257519e-13,2.5385513441164173e-13,1.3453395666197757e-13,6.965965540824514e-14,3.093996250004429e-09,2.4425928109291065e-09,1.872171249901004e-09,1.3857259664919138e-09,1.03456653739784e-09,7.754693081893001e-10,5.905120519610022e-10,4.440886330414617e-10,3.308754912524635e-10,2.4258036326005177e-10,1.7502827980226248e-10,1.2508669841905153e-10,8.757787664877819e-11,6.015000284944703e-11,4.066197797090307e-11,2.6821776439716498e-11,1.7286330467428756e-11,1.0873912190960428e-11,6.675932721328366e-12,3.999555286474337e-12,2.334658149516279e-12
0.0,57,57.0,0.0,30.0,0.0,0.0,0.0,0.0,-13.0,0.0,2.0,0.0,0.0,0.0,1.7551278953782963e-10,1.177519043364913e-10,7.890313003714898e-11,5.2682948435536805e-11,3.475432657365562e-11,2.2744454251425298e-11,1.476385496732663e-11,9.471176209874578e-12,5.999859474738509e-12,3.751355312461123e-12,2.318047851258527e-12,1.4019459852485024e-12,8.254094310974769e-13,4.703313703451448e-13,2.577195787852477e-13,1.3672829755980527e-13,7.072597246785584e-14,3.0955603245587377e-09,2.453769480990859e-09,1.8885920602498227e-09,1.4028992929848669e-09,1.0495800868201905e-09,7.8752187399741e-10,5.999079857155364e-10,4.5116671076786967e-10,3.360646476856427e-10,2.4629131815084216e-10,1.776091675990494e-10,1.2685604880377368e-10,8.875766242726045e-11,6.091759162520343e-11,4.115143925647242e-11,2.7124453207359805e-11,1.74681458760928e-11,1.097929285522325e-11,6.734355837010318e-12,4.030195575578667e-12,2.3500179176859617e-12
0.0,58,58.0,0.0,30.0,0.0,0.0,0.0,0.0,-13.0,0.0,2.0,0.0,0.0,0.0,1.780638347540026e-10,1.193659879752029e-10,7.991696887755036e-11,5.33142137818736e-11,3.514029265177733e-11,2.2977888388319124e-11,1.49034340218664e-11,9.553341583960524e-12,6.047789513673251e-12,3.7795303817178035e-12,2.3354933920837678e-12,1.413616946741152e-12,8.337010861328071e-13,4.761553787020244e-13,2.6152161486434846e-13,1.3892352806369778e-13,7.181704385658619e-14,3.0991786784182482e-09,2.4665893686414213e-09,1.9061882286561663e-09,1.420828598859479e-09,1.0650887217520254e-09,7.999120144400998e-10,6.095420544754838e-10,4.584122728773343e-10,3.4136896332310945e-10,2.500798575937271e-10,1.8024098957285223e-10,1.2865822219060107e-10,8.995811641967589e-11,6.1697848614684e-11,4.164859691676916e-11,2.743172921162342e-11,1.7652736216499198e-11,1.1086401517032527e-11,6.7938969930882766e-12,4.06154411361224e-12,2.3657553017366963e-12
0.0,59,59.0,0.0,30.0,0.0,0.0,0.0,0.0,-13.0,0.0,2.0,0.0,0.0,0.0,1.8066446095221278e-10,1.210089906947384e-10,8.094754924891647e-11,5.395505916635292e-11,3.5531628258419794e-11,2.321428291035253e-11,1.5044624433962822e-11,9.636353349151277e-12,6.096097445726273e-12,3.80775184601721e-12,2.352759700730517e-12,1.425008856778845e-12,8.417369565921862e-13,4.818154721906051e-13,2.652559663507919e-13,1.4111392700647502e-13,7.292881554868746e-14,3.1049205260809384e-09,2.4810892345905925e-09,1.924978154856672e-09,1.4395257249794164e-09,1.0811025184011837e-09,8.126480945827501e-10,6.194204602857736e-10,4.658296318347926e-10,3.4679132537935744e-10,2.5394780668354284e-10,1.8292487036941993e-10,1.304938798665385e-10,9.117960803891825e-11,6.249096359727703e-11,4.21535345431705e-11,2.7743626487734103e-11,1.7840088476827762e-11,1.1195209168314466e-11,6.854528926728094e-12,4.09358966334476e-12,2.3818823429128846e-12
0.0,60,60.0,0.0,30.0,0.0,0.0,0.0,0.0,-13.0,0.0,2.0,0.0,0.0,0.0,1.8331579708630135e-10,1.2268152062547648e-10,8.19951965375825e-11,5.460565668740408e-11,3.592842316103245e-11,2.3453684376810878e-11,1.518745004460432e-11,9.720227677627073e-12,6.1448048021768395e-12,3.8360517384399734e-12,2.3698827256100444e-12,1.436149874421517e-12,8.495309128797753e-13,4.873133047686666e-13,2.689182584905168e-13,1.4329427028301448e-13,7.405745691342355e-14,3.1128526601565745e-09,2.4973041935024948e-09,1.9449798178550814e-09,1.4590029719424792e-09,1.0976320953088339e-09,8.257388541043529e-10,6.295496432205277e-10,4.734232451873023e-10,3.5233471548972864e-10,2.578970477620451e-10,1.8566196918611055e-10,1.3236370497469017e-10,9.242252075306384e-11,6.329713621861989e-11,4.266634313600036e-11,2.80601731300555e-11,1.803019474867825e-11,1.1305690316195165e-11,6.916225104921277e-12,4.126318562624398e-12,2.398406316460727e-12
0.0,61,61.0,0.0,30.0,0.0,0.0,0.0,0.0,-13.0,0.0,2.0,0.0,0.0,0.0,1.8601900148584317e-10,1.243842002044499e-10,8.306024304937756e-11,5.52661816339526e-11,3.633076844714527e-11,2.3696139985809895e-11,1.5331934874786455e-11,9.804979715197823e-12,6.193930247068571e-12,3.8644581749951735e-12,2.386895254514833e-12,1.4470669093823801e-12,8.570972019656547e-13,4.926515179597451e-13,2.7250495961589746e-13,1.4545981594722422e-13,7.519935972955343e-14,3.1230392077820306e-09,2.515267705793561e-09,1.966210874759978e-09,1.4792731844882627e-09,1.1146886482817056e-09,8.39193418417704e-10,6.399362884097958e-10,4.81197719907161e-10,3.580022120787784e-10,2.619295215370098e-10,1.8845348004351598e-10,1.3426840242467294e-10,9.368725176460339e-11,6.411657558605947e-11,4.3187120710331115e-11,2.8381402939805477e-11,1.8223051995663874e-11,1.1417823052202371e-11,6.978960195840476e-12,4.159715482915868e-12,2.415330417928496e-12
0.0,62,62.0,0.0,30.0,0.0,0.0,0.0,0.0,-13.0,0.0,2.0,0.0,0.0,0.0,1.8877526270248589e-10,1.2611766656114067e-10,8.414302818208807e-11,5.5936812576541124e-11,3.673875656311571e-11,2.3941697565589595e-11,1.547810317702995e-11,9.890623858586583e-12,6.243490063659291e-12,3.89299579537425e-12,2.4038270815539093e-12,1.4577855309133448e-12,8.644502704213694e-13,4.978336102377848e-13,2.7601332261292584e-13,1.476062880235021e-13,7.635113618701759e-14,3.1355414138636597e-09,2.53501160025176e-09,1.98868877730421e-09,1.5003498390942265e-09,1.132283984694167e-09,8.530213097232144e-10,6.505873335290353e-10,4.891578170814096e-10,3.6379699287093665e-10,2.660472283187737e-10,1.913006321509057e-10,1.3620869887483296e-10,9.497421174471124e-11,6.494949989972436e-11,4.371597192134173e-11,2.8707355078115892e-11,1.8418661798335667e-11,1.1531589045969003e-11,7.042710424532977e-12,4.193764069822066e-12,2.4326543997559872e-12
0.0,63,63.0,0.0,30.0,0.0,0.0,0.0,0.0,-13.0,0.0,2.0,0.0,0.0,0.0,1.915858003847142e-10,1.2788257191513681e-10,8.52438986007064e-11,5.661773145719132e-11,3.715248135588117e-11,2.419040557009959e-11,1.5625979466716528e-11,9.977173972941734e-12,6.293498571452018e-12,3.921686171172373e-12,2.420705187921663e-12,1.4683299082639148e-12,8.716046096045672e-13,5.028638141809955e-13,2.794413267355792e-13,1.497298592303048e-13,7.750961599564416e-14,3.1504174581006608e-09,2.5565661306158715e-09,2.0124309060145172e-09,1.5222471339346374e-09,1.150430556977853e-09,8.672324580865169e-10,6.615099767883443e-10,4.973084569473149e-10,3.6972233753495056e-10,2.7025222937081864e-10,1.942046903630297e-10,1.3818534278309096e-10,9.62838246218399e-11,6.579613612163708e-11,4.425300771331632e-11,2.9038073730029642e-11,1.8617030086023007e-11,1.16469734806195e-11,7.107453830780697e-12,4.2284474775442646e-12,2.450375156012346e-12
