Line_number,Fiducial,Easting,Northing,Height,Elevation,tx_pitch,tx_roll,tx_yaw,txrx_dx,txrx_dy,txrx_dz,rx_pitch,rx_roll,rx_yaw,S0Z_time_1.431e-04,S0Z_time_1.801e-04,S0Z_time_2.266e-04,S0Z_time_2.846e-04,S0Z_time_3.581e-04,S0Z_time_4.506e-04,S0Z_time_5.671e-04,S0Z_time_7.136e-04,S0Z_time_8.981e-04,S0Z_time_1.131e-03,S0Z_time_1.423e-03,S0Z_time_1.791e-03,S0Z_time_2.255e-03,S0Z_time_2.838e-03,S0Z_time_3.573e-03,S0Z_time_4.498e-03,S0Z_time_5.662e-03,S1Z_time_1.409e-05,S1Z_time_1.610e-05,S1Z_time_1.909e-05,S1Z_time_2.360e-05,S1Z_time_2.960e-05,S1Z_time_3.709e-05,S1Z_time_4.609e-05,S1Z_time_5.759e-05,S1Z_time_7.209e-05,S1Z_time_9.060e-05,S1Z_time_1.141e-04,S1Z_time_1.431e-04,S1Z_time_1.801e-04,S1Z_time_2.266e-04,S1Z_time_2.846e-04,S1Z_time_3.581e-04,S1Z_time_4.506e-04,S1Z_time_5.671e-04,S1Z_time_7.136e-04,S1Z_time_8.981e-04,S1Z_time_1.131e-03
0.0,0,0.0,0.0,30.0,0.0,0.0,0.0,0.0,-13.0,0.0,2.0,0.0,0.0,0.0,1.1448625540320975e-10,6.046006992906684e-11,3.053979341253304e-11,1.705705422691817e-11,9.729860184114656e-12,5.248770375661737e-12,3.333989663673508e-12,1.954778530883317e-12,1.1539394870241657e-12,6.292076422902238e-13,3.992481826223419e-13,2.0771568952355806e-13,1.1878928925731753e-13,7.331150789980689e-14,3.7209831856447446e-14,2.152239234458111e-14,1.1537977131637485e-14,7.162220998666677e-09,5.733640816461253e-09,4.1594056001507574e-09,2.928943621384252e-09,1.809215113478436e-09,1.311088525044664e-09,7.752653253825101e-10,5.372729052691317e-10,3.2946005861239855e-10,2.0401000119975344e-10,1.204234016915896e-10,6.942432220969795e-11,4.060866083534625e-11,2.322280417819041e-11,1.322224860497279e-11,7.563212111013725e-12,4.423683865973309e-12,2.689703418534073e-12,1.4471640257095543e-12,7.847958227462196e-13,4.3235032571707765e-13
0.0,1,1.0,0.0,30.0,0.0,0.0,0.0,0.0,-13.0,0.0,2.0,0.0,0.0,0.0,1.0952795245683161e-10,5.6299452868259167e-11,3.111170548510748e-11,1.619904280594574e-11,9.322252720002553e-12,5.144770446424032e-12,3.229483602344869e-12,1.890322059588578e-12,1.1026295677408294e-12,6.176362908882569e-13,3.7679529335476663e-13,2.0550265885702505e-13,1.1856151523615813e-13,7.177625776877416e-14,3.38771077155622e-14,2.2997073755661378e-14,1.2635735148330164e-14,7.291570546485845e-09,5.702016859507434e-09,4.358016195909692e-09,2.8077280318600263e-09,2.0058574595526047e-09,1.3543747097231667e-09,8.712053082811813e-10,5.268676821540795e-10,3.285764991378277e-10,1.9116188415296355e-10,1.1120385032947768e-10,6.408433137527858e-11,3.932020013242596e-11,2.16377945208553e-11,1.2496301110887233e-11,7.727411695156146e-12,4.206617282397688e-12,2.392261374437994e-12,1.3880791907168945e-12,7.331330742320795e-13,4.4021843375887047e-13
0.0,2,2.0,0.0,30.0,0.0,0.0,0.0,0.0,-13.0,0.0,2.0,0.0,0.0,0.0,1.0725220885018258e-10,5.8358508693616e-11,2.939065127891474e-11,1.62068935659683e-11,8.726622672585232e-12,5.334521563070369e-12,3.188794436723066e-12,1.7590985515587924e-12,1.0755629690614808e-12,6.063135285309456e-13,3.4488190493454466e-13,2.0802016108598798e-13,1.187572356109094e-13,6.578112580245619e-14,3.9618129974546975e-14,2.1031120828055166e-14,1.123150749435956e-14,7.1396234023543335e-09,5.792826558179335e-09,4.355211033761563e-09,2.937935109564951e-09,2.066880567075837e-09,1.3015203394924998e-09,8.707465036423923e-10,5.481795476470244e-10,3.421146863042551e-10,1.862058127574838e-10,1.1013432762399914e-10,6.638320659869264e-11,3.7853373161881584e-11,2.1044146694650848e-11,1.2453294708306893e-11,7.0752839019385555e-12,3.974267394344178e-12,2.4926269766757717e-12,1.2818536606505331e-12,7.306049723371061e-13,4.0375383201696774e-13
0.0,3,3.0,0.0,30.0,0.0,0.0,0.0,0.0,-13.0,0.0,2.0,0.0,0.0,0.0,1.0787408933447136e-10,5.173836548941095e-11,2.849594939670759e-11,1.6068051180733586e-11,8.869050617599295e-12,5.0400679263914115e-12,2.97600983303332e-12,1.778021231387041e-12,9.96834014130602e-13,5.657296087936099e-13,3.391582768120449e-13,1.9661108949470117e-13,1.1312783491487587e-13,6.515174384143215e-14,3.3593529699579964e-14,1.9050216410816713e-14,1.1125443566675769e-14,7.090688018290817e-09,5.383504010096712e-09,4.398364912167839e-09,2.846682990353018e-09,2.0548491789214544e-09,1.3301593949402945e-09,8.26949717964038e-10,5.180481214303313e-10,3.25185090086475e-10,2.031747379651859e-10,1.1378411573152498e-10,6.19747453113332e-11,3.755929199451056e-11,1.962756565657431e-11,1.2198309177052763e-11,6.958412565746697e-12,4.110193454318176e-12,2.3562747841667388e-12,1.3804950329544228e-12,6.467026458083818e-13,3.79941084828231e-13
0.0,4,4.0,0.0,30.0,0.0,0.0,0.0,0.0,-13.0,0.0,2.0,0.0,0.0,0.0,1.0859588112279583e-10,5.5029675975632865e-11,2.8818229146252666e-11,1.4185562727852786e-11,8.985210736592498e-12,4.8637216492725855e-12,3.0281612330679204e-12,1.6620084713585894e-12,9.912974371946958e-13,5.829003214128996e-13,3.3044547708429803e-13,1.811334936390025e-13,1.1411075186540016e-13,6.446127928186669e-14,3.675883561227797e-14,1.9814806968898306e-14,1.078927897886228e-14,7.222244788293409e-09,5.638065897209583e-09,4.107394463045003e-09,2.8649128304330685e-09,2.059707568875699e-09,1.3176749633650467e-09,8.285333428653679e-10,5.658477319808696e-10,3.3772182570466546e-10,1.8296856879954657e-10,1.1267666964793167e-10,6.075466355195147e-11,3.415150552696983e-11,1.9987605424912006e-11,1.1500114664701934e-11,6.501847359292442e-12,3.853246266760856e-12,2.1964566029521157e-12,1.1964500069920226e-12,6.86323859110449e-13,3.755240055975426e-13
0.0,5,5.0,0.0,30.0,0.0,0.0,0.0,0.0,-13.0,0.0,2.0,0.0,0.0,0.0,9.89474285305898e-11,5.259211812663624e-11,2.6623763053459072e-11,1.5049309424424425e-11,8.118645365436467e-12,4.645145049085226e-12,2.690950760919265e-12,1.5442305839798034e-12,9.288216280495576e-13,5.132750996841689e-13,3.285346734772617e-13,1.798584568269981e-13,1.0820288298340177e-13,6.562921255807372e-14,3.5227599158183444e-14,1.942779463213506e-14,8.766957090907093e-15,7.211816079536962e-09,5.706018317052311e-09,4.009721165189415e-09,3.0793903656189022e-09,2.0730935859047334e-09,1.3693890310906858e-09,8.609031166849672e-10,5.635313160613051e-10,3.31354715699752e-10,1.8684110020097078e-10,1.0782103980552196e-10,6.187417204962613e-11,3.4576687913553764e-11,2.080958882525236e-11,1.1223031511077958e-11,6.416627323912822e-12,3.727446059362266e-12,2.2185110891864753e-12,1.2203241498473225e-12,6.689029696710674e-13,3.6630066000119914e-13
0.0,6,6.0,0.0,30.0,0.0,0.0,0.0,0.0,-13.0,0.0,2.0,0.0,0.0,0.0,1.0257314525928597e-10,5.0863677056381156e-11,2.7481565721029436e-11,1.4245990651916476e-11,7.848126006865987e-12,4.54810358508927e-12,2.6310542625170338e-12,1.4805733134757259e-12,8.967432045419788e-13,5.404347587447096e-13,3.0368935132000125e-13,1.8797679710564048e-13,1.075760541896318e-13,6.49837537579805e-14,3.4926306869959894e-14,1.8453715282977618e-14,9.632902169330841e-15,7.113075328453497e-09,5.583946299149736e-09,4.351990401356496e-09,2.998218528782788e-09,1.963144996436863e-09,1.2810852765207326e-09,8.571187441713399e-10,5.263079793606987e-10,3.4342433763380766e-10,1.8467429980088253e-10,1.1304436691009734e-10,6.17247263988546e-11,3.5628541108654246e-11,1.9562638216579235e-11,1.1378977472420372e-11,6.0227017048383114e-12,3.424370004972761e-12,2.0666906242312014e-12,1.1081759162474437e-12,6.567003886249819e-13,3.666037686957319e-13
0.0,7,7.0,0.0,30.0,0.0,0.0,0.0,0.0,-13.0,0.0,2.0,0.0,0.0,0.0,1.0203028696303783e-10,5.217537444436196e-11,2.5688575662275723e-11,1.44596743218496e-11,7.564184377742589e-12,4.56136477477753e-12,2.588944431840399e-12,1.3841565043564332e-12,8.433043825800516e-13,5.17229915876429e-13,3.212501745678007e-13,1.7558324018187676e-13,1.0662080222031008e-13,6.235191538782026e-14,3.439793682695285e-14,1.7441533477728634e-14,1.1242351767507864e-14,6.750678571418065e-09,5.840236294204295e-09,4.165768454399006e-09,2.9799398891784393e-09,2.0746504327824665e-09,1.3831745144946032e-09,8.724195997768661e-10,5.480020996220824e-10,3.2611213384930287e-10,1.8052163661177242e-10,1.0593990681807838e-10,6.198954815784358e-11,3.3288544926319716e-11,1.9071961482311043e-11,1.0184860314299395e-11,6.1222704641270915e-12,3.37448538895991e-12,2.010836661497863e-12,1.0800961408352142e-12,6.329770127835537e-13,3.386698023769842e-13
0.0,8,8.0,0.0,30.0,0.0,0.0,0.0,0.0,-13.0,0.0,2.0,0.0,0.0,0.0,1.0736211503432629e-10,5.0335797358919834e-11,2.7776102687707478e-11,1.4082102440069238e-11,7.211158368014841e-12,4.319912038459583e-12,2.3608754911788617e-12,1.4734429580033322e-12,8.558959071620615e-13,4.715954874752362e-13,3.0324231024266096e-13,1.6791021986856787e-13,9.881487860302535e-14,5.79417070170948e-14,3.250953440884647e-14,1.9587275020419368e-14,9.711864525090822e-15,7.305844321261843e-09,5.6527225153127024e-09,4.450765379147149e-09,2.981877953851867e-09,2.1038957105296113e-09,1.374199381906758e-09,8.527729995166135e-10,5.125053080714927e-10,3.174498981788601e-10,1.9141606831011097e-10,1.0199847367107853e-10,5.93699425434205e-11,3.3535141771174987e-11,1.793992951870672e-11,1.010656307666035e-11,5.826000102824196e-12,3.3220512194739976e-12,1.9760977650026587e-12,1.0990479261901916e-12,6.130172277592377e-13,3.3626127355019114e-13
0.0,9,9.0,0.0,30.0,0.0,0.0,0.0,0.0,-13.0,0.0,2.0,0.0,0.0,0.0,1.0246409247494873e-10,4.836857352069728e-11,2.4061606041663483e-11,1.3104721684385726e-11,7.187727419872875e-12,4.0583666498411214e-12,2.391840820588252e-12,1.4146321422145228e-12,7.982791287697848e-13,5.142425063340104e-13,2.9493126212612674e-13,1.7419262647384242e-13,9.977551216596078e-14,5.699311524008486e-14,3.3209954268721043e-14,1.645393780340768e-14,1.1959170852786622e-14,6.899309916845087e-09,6.0198512561541055e-09,4.381125448416489e-09,2.957976051150079e-09,1.9312615063115025e-09,1.3349301870107956e-09,8.711935247663942e-10,5.400500456677319e-10,3.079972982565614e-10,1.9131049496457536e-10,1.029609904921013e-10,5.946989128359618e-11,3.1970112771102963e-11,1.8221867429317845e-11,1.0350096030302313e-11,5.710529487646149e-12,3.281704029617093e-12,1.866028169838806e-12,1.0143488918901244e-12,5.934187515513885e-13,3.2030364578122554e-13
0.0,10,10.0,0.0,30.0,0.0,0.0,0.0,0.0,-13.0,0.0,2.0,0.0,0.0,0.0,1.0123735724304824e-10,5.2727369014323726e-11,2.32905593600603e-11,1.351030805545846e-11,7.009559254073464e-12,3.772231486781249e-12,2.339631697656997e-12,1.3170630317407107e-12,8.503289690052227e-13,4.783219069750287e-13,2.8727759040793177e-13,1.6722328214718392e-13,9.604898804983741e-14,5.6649776670251635e-14,3.025386705512124e-14,1.8596343625247726e-14,1.1757979457422608e-14,6.902861904971989e-09,5.840686850057447e-09,4.228896630709501e-09,3.0278803354891152e-09,2.0928832426197818e-09,1.390400807218823e-09,8.777581892518887e-10,5.41781717124217e-10,3.016850703080371e-10,1.860222376878123e-10,1.0304491799360915e-10,5.970638172998795e-11,3.214296146546457e-11,1.7887637283898456e-11,9.756560371594927e-12,5.510111171889706e-12,3.1886650554683605e-12,1.669789384202504e-12,9.881855025909846e-13,5.778113291073423e-13,3.2623529536634534e-13
0.0,11,11.0,0.0,30.0,0.0,0.0,0.0,0.0,-13.0,0.0,2.0,0.0,0.0,0.0,1.0134316831354718e-10,4.9103847435536624e-11,2.3964922731125946e-11,1.2364808399857348e-11,6.987215389452069e-12,3.941652235681041e-12,2.291959188052642e-12,1.344031368848649e-12,7.538285459732396e-13,4.4774016335203724e-13,2.8652573471094595e-13,1.6190005629270492e-13,9.702364573309493e-14,5.716638179832431e-14,2.944616534978365e-14,1.7297315497090747e-14,1.0370072291308429e-14,7.121248543882852e-09,5.614014562751235e-09,4.296382183161987e-09,3.2492839740549e-09,2.0955691251629064e-09,1.357116556950582e-09,8.611754799645773e-10,5.845501798560492e-10,3.2652449700854155e-10,1.8142339950753598e-10,1.0366936527346095e-10,5.609405945691519e-11,3.210938437420578e-11,1.698903172036537e-11,9.503174490241663e-12,5.429195517627293e-12,2.9845910400150577e-12,1.7993349858914015e-12,9.696803357599607e-13,5.311946059257392e-13,2.9994882945301477e-13
0.0,12,12.0,0.0,30.0,0.0,0.0,0.0,0.0,-13.0,0.0,2.0,0.0,0.0,0.0,9.484705333224993e-11,4.8212238940173665e-11,2.35580023392043e-11,1.2415810164825674e-11,6.823525486693919e-12,3.693415916606109e-12,2.1293420756352964e-12,1.2681743659572197e-12,7.690475574289343e-13,4.2301550414028456e-13,2.5961860439767787e-13,1.5681413306597217e-13,9.592884860783186e-14,5.540703942977876e-14,2.9153219138022425e-14,1.7188848894384695e-14,7.737806332439306e-15,7.330748313139761e-09,5.555252379775421e-09,4.290057619124883e-09,3.1429638244878305e-09,2.087710867083857e-09,1.3627055922391377e-09,8.868432338088743e-10,5.762016032582371e-10,3.4085310019790464e-10,1.9594629159753446e-10,1.0505944290187048e-10,5.979916040000107e-11,2.9837983403086795e-11,1.6218542232087614e-11,8.906003431117058e-12,5.32957630988921e-12,2.8961940805421932e-12,1.6486670416917119e-12,8.789093746253586e-13,5.21988070450104e-13,2.7576488821302633e-13
0.0,13,13.0,0.0,30.0,0.0,0.0,0.0,0.0,-13.0,0.0,2.0,0.0,0.0,0.0,9.308531908840629e-11,4.5250799162443514e-11,2.318470798685195e-11,1.255441967825425e-11,6.3316109799926555e-12,3.5481055287526444e-12,2.003747274659539e-12,1.2534121155068476e-12,7.086319955576288e-13,4.3608257686809504e-13,2.5710906234254277e-13,1.6043357566912646e-13,9.30156441874802e-14,5.639077797220609e-14,2.847879738800065e-14,1.781275289514454e-14,9.015248611610751e-15,7.306846161490516e-09,6.010677499229718e-09,4.317167143217117e-09,3.2043581598936216e-09,2.0118335569531578e-09,1.417724106813422e-09,8.830728738972727e-10,5.392766607549209e-10,3.2912728970988895e-10,1.9929169509041737e-10,9.987301011160506e-11,5.6079649757794137e-11,2.8476984252491223e-11,1.5465580786496474e-11,9.167505912273816e-12,4.901412482194939e-12,2.7489235588844125e-12,1.5604028240718903e-12,8.911524306603738e-13,4.85399964140887e-13,2.884269369998587e-13
0.0,14,14.0,0.0,30.0,0.0,0.0,0.0,0.0,-13.0,0.0,2.0,0.0,0.0,0.0,9.790643836100499e-11,4.7166698711305544e-11,2.331108390042213e-11,1.1662352675121916e-11,6.342148259860655e-12,3.4285714205321857e-12,1.9913383168855546e-12,1.1750895762503725e-12,7.305425308154077e-13,4.0599264956330567e-13,2.4124423430578e-13,1.547289964193215e-13,8.678785250628469e-14,5.64048782709707e-14,2.7933533714673916e-14,1.6350033603668836e-14,7.064206525923167e-15,7.209461546969587e-09,5.849234835628359e-09,4.466576234485468e-09,3.1279452472791315e-09,2.056557899467541e-09,1.4007789977277304e-09,8.796656075625733e-10,5.505941492101425e-10,3.2332582872965313e-10,1.8485091514160883e-10,1.015229063440825e-10,5.682522934113612e-11,3.0791325334970815e-11,1.6502995445829847e-11,8.874408822618199e-12,4.8956009119978945e-12,2.7196457641534997e-12,1.5708134375288873e-12,8.256883650111138e-13,4.647449444617992e-13,2.761885784042184e-13
0.0,15,15.0,0.0,30.0,0.0,0.0,0.0,0.0,-13.0,0.0,2.0,0.0,0.0,0.0,9.975158343724531e-11,4.719645299738347e-11,2.2398971592006933e-11,1.1377916388521518e-11,6.122407806647576e-12,3.4782454348364698e-12,2.053524029769188e-12,1.1695629814664257e-12,6.576892802738328e-13,4.076987454122981e-13,2.480780031692725e-13,1.4697212977002159e-13,8.666016562947918e-14,5.014044220961198e-14,2.6962642198046664e-14,1.833894813329321e-14,7.295146940768231e-15,7.572257477774612e-09,5.791146087115232e-09,4.421625820010254e-09,3.1414131401583308e-09,2.1421015435185237e-09,1.3224574511856553e-09,8.840467092085879e-10,5.347051394814416e-10,3.045873972159156e-10,1.769639995410595e-10,1.0043470939979715e-10,5.7186942037760786e-11,2.87440849245245e-11,1.589212537719731e-11,8.483660853835676e-12,4.816206890102609e-12,2.6475244899969862e-12,1.477105439668145e-12,8.530563971054412e-13,4.706376726520528e-13,2.805700043537846e-13
0.0,16,16.0,0.0,30.0,0.0,0.0,0.0,0.0,-13.0,0.0,2.0,0.0,0.0,0.0,9.013992566227717e-11,4.316721203950921e-11,2.221198955562703e-11,1.0852015123869613e-11,6.187791286818845e-12,3.2680644846840166e-12,1.8448966265505993e-12,1.0851227411954687e-12,6.943458370274677e-13,4.002750870416181e-13,2.4772224178465846e-13,1.3893431577154785e-13,8.361858239088682e-14,4.898979543303952e-14,2.5354812276842643e-14,1.626816668645214e-14,8.586954573590021e-15,6.8240800465900475e-09,5.63183406182128e-09,4.413023615001774e-09,3.116696930577441e-09,2.0507734346464035e-09,1.35071954498104e-09,9.172075341456409e-10,5.374383918659494e-10,3.3026972869531467e-10,1.778572867122455e-10,9.702544682743307e-11,5.497553553491733e-11,2.975984396673938e-11,1.5617545311995503e-11,8.813274221036012e-12,4.801174207341881e-12,2.6191242945166544e-12,1.4512415139920214e-12,8.18614218910794e-13,4.59788371935304e-13,2.6122064980649804e-13
0.0,17,17.0,0.0,30.0,0.0,0.0,0.0,0.0,-13.0,0.0,2.0,0.0,0.0,0.0,9.615568590436307e-11,4.607355541525584e-11,2.1588884748908016e-11,1.0533197295945195e-11,5.5557363507237926e-12,3.226018357610747e-12,1.8294728997598914e-12,1.0882521712681272e-12,6.29581505731613e-13,3.761340714474837e-13,2.3239934978013684e-13,1.3977408907294894e-13,8.356723919897258e-14,5.3108960799324184e-14,2.6022069249018263e-14,1.5184145190476445e-14,7.877429991850454e-15,7.538134263316718e-09,5.833881932113195e-09,4.564067912327846e-09,3.070261506875741e-09,2.1153076799664866e-09,1.4055910294478132e-09,8.516147218173228e-10,5.460317121445232e-10,3.0860911132258797e-10,1.8222844387670923e-10,9.927303643597297e-11,5.3365291113249105e-11,2.9095565931492257e-11,1.5391424748552258e-11,8.270769465943658e-12,4.598456580443145e-12,2.6507355907928097e-12,1.3611420937303023e-12,8.054297815279133e-13,4.609685875326805e-13,2.4977641781227756e-13
0.0,18,18.0,0.0,30.0,0.0,0.0,0.0,0.0,-13.0,0.0,2.0,0.0,0.0,0.0,9.493933243121348e-11,4.3427791520108806e-11,2.155588203973322e-11,1.0764074941290596e-11,5.452646535388475e-12,3.161576079291454e-12,1.894243511544663e-12,9.980971456579276e-13,6.092689277062435e-13,3.8732243826089504e-13,2.1810353704076885e-13,1.2904038993623524e-13,7.859312149950861e-14,5.17051051743213e-14,2.620866933055476e-14,1.3553070966357876e-14,8.037501285880335e-15,7.0888343257238975e-09,5.940398461544775e-09,4.433140123176612e-09,2.9322850880017486e-09,2.079248327066128e-09,1.295143367266808e-09,8.649513640316508e-10,5.57301029808148e-10,3.1584409286846693e-10,1.7163673478710746e-10,1.0150439120136478e-10,5.0972071366546787e-11,2.9053581508120324e-11,1.503192045129225e-11,7.799519735591025e-12,4.4759199447774205e-12,2.5396237131696877e-12,1.325339087244915e-12,7.588338498230296e-13,4.28640664732969e-13,2.7154715896631564e-13
0.0,19,19.0,0.0,30.0,0.0,0.0,0.0,0.0,-13.0,0.0,2.0,0.0,0.0,0.0,9.645457779069773e-11,4.1210911190976986e-11,2.043347434616764e-11,1.0349182696411697e-11,5.3252646578857795e-12,2.929546516860901e-12,1.7812954330448857e-12,1.0419771746859597e-12,5.928568047976166e-13,3.6003366563687283e-13,2.105290063889888e-13,1.3669625177315287e-13,7.997194413722395e-14,4.58027735116007e-14,2.513016492627899e-14,1.4117007266201532e-14,9.011960230789078e-15,7.462082223614503e-09,5.895659903076081e-09,4.3879411923413e-09,3.114595786864353e-09,2.052969945479078e-09,1.2939081798024954e-09,9.094786436903285e-10,5.571095072183433e-10,3.2830646073082754e-10,1.7304368007820045e-10,9.974909536998914e-11,5.422868159948724e-11,2.7705583573003788e-11,1.4496835306591268e-11,8.092021266897594e-12,4.12692851727927e-12,2.4067724388746207e-12,1.30924143479918e-12,6.995192009568114e-13,3.9108048645390174e-13,2.2751626721478135e-13
0.0,20,20.0,0.0,30.0,0.0,0.0,0.0,0.0,-13.0,0.0,2.0,0.0,0.0,0.0,9.52266751946076e-11,4.3435938914241277e-11,2.069722096668808e-11,1.0491096409776727e-11,5.044507450310361e-12,3.0727248442050677e-12,1.6903790412119873e-12,9.704994388561336e-13,6.047098435134034e-13,3.588245424315728e-13,2.095146451785185e-13,1.3191827632775756e-13,7.617743514252366e-14,4.352058452631231e-14,2.5811708357590163e-14,1.396487694239308e-14,6.378444140773288e-15,7.149466265430227e-09,5.831279065185978e-09,4.468404634995827e-09,3.1172673380401875e-09,2.0904789671380417e-09,1.3979482924552726e-09,8.999187252158486e-10,5.443379867715417e-10,3.267848551046567e-10,1.7110503010442634e-10,9.617483530221861e-11,5.271831921748841e-11,2.7977887439213882e-11,1.4543344634875375e-11,7.347035225562977e-12,4.2024289593001795e-12,2.2103587812376317e-12,1.3223724626571762e-12,7.309258063654895e-13,4.262879165166628e-13,2.35509861329106e-13
0.0,21,21.0,0.0,30.0,0.0,0.0,0.0,0.0,-13.0,0.0,2.0,0.0,0.0,0.0,9.254771790692763e-11,4.5140554584312884e-11,2.0722354881492945e-11,9.888054854255645e-12,5.0628517039667145e-12,2.9872830062066438e-12,1.6749452589592085e-12,8.802472551674856e-13,6.135395747339402e-13,3.3713342716542743e-13,2.2068046135511288e-13,1.336188693827571e-13,7.442274418224302e-14,4.460123122912833e-14,2.5392193949306494e-14,1.308603321168595e-14,6.312833901679839e-15,7.111218383001581e-09,5.902666603569518e-09,4.6194019973839964e-09,3.2563756392216118e-09,2.190410997558554e-09,1.3365580658178597e-09,8.335548043423396e-10,5.096380282026857e-10,3.2400471823587863e-10,1.821083215501472e-10,9.21786973819465e-11,5.3135659145164955e-11,2.697793444918338e-11,1.4452798302127606e-11,7.295007799806156e-12,3.820788206674026e-12,2.2230725896681353e-12,1.28244871135538e-12,7.290421210523513e-13,4.0038986538411646e-13,2.2054435210078427e-13
0.0,22,22.0,0.0,30.0,0.0,0.0,0.0,0.0,-13.0,0.0,2.0,0.0,0.0,0.0,9.07903233544165e-11,4.3321700157059876e-11,2.005343693496153e-11,9.744096070966605e-12,5.120014437705778e-12,2.8730573715034316e-12,1.6142735669529846e-12,9.717964118394098e-13,5.586299604890402e-13,3.358824410143892e-13,2.0065133897182676e-13,1.2812377138936882e-13,6.943415093676917e-14,4.341125386037216e-14,2.5150172492936043e-14,1.2661390800337196e-14,7.525921260635121e-15,7.330600248858239e-09,6.3082733016348625e-09,4.582210249585736e-09,3.0239065936325406e-09,2.270338487531051e-09,1.2812613084505818e-09,8.819261643753199e-10,5.702376883912049e-10,3.130157734275161e-10,1.692844581142251e-10,9.779189614295987e-11,5.268478823410039e-11,2.6763407541239838e-11,1.4425637727450595e-11,7.575869373732476e-12,3.9423336304151535e-12,2.2257131395142377e-12,1.2314514990160414e-12,6.828624138810994e-13,3.714317935308194e-13,2.0662283904362094e-13
0.0,23,23.0,0.0,30.0,0.0,0.0,0.0,0.0,-13.0,0.0,2.0,0.0,0.0,0.0,8.941712796823921e-11,4.360536065937492e-11,2.0545172581685725e-11,9.934137817270031e-12,5.097623842326857e-12,2.81000556505056e-12,1.5361109986870642e-12,9.158659551420064e-13,5.656675346692676e-13,3.188517372261147e-13,2.0308823661407014e-13,1.2467189539287063e-13,7.241266656088677e-14,4.148841976775446e-14,2.3539457306540547e-14,1.4316281489920863e-14,7.873952242625937e-15,7.49260832680084e-09,5.903465141798724e-09,4.400970496783459e-09,3.355811666047388e-09,2.1618023170166413e-09,1.3815693250271452e-09,8.836897942123698e-10,5.216029391097296e-10,2.945437001054633e-10,1.7449018464714797e-10,9.531652053381594e-11,5.092657803999385e-11,2.742824849248702e-11,1.3133672785758969e-11,7.316721665916817e-12,3.761436648189797e-12,2.184477409170038e-12,1.168524591744935e-12,6.93793233684591e-13,3.720879355434501e-13,2.2887494401025426e-13
0.0,24,24.0,0.0,30.0,0.0,0.0,0.0,0.0,-13.0,0.0,2.0,0.0,0.0,0.0,8.876031859241618e-11,4.2798529899392576e-11,2.0399214488113622e-11,9.324562540108917e-12,4.803937341160303e-12,2.6540206397579983e-12,1.4680768950043897e-12,8.671771939579745e-13,5.164629579475899e-13,3.0131959058557865e-13,1.9337254197064175e-13,1.1787118337498643e-13,6.847575747710476e-14,4.211910283936228e-14,2.1986631281091433e-14,1.2901650686117664e-14,6.5742915373776176e-15,7.277478602542467e-09,5.799642650340901e-09,4.504873928763007e-09,3.026419023389339e-09,2.1432359837703546e-09,1.3333197803440022e-09,9.11974063085691e-10,5.25852676030039e-10,3.140124239450193e-10,1.7492762082228792e-10,9.32124708419303e-11,4.910998867985006e-11,2.5625711233655073e-11,1.3798095176098982e-11,7.0810954292921735e-12,3.7287487680112e-12,2.0332930864653407e-12,1.1190936517106484e-12,6.098933195640237e-13,3.6659405275761293e-13,2.334747023787974e-13
0.0,25,25.0,0.0,30.0,0.0,0.0,0.0,0.0,-13.0,0.0,2.0,0.0,0.0,0.0,9.184862386392644e-11,3.8938426934514754e-11,1.9354949835301058e-11,9.565402454429132e-12,4.78728958551012e-12,2.6580075707434317e-12,1.4509868014515176e-12,8.307696291348226e-13,5.381279885584543e-13,3.068272433797795e-13,1.8763966154530632e-13,1.1068452683831178e-13,7.099814048122853e-14,4.371573412912568e-14,2.3015074873351748e-14,1.3014689232900744e-14,6.9347184133022714e-15,7.060650936690346e-09,6.1565485229858315e-09,4.4864889933988414e-09,3.1299186366311225e-09,2.1929093019114173e-09,1.320490021907465e-09,8.520805188620654e-10,5.237620574710016e-10,3.1749827567889355e-10,1.8108304351605432e-10,9.628157508278797e-11,5.096578271498011e-11,2.632149705171432e-11,1.2172158057409555e-11,6.8534568397378765e-12,3.5726268174472126e-12,2.0717535810865492e-12,1.0758960976268403e-12,6.547685935411569e-13,3.433626511058106e-13,1.9185619278689431e-13
0.0,26,26.0,0.0,30.0,0.0,0.0,0.0,0.0,-13.0,0.0,2.0,0.0,0.0,0.0,9.22561156847114e-11,4.091294534528195e-11,1.9207920261842393e-11,9.547126668195057e-12,4.65589798143597e-12,2.4407420433198436e-12,1.4533642862644273e-12,8.191761043693273e-13,4.90012144040953e-13,2.9053828668434823e-13,1.8360989652502763e-13,1.0969952181797519e-13,6.921842541230898e-14,4.037484680638053e-14,2.3265188161465953e-14,1.1982932431006811e-14,8.043906797186278e-15,7.523351054578404e-09,6.07542598082507e-09,4.700839696644192e-09,3.1717101820082324e-09,2.1389644431110223e-09,1.3649258298726719e-09,8.478711038165448e-10,5.213388553401548e-10,3.0519375776318033e-10,1.7717852303162762e-10,9.050050823013406e-11,4.668534601548344e-11,2.630699666241361e-11,1.3389426360783014e-11,6.703666527387184e-12,3.4129667668090745e-12,1.8738579796565946e-12,1.0927225635931152e-12,5.94785639965394e-13,3.5579173319945506e-13,1.8886316804017506e-13
0.0,27,27.0,0.0,30.0,0.0,0.0,0.0,0.0,-13.0,0.0,2.0,0.0,0.0,0.0,8.672130299038301e-11,3.962112826854392e-11,1.8950979154914675e-11,9.385377675877313e-12,4.682536381348727e-12,2.557750367315013e-12,1.3769665529792273e-12,8.342729277210693e-13,4.841985464802198e-13,2.7256667199157937e-13,1.89975368394506e-13,1.0841947869885484e-13,6.544101974580509e-14,4.061868461290766e-14,2.0126152065190314e-14,1.4227534034141785e-14,7.961711576008955e-15,7.420576541453198e-09,6.04203459092549e-09,4.482176594483953e-09,3.2140653130301874e-09,2.1563166988997146e-09,1.3572487887595288e-09,8.934448512967119e-10,5.057738092043318e-10,2.956122305395904e-10,1.58040394677963e-10,9.417107302868284e-11,4.868038291508708e-11,2.4568154343350067e-11,1.310982264766663e-11,6.61680602958316e-12,3.506184504582046e-12,1.939195581566088e-12,1.0543891789806767e-12,6.081161833920782e-13,3.389918209566353e-13,1.8192992829885618e-13
0.0,28,28.0,0.0,30.0,0.0,0.0,0.0,0.0,-13.0,0.0,2.0,0.0,0.0,0.0,8.46961550983086e-11,3.8119730410910576e-11,1.826597439917909e-11,9.183129270643413e-12,4.27500468495045e-12,2.3309608902183216e-12,1.3669850675672375e-12,8.007310231218039e-13,4.715135565368485e-13,2.85749621952858e-13,1.859526237337762e-13,1.0969448895297573e-13,6.264616800041168e-14,3.6862541423295823e-14,2.2395155279518012e-14,1.3848482800608653e-14,6.553470650094224e-15,7.570286882134866e-09,5.9608782377155925e-09,4.289445389267323e-09,3.202768554350618e-09,2.036687330286517e-09,1.3769461859417788e-09,8.799298661620032e-10,5.267914956894808e-10,3.177436591503004e-10,1.7203530109381937e-10,9.208465776715215e-11,4.901578456150214e-11,2.5003953031996375e-11,1.338272423204314e-11,6.6717799461372875e-12,3.6752434026268885e-12,1.7692698592815397e-12,1.0049890513591904e-12,5.467625746607682e-13,3.286460492965994e-13,1.839194624696542e-13
0.0,29,29.0,0.0,30.0,0.0,0.0,0.0,0.0,-13.0,0.0,2.0,0.0,0.0,0.0,8.67993790336455e-11,3.888120812562804e-11,1.840650058774505e-11,8.623373154596118e-12,4.4197431996670426e-12,2.3376074821532717e-12,1.310703812325699e-12,7.723264080842181e-13,4.660560918807663e-13,2.699683141042629e-13,1.738212124448946e-13,1.0583590922591455e-13,6.557111018931287e-14,3.840308483617144e-14,2.2415970269926786e-14,1.2056706407914827e-14,5.544433793348439e-15,7.474059475299813e-09,6.019284291618203e-09,4.440498316594421e-09,2.964281831409483e-09,2.2525337128655076e-09,1.370800892308023e-09,8.626614484674974e-10,5.405016219182696e-10,2.8765297074227045e-10,1.699302563604431e-10,9.028481870020149e-11,4.9441941872883274e-11,2.4243217460959025e-11,1.181838930738452e-11,6.5697460327632275e-12,3.1458908745877794e-12,1.734821839017876e-12,9.970917084422042e-13,5.645461758667618e-13,3.1348393303023777e-13,1.7592787935562693e-13
0.0,30,30.0,0.0,30.0,0.0,0.0,0.0,0.0,-13.0,0.0,2.0,0.0,0.0,0.0,8.005675060784387e-11,3.8295796381454704e-11,1.74417191483697e-11,8.505170618481765e-12,4.167997357939717e-12,2.2119072282667536e-12,1.3341261260697149e-12,6.823973632993713e-13,4.1385227378576126e-13,2.701857478403926e-13,1.6415751172746335e-13,9.835609598141305e-14,5.887134586575627e-14,3.77657628447661e-14,2.1493421355764948e-14,1.3379412072005444e-14,8.09476291318052e-15,7.354609591089855e-09,6.017833379158136e-09,4.5301824194004535e-09,3.1535293035036796e-09,2.0861079566841902e-09,1.2938528608855675e-09,8.55792366334352e-10,5.176941899240035e-10,2.997118957266377e-10,1.7140211586976282e-10,9.12289569553124e-11,4.463407960163271e-11,2.3510174015550968e-11,1.262148744023496e-11,6.2058112194380344e-12,3.2741680862299794e-12,1.7315094181298712e-12,9.845615334386438e-13,5.295589243873319e-13,3.0197676742261573e-13,1.5848600089110054e-13
0.0,31,31.0,0.0,30.0,0.0,0.0,0.0,0.0,-13.0,0.0,2.0,0.0,0.0,0.0,8.011848061755794e-11,3.7883754925265956e-11,1.8177860708629867e-11,8.236273421006907e-12,4.37464455111856e-12,2.152482260708754e-12,1.2522208479622218e-12,7.073094986437996e-13,4.379433403070165e-13,2.6984025686588634e-13,1.6672558785328464e-13,1.047117430465022e-13,5.877652907842491e-14,3.5072077258279126e-14,1.9322946915568198e-14,1.2101122363686907e-14,5.325927213635499e-15,7.260806299176739e-09,5.880687596049742e-09,4.995754495448986e-09,3.1846124683801697e-09,2.0975872683276096e-09,1.3159914204321002e-09,8.199647014078902e-10,5.112148417413364e-10,2.877785729852028e-10,1.5751022356251142e-10,8.420716209176454e-11,4.9015144693891705e-11,2.341703491316541e-11,1.1453208915134309e-11,6.107947346513392e-12,3.2404128502176922e-12,1.7026349775296773e-12,8.875506860549876e-13,5.099006389005241e-13,2.843311780708565e-13,1.8204410180038306e-13
0.0,32,32.0,0.0,30.0,0.0,0.0,0.0,0.0,-13.0,0.0,2.0,0.0,0.0,0.0,8.70600826215609e-11,3.81363038560136e-11,1.6445173253056196e-11,8.22875122391621e-12,4.116601353039262e-12,2.1028672839851876e-12,1.1859565759822719e-12,7.064091020096393e-13,4.277254921770007e-13,2.6086923794111107e-13,1.5433542775518035e-13,9.642653028704968e-14,5.871535883934462e-14,3.644048522356078e-14,2.1001108628650707e-14,1.225375611118443e-14,5.983478027843003e-15,7.679028780339664e-09,6.225215950653584e-09,4.788550550114269e-09,3.2570808521812537e-09,1.9582593450873305e-09,1.3091137726759651e-09,8.45298514480783e-10,5.112377486627665e-10,2.8317712732481377e-10,1.604071288699758e-10,8.717169087078261e-11,4.6774106308076364e-11,2.3120540221917932e-11,1.1848716825905385e-11,5.922952113800768e-12,3.1504728149641133e-12,1.6563824954456062e-12,9.461909425582928e-13,4.890015552693821e-13,2.6964650910042836e-13,1.600640368539135e-13
0.0,33,33.0,0.0,30.0,0.0,0.0,0.0,0.0,-13.0,0.0,2.0,0.0,0.0,0.0,8.141575369276609e-11,3.949800689657098e-11,1.7840630933899305e-11,8.20515172240121e-12,4.0046542066827234e-12,1.9470467429061613e-12,1.1455204530829575e-12,6.795310859206945e-13,4.0207525825624825e-13,2.5916260473469006e-13,1.5840606447887227e-13,9.56679916955555e-14,5.943770468908369e-14,3.3636082707580023e-14,2.1895804446876836e-14,1.4348181654842632e-14,6.235332647911594e-15,7.637215567938627e-09,6.0167015683774164e-09,4.5039546976607785e-09,3.2279221813601566e-09,2.174481729106575e-09,1.403561947513827e-09,8.881883823771792e-10,4.874192610405166e-10,2.89506434171871e-10,1.6195766788654957e-10,8.679734109708329e-11,4.246935700512147e-11,2.3227122471988524e-11,1.228994563179721e-11,5.623170733630353e-12,3.0209215209828802e-12,1.6048766434454727e-12,8.819150382085219e-13,4.779836789934107e-13,2.6591791491670893e-13,1.6776766166831212e-13
0.0,34,34.0,0.0,30.0,0.0,0.0,0.0,0.0,-13.0,0.0,2.0,0.0,0.0,0.0,8.155990949603787e-11,3.828030783705461e-11,1.7193947532781567e-11,8.177280447631785e-12,4.078186211518204e-12,1.933085339206807e-12,1.1674874253838349e-12,6.643975061111998e-13,3.8557787608919325e-13,2.3672375251994285e-13,1.4643093906811644e-13,9.1177343417527e-14,5.604410864643353e-14,3.410114916051651e-14,2.1662097673891093e-14,1.1246688666179994e-14,6.107349885993446e-15,7.353168685158993e-09,6.208236709087092e-09,4.665904552904995e-09,3.1198192237961555e-09,2.03262312791834e-09,1.3235126251888912e-09,8.18918675075222e-10,5.115766370345459e-10,2.736649859711572e-10,1.5866271212376332e-10,9.044786554404787e-11,4.5731453716431396e-11,2.2132282145246832e-11,1.1402966385102185e-11,5.9873970271319175e-12,3.061618082165988e-12,1.5345932839646861e-12,8.734800847163532e-13,4.615896633256286e-13,2.5124890352033376e-13,1.675109559364962e-13
0.0,35,35.0,0.0,30.0,0.0,0.0,0.0,0.0,-13.0,0.0,2.0,0.0,0.0,0.0,8.040280579031327e-11,3.626045165690568e-11,1.6493587822400674e-11,7.885732442027834e-12,3.883368864669154e-12,1.921162640215068e-12,1.0917788537552378e-12,6.256001573552761e-13,4.062105995684028e-13,2.2686858196179595e-13,1.4958063788520098e-13,9.456480076082595e-14,5.38605531359512e-14,3.405073990389569e-14,1.8153708827092543e-14,1.1417659169434804e-14,5.675104686931244e-15,7.745796270347762e-09,5.975494995149281e-09,4.583123111969502e-09,3.3586938008611497e-09,2.0363959338369914e-09,1.3822158917784783e-09,8.332982753333042e-10,5.077010646182057e-10,2.868814608160009e-10,1.6170176402796026e-10,8.625099159478367e-11,4.3787909693848675e-11,2.2171963505376783e-11,1.0926505557237191e-11,5.6315874868922484e-12,2.8618813649003096e-12,1.5369844450530156e-12,7.984280353781519e-13,4.561418357878261e-13,2.597085448936226e-13,1.5359748270193826e-13
0.0,36,36.0,0.0,30.0,0.0,0.0,0.0,0.0,-13.0,0.0,2.0,0.0,0.0,0.0,8.274044632621518e-11,3.591013441333894e-11,1.6142607684413014e-11,7.749541157784168e-12,3.934369149460109e-12,1.9630951705142993e-12,1.1185435113259157e-12,5.953766797529211e-13,3.634741883877442e-13,2.1901638131190172e-13,1.4828893625628304e-13,8.484332116118126e-14,5.5555671071549604e-14,3.3652450279590046e-14,1.9265599960563373e-14,1.2661821895191186e-14,7.088070084521249e-15,8.062733650148268e-09,5.967255185876259e-09,4.861547595847736e-09,3.1517061901138034e-09,2.073573078875469e-09,1.3371866741040317e-09,8.026168493065446e-10,4.998094113302557e-10,2.8302526190305125e-10,1.5992399678289513e-10,8.627170421227726e-11,4.57395283702528e-11,2.1825049225161185e-11,1.0978277532846534e-11,5.782041242810785e-12,2.9443715276681143e-12,1.553971398466169e-12,7.916512956918096e-13,4.418540470829526e-13,2.2365380319604099e-13,1.4459531433043102e-13
0.0,37,37.0,0.0,30.0,0.0,0.0,0.0,0.0,-13.0,0.0,2.0,0.0,0.0,0.0,7.633509648957729e-11,3.603274843079282e-11,1.5291806410136512e-11,7.402940280689507e-12,3.699100734585024e-12,1.894168294654329e-12,1.0700027804025166e-12,5.919435482575919e-13,3.813416585979648e-13,2.285045377531235e-13,1.417299084866988e-13,8.729935629318697e-14,5.183780770278418e-14,3.01570118847632e-14,1.8499620468511818e-14,1.3731334043736014e-14,6.955523647339294e-15,7.567038287757771e-09,6.133450254218458e-09,4.820156198246498e-09,3.296548971111646e-09,2.040534736139704e-09,1.3036832069914778e-09,8.465412178874985e-10,4.907577359513355e-10,2.8958198719487474e-10,1.6086354604884025e-10,7.900608476185809e-11,4.281473680806269e-11,2.2102365091139214e-11,1.1115042272867988e-11,5.534790222259912e-12,2.8408061973465695e-12,1.5152809155144488e-12,7.712571905131254e-13,4.423661596267211e-13,2.4055251424582053e-13,1.4192684963348225e-13
0.0,38,38.0,0.0,30.0,0.0,0.0,0.0,0.0,-13.0,0.0,2.0,0.0,0.0,0.0,7.8879092852408e-11,3.525074943735149e-11,1.6231528963393987e-11,7.51324527411409e-12,3.6012049727715335e-12,1.906978461513104e-12,1.004115322825691e-12,6.190167418067581e-13,3.689836377920954e-13,2.1350700848019387e-13,1.2923450252596603e-13,8.778062351626034e-14,5.385240225806314e-14,3.155970745463542e-14,1.798055718605922e-14,9.491700050404873e-15,5.844338919457757e-15,7.599823842368593e-09,6.073488702738445e-09,4.511825748318042e-09,3.1117514927176224e-09,2.1852854359487907e-09,1.25267693537002e-09,7.582868724798814e-10,4.727916661315092e-10,2.835922575386298e-10,1.5910676614568826e-10,7.995705539393407e-11,4.5167028224018205e-11,2.183943493763319e-11,1.0771062524880667e-11,5.35627724590269e-12,2.7576400941794895e-12,1.459448407075028e-12,7.464488344067486e-13,4.204091578791774e-13,2.1801944380996933e-13,1.4006955920456232e-13
0.0,39,39.0,0.0,30.0,0.0,0.0,0.0,0.0,-13.0,0.0,2.0,0.0,0.0,0.0,8.158078786204083e-11,3.6082180364617406e-11,1.6281718349134465e-11,7.1564253017776464e-12,3.412268773598425e-12,1.7668544000582831e-12,9.802896800770101e-13,5.818014246978243e-13,3.3886281248313604e-13,1.9911289315490297e-13,1.4029098372698602e-13,8.385347981297728e-14,5.3648210134184607e-14,2.94940611222684e-14,1.8825712849168175e-14,9.519542325146325e-15,5.460516567826718e-15,7.47490355037893e-09,6.045431748482997e-09,4.876366012144284e-09,3.13393005700444e-09,2.122305396404478e-09,1.3468454597554939e-09,7.930560311532455e-10,4.646697275865349e-10,2.8339602119498107e-10,1.5036011549340089e-10,7.967029437335889e-11,4.22313932196535e-11,2.0956613835456423e-11,1.0175468181507878e-11,5.418676301125233e-12,2.66808832590453e-12,1.4010689851128763e-12,7.675940027696687e-13,4.204747112051979e-13,2.3989492721944924e-13,1.5007395234802948e-13
0.0,40,40.0,0.0,30.0,0.0,0.0,0.0,0.0,-13.0,0.0,2.0,0.0,0.0,0.0,8.074499053266984e-11,3.143501319994753e-11,1.5162443039047052e-11,7.368484536316837e-12,3.389019660054352e-12,1.7652963547649996e-12,9.94783343540657e-13,5.555716933882036e-13,3.402038620052469e-13,2.0090959351287254e-13,1.2821848605812468e-13,8.117235677643026e-14,5.019172307209456e-14,2.9469718290037315e-14,1.699074949227847e-14,1.0644350974283647e-14,5.292985673346893e-15,7.679082243850453e-09,5.9962557110534326e-09,4.541473675812797e-09,3.2169512657055858e-09,2.0546410193182285e-09,1.248168851886067e-09,8.019313042136777e-10,4.882108787207582e-10,2.735075633325154e-10,1.4384900667123125e-10,8.067909555102878e-11,3.856587843773988e-11,2.1116078382545315e-11,1.0303527360531453e-11,5.251648526900528e-12,2.6787821980810796e-12,1.3656811396415594e-12,7.29621139171078e-13,3.911925255713769e-13,2.1826697802859068e-13,1.436578215269783e-13
0.0,41,41.0,0.0,30.0,0.0,0.0,0.0,0.0,-13.0,0.0,2.0,0.0,0.0,0.0,7.286580486060195e-11,3.302841919383104e-11,1.5693905883453372e-11,7.030421708388323e-12,3.53009386556127e-12,1.7190858429909781e-12,8.921038411056595e-13,5.432550851344778e-13,3.4069160558924723e-13,1.960079446123119e-13,1.3081660128611737e-13,7.790256315430359e-14,4.7662214651114363e-14,3.277850811050352e-14,1.5802207995809463e-14,1.2983574318746534e-14,4.315797092503584e-15,7.411401206471871e-09,6.000957976878706e-09,4.715628781732676e-09,3.4150027928343692e-09,2.187181882130387e-09,1.340152319322206e-09,8.179134012179105e-10,4.883035050604018e-10,2.7507175067182374e-10,1.4977354307152618e-10,7.82163303133909e-11,4.089234938103774e-11,1.9963304976650475e-11,1.0284895883222922e-11,4.979607995738726e-12,2.5054430137059372e-12,1.3361197655552593e-12,7.061842262541457e-13,4.115526551173825e-13,2.323951703318571e-13,1.285853635260479e-13
0.0,42,42.0,0.0,30.0,0.0,0.0,0.0,0.0,-13.0,0.0,2.0,0.0,0.0,0.0,7.495490515983553e-11,3.328602022710631e-11,1.483548332276467e-11,6.590157859921829e-12,3.180432807003424e-12,1.6267738818813916e-12,9.001987527810585e-13,5.180561536521754e-13,3.31270221158545e-13,2.067462309274513e-13,1.229968829792407e-13,7.647312856991085e-14,4.627132638225743e-14,2.9325357111012264e-14,1.885142172416874e-14,1.0741956432693774e-14,5.135654191897022e-15,7.59815548120872e-09,5.9738498455229895e-09,4.6683577327723846e-09,3.1664648535505422e-09,2.1215622546912165e-09,1.302991104481226e-09,8.417724838442956e-10,4.970955114654575e-10,2.763341839579993e-10,1.4833710725967326e-10,7.4732570679134e-11,3.975580137477575e-11,2.0126609772221227e-11,9.887129098687224e-12,5.140605724131557e-12,2.5515886803205316e-12,1.3397087112757038e-12,7.21496617609486e-13,3.9789857671914444e-13,1.851406425058017e-13,1.308149456554084e-13
0.0,43,43.0,0.0,30.0,0.0,0.0,0.0,0.0,-13.0,0.0,2.0,0.0,0.0,0.0,7.319554307248498e-11,3.2154716594901655e-11,1.537130801945556e-11,6.836381310291759e-12,3.229936812201502e-12,1.5617746663280747e-12,9.264479072589335e-13,5.273064405564585e-13,3.356253425245431e-13,1.9188533739755972e-13,1.1936381857561208e-13,7.14612244436774e-14,4.470477633232783e-14,2.917237417599326e-14,1.6506799618395156e-14,1.1407886916473919e-14,5.682351806795981e-15,7.507100151470185e-09,5.9658831188080145e-09,4.71217794092997e-09,3.162902154158567e-09,2.0347707593079473e-09,1.3629138530688856e-09,8.094265986773293e-10,4.809076232337982e-10,2.847853236008315e-10,1.4634774918821846e-10,7.522400675579401e-11,4.09497852333894e-11,1.9643308553647765e-11,1.0092793952704669e-11,4.617861913488082e-12,2.4918249891433322e-12,1.2733441923030906e-12,7.040545307044068e-13,3.820984106686495e-13,1.9676620350720236e-13,1.2087367542888847e-13
0.0,44,44.0,0.0,30.0,0.0,0.0,0.0,0.0,-13.0,0.0,2.0,0.0,0.0,0.0,7.587501433976568e-11,3.175321553238561e-11,1.5428686774644675e-11,6.681474352282826e-12,3.355603120306425e-12,1.6231080018156742e-12,8.667897339150615e-13,5.238833970421127e-13,3.2605300581843394e-13,1.8360679601416545e-13,1.1959811553965392e-13,7.730396992317992e-14,5.0666861740941856e-14,3.064417683981997e-14,1.5013525867184642e-14,8.62396106025784e-15,4.760002168325437e-15,7.91591517003045e-09,6.654469141895329e-09,4.686024946183672e-09,3.237329546661413e-09,2.1218962863279063e-09,1.263366363312664e-09,7.62215575848836e-10,4.629185699457022e-10,2.5194257353629517e-10,1.4395344388023247e-10,7.454762492118212e-11,3.941514952538378e-11,1.9139137946264817e-11,9.754346090652987e-12,4.851773298861701e-12,2.485760922067154e-12,1.2495085633310008e-12,6.272433498833081e-13,3.5387904315950543e-13,2.3970647729656285e-13,1.3615063697994532e-13
0.0,45,45.0,0.0,30.0,0.0,0.0,0.0,0.0,-13.0,0.0,2.0,0.0,0.0,0.0,6.887358783773579e-11,3.1314288937037145e-11,1.4283082706071143e-11,6.5419467705200845e-12,3.156115860633419e-12,1.5528593090353584e-12,8.425637780906838e-13,4.946387387032425e-13,2.9671659611707226e-13,1.8552526616162026e-13,1.111452697600804e-13,7.107749892501697e-14,5.0596806015374225e-14,2.7483229906764e-14,1.5228328699036592e-14,1.088366642169044e-14,5.411888944792337e-15,7.698550393183167e-09,6.307000344899028e-09,4.8181683161947765e-09,3.1227731638936504e-09,2.0130175836387168e-09,1.3154733388796072e-09,7.786621564496113e-10,4.680545720572587e-10,2.5507919428485867e-10,1.4565865541178234e-10,7.543534493665213e-11,4.1266102071489086e-11,1.8530730980219893e-11,9.38751347720111e-12,4.816705193947223e-12,2.2765836238289506e-12,1.2443144169863515e-12,6.296393689717827e-13,3.3615169905190073e-13,2.0331895656497529e-13,1.142304529605833e-13
0.0,46,46.0,0.0,30.0,0.0,0.0,0.0,0.0,-13.0,0.0,2.0,0.0,0.0,0.0,6.985841812025968e-11,3.069553855866926e-11,1.3925503048017613e-11,6.378326665369442e-12,3.2059804884324445e-12,1.488917027208705e-12,8.430527922358365e-13,4.769220387845404e-13,2.766811691759093e-13,1.7248333651537857e-13,1.159924807442101e-13,7.091398355957026e-14,4.448783469798647e-14,2.863475042797281e-14,1.7043466735945804e-14,8.924727746036296e-15,5.543014230145068e-15,7.892394625982774e-09,6.238821585295994e-09,4.79159641954675e-09,3.417779482949083e-09,2.1411395278891787e-09,1.314069721405064e-09,7.991999610622982e-10,4.72786312372249e-10,2.577110884446326e-10,1.4133479984639044e-10,7.399619962903651e-11,3.7479635937138234e-11,1.9673780881268957e-11,9.718330648364408e-12,4.9264193563121154e-12,2.1593851178158206e-12,1.141061977184905e-12,5.875446880364259e-13,3.4415946514720224e-13,2.0616885948548472e-13,1.236268665243912e-13
0.0,47,47.0,0.0,30.0,0.0,0.0,0.0,0.0,-13.0,0.0,2.0,0.0,0.0,0.0,7.2028105440432e-11,2.9712270771534026e-11,1.4034458686281369e-11,6.129565394472458e-12,2.86148628302935e-12,1.460888808446181e-12,8.067344666001851e-13,4.769440306348916e-13,2.801397061280873e-13,1.7006332493942203e-13,1.0706797634296724e-13,6.800996007837223e-14,4.289364721522407e-14,2.724571324277792e-14,1.579095964257376e-14,7.991250026257027e-15,5.6915218542741244e-15,7.904338050732753e-09,6.049718348273268e-09,4.808856104691072e-09,2.9791627881762124e-09,2.0124678381757417e-09,1.2562228086487938e-09,7.570345034391275e-10,4.4346749360630223e-10,2.7658026018966234e-10,1.3677078768519638e-10,7.130952944041827e-11,3.7888666754131236e-11,1.870715192845903e-11,9.371042410475779e-12,4.653315772152666e-12,2.229292899936059e-12,1.1886037314476327e-12,5.882692144030829e-13,3.2065060924870264e-13,1.8978460647949146e-13,1.0495454257036753e-13
0.0,48,48.0,0.0,30.0,0.0,0.0,0.0,0.0,-13.0,0.0,2.0,0.0,0.0,0.0,6.866310746525155e-11,3.0511723315580874e-11,1.269740816121686e-11,6.194499890726845e-12,2.849705465827563e-12,1.489835726175712e-12,7.898367717442465e-13,4.766867348033075e-13,2.778014860648677e-13,1.6879800837663317e-13,1.076660400733168e-13,6.590075858466209e-14,4.250389569342356e-14,2.5058177962829637e-14,1.3252428008263317e-14,9.908404472871211e-15,4.029349164453288e-15,7.950886552912032e-09,6.422005830695327e-09,4.7969103499751724e-09,3.1119816395676332e-09,2.0737747351883185e-09,1.216329799398928e-09,8.034512396025853e-10,4.1763067149057064e-10,2.616153794608489e-10,1.3572587474593296e-10,6.880536687258357e-11,3.639380064391795e-11,1.8401083811919086e-11,8.799028652250109e-12,4.536069664106513e-12,2.203677216359425e-12,1.1152564365612134e-12,5.862349503806074e-13,3.113844991268745e-13,2.1316233210829372e-13,1.3222914556671422e-13
0.0,49,49.0,0.0,30.0,0.0,0.0,0.0,0.0,-13.0,0.0,2.0,0.0,0.0,0.0,7.017978145613154e-11,3.008476866562798e-11,1.2480425749887223e-11,5.729306758096511e-12,2.9593744940206493e-12,1.4198427548343685e-12,7.994902849392795e-13,4.566229017650365e-13,2.6405521395458605e-13,1.615149545833403e-13,1.1204117285406869e-13,6.565904634922475e-14,4.342910390405759e-14,2.5883073822097832e-14,1.5020780764492752e-14,9.026678765971403e-15,5.960116041014289e-15,7.750380427110335e-09,6.395325703545712e-09,4.436074125484143e-09,3.1348241929408074e-09,2.0238790937873967e-09,1.2410626951137644e-09,7.421940804563446e-10,4.130090026238917e-10,2.52897285452149e-10,1.3497071455320726e-10,7.044843796224833e-11,3.7005205018405035e-11,1.7143798133944585e-11,8.25379710939654e-12,4.533642713073495e-12,2.0786858076793682e-12,1.1106881875737796e-12,5.554864074668517e-13,2.9697155587932124e-13,1.6594124712628195e-13,9.72648359749223e-14
0.0,50,50.0,0.0,30.0,0.0,0.0,0.0,0.0,-13.0,0.0,2.0,0.0,0.0,0.0,6.886365249718007e-11,3.083802020993548e-11,1.318595226555497e-11,6.176416344546112e-12,2.8252279337040687e-12,1.3368860913878189e-12,8.051804887585433e-13,4.4453019325750193e-13,2.6027780817053246e-13,1.5629982288403978e-13,1.0326190763982644e-13,6.231780559069828e-14,4.101282873261547e-14,2.607971286257562e-14,1.5139479377548253e-14,8.079482758423206e-15,3.558636697879823e-15,8.091465117830484e-09,6.4591929019945546e-09,4.527558504847643e-09,3.1584013530289445e-09,2.0024544671826064e-09,1.2249946133460148e-09,7.607147429269882e-10,4.5207742031685147e-10,2.629444205032578e-10,1.3768893581663717e-10,7.034173704411229e-11,3.55308217334878e-11,1.7149610859177653e-11,8.678557129516433e-12,4.24909284208301e-12,2.2089716690266103e-12,1.1137061299297833e-12,5.536612082158733e-13,3.1379673307879704e-13,1.6300345665417223e-13,8.711041624290862e-14
0.0,51,51.0,0.0,30.0,0.0,0.0,0.0,0.0,-13.0,0.0,2.0,0.0,0.0,0.0,6.508257468882869e-11,2.917776508859204e-11,1.2005818100940151e-11,5.994234445124765e-12,2.7413143574547397e-12,1.3982407828140557e-12,7.406419302091339e-13,4.4747555015201795e-13,2.553996118713807e-13,1.5081066004776183e-13,1.0140242121523e-13,6.39720884041206e-14,3.8806522625876666e-14,2.4116888523397912e-14,1.5591671267942938e-14,8.734695157324425e-15,5.809304635210515e-15,8.011383693300156e-09,6.387147183233114e-09,4.725727139841752e-09,3.2388587647895875e-09,2.0664403897352567e-09,1.2354351234652275e-09,7.637422907324294e-10,4.5406615636070223e-10,2.330749654681615e-10,1.3211142039288216e-10,6.663117705969164e-11,3.394948006111324e-11,1.6451685410199902e-11,8.582698360492837e-12,4.1543414364658375e-12,2.046036114426793e-12,1.0720170839684271e-12,5.51141713411649e-13,2.986953396770673e-13,1.9569884552219463e-13,9.658259527513802e-14
0.0,52,52.0,0.0,30.0,0.0,0.0,0.0,0.0,-13.0,0.0,2.0,0.0,0.0,0.0,6.291817501929659e-11,2.815734851102925e-11,1.198805004681277e-11,5.528026835996099e-12,2.686898394355657e-12,1.3629684451194152e-12,7.221985790128161e-13,4.073691359644775e-13,2.4445764334461547e-13,1.535085241132423e-13,9.815149919210322e-14,6.231450890179147e-14,3.650653213566218e-14,2.233785338180699e-14,1.5155503365888775e-14,8.462433650738601e-15,6.047599025355845e-15,8.029742791679239e-09,6.346448211343551e-09,4.835454727358317e-09,3.1057979248845706e-09,2.0027681630158444e-09,1.245050350441216e-09,7.403399612816004e-10,4.134338533169654e-10,2.3134634153905903e-10,1.326688857403654e-10,6.660026016876443e-11,3.1486711995467045e-11,1.7605920830874954e-11,7.913799922524763e-12,4.160168685918358e-12,2.0881269222315325e-12,9.893090108633672e-13,5.335408838760181e-13,2.808312374882584e-13,1.8414000037807335e-13,9.976886222094131e-14
0.0,53,53.0,0.0,30.0,0.0,0.0,0.0,0.0,-13.0,0.0,2.0,0.0,0.0,0.0,6.260288793430247e-11,2.5922551465043595e-11,1.1829851024094945e-11,5.394342442658723e-12,2.5627576765604586e-12,1.3248486604728477e-12,7.129219200395529e-13,4.1876741851033887e-13,2.4118886880464457e-13,1.4612174728442218e-13,9.183013795942622e-14,5.994180464950866e-14,3.8328960403490776e-14,2.5132059163610923e-14,1.4086218312308178e-14,9.043996855901364e-15,4.020647293435539e-15,7.82621255599708e-09,6.291846659786979e-09,4.4803524951665795e-09,3.125291065131038e-09,1.9821027719699767e-09,1.2699393003194839e-09,7.192927205794862e-10,4.073603709769132e-10,2.483112345888505e-10,1.2323015110707562e-10,6.72559035323562e-11,3.4252311602597064e-11,1.5756462535049962e-11,8.524439151710198e-12,4.018272827323187e-12,1.991603059277447e-12,9.959533464713623e-13,5.071314850930411e-13,2.983040062441477e-13,1.6531913264535906e-13,1.0501885129337158e-13
0.0,54,54.0,0.0,30.0,0.0,0.0,0.0,0.0,-13.0,0.0,2.0,0.0,0.0,0.0,6.55923933801077e-11,2.7950244461438077e-11,1.2719980032669725e-11,5.472378966475987e-12,2.4583320422208474e-12,1.1854881239952566e-12,6.952532613883801e-13,3.7552936456791013e-13,2.296339337658732e-13,1.3758305811753038e-13,9.380798593090866e-14,5.789869784728211e-14,3.895178218168148e-14,2.3602767592509354e-14,1.2640412697236157e-14,7.890793585332628e-15,4.96931162480875e-15,8.080298491898761e-09,6.2703774854952635e-09,4.775097772018293e-09,3.2734628897833414e-09,2.0074177999321296e-09,1.1579862479070086e-09,7.198586464017807e-10,4.077487236294956e-10,2.1682205112742124e-10,1.2496143883318255e-10,6.368067016004164e-11,3.15905854444112e-11,1.7323763724143556e-11,7.673616698761029e-12,3.716640249085897e-12,1.9060553763752433e-12,1.0072622864963254e-12,5.150133814292344e-13,2.9429319190735015e-13,1.5718681424023838e-13,8.760508298765537e-14
0.0,55,55.0,0.0,30.0,0.0,0.0,0.0,0.0,-13.0,0.0,2.0,0.0,0.0,0.0,5.827126131681745e-11,2.728699895023579e-11,1.1761483931593508e-11,5.340252107281558e-12,2.5698277402989636e-12,1.1817827291180242e-12,6.289607698995768e-13,3.870475091864105e-13,2.3392703676082426e-13,1.3124139286446504e-13,9.139119319654893e-14,5.675498227685323e-14,3.6231847673187646e-14,2.3771702990604022e-14,1.3209910702494531e-14,7.752893584332004e-15,3.8367351961617e-15,7.851342479532804e-09,6.557957320556756e-09,4.700912649402971e-09,3.3489510980313433e-09,2.1394698049729244e-09,1.196020839042966e-09,7.281180224758184e-10,4.309621894135789e-10,2.2748091381816124e-10,1.2090732005802135e-10,6.37962886229593e-11,3.249208902370384e-11,1.6614390199555726e-11,8.170254137422545e-12,3.794940097730385e-12,1.8743785687164936e-12,9.328366166682133e-13,4.578924855415769e-13,2.754609838827672e-13,1.698182108381079e-13,1.0379825860565656e-13
0.0,56,56.0,0.0,30.0,0.0,0.0,0.0,0.0,-13.0,0.0,2.0,0.0,0.0,0.0,5.943769514921976e-11,2.653696920941279e-11,1.1518666462674018e-11,4.9878717023309695e-12,2.5294778284044086e-12,1.1950529413586406e-12,6.304638533805252e-13,3.7240827553909693e-13,2.3115748762053755e-13,1.3549242256191548e-13,8.64122767763053e-14,5.664364191908865e-14,3.6069459985729153e-14,2.3446615286113228e-14,1.490668220768501e-14,7.459912364694094e-15,6.059345871006516e-15,8.184439435780647e-09,6.220399642685602e-09,4.722068532380995e-09,3.1997113188839075e-09,2.1380657431971266e-09,1.1974169776832807e-09,7.552218595139424e-10,4.0436104831924014e-10,2.1583650011866797e-10,1.1900193084156287e-10,6.134109395302058e-11,3.2627612910440153e-11,1.5601854289171667e-11,7.592470719121682e-12,3.77742932329504e-12,1.843712682682646e-12,9.694749201647764e-13,5.028757316685773e-13,2.747924585566827e-13,1.3148699108454402e-13,7.615178386224432e-14
0.0,57,57.0,0.0,30.0,0.0,0.0,0.0,0.0,-13.0,0.0,2.0,0.0,0.0,0.0,5.8190368570638624e-11,2.588444833743289e-11,1.0520357275818784e-11,5.117445290778911e-12,2.5622424254222135e-12,1.1887787186859363e-12,6.509501822745054e-13,3.719284081167212e-13,2.1645393991845998e-13,1.3303954123507495e-13,8.157152642727804e-14,5.4883898738406814e-14,3.540715462040199e-14,2.0974109392681702e-14,1.4802657516581536e-14,7.320308062779754e-15,3.893011922232432e-15,8.046351975013803e-09,6.3129117728173545e-09,4.65098870083468e-09,3.130618119896482e-09,1.9005048489940906e-09,1.2037285319102454e-09,6.961943769870205e-10,4.011040073332676e-10,2.1932826399811965e-10,1.2379642699298343e-10,6.12700393073832e-11,3.159094436989967e-11,1.5917022387424207e-11,7.226466675363701e-12,3.6091425955183225e-12,1.8066495901463654e-12,9.507478477738047e-13,4.830236208430982e-13,2.414216444712785e-13,1.4418615480054628e-13,9.732834906579698e-14
0.0,58,58.0,0.0,30.0,0.0,0.0,0.0,0.0,-13.0,0.0,2.0,0.0,0.0,0.0,5.7227065625660084e-11,2.5047468807391088e-11,1.0989872634656693e-11,5.14167327621906e-12,2.294457323347803e-12,1.1406155796281592e-12,6.44154658071479e-13,3.3376736443403667e-13,2.1420418294220678e-13,1.305418545965472e-13,8.858883436866626e-14,5.610353015372434e-14,3.649969490117585e-14,2.3359410969484806e-14,1.2960818230100077e-14,8.14283549562009e-15,4.462968955837883e-15,7.975010719321758e-09,6.381687099670967e-09,4.668010500140338e-09,3.111724551800684e-09,1.9220727821885666e-09,1.1593209333174402e-09,7.080593405268735e-10,3.8525477900829656e-10,2.0837291022632436e-10,1.1845219578431135e-10,5.994847365260633e-11,3.0019086092054926e-11,1.5002603730567704e-11,7.249131415004475e-12,3.717165109546758e-12,1.7056499857616635e-12,7.938884987922326e-13,4.343990654533635e-13,2.455047705141439e-13,1.438468078699767e-13,1.0525441031393334e-13
0.0,59,59.0,0.0,30.0,0.0,0.0,0.0,0.0,-13.0,0.0,2.0,0.0,0.0,0.0,5.6997174683334305e-11,2.3886547424329215e-11,1.0565456264291359e-11,4.986471544298243e-12,2.1923374566108885e-12,1.133373307009529e-12,5.949798900949402e-13,3.399533221670868e-13,2.0803310292723363e-13,1.2241052184218846e-13,8.150101214139105e-14,5.4057228347957665e-14,3.492466275799309e-14,2.212907963514139e-14,1.1225170658979335e-14,6.990061461675495e-15,3.934966970450602e-15,7.955785390015104e-09,6.315591768361537e-09,4.777467323545542e-09,3.1745099699656266e-09,2.002551987373248e-09,1.117860917706079e-09,6.794023144728728e-10,3.885525694650013e-10,1.9880190219600233e-10,1.1297338501712994e-10,5.7606050181506306e-11,3.0574281093973954e-11,1.5649620725729595e-11,7.007623096280035e-12,3.660950907380974e-12,1.7971911821650217e-12,8.967642514591391e-13,4.467209727639905e-13,2.364698972816994e-13,1.26114894103554e-13,8.446400206031932e-14
0.0,60,60.0,0.0,30.0,0.0,0.0,0.0,0.0,-13.0,0.0,2.0,0.0,0.0,0.0,5.414515224489532e-11,2.3819042387436036e-11,1.0634550385360654e-11,4.755284720698387e-12,2.2312532465052997e-12,1.0503017331439482e-12,5.853118764768026e-13,3.62292375445782e-13,2.0797509641850216e-13,1.2366982979489297e-13,7.74301075269999e-14,5.2555385176250525e-14,3.381913445498709e-14,2.298127901185974e-14,1.1648908099190951e-14,8.203981081028153e-15,4.072083364828889e-15,7.657608641994321e-09,6.141075154786438e-09,4.74929974190471e-09,3.105184112943851e-09,2.019923138653743e-09,1.1409366381894058e-09,6.974956846529519e-10,3.8600455829796345e-10,2.1071668421619275e-10,1.0808301139936212e-10,5.987910606537091e-11,2.7379923913538105e-11,1.4913600652311355e-11,6.728069181305837e-12,3.4354989645296083e-12,1.6497274299599066e-12,8.561842148874351e-13,4.4653958653054624e-13,2.495688947688814e-13,1.1706594875713375e-13,8.369540052871659e-14
0.0,61,61.0,0.0,30.0,0.0,0.0,0.0,0.0,-13.0,0.0,2.0,0.0,0.0,0.0,5.3050054993379065e-11,2.290253451706832e-11,9.83357977691829e-12,4.5395049626298595e-12,2.1576385731517494e-12,1.0684739310927038e-12,5.889873120360925e-13,3.373452013017606e-13,1.964290893782447e-13,1.1974179503882694e-13,7.929479244315721e-14,5.168005662402207e-14,3.148706340490392e-14,1.9688703256272802e-14,1.3336223023861961e-14,6.607538293143161e-15,4.537140774875664e-15,7.973012004912963e-09,6.321553412996266e-09,4.874516440841108e-09,3.0612604069388806e-09,1.914283693539734e-09,1.1681570925440743e-09,7.046820073580796e-10,3.9251366347247665e-10,2.1049720539235136e-10,1.1259311797581673e-10,5.657316970571845e-11,2.7188628843122847e-11,1.437431456689203e-11,6.958938945337755e-12,3.3492760655815105e-12,1.6134403951128328e-12,8.995874751388949e-13,4.056307518070042e-13,2.307761026917283e-13,1.398284538104514e-13,6.595872532712097e-14
0.0,62,62.0,0.0,30.0,0.0,0.0,0.0,0.0,-13.0,0.0,2.0,0.0,0.0,0.0,5.2237530569382816e-11,2.3237633538129446e-11,9.836631898264991e-12,4.4222252804265935e-12,2.235694549483721e-12,1.0703457159155329e-12,5.389481279143051e-13,3.1955223782323846e-13,2.0387780488277746e-13,1.1302219933410103e-13,8.081717149173814e-14,5.094523896593311e-14,3.1644153374201347e-14,1.867143682331082e-14,1.2010176777000393e-14,7.131577256291728e-15,4.694832491916349e-15,8.253265526569173e-09,6.405381119254519e-09,4.878029294727586e-09,3.0459800953688725e-09,1.924408714783972e-09,1.1652433946660952e-09,6.567734799437703e-10,3.559781703525441e-10,2.1077322383645937e-10,1.0662146871367671e-10,5.646938928153501e-11,2.773528736061141e-11,1.3656737470119456e-11,6.6619915691071795e-12,3.242904405241609e-12,1.552242070060963e-12,8.231181648164928e-13,4.0147369882026624e-13,2.4714629287437615e-13,1.1941219343056818e-13,9.367105437344736e-14
0.0,63,63.0,0.0,30.0,0.0,0.0,0.0,0.0,-13.0,0.0,2.0,0.0,0.0,0.0,4.9724113473989025e-11,2.251105086427912e-11,1.0038455079499204e-11,4.579713982523415e-12,2.068479053623513e-12,1.0058932981869552e-12,5.506565872078292e-13,3.1284597566138293e-13,1.821484582392232e-13,1.1657222419578208e-13,7.318603611980903e-14,4.925885096673401e-14,3.02996587637562e-14,2.0477611847504127e-14,1.104541737071531e-14,8.369384557821775e-15,3.9424938500701644e-15,7.989362613483194e-09,6.477671032991246e-09,4.825794723451049e-09,3.182702358696517e-09,1.9200246764156042e-09,1.10761748908987e-09,6.518224194567516e-10,3.664896690827797e-10,2.026774647317642e-10,1.0957226658335563e-10,5.224736829776107e-11,2.8004302792880698e-11,1.2878894831967468e-11,6.535073413948293e-12,3.190505853006763e-12,1.5018326120637264e-12,7.984695734141939e-13,4.008337354906882e-13,2.3452973951678226e-13,1.271612680745522e-13,8.040407803811176e-14
