Line_number,Fiducial,Easting,Northing,Height,Elevation,tx_pitch,tx_roll,tx_yaw,txrx_dx,txrx_dy,txrx_dz,rx_pitch,rx_roll,rx_yaw,S0Z_time_7.292e-05,S0Z_time_7.642e-05,S0Z_time_8.092e-05,S0Z_time_8.642e-05,S0Z_time_9.341e-05,S0Z_time_1.024e-04,S0Z_time_1.139e-04,S0Z_time_1.284e-04,S0Z_time_1.464e-04,S0Z_time_1.689e-04,S0Z_time_1.969e-04,S0Z_time_2.324e-04,S0Z_time_2.779e-04,S0Z_time_3.349e-04,S0Z_time_4.069e-04,S0Z_time_4.979e-04,S0Z_time_6.119e-04,S0Z_time_7.559e-04,S0Z_time_9.373e-04,S0Z_time_1.166e-03,S0Z_time_1.454e-03,S0Z_time_1.818e-03,S0Z_time_2.276e-03,S0Z_time_2.855e-03,S0Z_time_3.574e-03,S0Z_time_4.454e-03,S0Z_time_5.530e-03,S0Z_time_6.849e-03,S0Z_time_8.463e-03,S0Z_time_1.044e-02,S1Z_time_1.273e-05,S1Z_time_1.623e-05,S1Z_time_2.073e-05,S1Z_time_2.623e-05,S1Z_time_3.323e-05,S1Z_time_4.222e-05,S1Z_time_5.373e-05,S1Z_time_6.822e-05,S1Z_time_8.622e-05,S1Z_time_1.087e-04,S1Z_time_1.367e-04,S1Z_time_1.722e-04,S1Z_time_2.177e-04,S1Z_time_2.747e-04,S1Z_time_3.467e-04,S1Z_time_4.377e-04,S1Z_time_5.517e-04,S1Z_time_6.957e-04,S1Z_time_8.772e-04,S1Z_time_1.106e-03,S1Z_time_1.394e-03
0.0,0,0.0,0.0,30.0,0.0,0.0,0.0,0.0,-13.0,0.0,2.0,0.0,0.0,0.0,2.676848041658805e-10,2.443026720442281e-10,2.0841800009020298e-10,1.7248242613999696e-10,1.42732235736925e-10,1.1227926121648232e-10,8.616629722717334e-11,6.422661402970531e-11,4.777494887728176e-11,3.596664557525975e-11,2.6845964788671264e-11,2.0677220881775074e-11,1.6015856622017644e-11,1.255539727486569e-11,1.0025890142983005e-11,7.93569014015838e-12,6.2734019084401945e-12,4.917716738082711e-12,3.805232705424784e-12,2.9182191082054596e-12,2.1950838599226415e-12,1.620509295670504e-12,1.1701762848172247e-12,8.274178517886119e-13,5.723490841717059e-13,3.889301139926645e-13,2.595670523038567e-13,1.699903354460162e-13,1.0904551519442054e-13,6.888314830605835e-14,7.28315639351437e-09,3.897974497686498e-09,2.0538049578591278e-09,1.123155683820311e-09,6.40172932728567e-10,3.77608821142439e-10,2.317700688516964e-10,1.4307393526419767e-10,8.787681935534046e-11,5.3230902085781057e-11,3.249726801251556e-11,2.0212738711139798e-11,1.2987144876659181e-11,8.716269836442956e-12,6.003518003568753e-12,4.191018230986424e-12,2.9277041989591747e-12,2.03174937146532e-12,1.3916531208543758e-12,9.423164890248077e-13,6.256162244355293e-13
0.0,1,1.0,0.0,30.0,0.0,0.0,0.0,0.0,-13.0,0.0,2.0,0.0,0.0,0.0,2.7764731671252205e-10,2.5496978843672366e-10,2.1978739478069904e-10,1.8438058217213887e-10,1.5468020744112368e-10,1.2369991349717108e-10,9.627584258949941e-11,7.246152475604569e-11,5.379601937842388e-11,3.986279267967774e-11,2.8954905637084797e-11,2.1518358963408864e-11,1.607324247091583e-11,1.2234439690512781e-11,9.566969217250024e-12,7.468840006285482e-12,5.8526086417668255e-12,4.563334926467598e-12,3.5192266826509023e-12,2.694528947001231e-12,2.025953559979949e-12,1.4960528817439612e-12,1.081513586976293e-12,7.66028449161836e-13,5.310497391622085e-13,3.617273230855604e-13,2.4207618585763934e-13,1.5898949894795518e-13,1.0229495428016374e-13,6.484293358388773e-14,7.264154065914566e-09,3.880045388809066e-09,2.04178049970774e-09,1.1175089057396727e-09,6.403768406638221e-10,3.8342314506390116e-10,2.4195528844549293e-10,1.5507246477709944e-10,9.884248693839137e-11,6.141757458830011e-11,3.760502348167016e-11,2.284783512691808e-11,1.4049794224868537e-11,8.98442332523692e-12,5.946773154025225e-12,4.04038355002714e-12,2.771895364099861e-12,1.902074536154024e-12,1.2933349602918213e-12,8.711850948543477e-13,5.775079625731232e-13
0.0,2,2.0,0.0,30.0,0.0,0.0,0.0,0.0,-13.0,0.0,2.0,0.0,0.0,0.0,2.8399602346874256e-10,2.6195031277843877e-10,2.2747916382862468e-10,1.9280153206701337e-10,1.6358927063859492e-10,1.3273738945467118e-10,1.0491251385312597e-10,8.011720459008566e-11,5.996443134403676e-11,4.4333757340045543e-11,3.1778888181447964e-11,2.300068050451437e-11,1.6604153370282893e-11,1.2221585955571383e-11,9.297808548263424e-12,7.120076306551373e-12,5.509349053076988e-12,4.263335704030288e-12,3.271851051510463e-12,2.4987836949457723e-12,1.8765772450691712e-12,1.385347620150684e-12,1.002183898934073e-12,7.107615699964617e-13,4.936758843160856e-13,3.3697253093773e-13,2.2608529987591653e-13,1.488780836546797e-13,9.606537520465735e-14,6.111357208477959e-14,7.244458960680911e-09,3.861756216347603e-09,2.0297423364377832e-09,1.1116525851599466e-09,6.391697857473481e-10,3.860428089019344e-10,2.4791893413856157e-10,1.6332251849277375e-10,1.0754914418594545e-10,6.887404738733422e-11,4.2936533998046185e-11,2.604128745614034e-11,1.561637347023895e-11,9.579862029371916e-12,6.069804108443208e-12,3.980728799326371e-12,2.6642030949727756e-12,1.8002417434810082e-12,1.211724873833543e-12,8.103158498778528e-13,5.363538665974971e-13
0.0,3,3.0,0.0,30.0,0.0,0.0,0.0,0.0,-13.0,0.0,2.0,0.0,0.0,0.0,2.8814850229947196e-10,2.665815616399208e-10,2.3267380286596483e-10,1.986430073001875e-10,1.6999344127099397e-10,1.3953321265435226e-10,1.1182184368344226e-10,8.668731623566082e-11,6.570105749881907e-11,4.888211458830207e-11,3.498293579341257e-11,2.495220003832697e-11,1.7550750863999003e-11,1.2510731643982703e-11,9.224357882884552e-12,6.891009794932728e-12,5.240966213173505e-12,4.013091334383328e-12,3.0589212074089848e-12,2.3277044035165564e-12,1.7445403448705148e-12,1.2867634058308513e-12,9.310929526269828e-13,6.609364663688964e-13,4.598089548902439e-13,3.144166853889203e-13,2.114503091073119e-13,1.3957537223648358e-13,9.031350485896196e-14,5.766999511957723e-14,7.224055085392742e-09,3.8431112564168966e-09,2.0176962938297573e-09,1.105909365139174e-09,6.376637826055958e-10,3.8729771608760354e-10,2.514026086210449e-10,1.6873541385502898e-10,1.1400468847525413e-10,7.511599372312808e-11,4.7962361352111136e-11,2.944500232081921e-11,1.7537323241578564e-11,1.0469365096815431e-11,6.377531777408314e-12,4.0192494081475415e-12,2.6069072862719667e-12,1.7253101854663946e-12,1.1453937716449334e-12,7.586733865627763e-13,5.011186058570443e-13
0.0,4,4.0,0.0,30.0,0.0,0.0,0.0,0.0,-13.0,0.0,2.0,0.0,0.0,0.0,2.9108767058764615e-10,2.6985425203523774e-10,2.36337084080661e-10,2.0277389151668308e-10,1.7458394329233187e-10,1.4453442997471325e-10,1.1713979633764433e-10,9.203794443944822e-11,7.069916469486889e-11,5.315432157939434e-11,3.826611255369845e-11,2.7174674829117522e-11,1.8815058032715633e-11,1.3069226147223178e-11,9.342509624667682e-12,6.783212811809512e-12,5.047158720070374e-12,3.809877629327494e-12,2.8773732662457777e-12,2.178616401637931e-12,1.6278450282550233e-12,1.1989142646951043e-12,8.672958981934967e-13,6.15961104826773e-13,4.2908001949541674e-13,2.938395238003927e-13,1.9804214588436037e-13,1.3100897680163293e-13,8.499962873639495e-14,5.4481567885182684e-14,7.202917297324108e-09,3.824119557900585e-09,2.0056409645257275e-09,1.1003233119747788e-09,6.362322476786508e-10,3.8810811581103596e-10,2.5361317734372884e-10,1.7226269697739122e-10,1.1859103176305466e-10,8.003837685344402e-11,5.2368068005914146e-11,3.2765339758524626e-11,1.963766269083614e-11,1.1583943891407631e-11,6.8559799175687326e-12,4.15887122560406e-12,2.6030570982524327e-12,1.6776187679944404e-12,1.0936344125604748e-12,7.155631977063918e-13,4.708654872150505e-13
0.0,5,5.0,0.0,30.0,0.0,0.0,0.0,0.0,-13.0,0.0,2.0,0.0,0.0,0.0,2.9342093431573535e-10,2.724118155519151e-10,2.391420357901119e-10,2.0586784136655495e-10,1.779797925571233e-10,1.482430021135848e-10,1.2117355157730025e-10,9.626222382142926e-11,7.486708076075984e-11,5.6951581943611165e-11,4.1406121940848275e-11,2.9487286369761415e-11,2.028409090810053e-11,1.3844155558139295e-11,9.635387444630246e-12,6.794368393963691e-12,4.928032647852637e-12,3.652395650984961e-12,2.725150378954294e-12,2.049404846629442e-12,1.5248476045090263e-12,1.1206196277900765e-12,8.099807870116277e-13,5.753196200883446e-13,4.0116341807366543e-13,2.7504608848145594e-13,1.8574508550822442e-13,1.2311397219782802e-13,8.008719626475605e-14,5.151577612622483e-14,7.181019698009269e-09,3.804785080816923e-09,1.993587172147644e-09,1.0948921286085022e-09,6.349693491286424e-10,3.888717864885402e-10,2.552690850981154e-10,1.7466572399892274e-10,1.2179752639724503e-10,8.376514453578132e-11,5.602957806110949e-11,3.5801948235863626e-11,2.1758151316870245e-11,1.2838134208530395e-11,7.474487793539809e-12,4.394957532235733e-12,2.6542621131018753e-12,1.6581304356123665e-12,1.0563498315186133e-12,6.805630930345927e-13,4.448765093808233e-13
0.0,6,6.0,0.0,30.0,0.0,0.0,0.0,0.0,-13.0,0.0,2.0,0.0,0.0,0.0,2.9549339311799713e-10,2.7463562502916395e-10,2.415115540502858e-10,2.0838540885550413e-10,1.806504661613299e-10,1.5109437218180803e-10,1.2426188021139978e-10,9.955884282403198e-11,7.825055736632386e-11,6.020031741055775e-11,4.4266120922408846e-11,3.174915678256714e-11,2.1850816704958696e-11,1.477324690719812e-11,1.0075616276230825e-11,6.916571793452883e-12,4.8823479946502184e-12,3.5399825893297553e-12,2.600991622607739e-12,1.938482633229206e-12,1.4342140622323381e-12,1.0508743178410743e-12,7.584520997327031e-13,5.385619152787034e-13,3.7577184436750247e-13,2.578635565995591e-13,1.744552347409697e-13,1.1583206246698348e-13,7.554250483392678e-14,4.87432673747093e-14,7.15833880167338e-09,3.785108762479878e-09,1.9815482700944326e-09,1.089617636799817e-09,6.338873845210753e-10,3.8973360325642656e-10,2.567489512893275e-10,1.7646999068298291e-10,1.2407588639299769e-10,8.652350163434796e-11,5.895640565000365e-11,3.8447188250544896e-11,2.3776600671317968e-11,1.4147894160092334e-11,8.192717112446426e-12,4.715291582574672e-12,2.759208960738055e-12,1.6675732284286784e-12,1.033801324884064e-12,6.534706553813975e-13,4.2270351803100836e-13
0.0,7,7.0,0.0,30.0,0.0,0.0,0.0,0.0,-13.0,0.0,2.0,0.0,0.0,0.0,2.9748773145707704e-10,2.7673559868919657e-10,2.436910298973381e-10,2.106145123437109e-10,1.8291638237608787e-10,1.534183848957563e-10,1.2670385157580965e-10,1.0215154559812261e-10,8.096616921044073e-11,6.291225806802564e-11,4.6782026935105315e-11,3.386488088442423e-11,2.3426380480212607e-11,1.579475181507082e-11,1.0629883990859143e-11,7.136722506561944e-12,4.906537630515405e-12,3.4718062166363625e-12,2.5041158290506995e-12,1.8447234718681228e-12,1.3548886396456069e-12,9.888285700651739e-13,7.121147761811047e-13,5.052947226854596e-13,3.5265233348301667e-13,2.42138507862242e-13,1.6407922160697392e-13,1.0911081164783509e-13,7.133438308486313e-14,4.6141135930586435e-14,7.13485349016806e-09,3.765091906547469e-09,1.9695359431281708e-09,1.0845077044678086e-09,6.329844037990242e-10,3.9073447656133436e-10,2.5823006276582335e-10,1.7800109850126006e-10,1.257821435264924e-10,8.856085897961265e-11,6.123553844671798e-11,4.066752213426024e-11,2.5613060898763532e-11,1.544199484269396e-11,8.968111113845116e-12,5.102246288160682e-12,2.9133060201164686e-12,1.7057482788558034e-12,1.0262848280880176e-12,6.342322369821418e-13,4.0414326234842824e-13
0.0,8,8.0,0.0,30.0,0.0,0.0,0.0,0.0,-13.0,0.0,2.0,0.0,0.0,0.0,2.994945154975799e-10,2.788198266644694e-10,2.458133749269534e-10,2.1272247418394316e-10,1.8497945598198823e-10,1.5544290584781812e-10,1.2873297492976068e-10,1.0424470458338697e-10,8.315426961691963e-11,6.514836357764146e-11,4.8943301219348046e-11,3.5780308607334276e-11,2.494468704151988e-11,1.6854062731621552e-11,1.1263535813238253e-11,7.438133069551854e-12,4.99457247300779e-12,3.446289856636867e-12,2.4338755545310332e-12,1.7673476323832453e-12,1.2860611799884241e-12,9.337750411477646e-13,6.704606160309478e-13,4.751739523483361e-13,3.3158258562214205e-13,2.2773461703571066e-13,1.5453310668118885e-13,1.0290294706434501e-13,6.74339324994286e-14,4.369350406350155e-14,7.110544278724161e-09,3.744737721695103e-09,1.9575605792399783e-09,1.0795718480748813e-09,6.322606073576053e-10,3.918805741045761e-10,2.5978478498856037e-10,1.7944281699238688e-10,1.2716898750268193e-10,9.009940284748443e-11,6.298788087573801e-11,4.2480489273636564e-11,2.7225736789172113e-11,1.6666981932198233e-11,9.761499684988627e-12,5.535660903133658e-12,3.109234065718671e-12,1.7711994914714121e-12,1.0338412215294855e-12,6.228495219146472e-13,3.891679710602798e-13
0.0,9,9.0,0.0,30.0,0.0,0.0,0.0,0.0,-13.0,0.0,2.0,0.0,0.0,0.0,3.0155585992325424e-10,2.8094049452692253e-10,2.479460584065368e-10,2.1480035445214065e-10,1.869586081404387e-10,1.573143715578742e-10,1.305167035860376e-10,1.060044422379116e-10,8.495038486594045e-11,6.699140159356572e-11,5.077407463624988e-11,3.7474155560596304e-11,2.636200767308556e-11,1.7907042898980453e-11,1.1944072937295375e-11,7.802471828655301e-12,5.138426467190387e-12,3.4608569438048212e-12,2.3894670335625066e-12,1.7057796918221656e-12,1.2271237237186385e-12,8.851373429589497e-13,6.330578191286357e-13,4.4789846820389314e-13,3.1236740316715403e-13,2.145306708347726e-13,1.4574148610545588e-13,9.716573006941123e-14,6.381439928704902e-14,4.139015417036851e-14,7.085392822761387e-09,3.7240514915684796e-09,1.9456325590499784e-09,1.0748190710870477e-09,6.317192086497515e-10,3.9317024069117473e-10,2.614372886826666e-10,1.808896922584418e-10,1.2840153031570365e-10,9.131736851955467e-11,6.433912614519861e-11,4.3933829325355995e-11,2.8602968003550357e-11,1.778765061979705e-11,1.054034254993139e-11,5.995410145771736e-12,3.3379496146606237e-12,1.8612386709514553e-12,1.0560717581471587e-12,6.19282962994709e-13,3.778445693407845e-13
0.0,10,10.0,0.0,30.0,0.0,0.0,0.0,0.0,-13.0,0.0,2.0,0.0,0.0,0.0,3.036902163170044e-10,2.831212616309083e-10,2.5012120481461704e-10,2.1689466958902098e-10,1.8891965524232594e-10,1.5912118668268836e-10,1.3216732557477177e-10,1.0755531677907096e-10,8.647078076511358e-11,6.852756733337989e-11,5.2317529958921315e-11,3.8948762469639975e-11,2.7653966964923582e-11,1.8920909734687844e-11,1.2643307690516703e-11,8.21148085857817e-12,5.328821223728947e-12,3.5119550107029698e-12,2.3697462159576936e-12,1.6595089537105235e-12,1.1776163171180878e-12,8.424556449679859e-13,5.995429030223016e-13,4.232053133141084e-13,2.948353288558308e-13,2.0241881635605856e-13,1.3763672643749714e-13,9.186039146335146e-14,6.045117807406225e-14,3.9224447596533654e-14,7.059381737416492e-09,3.7030402709380404e-09,1.9337630497927378e-09,1.070257627076218e-09,6.313646041238645e-10,3.9460208618262017e-10,2.6319274327048453e-10,1.823854676061864e-10,1.295799955087239e-10,9.234658050835077e-11,6.540298674215613e-11,4.5089166474379964e-11,2.9754442807824863e-11,1.8785000188890867e-11,1.1280006841915887e-11,6.463236347605881e-12,3.589747795026973e-12,1.9722105687388236e-12,1.092076400472614e-12,6.233744094923929e-13,3.7026328252631187e-13
0.0,11,11.0,0.0,30.0,0.0,0.0,0.0,0.0,-13.0,0.0,2.0,0.0,0.0,0.0,3.0590539371452653e-10,2.8537230899046775e-10,2.5235319692622295e-10,2.1902772520039326e-10,1.9089687524567393e-10,1.609137111091437e-10,1.337559063260786e-10,1.0898499756896985e-10,8.780755905441587e-11,6.98357195447584e-11,5.362434536684815e-11,4.022169368419156e-11,2.8811500565379463e-11,1.9873590096127095e-11,1.3338370177866738e-11,8.648236583016055e-12,5.555999041332619e-12,3.595260964399397e-12,2.373158078374004e-12,1.6279773946939274e-12,1.1371686958492872e-12,8.0536769431931e-13,5.696135384307223e-13,4.008661051566731e-13,2.7883567038160066e-13,1.913029998718077e-13,1.3015827436532703e-13,8.695163591210867e-14,5.732188310112292e-14,3.719144866064732e-14,7.032494601306233e-09,3.6817125857138506e-09,1.9219642352808475e-09,1.0658954293365514e-09,6.312011563521826e-10,3.9617619063900137e-10,2.6505045069852784e-10,1.8394761453037404e-10,1.3076092198258415e-10,9.327827493301756e-11,6.627356146059628e-11,4.601060114561312e-11,3.070324360909339e-11,1.9653082717365526e-11,1.1963713566064372e-11,6.923809810951898e-12,3.85515295021911e-12,2.0998638664176317e-12,1.1404940087413446e-12,6.348019918523051e-13,3.66484279612455e-13
0.0,12,12.0,0.0,30.0,0.0,0.0,0.0,0.0,-13.0,0.0,2.0,0.0,0.0,0.0,3.0820488955807596e-10,2.876980060989151e-10,2.546482049078738e-10,2.2120959353226097e-10,1.9290706495586378e-10,1.6271904798545806e-10,1.353250921701089e-10,1.1035195575312689e-10,8.902936308935013e-11,7.098227178914469e-11,5.47449773478646e-11,4.131889013076454e-11,2.983672175987362e-11,2.075226366660663e-11,1.4011891080722082e-11,9.097931926821945e-12,5.8103798297376794e-12,3.7059676318032104e-12,2.3977576360746304e-12,1.6105072540402938e-12,1.1054461932218806e-12,7.735862291128371e-13,5.430210655980265e-13,3.806841128805302e-13,2.6423602434189257e-13,1.8109759584774415e-13,1.23252006726598e-13,8.240722255740216e-14,5.440640375802385e-14,3.5286652583860616e-14,7.004716039535696e-09,3.6600782700611907e-09,1.9102492548542187e-09,1.0617404398176362e-09,6.312328090930634e-10,3.9789351283519973e-10,2.6700882087926524e-10,1.855814120025379e-10,1.3197368811506175e-10,9.41719285721391e-11,6.702368652308794e-11,4.6757622296114806e-11,3.147939098476853e-11,2.039561366854935e-11,1.2581713719631413e-11,7.36516352219666e-12,4.125550566601624e-12,2.239724755199415e-12,1.1996069989457846e-12,6.530689825248861e-13,3.6650348640243543e-13
0.0,13,13.0,0.0,30.0,0.0,0.0,0.0,0.0,-13.0,0.0,2.0,0.0,0.0,0.0,3.1059070839935714e-10,2.901005136883396e-10,2.570089664873399e-10,2.234446583325787e-10,1.9495799638333118e-10,1.6455097940431825e-10,1.3689919400983337e-10,1.1169333400629083e-10,9.018482373345024e-11,7.201984807846367e-11,5.5725115228954374e-11,4.2269549081663895e-11,3.073919554044536e-11,2.155157736247576e-11,1.4651662346717725e-11,9.548257881356129e-12,6.083046294213421e-12,3.83907682850354e-12,2.4412899713390634e-12,1.6062685822722789e-12,1.0821063081621518e-12,7.468752049505655e-13,5.195621321060209e-13,3.624915146928255e-13,2.5092028399972826e-13,1.717262361642493e-13,1.1686961035539799e-13,7.819762556109033e-14,5.168688364379523e-14,3.350532740392974e-14,6.976031832477943e-09,3.6381484231296282e-09,1.8986320679508573e-09,1.0578008704518933e-09,6.314631353022301e-10,3.997552370439859e-10,2.690667512008135e-10,1.8728725256534656e-10,1.3323199644109998e-10,9.506408668707123e-11,6.770669500356426e-11,4.738140224550443e-11,3.211504115285962e-11,2.102282300719945e-11,1.3130097229833028e-11,7.778690479178243e-12,4.393565321422799e-12,2.38741292982554e-12,1.2674736685913753e-12,6.775203808682783e-13,3.702352187333671e-13
0.0,14,14.0,0.0,30.0,0.0,0.0,0.0,0.0,-13.0,0.0,2.0,0.0,0.0,0.0,3.1306447809768565e-10,2.9258131664582974e-10,2.5943698828601944e-10,2.2573493005434108e-10,1.9705314893489834e-10,1.6641615091546402e-10,1.3849138406926118e-10,1.1303166129206419e-10,9.130688637224189e-11,7.298814996793878e-11,5.660350880213683e-11,4.3102612706871975e-11,3.1532847644504064e-11,2.2271830710522543e-11,1.5250006489408317e-11,9.989489263715808e-12,6.366057094163991e-12,3.989654808065969e-12,2.501298069276246e-12,1.6142795918821163e-12,1.0667690626507367e-12,7.250274681019487e-13,4.990695662259719e-13,3.461464751380236e-13,2.387870162819102e-13,1.6312083580204354e-13,1.1096799672244474e-13,7.429577118837513e-14,4.914760136238098e-14,3.184229793332759e-14,6.946429032428985e-09,3.6159354356595387e-09,1.887127344417288e-09,1.054085235540278e-09,6.318955047185351e-10,4.017624309930382e-10,2.712236992181677e-10,1.8906402886369543e-10,1.3454118218815203e-10,9.597579321600186e-11,6.835972862902241e-11,4.7923491497674766e-11,3.264122119275051e-11,2.1548780157252162e-11,1.3609494836119762e-11,8.158869349102053e-12,4.653231772053082e-12,2.5388760556796555e-12,1.342060342304947e-12,7.073775354706378e-13,3.7750816896248164e-13
0.0,15,15.0,0.0,30.0,0.0,0.0,0.0,0.0,-13.0,0.0,2.0,0.0,0.0,0.0,3.1562781430933594e-10,2.951417879906596e-10,2.619334525736203e-10,2.2808158503978284e-10,1.991941699704875e-10,1.6831766610485414e-10,1.4010846046364457e-10,1.1438000019929035e-10,9.241696668173241e-11,7.391589874546862e-11,5.741141206841238e-11,4.38446063407237e-11,3.2233572641578623e-11,2.2917306298550608e-11,1.5803014763882947e-11,1.0414371319550127e-11,6.652614124328664e-12,4.153030961752784e-12,2.5752347848724964e-12,1.6334296573512644e-12,1.0590012135613514e-12,7.078459151608175e-13,4.814030259815249e-13,3.3152988564166387e-13,2.277480555582875e-13,1.552207898846284e-13,1.0550876127207419e-13,7.067684084896473e-14,4.677476578009733e-14,3.029197183552829e-14,6.915896087136964e-09,3.5934530482840043e-09,1.8757504045908855e-09,1.0506023309129087e-09,6.325332286358981e-10,4.0391595807424953e-10,2.7347943942512313e-10,1.9091047784892202e-10,1.3590251439463175e-10,9.691822033728037e-11,6.90074143659849e-11,4.841604594180024e-11,3.3085854998675823e-11,2.1989277478577156e-11,1.4023829220922085e-11,8.502843048176121e-12,4.900014142337043e-12,2.690542250496085e-12,1.4213563215454266e-12,7.417811849313576e-13,3.8807122092753416e-13
0.0,16,16.0,0.0,30.0,0.0,0.0,0.0,0.0,-13.0,0.0,2.0,0.0,0.0,0.0,3.182823936457126e-10,2.9778334531118187e-10,2.644995298656046e-10,2.3048560150873568e-10,2.0138205041322067e-10,1.7025703699831382e-10,1.4175380384510094e-10,1.1574560026016763e-10,9.352844753387666e-11,7.482310566575923e-11,5.817301291661649e-11,4.451851877877345e-11,3.285750848724528e-11,2.3494836242075903e-11,1.6309759595452012e-11,1.0817884011462614e-11,6.937117830438948e-12,4.3249370518037734e-12,2.6605640403879565e-12,1.6625150060857055e-12,1.058312310094207e-12,6.951292684088889e-13,4.664401013266955e-13,3.185417967907707e-13,2.1772717774372223e-13,1.4797230077437266e-13,1.004576948067042e-13,6.731812475045457e-14,4.45562584195083e-14,2.8848455783172624e-14,6.884422972882316e-09,3.570716420469202e-09,1.864517200329416e-09,1.0473611937874312e-09,6.333796471073136e-10,4.06216518254382e-10,2.758338511680435e-10,1.9282557909854674e-10,1.3731553587927372e-10,9.789661547404237e-11,6.966524621648533e-11,4.888290285046355e-11,3.347278681582335e-11,2.2360267937667075e-11,1.437920262345762e-11,8.809936240853775e-12,5.1307259574462645e-12,2.8394021083914628e-12,1.5034638362310873e-12,7.798352810925591e-13,4.016058922296683e-13
0.0,17,17.0,0.0,30.0,0.0,0.0,0.0,0.0,-13.0,0.0,2.0,0.0,0.0,0.0,3.2102993778307703e-10,3.005074622201846e-10,2.6713644999982746e-10,2.329479760675758e-10,2.0361762639156197e-10,1.7223516341901723e-10,1.4342910208603369e-10,1.17132332878008e-10,9.464937940107936e-11,7.572323585233755e-11,5.890637385831585e-11,4.5143425340272867e-11,3.341989157364252e-11,2.4012640783340097e-11,1.677154757165486e-11,1.119694066683241e-11,7.215142623452321e-12,4.501593082875217e-12,2.7548438028058816e-12,1.700279024097557e-12,1.0641596009712924e-12,6.86662723703819e-13,4.540684659389407e-13,3.0709769427077886e-13,2.0865876467970365e-13,1.4132778843197267e-13,9.57843484793093e-14,6.419890928641763e-14,4.248136051279242e-14,2.7505675338684997e-14,6.852001337667643e-09,3.5477422003246335e-09,1.8534443202418713e-09,1.0443710689020193e-09,6.344381684229967e-10,4.086647278071217e-10,2.78286810268598e-10,1.9480858240649823e-10,1.387792266986959e-10,9.891289509128093e-11,7.034238081808814e-11,4.934101745179937e-11,3.382151601374703e-11,2.267680123646888e-11,1.4682963234147275e-11,9.081168034356843e-12,5.3433893746099645e-12,2.9830358784553206e-12,1.5866616060463746e-12,8.206465380337606e-13,4.177426446070141e-13
0.0,18,18.0,0.0,30.0,0.0,0.0,0.0,0.0,-13.0,0.0,2.0,0.0,0.0,0.0,3.238721857434888e-10,3.033156445844101e-10,2.6984549364434217e-10,2.354697683499377e-10,2.0590175680541388e-10,1.7425277791646684e-10,1.4513529256388925e-10,1.1854222474057835e-10,9.578443480038967e-11,7.662505534500202e-11,5.962455771850214e-11,4.573459480627004e-11,3.393438244302347e-11,2.4479439164946747e-11,1.7191252135989892e-11,1.1550061078620353e-11,7.483358950106168e-12,4.67974945028786e-12,2.8557886516185654e-12,1.7454515105957527e-12,1.0759586583823816e-12,6.822130756060387e-13,4.441794784665704e-13,2.9712482356309605e-13,2.0048642230918893e-13,1.352453419812885e-13,9.14616482872919e-14,6.130038256054325e-14,4.0540496447134965e-14,2.6257465778384617e-14,6.818624652715265e-09,3.524548591189875e-09,1.8425490048102371e-09,1.041641387596987e-09,6.357122803472985e-10,4.1126119319549596e-10,2.808381636933994e-10,1.968589322918469e-10,1.402925167139613e-10,9.996725029062446e-11,7.104378297017317e-11,4.980194505951811e-11,3.414739390793828e-11,2.2952376482819463e-11,1.494296325643519e-11,9.318795062733108e-12,5.537063231293245e-12,3.119601061870306e-12,1.6694443494032073e-12,8.6335701454459e-13,4.360787836324986e-13
0.0,19,19.0,0.0,30.0,0.0,0.0,0.0,0.0,-13.0,0.0,2.0,0.0,0.0,0.0,3.268108767150782e-10,3.062094097117194e-10,2.7262796973748557e-10,2.380520893956606e-10,2.0823536244402933e-10,1.7631061875172798e-10,1.4687303855163787e-10,1.1997637090005367e-10,9.693624806635683e-11,7.753409474560392e-11,6.033673625530839e-11,4.630387537044473e-11,3.441274862137631e-11,2.4903810267143525e-11,1.7572746071277997e-11,1.1877046601802876e-11,7.739422567096465e-12,4.856695452728233e-12,2.9613129163677213e-12,1.7967834585082918e-12,1.0930969708577383e-12,6.815275390954266e-13,4.3666340832984087e-13,2.88558764065417e-13,1.9316156113055852e-13,1.296881817701141e-13,8.746555122749564e-14,5.860554554096724e-14,3.872501446512002e-14,2.5097633599400972e-14,6.784288369841478e-09,3.5011554135212214e-09,1.8318491621371659e-09,1.039181757617179e-09,6.372055487143274e-10,4.140065644935316e-10,2.834877497246028e-10,1.989761943475557e-10,1.418544693706161e-10,1.0105908211993966e-10,7.177177867291175e-11,5.027318989146635e-11,3.4462084203310194e-11,2.3198620833615192e-11,1.5167002308755784e-11,9.525905567382764e-12,5.7116600268710445e-12,3.2477933969110364e-12,1.7505422820817986e-12,9.071688295463097e-13,4.561961617718249e-13
0.0,20,20.0,0.0,30.0,0.0,0.0,0.0,0.0,-13.0,0.0,2.0,0.0,0.0,0.0,3.298477450353845e-10,3.091902768091596e-10,2.7548519989407825e-10,2.406960812300521e-10,2.1061941694367659e-10,1.7840947783189754e-10,1.4864294591443675e-10,1.2143544643140265e-10,9.810628937247168e-11,7.845374485739783e-11,6.104917298220907e-11,4.6860209947297614e-11,3.4864800166161923e-11,2.5293767764618362e-11,1.7920440388949148e-11,1.2178675503140772e-11,7.981846348960007e-12,5.03024322557747e-12,3.0695569343122624e-12,1.8530757016386044e-12,1.1149483774109868e-12,6.843353357657473e-13,4.31406264804751e-13,2.813404120692772e-13,1.8664197665206407e-13,1.2462411496699802e-13,8.377473392837477e-14,5.609912018691491e-14,3.702701401315595e-14,2.4020002156950918e-14,6.7489900828921e-09,3.4775841618164773e-09,1.821363379512763e-09,1.0370019588940852e-09,6.389216124850061e-10,4.169015685348046e-10,2.8623543451697767e-10,2.011600119007487e-10,1.4346431839346008e-10,1.0218751040861137e-10,7.252712394853453e-11,5.075933852151844e-11,3.477414126125155e-11,2.3425206720388007e-11,1.536243781779102e-11,9.70607492386404e-12,5.867765505657676e-12,3.366791425746899e-12,1.8289250502578513e-12,9.513612734836063e-13,4.776773832691074e-13
0.0,21,21.0,0.0,30.0,0.0,0.0,0.0,0.0,-13.0,0.0,2.0,0.0,0.0,0.0,3.32984523192117e-10,3.1225976675895196e-10,2.784185127973153e-10,2.434029030047583e-10,2.1305492861948937e-10,1.8055019966383863e-10,1.5044564572210577e-10,1.2291997290851148e-10,9.929540769268123e-11,7.93860385986581e-11,6.17660354187251e-11,4.7410180182458176e-11,3.5298489660328884e-11,2.5656509256858146e-11,1.823892685403691e-11,1.2456429908413422e-11,8.209865834566162e-12,5.198694618046145e-12,3.178899502472727e-12,1.913200991413486e-12,1.1408868700541858e-12,6.903511295990247e-13,4.2828806643154086e-13,2.754134742908693e-13,1.8089048043240492e-13,1.2002498052302658e-13,8.037030523584138e-14,5.376744966211677e-14,3.5439219751310476e-14,2.3018456044852368e-14,6.712729692252692e-09,3.4538580568024704e-09,1.81111092897296e-09,1.0351119410628792e-09,6.408641792706294e-10,4.199470270772973e-10,2.890811483767372e-10,2.0341009111993858e-10,1.4512145104813473e-10,1.0335162749741511e-10,7.33097065401436e-11,5.126295824775695e-11,3.50896076730451e-11,2.3639930655205608e-11,1.553593742611499e-11,9.863085904563873e-12,6.006469803779061e-12,3.476192286960052e-12,1.903794234376046e-12,9.953012138638299e-13,5.001196617556495e-13
0.0,22,22.0,0.0,30.0,0.0,0.0,0.0,0.0,-13.0,0.0,2.0,0.0,0.0,0.0,3.362229485713904e-10,3.1541940719600593e-10,2.8142924585694586e-10,2.461737257496498e-10,2.155429269023309e-10,1.8273366703414036e-10,1.5228181440572143e-10,1.244304438791263e-10,1.0050415088812446e-10,8.033218545946443e-11,6.249003172898865e-11,4.795851792092105e-11,3.572010710307708e-11,2.5998298848208478e-11,1.8532715184834813e-11,1.2712260478923703e-11,8.423306560426087e-12,5.360797005730573e-12,3.2879595299709518e-12,1.9761198151775765e-12,1.1702988672586036e-12,6.992795155299104e-13,4.271823052619848e-13,2.70722514846075e-13,1.7587363188774342e-13,1.1586608914223392e-13,7.723553615186338e-14,5.159838892818494e-14,3.395489601556011e-14,2.208699372475128e-14,6.6755095719458235e-09,3.4300020931508128e-09,1.8011117666197244e-09,1.0335218198803469e-09,6.430370223340173e-10,4.2314386561815414e-10,2.920249146259935e-10,2.057262043097179e-10,1.4682538086198221e-10,1.0455060916541146e-10,7.4118985172907e-11,5.1785276283886334e-11,3.5412571060857456e-11,2.3848890519385737e-11,1.569334590187714e-11,1.0000711943234882e-11,6.129215736969555e-12,3.575944295741924e-12,1.974567944906905e-12,1.0384479506352738e-12,5.23145879347165e-13
0.0,23,23.0,0.0,30.0,0.0,0.0,0.0,0.0,-13.0,0.0,2.0,0.0,0.0,0.0,3.395647710945394e-10,3.186707396229811e-10,2.8451875068647505e-10,2.490097334284344e-10,2.1808445596004712e-10,1.849607877963614e-10,1.541521693969679e-10,1.2596737475155782e-10,1.017329431652193e-10,8.129292188783495e-11,6.322288843227769e-11,4.850855209236441e-11,3.613451842680903e-11,2.6324446155084765e-11,1.8806052344828885e-11,1.2948391018549685e-11,8.622458808783115e-12,5.515692702296684e-12,3.3955895525988325e-12,2.0408906598982066e-12,1.2025935095444415e-12,7.108199274291409e-13,4.279563289597556e-13,2.6721154826833047e-13,1.7156061186917346e-13,1.1212567000794866e-13,7.435560295692544e-14,4.95811863703049e-14,3.2567792412385116e-14,2.1219791159602657e-14,6.6373347389984525e-09,3.40604308281581e-09,1.7913865261189598e-09,1.0322418710471774e-09,6.45443978722211e-10,4.264931171274322e-10,2.9506686953617327e-10,2.0810820162366904e-10,1.4857572589888722e-10,1.0578375179687576e-10,7.495425051209547e-11,5.232667256365361e-11,3.57456487876517e-11,2.4056712925882654e-11,1.5839639484134316e-11,1.0122558280665818e-11,6.237667322190688e-12,3.666280267504445e-12,2.040860347219112e-12,1.0803536996534817e-12,5.464127227119624e-13
0.0,24,24.0,0.0,30.0,0.0,0.0,0.0,0.0,-13.0,0.0,2.0,0.0,0.0,0.0,3.430117602788197e-10,3.2201532659983813e-10,2.876883998363111e-10,2.519121274090091e-10,2.2068057403879724e-10,1.8723248687958319e-10,1.5605745850713455e-10,1.2753131578960654e-10,1.0298217585582505e-10,8.226873128888586e-11,6.396569536496761e-11,4.906257897178141e-11,3.6545412431078565e-11,2.6639350153528626e-11,1.9062809753563192e-11,1.316716231480267e-11,8.807963509832082e-12,5.6628655509569465e-12,3.50086334342705e-12,2.1066755768463353e-12,1.2372108450618703e-12,7.246715020420652e-13,4.3047236990971124e-13,2.648231338406238e-13,1.6792226543523914e-13,1.0878433857790228e-13,7.171734169871948e-14,4.770635862775664e-14,3.1272110587309545e-14,2.0411273531808502e-14,6.598213024796935e-09,3.38200969389789e-09,1.7819565069272942e-09,1.0312825208937205e-09,6.480889478073083e-10,4.2999592339389914e-10,2.982072744534557e-10,2.1055602449976862e-10,1.5037219601912495e-10,1.0705047554536938e-10,7.58147706331698e-11,5.288702388825583e-11,3.609038912921813e-11,2.4266795918470506e-11,1.5978943030793772e-11,1.0231953798018394e-11,6.333599768228621e-12,3.747654326969806e-12,2.1024583203008687e-12,1.1206607800835409e-12,5.696160191166218e-13
0.0,25,25.0,0.0,30.0,0.0,0.0,0.0,0.0,-13.0,0.0,2.0,0.0,0.0,0.0,3.4656571121298317e-10,3.2545475810862403e-10,2.9093959331075144e-10,2.5488213215017037e-10,2.2333235622497814e-10,1.8954970333475803e-10,1.579984505885022e-10,1.291228496406265e-10,1.0425224848789362e-10,8.325997566423986e-11,6.471914600840189e-11,4.962215631210313e-11,3.695553396484103e-11,2.69465824544676e-11,1.9306424174491876e-11,1.3370912489281561e-11,8.980711539635545e-12,5.802087410021414e-12,3.603059440140559e-12,2.172741910229887e-12,1.2736279752602997e-12,7.405375886593314e-13,4.3458898041446517e-13,2.63497902893356e-13,1.6493032672498103e-13,1.0582459948838027e-13,6.930901413328616e-14,4.5965561593096877e-14,3.006248321584253e-14,1.9656188671676583e-14,6.558155248183221e-09,3.357932484831247e-09,1.7728436577378114e-09,1.030654333968032e-09,6.50975889607231e-10,4.336535354470717e-10,3.014465220803127e-10,2.130697171628684e-10,1.5221458754843052e-10,1.0835031470965357e-10,7.6699865248837e-11,5.346593529099091e-11,3.644759002393663e-11,2.448154393071567e-11,1.6114588901599456e-11,1.0331885330307275e-11,6.418810778642831e-12,3.82068402586222e-12,2.159296918366412e-12,1.1590964276652825e-12,5.924935644346083e-13
0.0,26,26.0,0.0,30.0,0.0,0.0,0.0,0.0,-13.0,0.0,2.0,0.0,0.0,0.0,3.5022844946526393e-10,3.289906568650177e-10,2.942737642312613e-10,2.579210007916711e-10,2.2604089870629423e-10,1.9191339089197312e-10,1.5997592967748953e-10,1.307425843019106e-10,1.0554358334469093e-10,8.426696990875883e-11,6.548369908281591e-11,5.018832882000565e-11,3.7366891081995614e-11,2.7248990667054144e-11,1.9539879019474723e-11,1.3561889842233291e-11,9.141757464255046e-12,5.933366550391561e-12,3.701642051780317e-12,2.2384609849955523e-12,1.311363344609707e-12,7.581297199270492e-13,4.4016267497119014e-13,2.6317443929742143e-13,1.625568257066295e-13,1.0323039638561913e-13,6.712008649643246e-14,4.435146076980038e-14,2.893395814502666e-14,1.8949674683824807e-14,6.517175390106325e-09,3.333843933680722e-09,1.7640705555418424e-09,1.0303679978735974e-09,6.54108822516087e-10,4.374673137336111e-10,3.0478513882188507e-10,2.156494347359473e-10,1.5410278251952382e-10,1.0968290553297776e-10,7.76089383087366e-11,5.4062889383267855e-11,3.681754355856508e-11,2.470258119301487e-11,1.6249200523730092e-11,1.042496606255207e-11,6.4950519939956545e-12,3.886098887316123e-12,2.2114348710217924e-12,1.1954659932413228e-12,6.148258332432064e-13
0.0,27,27.0,0.0,30.0,0.0,0.0,0.0,0.0,-13.0,0.0,2.0,0.0,0.0,0.0,3.5400183516638606e-10,3.3262468269169157e-10,2.9769238351942726e-10,2.6103002003658166e-10,2.2880732327727218e-10,1.9432452044921982e-10,1.6199069248169642e-10,1.3239114641202636e-10,1.0685662729596088e-10,8.529002055721482e-11,6.62596832277829e-11,5.076179557456906e-11,3.778093092485803e-11,2.7548807963463343e-11,1.976571442804512e-11,1.37421934950465e-11,9.292247848680448e-12,6.056899414559527e-12,3.7962405120908436e-12,2.3033044507062267e-12,1.3499794101246506e-12,7.771709545895163e-13,4.470496257686089e-13,2.637894315658743e-13,1.60773666111762e-13,1.009867171997782e-13,6.514102315228885e-14,4.285760401081878e-14,2.7881982763694936e-14,1.8287314967274365e-14,6.475290769688257e-09,3.3097784623616117e-09,1.7556603806334036e-09,1.0304343058426162e-09,6.574918203370763e-10,4.4143872830028204e-10,3.082237847097593e-10,2.1829544781572194e-10,1.5603674995970217e-10,1.1104797555856075e-10,7.854148784986751e-11,5.4677338304318455e-11,3.7200217530957885e-11,2.4930936679302525e-11,1.6384787556544752e-11,1.0513430022235284e-11,6.563978702316996e-12,3.944695947545987e-12,2.2590310145477944e-12,1.229645136167693e-12,6.36435000701879e-13
0.0,28,28.0,0.0,30.0,0.0,0.0,0.0,0.0,-13.0,0.0,2.0,0.0,0.0,0.0,3.578877665605268e-10,3.3635853619760057e-10,3.011969637281637e-10,2.642105141633548e-10,2.3163278142343004e-10,1.967840833048286e-10,1.6404354828960432e-10,1.3406917655893095e-10,1.0819184857956018e-10,8.632944362145324e-11,6.704736204322635e-11,5.134303066371911e-11,3.8198683737462255e-11,2.784775953077345e-11,1.9986056399223974e-11,1.391373693485603e-11,9.433363546486292e-12,6.173026716623459e-12,3.886628206269062e-12,2.3668388752001044e-12,1.3890839384662437e-12,7.973985703782093e-13,4.55107300179431e-13,2.6527801992256297e-13,1.5955235652076406e-13,9.907925970919697e-14,6.336309729855795e-14,4.147829925527295e-14,2.6902385699308296e-14,1.7665175696391226e-14,6.432522221555386e-09,3.28577245561771e-09,1.7476368878348158e-09,1.0308641375699633e-09,6.611290087144503e-10,4.4556935904809026e-10,3.1176325196866775e-10,2.210081440142162e-10,1.5801654747900896e-10,1.1244533560976084e-10,7.949710453043244e-11,5.530875697534467e-11,3.759538612241263e-11,2.5167198499794278e-11,1.6522843174845245e-11,1.0599145489433884e-11,6.627115521825273e-12,3.997302439335916e-12,2.3023222769766304e-12,1.2615714931998226e-12,6.57182701155153e-13
0.0,29,29.0,0.0,30.0,0.0,0.0,0.0,0.0,-13.0,0.0,2.0,0.0,0.0,0.0,3.618881832837623e-10,3.4019396201821337e-10,3.047890622404526e-10,2.6746384824325885e-10,2.345184577289114e-10,1.9929309439542064e-10,1.661353203168989e-10,1.3577732677015014e-10,1.0954973245585494e-10,8.738557092691835e-11,6.784697251698778e-11,5.193236757487557e-11,3.862087721163382e-11,2.814716021359294e-11,2.020265722364158e-11,1.4078229721750988e-11,9.566274888337754e-12,6.282194472534516e-12,3.972701700739501e-12,2.4287190862338442e-12,1.4283301675936115e-12,8.185661293800288e-13,4.641959659462897e-13,2.6757427079187003e-13,1.5886387223678267e-13,9.749415873440237e-14,6.177822063524237e-14,4.020849935596454e-14,2.5991354604337477e-14,1.707982320245434e-14,6.388894274217895e-09,3.2618642745819858e-09,1.7400243741831642e-09,1.0316684388165549e-09,6.650245611897372e-10,4.498608960683138e-10,3.154044629160796e-10,2.237880271900494e-10,1.6004232217605211e-10,1.1387487412428749e-10,8.047546537282628e-11,5.595667125562918e-11,3.800272095017083e-11,2.541163875402626e-11,1.6664437054412086e-11,1.0683641174496932e-11,6.685835563731495e-12,4.044745435516328e-12,2.3416036271060286e-12,1.2912361960191558e-12,6.769669134019018e-13
0.0,30,30.0,0.0,30.0,0.0,0.0,0.0,0.0,-13.0,0.0,2.0,0.0,0.0,0.0,3.660050695673266e-10,3.4413275182984307e-10,3.084702840560485e-10,2.7079143073572314e-10,2.374655725947106e-10,2.0185259516393418e-10,1.6826684771039212e-10,1.3751625974518215e-10,1.1093077747605864e-10,8.84587507127386e-11,6.865874626323189e-11,5.253005644518982e-11,3.904802482707618e-11,2.844800036291868e-11,2.0416941313983634e-11,1.4237173016364276e-11,9.692108369234267e-12,6.384920228674567e-12,4.05446064069863e-12,2.488680676057662e-12,1.4674160480112033e-12,8.404449643817522e-13,4.741800196519767e-13,2.706117222815192e-13,1.5867862384383723e-13,9.621777328426375e-14,6.037879336932371e-14,3.9043695536202263e-14,2.514541002042751e-14,1.6528321041934826e-14,6.3444353291621816e-09,3.238094264700063e-09,1.732847643280939e-09,1.0328582002469814e-09,6.691826951702466e-10,4.5431514007863587e-10,3.1914846761240813e-10,2.2663571508435205e-10,1.6211431045410767e-10,1.1533655314387038e-10,8.147632616554359e-11,5.6620670508581666e-11,3.8421852283542946e-11,2.5664311659688687e-11,1.681030010926264e-11,1.076814012196621e-11,6.741350569703041e-12,4.087828029464403e-12,2.377210229782228e-12,1.318675522420645e-12,6.957183097455848e-13
0.0,31,31.0,0.0,30.0,0.0,0.0,0.0,0.0,-13.0,0.0,2.0,0.0,0.0,0.0,3.7024045750011304e-10,3.481767472942891e-10,3.1224228434806447e-10,2.7419471564928087e-10,2.404753843728023e-10,2.0446365592729726e-10,1.7043898769224204e-10,1.3928664925170027e-10,1.1233549292742534e-10,8.954934583182485e-11,6.948292013602782e-11,5.313630161769663e-11,3.9480492389270785e-11,2.8751018828037068e-11,2.0630052161538766e-11,1.4391865125142197e-11,9.811923267928825e-12,6.481764498629444e-12,4.131988839457931e-12,2.546532013054476e-12,1.5060827529751986e-12,8.628251479319739e-13,4.849291168807653e-13,2.743239557882909e-13,1.5896650861436078e-13,9.523652961897973e-14,5.915757526195931e-14,3.797982048801404e-14,2.436137610057604e-14,1.6008208507865574e-14,6.299177840182422e-09,3.2145047577344827e-09,1.7261319664814001e-09,1.034444435913364e-09,6.736076681117471e-10,4.5893400300341264e-10,3.229964415012351e-10,2.2955193596479212e-10,1.642328367093992e-10,1.1683040526188393e-10,8.2499514147725e-11,5.730041098109288e-11,3.8852408471199114e-11,2.5925128633255905e-11,1.6960898913235905e-11,1.0853597385265946e-11,6.794709642421614e-12,4.127311462815716e-12,2.4095019174573807e-12,1.3439628940917887e-12,7.133963452843847e-13
0.0,32,32.0,0.0,30.0,0.0,0.0,0.0,0.0,-13.0,0.0,2.0,0.0,0.0,0.0,3.7459643043295724e-10,3.5232784303678657e-10,3.1610677092232804e-10,2.7767520443150576e-10,2.435491910610793e-10,2.0712737775611315e-10,1.726526175528061e-10,1.4108918117425047e-10,1.1376439744522624e-10,9.065773134163075e-11,7.031974062272164e-11,5.3751285336283655e-11,3.991854693203858e-11,2.905676330305887e-11,2.0842897509320524e-11,1.4543413863065801e-11,9.926696587751942e-12,6.573307217924356e-12,4.205436861942518e-12,2.602146044485461e-12,1.5441126217211464e-12,8.855160104242425e-13,4.963190989120508e-13,2.786451597937411e-13,1.5969702261886563e-13,9.453681454029072e-14,5.810757773115676e-14,3.701316165673827e-14,2.3636349386559636e-14,1.55174637546423e-14,6.2531584923319256e-09,3.1911400675014186e-09,1.719903041054843e-09,1.0364381617481113e-09,6.783037742011732e-10,4.637195087651822e-10,3.2694968317129897e-10,2.3253752474153898e-10,1.663983110546345e-10,1.1835653099557938e-10,8.354492158547247e-11,5.799561414531578e-11,3.929403992709553e-11,2.6193914224267644e-11,1.7116499101208168e-11,1.094073851087389e-11,6.846804405377234e-12,4.1639025079397035e-12,2.4388499846419608e-12,1.3672013748661464e-12,7.29985302773817e-13
0.0,33,33.0,0.0,30.0,0.0,0.0,0.0,0.0,-13.0,0.0,2.0,0.0,0.0,0.0,3.7907512656909834e-10,3.5658798971786265e-10,3.2006550666712084e-10,2.8123444771328297e-10,2.4668833170031013e-10,2.0984489394786334e-10,1.7490863636389147e-10,1.4292455483836494e-10,1.1521801855196834e-10,9.178429233964527e-11,7.116946485811978e-11,5.437518198573997e-11,4.036239178377565e-11,2.9365639013847185e-11,2.1056190920213972e-11,1.469275313981808e-11,1.0037314756650347e-11,6.6601288796967505e-12,4.275006299276304e-12,2.655452122827953e-12,1.581326676796507e-12,9.083462726698385e-13,5.082327218925735e-13,2.835106616028172e-13,1.60839413957755e-13,9.410491222909795e-14,5.722197638031256e-14,3.6140284866858155e-14,2.2967666966378094e-14,1.5054455519059042e-14,6.206418379735129e-09,3.168046478932046e-09,1.7141869454691795e-09,1.0388503743889852e-09,6.832753417940096e-10,4.686737943673532e-10,3.310096123118194e-10,2.355934188884344e-10,1.6861122632504643e-10,1.199150962432174e-10,8.461250033491225e-11,5.8706062578858e-11,3.974643250834382e-11,2.6470446635509693e-11,1.727721797167187e-11,1.1030096734056172e-11,6.8983787014521475e-12,4.198245364150239e-12,2.4656262327067437e-12,1.3885167748485415e-12,7.454904517112541e-13
0.0,34,34.0,0.0,30.0,0.0,0.0,0.0,0.0,-13.0,0.0,2.0,0.0,0.0,0.0,3.836787427595394e-10,3.609591972292975e-10,3.241203120449819e-10,2.848740469948057e-10,2.4989418759103215e-10,2.1261737119744075e-10,1.7720796638791522e-10,1.4479348436767604e-10,1.1669689283450492e-10,9.292942236365907e-11,7.203236001114131e-11,5.500816609869092e-11,4.081219107093912e-11,2.9677947137233204e-11,2.1270488749427847e-11,1.484066174470687e-11,1.0144570638093136e-11,6.742795915203258e-12,4.340935840899654e-12,2.7064280432261524e-12,1.617581836522043e-12,9.311638545675098e-13,5.205602013560805e-13,2.8885741092178545e-13,1.6236286053896514e-13,9.392697753320766e-14,5.6494042777230154e-14,3.535796813121407e-14,2.235287525865643e-14,1.4617887683242048e-14,6.159003181365541e-09,3.1452722300016714e-09,1.7090100919185485e-09,1.0416920306330644e-09,6.885267318248901e-10,4.737991113497582e-10,3.351777679015397e-10,2.387206543961855e-10,1.7087215462633508e-10,1.2150632965151498e-10,8.570225726411603e-11,5.943159490257484e-11,4.0209313851621435e-11,2.6754486172443515e-11,1.7443067092245728e-11,1.1122047504572774e-11,6.950041237457831e-12,4.23091732179305e-12,2.490194133963807e-12,1.4080514260513226e-12,7.599344308920787e-13
0.0,35,35.0,0.0,30.0,0.0,0.0,0.0,0.0,-13.0,0.0,2.0,0.0,0.0,0.0,3.8840953850625267e-10,3.654435380245159e-10,3.2827306765262047e-10,2.885956563290585e-10,2.531681834195794e-10,2.1544601056512173e-10,1.7955155421575887e-10,1.46696699940476e-10,1.1820156650253091e-10,9.409352239697278e-11,7.290870206464057e-11,5.565041641304912e-11,4.12680863624309e-11,2.999391449426271e-11,2.148622213604123e-11,1.4987782813244736e-11,1.0249164559412418e-11,6.821849825252262e-12,4.4034891745388405e-12,2.755092439780374e-12,1.6527679263277404e-12,9.538354161890933e-13,5.331995887740497e-13,2.9462440570981726e-13,1.6423665892659763e-13,9.398903864918019e-14,5.5917093888561706e-14,3.466314524936081e-14,2.1789700468825512e-14,1.4206740741222056e-14,6.11096333376042e-09,3.122867486030528e-09,1.7043991762447318e-09,1.0449740277999849e-09,6.940623373748882e-10,4.790978276921513e-10,3.394558066566563e-10,2.4192036190424507e-10,1.73181743657561e-10,1.2313051983804435e-10,8.681425034054777e-11,6.017210061256683e-11,4.0682455223265706e-11,2.704579447940206e-11,1.761398602754207e-11,1.1216839530382235e-11,7.002279879338165e-12,4.262427477106366e-12,2.512901943073608e-12,1.4259586627555521e-12,7.73353922829327e-13
0.0,36,36.0,0.0,30.0,0.0,0.0,0.0,0.0,-13.0,0.0,2.0,0.0,0.0,0.0,3.932698401674043e-10,3.7004315058191284e-10,3.325257168581948e-10,2.9240098403486457e-10,2.5651178835557687e-10,2.1833204832624262e-10,1.819403716912743e-10,1.4863494888930355e-10,1.197325961335528e-10,9.52770003912979e-11,7.379877453776797e-11,5.6302117548573364e-11,4.1730207612315263e-11,3.031371604168817e-11,2.170372404648981e-11,1.5134642891854128e-11,1.0351708240099263e-11,6.8977995451509975e-12,4.4629446821814975e-12,2.801497652886764e-12,1.6868045777634875e-12,9.76245681882192e-13,5.460569984562552e-13,3.007530557709323e-13,1.6643041374998296e-13,9.427702252402665e-14,5.548445728353622e-14,3.4052858628661513e-14,2.1276021497607343e-14,1.3820213732357903e-14,6.062354199506925e-09,3.10088430583003e-09,1.7003811254159505e-09,1.0487071852765808e-09,6.998865845467995e-10,4.845724302282414e-10,3.4384550175561384e-10,2.4519376310149236e-10,1.7554071299938087e-10,1.2478801248804445e-10,8.794858520132664e-11,6.092751522100202e-11,4.1165670660428284e-11,2.7344146916921536e-11,1.7789868438480932e-11,1.1314621961343532e-11,7.0554765830175254e-12,4.293217833576865e-12,2.5340775579408897e-12,1.4423980136903414e-12,7.857966562275936e-13
0.0,37,37.0,0.0,30.0,0.0,0.0,0.0,0.0,-13.0,0.0,2.0,0.0,0.0,0.0,3.98262045354612e-10,3.7476024299348153e-10,3.368802685154026e-10,2.9629179445550045e-10,2.599265171614397e-10,2.2127675676746357e-10,1.84375416685749e-10,1.5060899663597407e-10,1.2129054947255802e-10,9.648027117848002e-11,7.470286740986107e-11,5.696346034418123e-11,4.2198680072129885e-11,3.0637491568221876e-11,2.1923251671827896e-11,1.528166987367906e-11,1.0452730683935288e-11,6.971116529457784e-12,4.519586851459137e-12,2.845723148138043e-12,1.719638090854869e-12,9.982965924041006e-13,5.590467033143976e-13,3.0718748325490283e-13,1.68914219839017e-13,9.47767969140719e-14,5.518945005612544e-14,3.3524220647112e-14,2.0809845805001704e-14,1.345766951503602e-14,6.013236230189283e-09,3.0793765991443097e-09,1.6969830427539382e-09,1.0529022275118312e-09,7.060039347711427e-10,4.902255276172379e-10,3.483487418547471e-10,2.4854216744763165e-10,1.7794985051230161e-10,1.2647920738455327e-10,8.910541206383106e-11,6.169781587301577e-11,4.165881460185484e-11,2.7649339961768064e-11,1.7970581804254785e-11,1.1415467650371206e-11,7.109922197833638e-12,4.3236661938990245e-12,2.5540249188891443e-12,1.457531092478847e-12,7.973187485432811e-13
0.0,38,38.0,0.0,30.0,0.0,0.0,0.0,0.0,-13.0,0.0,2.0,0.0,0.0,0.0,4.033886275107676e-10,3.795970966686202e-10,3.413387997488327e-10,3.0026990976889897e-10,2.634139313383062e-10,2.2428144497616045e-10,1.868577137802311e-10,1.5261962748156737e-10,1.228760062075215e-10,9.770375664452761e-11,7.562127633597757e-11,5.7634641521391705e-11,4.267362843301185e-11,3.096535783259884e-11,2.2145004635979617e-11,1.542920936122344e-11,1.0552685274191378e-11,7.0422320669228034e-12,4.573699285663177e-12,2.8878695392231816e-12,1.7512383237141008e-12,1.0199063249105647e-12,5.720911173179194e-13,3.138747618282758e-13,1.716588315613453e-13,9.547422378361273e-14,5.5025369359473004e-14,3.307438280718905e-14,2.038928847444334e-14,1.3118585486915122e-14,5.963675122336416e-09,3.0584000748218246e-09,1.6942321511319654e-09,1.0575697687299094e-09,7.124188886397526e-10,4.960598539027721e-10,3.529675304055125e-10,2.5196696924248284e-10,1.8041000894787105e-10,1.2820455544540988e-10,9.028492287961692e-11,6.248301747201246e-11,4.216177878878644e-11,2.7961195093628972e-11,1.815598194011734e-11,1.151939264610773e-11,7.16583059727764e-12,4.354090323399635e-12,2.573021731714843e-12,1.4715181569260086e-12,8.079823835063039e-13
0.0,39,39.0,0.0,30.0,0.0,0.0,0.0,0.0,-13.0,0.0,2.0,0.0,0.0,0.0,4.086521406566915e-10,3.845560701424746e-10,3.459034588031038e-10,3.043372118499498e-10,2.6697564032184585e-10,2.2734745965420808e-10,1.8938831490344708e-10,1.5466764528291746e-10,1.2448955868126742e-10,9.89478860609438e-11,7.655430215369879e-11,5.831586307884857e-11,4.315517912378187e-11,3.129741719231158e-11,2.2369139544680727e-11,1.557753922765599e-11,1.065195747279105e-11,7.111536374295351e-12,4.625559170880474e-12,2.928053242772621e-12,1.7815956625965781e-12,1.0410082159165603e-12,5.85120681310275e-13,3.2076509798218413e-13,1.7463581575426048e-13,9.635521952927719e-14,5.49854924825031e-14,3.270051189727038e-14,2.0012554502936505e-14,1.2802511100411281e-14,5.913741964750093e-09,3.0380121791442483e-09,1.692155734403491e-09,1.0627202996292607e-09,7.191359913402491e-10,5.020782726719498e-10,3.5770398528061113e-10,2.5546964505479127e-10,1.829221028407938e-10,1.2996455583947682e-10,9.148734867397812e-11,6.328316928001106e-11,4.2674488923266383e-11,2.827956027982576e-11,1.8345923361322872e-11,1.1626372208694496e-11,7.22335177343698e-12,4.38475294511662e-12,2.5913183050322245e-12,1.4845152960042836e-12,8.178538071149685e-13
0.0,40,40.0,0.0,30.0,0.0,0.0,0.0,0.0,-13.0,0.0,2.0,0.0,0.0,0.0,4.140552242950934e-10,3.8963960297874427e-10,3.5057646794828885e-10,3.0849564418303683e-10,2.706133027345899e-10,2.3047618597580897e-10,1.9196829996179132e-10,1.5675387404967987e-10,1.261318125267681e-10,1.0021309649518328e-10,7.750225063872498e-11,5.900733164852905e-11,4.3643461428299295e-11,3.1633763586161475e-11,2.2595781419720657e-11,1.57268823072774e-11,1.075087266777702e-11,7.179379064807521e-12,4.675433044034771e-12,2.9664017721802933e-12,1.8107181157122225e-12,1.0615496181050954e-12,5.980736674826913e-13,3.278119589671872e-13,1.7781768617710712e-13,9.740581831723704e-14,5.5063084505110384e-14,3.2399772371591455e-14,1.967792417117345e-14,1.250903283578748e-14,5.8635133754286925e-09,3.0182720237442637e-09,1.6907810773639531e-09,1.0683641763357113e-09,7.261598397427482e-10,5.082837818109677e-10,3.6256033871239334e-10,2.5905175151264946e-10,1.8548710572256258e-10,1.3175975324464608e-10,9.271295704296919e-11,6.409835193428061e-11,4.319690137150041e-11,2.8604309881902313e-11,1.8540266401026124e-11,1.1736353716924343e-11,7.282583678011019e-12,4.4158672042197705e-12,2.6091373031479105e-12,1.4966721952367465e-12,8.27001618802633e-13
0.0,41,41.0,0.0,30.0,0.0,0.0,0.0,0.0,-13.0,0.0,2.0,0.0,0.0,0.0,4.196006084603426e-10,3.9485021975766564e-10,3.5536012643489386e-10,3.127472138223538e-10,2.7432862769755225e-10,2.336690485007305e-10,1.9459877748749457e-10,1.5887915849330205e-10,1.2780338722917934e-10,1.0149983324726132e-10,7.846543245281844e-11,5.970925793181611e-11,4.4138607884444045e-11,3.1974486562961604e-11,2.2825032540431314e-11,1.5877417256608108e-11,1.08497038365289e-11,7.246070638679876e-12,4.723573699422008e-12,3.0030496600576313e-12,1.838628564959587e-12,1.0814907180261827e-12,6.108959163922419e-13,3.3497215236818524e-13,1.8117801859181227e-13,9.861223557835619e-14,5.525141172588439e-14,3.216931417599721e-14,1.938374122686092e-14,1.2237746717979724e-14,5.8130716261325804e-09,2.9992403025613066e-09,1.6901354045972133e-09,1.0745116118775538e-09,7.334950911696275e-10,5.146795188390071e-10,3.675389375428118e-10,2.6271492345182383e-10,1.8810604767659118e-10,1.335907352965396e-10,9.39620497992638e-11,6.492867481786638e-11,4.3729000068433465e-11,2.8935343580351904e-11,1.8738881844645363e-11,1.184926686693009e-11,7.343582706810032e-12,4.447602312019285e-12,2.6266742307753114e-12,1.5081304260548855e-12,8.35495331082503e-13
0.0,42,42.0,0.0,30.0,0.0,0.0,0.0,0.0,-13.0,0.0,2.0,0.0,0.0,0.0,4.252911189023077e-10,4.0019053414067757e-10,3.6025681349280355e-10,3.1709399339804124e-10,2.7812337620210587e-10,2.3692751214880875e-10,1.9728088532244025e-10,1.610443645539796e-10,1.2950491662648358e-10,1.0280855028020349e-10,7.94441632287989e-11,6.042185626439104e-11,4.464075427742027e-11,3.231967389905752e-11,2.3056979169277737e-11,1.602928770031356e-11,1.0948678794694581e-11,7.311884695456818e-12,4.7702180720327036e-12,3.038134985032992e-12,1.865362201323646e-12,1.1008033382270883e-12,6.235405190537369e-13,3.422058625024808e-13,1.8469154645555812e-13,9.996092939498805e-14,5.554375924564787e-14,3.2006265277239206e-14,1.9128403539282547e-14,1.198823801373724e-14,5.762504752463982e-09,2.9809791973173353e-09,1.6902458186137555e-09,1.0811726704499337e-09,7.411464738598289e-10,5.212687667893527e-10,3.7264224378024375e-10,2.664608724147891e-10,1.9078001324002924e-10,1.3545813026250968e-10,9.523496076947522e-11,6.577427372826088e-11,4.427079369630185e-11,2.9272584738137746e-11,1.894165370570005e-11,1.1965031562940444e-11,7.406372810089981e-12,4.4800891454116195e-12,2.644098483685587e-12,1.5190222021072198e-12,8.434041700135391e-13
0.0,43,43.0,0.0,30.0,0.0,0.0,0.0,0.0,-13.0,0.0,2.0,0.0,0.0,0.0,4.311296823920946e-10,4.0566325300404327e-10,3.6526899136994274e-10,3.215381231673017e-10,2.819993625426296e-10,2.4025308323820436e-10,2.0001579134841181e-10,1.6325037992574083e-10,1.3123704936400432e-10,1.0413971062748244e-10,8.043876374546602e-11,6.114534431887437e-11,4.5150039431456144e-11,3.2669413220937996e-11,2.329169658192952e-11,1.6182609819361542e-11,1.1047986883696486e-11,7.377060618771149e-12,4.815585942016994e-12,3.071796467919065e-12,1.890964161989267e-12,1.1194697441246966e-12,6.359674553756287e-13,3.49476648757459e-13,1.883342378295437e-13,1.0143865811613619e-13,5.5933451296635245e-14,3.1907728195109326e-14,1.891035584843521e-14,1.1760067425362071e-14,5.711906647161212e-09,2.9635522710458687e-09,1.6911392377494932e-09,1.0883572647340714e-09,7.491187991209528e-10,5.280549605963342e-10,3.7787283545510156e-10,2.7029138549113443e-10,1.935101396471342e-10,1.3736260496231585e-10,9.653205375062981e-11,6.663530879882655e-11,4.4822313159527175e-11,2.961597849139793e-11,1.9148480644392022e-11,1.208356388017283e-11,7.470953272205363e-12,4.513425635178792e-12,2.661554818632384e-12,1.5294695449519535e-12,8.50796089471325e-13
0.0,44,44.0,0.0,30.0,0.0,0.0,0.0,0.0,-13.0,0.0,2.0,0.0,0.0,0.0,4.371193321368476e-10,4.112711806342848e-10,3.7039920840755653e-10,3.2608181311081605e-10,2.859584558105984e-10,2.4364731058793474e-10,2.0280469426966287e-10,1.6549811459419636e-10,1.330004493182513e-10,1.0549378677126106e-10,8.144956015579227e-11,6.187994293312637e-11,4.566660492718506e-11,3.302379294560501e-11,2.3529252762018878e-11,1.6337478559905377e-11,1.1147785014738894e-11,7.441806531460234e-12,4.859879314619106e-12,3.104171094570908e-12,1.915487380304856e-12,1.1374814729222933e-12,6.481431990614118e-13,3.5675141077098055e-13,1.920833545215859e-13,1.030325330502803e-13,5.641387311805118e-14,3.18707798850462e-14,1.872808422923759e-14,1.155276289615639e-14,5.66137713413391e-09,2.9470243492782363e-09,1.6928423343618416e-09,1.0960751565338313e-09,7.574169751448828e-10,5.350416939384902e-10,3.832334077636388e-10,2.7420832448876796e-10,1.9629761540221594e-10,1.393048629455806e-10,9.785372063437786e-11,6.751196263807954e-11,4.538360934982544e-11,2.996548975832676e-11,1.935927642290799e-11,1.2204780446908822e-11,7.537305245224362e-12,4.547681825688896e-12,2.679165115534472e-12,1.5395838026589296e-12,8.577369738379784e-13
0.0,45,45.0,0.0,30.0,0.0,0.0,0.0,0.0,-13.0,0.0,2.0,0.0,0.0,0.0,4.43263213290169e-10,4.170172229789711e-10,3.756501021503004e-10,3.307273450761842e-10,2.9000258145153064e-10,2.471117866843685e-10,2.0564882445036053e-10,1.677885013966802e-10,1.3479579600394735e-10,1.0687126099203499e-10,8.247688424195825e-11,6.262587604297161e-11,4.619059481922343e-11,3.3382902768585355e-11,2.3769711061945637e-11,1.6493972646639434e-11,1.1248203036678125e-11,7.5063023616715e-12,4.9032823425154075e-12,3.135392217736343e-12,1.9389906536307796e-12,1.154838199058031e-12,6.600402980534211e-13,3.6400032506073724e-13,1.9591749473400798e-13,1.0473006550877991e-13,5.697849338375214e-14,3.189247437078017e-14,1.8580111912876018e-14,1.136581604480648e-14,5.611022020596627e-09,2.931461388583377e-09,1.695381473932138e-09,1.1043359609863652e-09,7.660460224459737e-10,5.422327264826799e-10,3.8872677448783e-10,2.7821362542467384e-10,1.991436791658601e-10,1.4128564292711356e-10,9.920037970584638e-11,6.840443866093012e-11,4.595475118095234e-11,3.0321101287189956e-11,1.9573969701095408e-11,1.2328601553309398e-11,7.605397146397447e-12,4.582904529397189e-12,2.697030324178557e-12,1.5494654671970305e-12,8.642900058470103e-13
0.0,46,46.0,0.0,30.0,0.0,0.0,0.0,0.0,-13.0,0.0,2.0,0.0,0.0,0.0,4.495645885442357e-10,4.2290439194713826e-10,3.810244024905107e-10,3.354770749713234e-10,2.941337228869152e-10,2.5064814891102715e-10,2.0854944480725717e-10,1.7012249661069914e-10,1.3662378497571901e-10,1.0827262569411971e-10,8.352107367958239e-11,6.338337069594903e-11,4.672215539336967e-11,3.3746833864829583e-11,2.4013132076666668e-11,1.6652158578837444e-11,1.1349348431287228e-11,7.570702898122133e-12,4.94596167163745e-12,3.1655880875009477e-12,1.961536928840396e-12,1.171546648036247e-12,6.71636938641518e-13,3.71196757373618e-13,1.9981662062020298e-13,1.0651920781174231e-13,5.762088638067268e-14,3.19698475811626e-14,1.84649961441673e-14,1.119868223121654e-14,5.560953124494723e-09,2.9169303322732224e-09,1.69878265575942e-09,1.1131491545949446e-09,7.750110908644835e-10,5.496319914702269e-10,3.9435586967876857e-10,2.823092983236948e-10,2.0204961893560775e-10,1.4330571747434793e-10,1.0057247412113061e-10,6.931295959292545e-11,4.653582386661924e-11,3.0682811815248356e-11,1.9792503401976737e-11,1.2454953252938709e-11,7.675189042367139e-12,4.619121532618151e-12,2.7152325060098143e-12,1.5592042397590463e-12,8.705151786209126e-13
0.0,47,47.0,0.0,30.0,0.0,0.0,0.0,0.0,-13.0,0.0,2.0,0.0,0.0,0.0,4.5602684378945274e-10,4.2893580975459616e-10,3.8652493484735016e-10,3.403334350120579e-10,2.98353923204159e-10,2.5425808084117153e-10,2.1150785175665055e-10,1.7250108057371125e-10,1.3848512823332957e-10,1.0969838371320254e-10,8.458247230043828e-11,6.415265712431066e-11,4.7261434980432533e-11,3.411567891834236e-11,2.425957492901929e-11,1.6812093774872542e-11,1.1451310364673313e-11,7.6351407448212e-12,4.988067106351367e-12,3.1948807591838728e-12,1.983191800822803e-12,1.1876195680336431e-12,6.829165004786258e-13,3.783171546802881e-13,2.0376207220035054e-13,1.0838838813275486e-13,5.833475331246779e-14,3.209992389956057e-14,1.8381325801262005e-14,1.105078330456302e-14,5.511288274263529e-09,2.9034989532264807e-09,1.7030714560085329e-09,1.1225240873191302e-09,7.843174780618187e-10,5.57243603584599e-10,4.0012374959157876e-10,2.864974273138979e-10,2.0501677150104618e-10,1.453658919362512e-10,1.0197047056401542e-10,7.023776613344726e-11,4.712692741418678e-11,3.105063437679179e-11,2.0014833816948087e-11,1.2583768682236241e-11,7.74663614688917e-12,4.656345335061018e-12,2.733836898514973e-12,1.5688792970914125e-12,8.76468933194882e-13
