Line_number,Fiducial,Easting,Northing,Height,Elevation,tx_pitch,tx_roll,tx_yaw,txrx_dx,txrx_dy,txrx_dz,rx_pitch,rx_roll,rx_yaw,S0Z_time_1.431e-04,S0Z_time_1.801e-04,S0Z_time_2.266e-04,S0Z_time_2.846e-04,S0Z_time_3.581e-04,S0Z_time_4.506e-04,S0Z_time_5.671e-04,S0Z_time_7.136e-04,S0Z_time_8.981e-04,S0Z_time_1.131e-03,S0Z_time_1.423e-03,S0Z_time_1.791e-03,S0Z_time_2.255e-03,S0Z_time_2.838e-03,S0Z_time_3.573e-03,S0Z_time_4.498e-03,S0Z_time_5.662e-03,S1Z_time_1.409e-05,S1Z_time_1.610e-05,S1Z_time_1.909e-05,S1Z_time_2.360e-05,S1Z_time_2.960e-05,S1Z_time_3.709e-05,S1Z_time_4.609e-05,S1Z_time_5.759e-05,S1Z_time_7.209e-05,S1Z_time_9.060e-05,S1Z_time_1.141e-04,S1Z_time_1.431e-04,S1Z_time_1.801e-04,S1Z_time_2.266e-04,S1Z_time_2.846e-04,S1Z_time_3.581e-04,S1Z_time_4.506e-04,S1Z_time_5.671e-04,S1Z_time_7.136e-04,S1Z_time_8.981e-04,S1Z_time_1.131e-03
0.0,0,0.0,0.0,30.0,0.0,0.0,0.0,0.0,-13.0,0.0,2.0,0.0,0.0,0.0,1.0571826051446557e-09,7.986849800405974e-10,6.089558851299265e-10,4.2359713986410854e-10,3.240940710179555e-10,2.381256751184476e-10,1.5652900938375746e-10,1.2262630557732846e-10,7.552036847717304e-11,5.537373397584497e-11,4.0303864859862726e-11,2.5803551371109944e-11,1.570356776461635e-11,1.0095664650695377e-11,6.097998116249908e-12,3.4651594946795443e-12,1.833398398623332e-12,6.8867127969784144e-09,6.191454533249489e-09,5.4472039732213e-09,4.6003740659402675e-09,3.654110424942278e-09,3.2106678734707165e-09,2.626610577267369e-09,1.9965187709181624e-09,1.6369295310191624e-09,1.3183476957219521e-09,1.0510223823090646e-09,7.954007158798512e-10,6.107441662401306e-10,4.514370205735932e-10,3.262717382301443e-10,2.4475447528655706e-10,1.6374460125954007e-10,1.0977031612094009e-10,7.066737602283566e-11,4.7895756762743e-11,3.018498658608065e-11
0.0,1,1.0,0.0,30.0,0.0,0.0,0.0,0.0,-13.0,0.0,2.0,0.0,0.0,0.0,1.0487620365859466e-09,7.743414455070525e-10,5.836775250396733e-10,4.5162620751754614e-10,3.09562174109302e-10,2.2874085326727782e-10,1.6521993466266796e-10,1.1212015409845329e-10,8.48079131319622e-11,5.3116950151208626e-11,3.8035793627850306e-11,2.508977768962341e-11,1.6551387154160455e-11,9.639279470264183e-12,6.08859599210075e-12,3.309687446485686e-12,1.8695771019319984e-12,6.823391017134176e-09,6.163558401779183e-09,5.1082722526623785e-09,4.450807075320679e-09,3.703848149701574e-09,3.004080972591555e-09,2.6831638910120375e-09,1.9462940126675712e-09,1.6478136572754795e-09,1.301936048584814e-09,9.775421964150983e-10,8.00103252133939e-10,6.1051481430205e-10,4.6517803642916603e-10,3.3608486360088443e-10,2.382808831094117e-10,1.6676630241012543e-10,1.0808987903980636e-10,7.210334681394502e-11,4.845353547022185e-11,2.998149366919612e-11
0.0,2,2.0,0.0,30.0,0.0,0.0,0.0,0.0,-13.0,0.0,2.0,0.0,0.0,0.0,1.1062396322351499e-09,7.830364424012282e-10,5.82932448789033e-10,4.3785355558499413e-10,3.251233228636201e-10,2.255052966566884e-10,1.6344359748068433e-10,1.170120493384129e-10,8.170582838672815e-11,5.927498529355145e-11,3.881391156485822e-11,2.5051176040142652e-11,1.6109772983898317e-11,1.0256562716629229e-11,5.901122621549344e-12,3.3774298187696574e-12,1.8806766356063567e-12,6.726200122390191e-09,6.020917828356272e-09,5.2475843663125525e-09,4.38000782633222e-09,3.7617309864330595e-09,3.1066250423438124e-09,2.6400845876907022e-09,2.0935659953773965e-09,1.774843829690386e-09,1.3088708391088598e-09,1.1106096471879803e-09,8.244657563882893e-10,6.170031157935439e-10,4.5509335775854144e-10,3.2305392893468595e-10,2.2973079914845066e-10,1.5506176418627028e-10,1.0692567100340799e-10,7.198720851973947e-11,4.708843479063807e-11,3.118176566855067e-11
0.0,3,3.0,0.0,30.0,0.0,0.0,0.0,0.0,-13.0,0.0,2.0,0.0,0.0,0.0,1.102169872259539e-09,8.359711307669365e-10,5.925597888055549e-10,4.413384893234252e-10,3.2159529778172344e-10,2.1491957164414908e-10,1.630508904675153e-10,1.147164883197997e-10,8.467200546095295e-11,5.669745687344576e-11,3.724718995337946e-11,2.55445588935569e-11,1.6783118481342214e-11,9.928490606147512e-12,6.082605502024573e-12,3.2655724501996607e-12,1.8231000305558803e-12,6.354725533222614e-09,6.296277338538964e-09,5.244379321975466e-09,4.513089422786777e-09,3.6357097533235335e-09,3.0164505578435706e-09,2.391169967017656e-09,2.065257235401715e-09,1.6481398129036476e-09,1.3860828983598375e-09,1.0695283927530632e-09,7.825200700962597e-10,5.996742879564314e-10,4.377344358373105e-10,3.4047539888359675e-10,2.249581378025713e-10,1.639966245630297e-10,1.1209085315564289e-10,7.177944498519107e-11,4.5242667448299385e-11,3.136037903765994e-11
0.0,4,4.0,0.0,30.0,0.0,0.0,0.0,0.0,-13.0,0.0,2.0,0.0,0.0,0.0,1.1372409730130038e-09,8.058050939178974e-10,6.061275024489149e-10,4.25007640379786e-10,3.196701063682319e-10,2.3841489970683263e-10,1.5189054594254742e-10,1.151434295276199e-10,7.950036490726094e-11,5.863325270912788e-11,3.80267987751109e-11,2.565908367202149e-11,1.703250045527154e-11,1.0034715841458328e-11,6.168739721395731e-12,3.3546976300765715e-12,1.8502874869104665e-12,6.995069743803621e-09,6.005821308346465e-09,5.228053841664941e-09,4.623618041047175e-09,3.5804027060880057e-09,2.9187473232753897e-09,2.55021597200723e-09,2.1727328945073126e-09,1.7409063962331175e-09,1.338241013791711e-09,1.0610171910012918e-09,7.671316444828468e-10,5.713094112609534e-10,4.408461235944687e-10,3.4091717595456656e-10,2.2806424660240076e-10,1.5068283203705115e-10,1.0900874640648265e-10,7.415202062416726e-11,4.9430032287404295e-11,3.267523288489198e-11
0.0,5,5.0,0.0,30.0,0.0,0.0,0.0,0.0,-13.0,0.0,2.0,0.0,0.0,0.0,1.048621231923879e-09,8.005577650600953e-10,6.196500916450836e-10,4.3679369059431195e-10,3.036535391905903e-10,2.23445532432238e-10,1.586999040295886e-10,1.166700776583579e-10,8.232515542452945e-11,5.569873479514201e-11,3.9571117950289396e-11,2.5635242756142185e-11,1.6084506984598745e-11,1.0054026163019998e-11,5.69378798191422e-12,3.2345611263357106e-12,1.7183608452476473e-12,6.842171536720324e-09,5.813227418370251e-09,5.3056830247383396e-09,4.5017862853544216e-09,3.7007855776191e-09,2.9909941284601063e-09,2.50355170341961e-09,2.078082843197778e-09,1.6400599655833091e-09,1.3091283580549588e-09,1.0390249428695738e-09,7.888799794738117e-10,5.977675858598691e-10,4.657478001772657e-10,3.506392237620039e-10,2.457202878491193e-10,1.6183223816683986e-10,1.1118057339319438e-10,7.421959644104857e-11,4.952588319285294e-11,3.000498061202792e-11
0.0,6,6.0,0.0,30.0,0.0,0.0,0.0,0.0,-13.0,0.0,2.0,0.0,0.0,0.0,1.0383180016924504e-09,7.902354043915487e-10,6.142322331178508e-10,4.40950432454758e-10,3.2082152459050254e-10,2.1572357768510862e-10,1.6094391328244257e-10,1.1656089760568018e-10,8.179406961322375e-11,5.6327881319325895e-11,3.838920312204763e-11,2.510644211295572e-11,1.5781619389614845e-11,1.0153910673691213e-11,6.125880504392553e-12,3.4099931700119393e-12,1.7951481827474488e-12,6.608768818836913e-09,5.720416537688581e-09,5.3047705686052746e-09,4.3165081553496875e-09,3.516248872813163e-09,3.190218514657211e-09,2.5351558479005698e-09,2.0900466157176803e-09,1.6588617684495875e-09,1.3108355953794e-09,1.0268005284118396e-09,7.851004532561857e-10,6.305501336362492e-10,4.4185901173032975e-10,3.16751603537096e-10,2.378241486875707e-10,1.5972577859194304e-10,1.0456609346409212e-10,7.452276427010847e-11,4.640372354233421e-11,3.1940405791711996e-11
0.0,7,7.0,0.0,30.0,0.0,0.0,0.0,0.0,-13.0,0.0,2.0,0.0,0.0,0.0,1.0823765106351973e-09,7.942859257558006e-10,5.864269559306788e-10,4.557875483736025e-10,3.230462117492588e-10,2.3285815039956307e-10,1.644139077941005e-10,1.19494446711467e-10,7.772173555042962e-11,5.822393851351293e-11,3.842309510603019e-11,2.563129846802236e-11,1.623086736275131e-11,9.607468594148796e-12,5.89579010513891e-12,3.3904408664292953e-12,1.8176933839776479e-12,6.937964985402296e-09,6.2048891819687045e-09,5.323261654405488e-09,4.302789275327882e-09,3.779726848155703e-09,3.135586920118993e-09,2.447297593918586e-09,2.0596166314248406e-09,1.6806224569079971e-09,1.3251474111640412e-09,1.0878166404698659e-09,7.882776394667922e-10,6.201490407008035e-10,4.5617531922472203e-10,3.392594683528153e-10,2.4381254452528795e-10,1.5758316075586397e-10,1.0640231452695425e-10,7.475466321246502e-11,4.819514666953113e-11,3.163571266546176e-11
0.0,8,8.0,0.0,30.0,0.0,0.0,0.0,0.0,-13.0,0.0,2.0,0.0,0.0,0.0,1.0178983090619932e-09,7.886089392919477e-10,6.057038383865309e-10,4.5163386142241554e-10,3.194676049307102e-10,2.3043752107501416e-10,1.6768712850974185e-10,1.1714069535629232e-10,7.785058655979733e-11,5.742009869022059e-11,3.785667975497865e-11,2.4593586630142796e-11,1.6562962003690957e-11,1.0179440214045064e-11,5.992964869469751e-12,3.45354340069894e-12,1.7859102261764014e-12,6.857624751135223e-09,6.048956439396569e-09,5.302239628977563e-09,4.442404166783972e-09,3.600044125885506e-09,3.1908858085567416e-09,2.574516869649357e-09,2.0744670674889937e-09,1.7314226078732718e-09,1.3019866374192092e-09,1.0579167455701411e-09,7.963903844487878e-10,5.94956196628225e-10,4.2510615770631284e-10,3.2951441053468855e-10,2.308729086319079e-10,1.603285024057877e-10,1.0919181255536132e-10,7.296886790895432e-11,5.1780132606560014e-11,3.126016467239528e-11
0.0,9,9.0,0.0,30.0,0.0,0.0,0.0,0.0,-13.0,0.0,2.0,0.0,0.0,0.0,1.0724886829624808e-09,8.075716223114261e-10,5.944375780327044e-10,4.4374733681234327e-10,3.163144898838769e-10,2.2207028162381918e-10,1.723365139147517e-10,1.1847829448964804e-10,8.146412495726978e-11,5.6746828674279775e-11,3.9953843342376243e-11,2.5126157626274426e-11,1.5791762940543402e-11,9.801452682552125e-12,5.81010488622628e-12,3.349424095475805e-12,1.8012442471359174e-12,6.677725318033279e-09,6.055248052116512e-09,5.516598952877756e-09,4.254195718600356e-09,3.795885208417122e-09,2.9903972708876835e-09,2.483238170835779e-09,2.1221221129385833e-09,1.6713972617865129e-09,1.3566600136633583e-09,1.0596138440178224e-09,7.799761685531543e-10,6.187133471757279e-10,4.5073722890637955e-10,3.320459187687078e-10,2.3901781426846505e-10,1.6607486548158878e-10,1.1017174616999172e-10,7.366967864580768e-11,4.951631585473353e-11,3.025083769031763e-11
0.0,10,10.0,0.0,30.0,0.0,0.0,0.0,0.0,-13.0,0.0,2.0,0.0,0.0,0.0,1.0865426383460784e-09,7.724463947937876e-10,5.823816805893468e-10,4.497070966448698e-10,3.4459431175716164e-10,2.2678322905140218e-10,1.6164986434049065e-10,1.177475049971703e-10,8.187632521703154e-11,5.685431933692344e-11,4.0197199076541846e-11,2.609481094736135e-11,1.6889022336142255e-11,1.002525064203733e-11,6.0550610417328856e-12,3.091074848090605e-12,1.7095103668390018e-12,6.693219593737258e-09,6.1277067724812085e-09,5.286879905718616e-09,4.265407997656704e-09,4.044448523604394e-09,3.2406831836444537e-09,2.493268141121405e-09,2.1161927550211314e-09,1.6611627407651597e-09,1.3076033705429343e-09,1.0069686799563739e-09,7.950331081542428e-10,6.125372869589824e-10,4.796909671992806e-10,3.394505040391082e-10,2.2724443084681027e-10,1.6274893732052725e-10,1.0525073227753985e-10,7.413872088631918e-11,4.7734464840659784e-11,3.19447867903635e-11
0.0,11,11.0,0.0,30.0,0.0,0.0,0.0,0.0,-13.0,0.0,2.0,0.0,0.0,0.0,1.1218280819576559e-09,7.759939455390665e-10,5.906189030377425e-10,4.404695426218692e-10,3.069103224238292e-10,2.3275871738121666e-10,1.6361447051444407e-10,1.1273404573748538e-10,8.145632234360465e-11,5.66039318296024e-11,3.800379135763743e-11,2.550901369372e-11,1.6031839471556856e-11,9.648967130745946e-12,5.386130452804677e-12,3.208456701116396e-12,1.6716888182904964e-12,6.762878253215747e-09,6.030261268273684e-09,5.214858199127779e-09,4.432913844861452e-09,3.5336969566384823e-09,3.1313391520330236e-09,2.506574950532868e-09,2.0372628085874915e-09,1.6449381075131795e-09,1.3363039341560858e-09,1.0125940949310384e-09,7.817964760044802e-10,5.779455820718685e-10,4.701302480891684e-10,3.426903503561615e-10,2.326520657518952e-10,1.6520212862728885e-10,1.0476519054102688e-10,7.575712001039147e-11,4.785089677730008e-11,3.2472067416856e-11
0.0,12,12.0,0.0,30.0,0.0,0.0,0.0,0.0,-13.0,0.0,2.0,0.0,0.0,0.0,1.0497053583511984e-09,8.311852495883347e-10,5.765584509693127e-10,4.439556421186666e-10,3.058000758429448e-10,2.2655017670599308e-10,1.5430950029836506e-10,1.079898122824237e-10,8.461948124523467e-11,5.782042544974878e-11,4.0083055842300264e-11,2.489124972386805e-11,1.541104828997243e-11,9.937303069237188e-12,5.524496645759075e-12,3.2823647206551725e-12,1.7008840341802716e-12,6.893680133762354e-09,5.906958896367484e-09,5.250400908097075e-09,4.430445745894285e-09,3.6902302241873993e-09,2.9719402465521686e-09,2.4995017262697926e-09,2.079757331045157e-09,1.681154255129746e-09,1.3486775484952912e-09,1.0240807916245391e-09,8.151435045862116e-10,6.142276119376828e-10,4.477400333973309e-10,3.275983328454427e-10,2.3101150343869545e-10,1.560644784930947e-10,1.0897432303457494e-10,7.28699933909304e-11,4.7525923223494555e-11,3.187327203663699e-11
0.0,13,13.0,0.0,30.0,0.0,0.0,0.0,0.0,-13.0,0.0,2.0,0.0,0.0,0.0,1.1145116702557987e-09,8.250774045336573e-10,5.837449440653515e-10,4.291913938841468e-10,3.186241310668307e-10,2.2756294085605328e-10,1.6931592329869698e-10,1.1813557194230764e-10,8.722888879899837e-11,5.511229070131756e-11,3.954673405010365e-11,2.5983404671406784e-11,1.5586660041069326e-11,9.553828491198905e-12,5.825326644707611e-12,3.2115693564834278e-12,1.6518354904506827e-12,6.84800121439071e-09,6.176248961212505e-09,5.433184847138141e-09,4.323625647827062e-09,3.793372199593937e-09,3.035434562641543e-09,2.567989991742144e-09,2.0023036726371577e-09,1.5843449766681653e-09,1.417974828001039e-09,1.0434474913701839e-09,7.911818984744847e-10,5.766708413621753e-10,4.5038811910584385e-10,3.191570758764658e-10,2.3974905649966646e-10,1.57117304485609e-10,1.1281219754674804e-10,6.84381943582925e-11,5.060005152655792e-11,3.1896769015201515e-11
0.0,14,14.0,0.0,30.0,0.0,0.0,0.0,0.0,-13.0,0.0,2.0,0.0,0.0,0.0,1.0789101310841963e-09,8.602134041633481e-10,6.13871056112171e-10,4.390593931046351e-10,3.079890055755495e-10,2.131629154739026e-10,1.6035604755239297e-10,1.1636214175430718e-10,8.674978080810977e-11,5.32585399421067e-11,3.9391634256561834e-11,2.6616969295450697e-11,1.609133343012477e-11,9.918104609057818e-12,5.525446788034671e-12,3.1946014686752775e-12,1.632412332108437e-12,6.754828555710267e-09,6.2133087124121395e-09,5.813990933223159e-09,4.450489184453968e-09,3.6822544675920384e-09,2.9019132697654606e-09,2.4420467864208274e-09,2.0700769259722844e-09,1.684334684156877e-09,1.3866366536279724e-09,1.042737367525789e-09,8.120350417684325e-10,6.040846788709976e-10,4.720751615754132e-10,3.2385808449570454e-10,2.4523931561431336e-10,1.6921697588852446e-10,1.1137018056487109e-10,7.137970411190685e-11,5.009150451120733e-11,3.194133225325375e-11
0.0,15,15.0,0.0,30.0,0.0,0.0,0.0,0.0,-13.0,0.0,2.0,0.0,0.0,0.0,1.0368364289329642e-09,8.143806365607058e-10,5.726470001165898e-10,4.4180955900244934e-10,3.2101848725835855e-10,2.3684101431151623e-10,1.6302813804341664e-10,1.1921483834125988e-10,8.39264410914246e-11,5.705422315561486e-11,4.0453926857181805e-11,2.5518963718394657e-11,1.6911829639102678e-11,1.0230524653951331e-11,5.710553492505033e-12,3.2653404898891167e-12,1.6257900732268373e-12,6.931786964143084e-09,6.233090064071399e-09,5.350529943042018e-09,4.3852559267278274e-09,3.601857896720154e-09,3.130785894335456e-09,2.6149399691360394e-09,2.2190177855662626e-09,1.6935255460470396e-09,1.349719990784895e-09,1.1042949901597757e-09,7.950955475137256e-10,5.944371241306965e-10,4.5386274442336624e-10,3.286606830530336e-10,2.350530188611954e-10,1.5936284195435409e-10,1.1219710989118056e-10,7.580298736975786e-11,4.624558946246333e-11,3.095661123411435e-11
0.0,16,16.0,0.0,30.0,0.0,0.0,0.0,0.0,-13.0,0.0,2.0,0.0,0.0,0.0,1.0842909280262317e-09,8.471293334583877e-10,5.690712627738914e-10,4.307056120191137e-10,3.1475618577777856e-10,2.2773352645188903e-10,1.7266223369181402e-10,1.1397943823470432e-10,8.000006710600486e-11,5.921317214192495e-11,3.7545455280145286e-11,2.576082958996133e-11,1.7276834396113585e-11,9.481922671978787e-12,5.389204141122458e-12,3.1872501000220893e-12,1.607113871687468e-12,6.726730590140272e-09,6.035645753191587e-09,5.2098261031198225e-09,4.556215203432804e-09,3.7145720719711646e-09,2.8362676312330043e-09,2.698579236305418e-09,2.001263779253231e-09,1.7384631053438816e-09,1.3143417265320505e-09,9.786065718452656e-10,7.899598593399334e-10,6.062115449530729e-10,4.4044768003787393e-10,3.1718269685595884e-10,2.277776571451609e-10,1.598047773740158e-10,1.1121395104837345e-10,7.637287299678974e-11,5.1633581329735614e-11,3.379985961050649e-11
0.0,17,17.0,0.0,30.0,0.0,0.0,0.0,0.0,-13.0,0.0,2.0,0.0,0.0,0.0,1.1013704363032382e-09,7.97307911105052e-10,5.968197347208426e-10,4.276638923573685e-10,3.252125725545342e-10,2.322650078571585e-10,1.644929645887024e-10,1.19526814542555e-10,8.392613647181081e-11,5.919214453234591e-11,3.859665290110127e-11,2.699914957501406e-11,1.6048869788974528e-11,9.729770560886545e-12,5.608483783943601e-12,2.9468280868546703e-12,1.6777015882320943e-12,6.457847641465894e-09,6.0783888528322455e-09,5.333675380828282e-09,4.378292270309221e-09,3.6197270742005206e-09,3.0235181815939953e-09,2.4926297702285363e-09,2.096195831743431e-09,1.6829305939373012e-09,1.3584249688650591e-09,1.0748781597080633e-09,7.999560698366963e-10,6.158692995428406e-10,4.352845390093438e-10,3.222866237806308e-10,2.221248298367076e-10,1.633276535348323e-10,1.0685237574418217e-10,7.995929286591136e-11,4.9282584983831304e-11,3.2947468841759314e-11
0.0,18,18.0,0.0,30.0,0.0,0.0,0.0,0.0,-13.0,0.0,2.0,0.0,0.0,0.0,1.085991448251828e-09,8.117450670491973e-10,6.050220849879632e-10,4.437228332196874e-10,3.317606070639106e-10,2.2490618157739266e-10,1.654536079083143e-10,1.1696769934734793e-10,8.596619802071115e-11,5.852494814823349e-11,3.9128330199293423e-11,2.5954568455115185e-11,1.5922963949027434e-11,9.799717633678466e-12,5.657449283498797e-12,3.1132246441608995e-12,1.5766766739518426e-12,6.803550101450495e-09,5.910225273636063e-09,5.4050096285543426e-09,4.591268010593267e-09,3.6841794631672374e-09,3.0025944560847987e-09,2.581423240056878e-09,1.9404097215783974e-09,1.5832989305683832e-09,1.3558783857677858e-09,1.0037024281186646e-09,8.036414893692293e-10,5.824854567383637e-10,4.4693639270286963e-10,3.422924141561227e-10,2.342865306548523e-10,1.66354746202835e-10,1.1206527602843964e-10,7.487590300851979e-11,5.081342407003341e-11,3.369254067322742e-11
0.0,19,19.0,0.0,30.0,0.0,0.0,0.0,0.0,-13.0,0.0,2.0,0.0,0.0,0.0,1.1045436779382141e-09,8.271648903144565e-10,6.512284127471955e-10,4.432599171197434e-10,3.3580874432233497e-10,2.2548540380948417e-10,1.6781179422699553e-10,1.1318361679914845e-10,8.168925952598838e-11,5.839786357284793e-11,3.68834738765988e-11,2.5978982622640956e-11,1.5788053253979434e-11,9.584413254480641e-12,5.616185694436853e-12,3.1059814167150572e-12,1.6585112541374915e-12,6.774730564447625e-09,5.7301370181661036e-09,5.320686332206337e-09,4.368856247710781e-09,3.862715397812599e-09,3.0394466805875733e-09,2.5722798836113668e-09,2.008496929843816e-09,1.609972223421161e-09,1.3029838023044602e-09,9.690652478718932e-10,7.64469913302495e-10,5.912424842926278e-10,4.698069302125473e-10,3.424260943734749e-10,2.3302988017847534e-10,1.6246637068878486e-10,1.1434312168470708e-10,7.62652514810569e-11,5.0432271786145294e-11,3.238175992855688e-11
0.0,20,20.0,0.0,30.0,0.0,0.0,0.0,0.0,-13.0,0.0,2.0,0.0,0.0,0.0,1.058729502080275e-09,8.391168606033021e-10,5.860099953157872e-10,4.4926571961178775e-10,3.2481894053938277e-10,2.2667300047927295e-10,1.7314062796976537e-10,1.2262541509943374e-10,8.78639894656674e-11,6.004012392854134e-11,4.140672919771194e-11,2.616070890846022e-11,1.6863147337621294e-11,9.590405934751041e-12,5.390361503974017e-12,3.0902100738560618e-12,1.6577760209846108e-12,6.5517365613151145e-09,6.334663369132944e-09,5.2218580649896805e-09,4.49545648546654e-09,3.8213723616392025e-09,2.99789196024241e-09,2.5563560008901754e-09,2.0176421514113326e-09,1.6773179453254666e-09,1.343229548637423e-09,1.0617993618894797e-09,8.340015993259873e-10,6.259374193630391e-10,4.427125154390839e-10,3.459305422344095e-10,2.4476188579939134e-10,1.601703014625788e-10,1.1575889722699547e-10,7.684828441514523e-11,5.1913225641230326e-11,3.3560002916544966e-11
0.0,21,21.0,0.0,30.0,0.0,0.0,0.0,0.0,-13.0,0.0,2.0,0.0,0.0,0.0,1.0868351659943745e-09,7.864592940299797e-10,5.912148863258455e-10,4.26641769444287e-10,3.196831747186247e-10,2.3245093492497067e-10,1.6411171306413647e-10,1.195346755561745e-10,8.473816541202532e-11,5.908944260085654e-11,3.935076672652769e-11,2.4777338999137838e-11,1.6085048878967315e-11,9.452819801945175e-12,5.445781978947664e-12,2.837281258357177e-12,1.5375105996084214e-12,6.405343329531989e-09,5.939012979727508e-09,5.5000543483745764e-09,4.371293169964073e-09,3.7431246069269445e-09,3.0464053087689878e-09,2.394888696563417e-09,1.964513814923962e-09,1.7294197112120905e-09,1.309399208565925e-09,1.0674490445601019e-09,7.581048473009056e-10,6.350539540124463e-10,4.624459053090611e-10,3.3388910301409415e-10,2.2923752252552367e-10,1.647103769516303e-10,1.1761628208523074e-10,7.729704523322886e-11,5.0556462397258424e-11,3.367663757084916e-11
0.0,22,22.0,0.0,30.0,0.0,0.0,0.0,0.0,-13.0,0.0,2.0,0.0,0.0,0.0,1.1032082237991023e-09,8.06591102994798e-10,5.89645762122331e-10,4.079481550610989e-10,3.417893808438222e-10,2.191671227471328e-10,1.6610262233574245e-10,1.2413576237540545e-10,8.837610861063809e-11,5.640802298822059e-11,3.9129992550228685e-11,2.487721911699744e-11,1.6265779545486877e-11,9.987211744616471e-12,5.556037287989248e-12,2.880509905650281e-12,1.4656396330000852e-12,6.738556007792996e-09,6.0986486885103755e-09,5.089103313372927e-09,4.535097626648448e-09,3.801602094378273e-09,3.0916390232713158e-09,2.503539622469573e-09,2.086294413820698e-09,1.61050604993964e-09,1.3307237233651473e-09,9.958890269604204e-10,8.040460736962608e-10,6.171234834750449e-10,4.4877808057219563e-10,3.3112021226969783e-10,2.3068864220375933e-10,1.4959724468772173e-10,1.0867164091316818e-10,7.656597600439129e-11,5.345315649157325e-11,3.3346903518594754e-11
0.0,23,23.0,0.0,30.0,0.0,0.0,0.0,0.0,-13.0,0.0,2.0,0.0,0.0,0.0,1.0759709208295796e-09,7.954330207270899e-10,5.916085235082852e-10,4.542829718679992e-10,3.1187426816458546e-10,2.2804839697519614e-10,1.6783619794386683e-10,1.266360288667574e-10,8.514846575538778e-11,5.896817113579042e-11,3.9000364650882547e-11,2.5258038124364725e-11,1.479517917554223e-11,9.651907478412873e-12,5.225489711013096e-12,2.9562022144578924e-12,1.5687769628236934e-12,6.389840791116403e-09,6.202621856782821e-09,5.183947268233214e-09,4.527376640004984e-09,3.5191205182720677e-09,3.0228347026494875e-09,2.5165098915372702e-09,2.043503651046567e-09,1.7062087690356945e-09,1.3525997904537023e-09,1.051381661360128e-09,7.974035051658764e-10,6.225611915110606e-10,4.209983335717686e-10,3.325284152427723e-10,2.3053232298793144e-10,1.5715641439228985e-10,1.1953627775907343e-10,8.003428492935057e-11,5.192610576180176e-11,3.4201869701361196e-11
0.0,24,24.0,0.0,30.0,0.0,0.0,0.0,0.0,-13.0,0.0,2.0,0.0,0.0,0.0,1.1252699156156938e-09,7.782993623901621e-10,5.796374791953822e-10,4.3795210380599673e-10,3.1605457328121735e-10,2.361695342060589e-10,1.7053009445470516e-10,1.2216389695574714e-10,8.751231480053879e-11,6.179103489529599e-11,3.861589727583333e-11,2.5792111176792908e-11,1.6372420316974698e-11,9.552098171230527e-12,5.251689731083963e-12,2.8309608333137657e-12,1.5817706122502153e-12,7.041631527683713e-09,6.137346489180125e-09,5.356694153500874e-09,4.2502840394434585e-09,3.8018440799324625e-09,3.056838888430251e-09,2.5150590590467154e-09,1.9536270059866856e-09,1.7270298460337127e-09,1.3135924859137124e-09,1.0396519973814103e-09,8.034951536476036e-10,6.032895044208387e-10,4.480552136133378e-10,3.354395446729793e-10,2.464143115864366e-10,1.663833122494453e-10,1.179060042218447e-10,7.628685369142496e-11,5.37244525798465e-11,3.3792011834511796e-11
0.0,25,25.0,0.0,30.0,0.0,0.0,0.0,0.0,-13.0,0.0,2.0,0.0,0.0,0.0,1.1198711821149218e-09,8.278532232581089e-10,5.625565678700442e-10,4.3666158664253166e-10,3.0968396645434465e-10,2.3147845766762496e-10,1.7054313299641534e-10,1.3327541089248358e-10,8.504168416108656e-11,6.119497061149453e-11,4.077888586874926e-11,2.540047111845568e-11,1.6110990449272e-11,9.252331659845725e-12,5.3868162181580564e-12,2.9325568688576686e-12,1.5375761400308229e-12,6.7167860677005e-09,6.013843991265793e-09,5.1121893149487796e-09,4.385075544376186e-09,3.864971257961488e-09,3.1590728519353313e-09,2.5133555257613676e-09,2.093672970312289e-09,1.7339122622095568e-09,1.303280999634506e-09,1.029940989045076e-09,8.07969864333397e-10,5.996354333244819e-10,4.3514321403404134e-10,3.289348378520463e-10,2.343398138134243e-10,1.6285662971978859e-10,1.1503278349708739e-10,7.735280920183311e-11,5.2948052171681215e-11,3.545483133399758e-11
0.0,26,26.0,0.0,30.0,0.0,0.0,0.0,0.0,-13.0,0.0,2.0,0.0,0.0,0.0,1.1037870371796361e-09,8.229945976714123e-10,6.028666563757087e-10,4.25078085105242e-10,3.1717610510913635e-10,2.41279699202716e-10,1.736057204811471e-10,1.2244541461565104e-10,8.997464118905789e-11,6.161181870379384e-11,3.9027359434416084e-11,2.568879400915787e-11,1.604656883828322e-11,9.713816571706283e-12,5.404662303466281e-12,2.8992845028138967e-12,1.5214800360829581e-12,6.5528554670510746e-09,6.093013548617624e-09,5.230046699370156e-09,4.411900567878539e-09,3.633210071756157e-09,3.150595460495916e-09,2.4345475075757234e-09,2.036296877119384e-09,1.7348028353844156e-09,1.3566202547826292e-09,1.0621141989126966e-09,8.027155494596598e-10,5.963372987337066e-10,4.5297920594194163e-10,3.409683050902754e-10,2.02568560415815e-10,1.6255438204898164e-10,1.1248001002516912e-10,7.727799593791783e-11,5.4645585103861616e-11,3.456328514344267e-11
0.0,27,27.0,0.0,30.0,0.0,0.0,0.0,0.0,-13.0,0.0,2.0,0.0,0.0,0.0,1.0659907581512249e-09,8.006039954428356e-10,5.920507087198866e-10,4.35084514775701e-10,3.2334509513557035e-10,2.271076914203035e-10,1.7113531655295339e-10,1.2194542652782094e-10,8.664064671446205e-11,6.026501581654179e-11,3.8772078224465065e-11,2.4530841679554105e-11,1.468981758833116e-11,9.361602528300362e-12,5.26398168932422e-12,2.9751723710440975e-12,1.4036544807151528e-12,6.925839510652734e-09,6.138808673820167e-09,4.93950149760455e-09,4.4962256924080455e-09,3.6464290141052214e-09,3.085196322877281e-09,2.5829177601802356e-09,2.0292238315373963e-09,1.6828969830165042e-09,1.274703666864143e-09,1.066019417487327e-09,8.008702274128952e-10,6.322644559730006e-10,4.3575879605671523e-10,3.369346510489301e-10,2.3206307194551435e-10,1.6691432073689572e-10,1.1213812499443942e-10,7.65612970899985e-11,5.224758963089533e-11,3.5119585127184057e-11
0.0,28,28.0,0.0,30.0,0.0,0.0,0.0,0.0,-13.0,0.0,2.0,0.0,0.0,0.0,1.0739470942577133e-09,8.101446937309523e-10,5.941849380605662e-10,4.350374018066283e-10,3.264405893839726e-10,2.323935508126098e-10,1.7754747495420192e-10,1.239872249359832e-10,8.440146323634564e-11,6.174983049089539e-11,4.008375765081557e-11,2.4826145862920457e-11,1.5000606307885685e-11,8.301570859208996e-12,4.88285723344419e-12,2.9505765707497394e-12,1.4492920453629856e-12,6.678378606527635e-09,6.1228875209712174e-09,5.509070490074271e-09,4.378961737166103e-09,3.836367256262107e-09,3.0582856796252094e-09,2.5542593396900837e-09,1.9762228144681045e-09,1.6700703191818898e-09,1.2519520796753206e-09,1.0432400288207227e-09,8.15214053853801e-10,5.972127916789512e-10,4.5026283943827363e-10,3.3021667441875383e-10,2.2323150581287496e-10,1.605962465350267e-10,1.1629678282728408e-10,8.076119916969132e-11,5.2863870595923735e-11,3.30142055309278e-11
0.0,29,29.0,0.0,30.0,0.0,0.0,0.0,0.0,-13.0,0.0,2.0,0.0,0.0,0.0,1.103427297030347e-09,8.71437965789162e-10,5.884980354461395e-10,4.2872326100739394e-10,3.4071997845016023e-10,2.395232173270521e-10,1.6843606565484987e-10,1.2223715982572853e-10,9.076849568621297e-11,5.96138243760515e-11,3.8593748230673096e-11,2.5131193455771236e-11,1.5746372381788617e-11,9.218365737316164e-12,5.174952848554324e-12,2.8060214348637954e-12,1.4456526274794193e-12,6.801686509994992e-09,6.064291973885642e-09,5.05176022137114e-09,4.57809755004404e-09,3.6218838391420045e-09,2.9875615247840062e-09,2.5985698470037206e-09,2.0452600828650323e-09,1.7136834483011425e-09,1.3493461539752093e-09,1.0184408512405425e-09,8.191911479736247e-10,6.177946770878345e-10,4.5927966975951426e-10,3.318195176672061e-10,2.4149339874110194e-10,1.758207881437202e-10,1.1580448379735945e-10,7.929506587188192e-11,5.439660551328127e-11,3.518430533698631e-11
0.0,30,30.0,0.0,30.0,0.0,0.0,0.0,0.0,-13.0,0.0,2.0,0.0,0.0,0.0,1.062282502432599e-09,8.030440644854623e-10,5.823212196936106e-10,4.471014958195425e-10,3.378984826501715e-10,2.358484613019859e-10,1.765972082929681e-10,1.3274031117504448e-10,8.551891446561392e-11,6.045961763801898e-11,4.113834433718567e-11,2.518410900512643e-11,1.5786982760951615e-11,9.219165035238061e-12,5.097596673167368e-12,2.8843005643933515e-12,1.4273651526728034e-12,6.322759329836423e-09,6.1370359287000336e-09,5.264692434540163e-09,4.462581879209711e-09,3.730965827909706e-09,3.1247253194387026e-09,2.5450669121242208e-09,2.0196325966260965e-09,1.806287940748018e-09,1.334837017302893e-09,1.0311763027402455e-09,8.229148534321934e-10,5.792722482698962e-10,4.522892219147721e-10,3.3852116994757616e-10,2.286478191757529e-10,1.6681945922625766e-10,1.1298941937154116e-10,7.551258374122916e-11,5.1213608819966814e-11,3.3707988178122224e-11
0.0,31,31.0,0.0,30.0,0.0,0.0,0.0,0.0,-13.0,0.0,2.0,0.0,0.0,0.0,1.0960433086008796e-09,8.248313536925015e-10,6.45717533739355e-10,4.4536404372276983e-10,3.28196200684695e-10,2.419379615187149e-10,1.7441358904396562e-10,1.3072936831154056e-10,9.250074537001711e-11,5.908793817246213e-11,3.9594848615398545e-11,2.573932839985571e-11,1.513558205424646e-11,9.255259364126538e-12,5.112107045941991e-12,2.793960606177099e-12,1.48227626475814e-12,6.6231369461238124e-09,6.031275844597042e-09,5.3294690388332486e-09,4.468273686532602e-09,3.641394940764261e-09,3.137611507327503e-09,2.3600296916750207e-09,2.089442640432638e-09,1.6516759049637381e-09,1.3196471904408002e-09,1.0303030727465919e-09,7.660506749917964e-10,5.850514894103252e-10,4.6150706339041504e-10,3.3121216411636164e-10,2.343025516732176e-10,1.6944525595929834e-10,1.1156769560413024e-10,8.04103675254977e-11,5.431197307133182e-11,3.5743583751190384e-11
0.0,32,32.0,0.0,30.0,0.0,0.0,0.0,0.0,-13.0,0.0,2.0,0.0,0.0,0.0,1.0762719421396123e-09,8.225707718479873e-10,6.007712892721014e-10,4.481042915261096e-10,3.3148396185761293e-10,2.4616219496624613e-10,1.7280410923719518e-10,1.2684619469241727e-10,8.849059028630569e-11,5.894556861030795e-11,4.133120962560184e-11,2.5069818870939122e-11,1.5702664798893334e-11,8.911697753543416e-12,4.900764158986665e-12,2.817745582001166e-12,1.3780105572788338e-12,7.236462933064558e-09,6.2564714615774304e-09,5.220025771852839e-09,4.189730840865736e-09,3.6623640449265934e-09,3.014794017559304e-09,2.63680342669824e-09,2.2048247309630777e-09,1.6585480742803649e-09,1.315000407867975e-09,1.040574378101378e-09,7.673919887114664e-10,5.99160244313515e-10,4.678788761118493e-10,3.328462651229904e-10,2.2608328176727667e-10,1.7351456534787982e-10,1.1355610037397283e-10,8.017272785936243e-11,5.462538463119102e-11,3.540416318959291e-11
0.0,33,33.0,0.0,30.0,0.0,0.0,0.0,0.0,-13.0,0.0,2.0,0.0,0.0,0.0,1.0310652426896788e-09,8.037904167374672e-10,5.921153445248919e-10,4.4988086644934154e-10,3.294012083355959e-10,2.438338768373541e-10,1.7299834362577395e-10,1.2381691778634905e-10,8.819027572782944e-11,5.926719831009462e-11,3.9399431099700256e-11,2.398026404158414e-11,1.488760283298299e-11,8.66009466605771e-12,4.771184739949865e-12,2.614747426701853e-12,1.3187037646691927e-12,6.824774638544292e-09,5.986944178738539e-09,5.303443885315861e-09,4.4949015001473746e-09,3.803735102823722e-09,2.9502045011996747e-09,2.3821566282911905e-09,2.034308773246287e-09,1.7224223844660397e-09,1.3355859549964698e-09,1.0686220348459846e-09,7.723841202703751e-10,5.988771883278757e-10,4.2965025416066103e-10,3.429058160247562e-10,2.3833354989253894e-10,1.6326642844968289e-10,1.1494729778048911e-10,8.201080469062582e-11,5.5249404961397654e-11,3.5754823187950355e-11
0.0,34,34.0,0.0,30.0,0.0,0.0,0.0,0.0,-13.0,0.0,2.0,0.0,0.0,0.0,1.0885985433794615e-09,8.311926526817429e-10,6.097445306987771e-10,4.611809655954961e-10,3.148038883540552e-10,2.491367165931827e-10,1.7065233481364777e-10,1.2826075306137817e-10,9.338082139038595e-11,6.057111698928651e-11,3.9019144369458187e-11,2.4496035242016738e-11,1.523265138033168e-11,9.112938190188046e-12,4.980555803811102e-12,2.6238214561302174e-12,1.3799880640436545e-12,6.81667187425944e-09,5.6332275462350416e-09,5.138440823042887e-09,4.510466612369342e-09,3.843929978807812e-09,3.183930382921806e-09,2.530105635329564e-09,2.0906810779292207e-09,1.707454068747353e-09,1.2492136223585004e-09,1.01049609899636e-09,7.950222119512369e-10,6.308093514246062e-10,4.475181820028426e-10,3.3587655389326743e-10,2.39609904630579e-10,1.7148432574611024e-10,1.1238658703333138e-10,7.96900719666057e-11,5.234518858902012e-11,3.263435766114864e-11
0.0,35,35.0,0.0,30.0,0.0,0.0,0.0,0.0,-13.0,0.0,2.0,0.0,0.0,0.0,1.050954414239343e-09,7.717707899713593e-10,5.884118542629254e-10,4.368584960405098e-10,3.3162879431889367e-10,2.379084107966319e-10,1.7141285220620744e-10,1.2972508740637444e-10,9.060518081834663e-11,5.76387613146168e-11,4.054710483489461e-11,2.6177093775247916e-11,1.449430213277789e-11,8.56447941780187e-12,4.836841880998851e-12,2.487024114483408e-12,1.3024141587244293e-12,6.338638858867201e-09,5.81092253096183e-09,5.240192703960079e-09,4.387740600393926e-09,3.5588684104510044e-09,3.004378590790115e-09,2.530575516354829e-09,2.0291654066401433e-09,1.6279578929097548e-09,1.3690897225779544e-09,1.0447530780912888e-09,8.034559360651838e-10,5.815199470086219e-10,4.5220791577822527e-10,3.246425885320511e-10,2.284810948456325e-10,1.8424824470929047e-10,1.2150791686411789e-10,8.662361603345224e-11,5.4984076712598625e-11,3.653229090616317e-11
0.0,36,36.0,0.0,30.0,0.0,0.0,0.0,0.0,-13.0,0.0,2.0,0.0,0.0,0.0,1.15545162150126e-09,8.234636008798121e-10,5.866520379911183e-10,4.301235452449725e-10,3.2219991695045706e-10,2.416373483911792e-10,1.9226797489095823e-10,1.2986260680960692e-10,8.567500957916687e-11,6.110990989420657e-11,4.0213941509962234e-11,2.601969092026426e-11,1.4569252629661643e-11,8.944989066041846e-12,4.876756500592264e-12,2.5189557181631818e-12,1.3265279025035169e-12,6.96792540481367e-09,6.099392015506926e-09,5.081064954045769e-09,4.298841385071372e-09,3.770166746848151e-09,3.094058332353401e-09,2.5930843242980207e-09,2.125315652768511e-09,1.6621764473484757e-09,1.3433443318474747e-09,1.0941157189835351e-09,7.90633389499649e-10,6.453000750038883e-10,4.3964573299270154e-10,3.1997840507627297e-10,2.452211121579531e-10,1.6732377881027022e-10,1.1676593264322322e-10,8.217243305314007e-11,5.228377664070605e-11,3.730130769463468e-11
0.0,37,37.0,0.0,30.0,0.0,0.0,0.0,0.0,-13.0,0.0,2.0,0.0,0.0,0.0,1.1325882094758295e-09,7.945328701604615e-10,5.931256289271128e-10,4.192941751415908e-10,3.2565159076487877e-10,2.4815674834550704e-10,1.7136017267350308e-10,1.3170834643785975e-10,9.30882575220851e-11,5.910080154079004e-11,3.8364331833884275e-11,2.516975952864311e-11,1.5716842672482423e-11,8.476681057582764e-12,4.773629277611546e-12,2.6300910511356252e-12,1.2945769088654713e-12,6.156881636646e-09,5.749071798296983e-09,5.358330331951498e-09,4.608179300221923e-09,3.808352782725705e-09,2.9806482702262343e-09,2.4332009107909182e-09,2.159189543709248e-09,1.716160515312577e-09,1.3240093125617476e-09,1.0641174205209709e-09,8.056452799018154e-10,6.120289543377474e-10,4.5267155465570685e-10,3.1731795551723085e-10,2.2971584050527796e-10,1.7071543810460143e-10,1.1585077460960211e-10,8.671163220174032e-11,5.790339184477304e-11,3.6375660259361515e-11
0.0,38,38.0,0.0,30.0,0.0,0.0,0.0,0.0,-13.0,0.0,2.0,0.0,0.0,0.0,1.0098343485394693e-09,7.974956852971181e-10,5.93448597393087e-10,4.489130698637501e-10,3.3505541796015704e-10,2.2939939819927257e-10,1.7392354605548e-10,1.2830738215074374e-10,8.668773875874232e-11,6.389838109620949e-11,3.8990671386317714e-11,2.3841898436324372e-11,1.5472267408477777e-11,8.512843239211401e-12,4.911875977602714e-12,2.506510344537754e-12,1.2697234618154537e-12,6.657652298199191e-09,6.2481581256628946e-09,5.124994005296552e-09,4.789157266416389e-09,3.6989580754385886e-09,3.1772571385153017e-09,2.6294350694097886e-09,2.0730790027157656e-09,1.6855842160128493e-09,1.256375085468264e-09,1.0486063016497344e-09,7.849078051943697e-10,6.187532619271849e-10,4.181469991915503e-10,3.225152070906158e-10,2.421451704286562e-10,1.709106067193801e-10,1.2083060283142703e-10,8.214065670975682e-11,5.5441328539235677e-11,3.5708893816441436e-11
0.0,39,39.0,0.0,30.0,0.0,0.0,0.0,0.0,-13.0,0.0,2.0,0.0,0.0,0.0,1.1871885808837955e-09,8.081112140527889e-10,5.81263455107566e-10,4.579739717654609e-10,3.271285638688519e-10,2.3929569331221664e-10,1.7800512409563613e-10,1.2705892251286918e-10,9.327882909192996e-11,6.036251039758715e-11,4.0879308156994085e-11,2.5226821825870213e-11,1.5277005260492996e-11,9.069514615750315e-12,4.7770874664255855e-12,2.434746385328532e-12,1.2626244223199337e-12,6.795502102365319e-09,6.2134170811403115e-09,5.317951242955226e-09,4.400139773837928e-09,3.9080074672932075e-09,3.066165759471533e-09,2.6328361766585776e-09,2.0153178857579295e-09,1.6312883600825913e-09,1.2765726318836743e-09,9.765536219037211e-10,7.894356061901916e-10,6.08786074552412e-10,4.2600449934518275e-10,3.338294342058096e-10,2.366276884270165e-10,1.7043655001129918e-10,1.232471483014468e-10,8.377160575419106e-11,5.38867274608545e-11,3.6599574820987067e-11
0.0,40,40.0,0.0,30.0,0.0,0.0,0.0,0.0,-13.0,0.0,2.0,0.0,0.0,0.0,1.07875072046559e-09,8.272244784106855e-10,5.948856260153291e-10,4.727289020289308e-10,3.2018307308378506e-10,2.42652652291567e-10,1.7911194452527168e-10,1.2920586324235772e-10,8.899315849178664e-11,6.096569775804523e-11,4.1420849357155046e-11,2.512516898941111e-11,1.491438161404069e-11,8.09634924441415e-12,4.570483420189928e-12,2.5273869945530586e-12,1.2164269345620707e-12,6.947419054745711e-09,5.602872489023027e-09,5.380230513407419e-09,4.40108934342759e-09,3.7696533225890025e-09,3.0620533716915766e-09,2.521782802399391e-09,2.0172019797743527e-09,1.6794804401965391e-09,1.2533837178029232e-09,1.0389855164297268e-09,8.25090286673335e-10,5.883672972390316e-10,4.4635699352119437e-10,3.3381204526119336e-10,2.419986199934547e-10,1.7443775347413322e-10,1.2322477601789673e-10,8.35940543704233e-11,5.600898520578086e-11,3.7021563550262176e-11
0.0,41,41.0,0.0,30.0,0.0,0.0,0.0,0.0,-13.0,0.0,2.0,0.0,0.0,0.0,1.0482777747335053e-09,7.796693014024563e-10,6.051079358616236e-10,4.4442782445591504e-10,3.342876545632726e-10,2.3976031720757726e-10,1.7352047904808495e-10,1.2631658188939012e-10,8.980813046988309e-11,6.017911085212308e-11,3.860159122620999e-11,2.483366431329946e-11,1.537403169568366e-11,8.105797014007469e-12,4.580056989664906e-12,2.2843576222143813e-12,1.196934406037678e-12,6.64935442631263e-09,6.153584689404195e-09,5.294425410429608e-09,4.653425979185138e-09,3.734488306682509e-09,3.1654191700207534e-09,2.584982636827813e-09,2.0550530771370476e-09,1.6923859142140863e-09,1.3079867513439978e-09,9.75092105486834e-10,7.904697889842274e-10,6.016625802891795e-10,4.4250644117757956e-10,3.3329652457631143e-10,2.2905894329865387e-10,1.725301704355103e-10,1.2484659381587999e-10,8.362348311930857e-11,5.561895945648469e-11,3.781115817391762e-11
0.0,42,42.0,0.0,30.0,0.0,0.0,0.0,0.0,-13.0,0.0,2.0,0.0,0.0,0.0,1.051440931524991e-09,8.582711238141429e-10,6.131363741955406e-10,4.541002014021605e-10,3.1072077589118095e-10,2.493029701833144e-10,1.885581236215708e-10,1.2472891931103883e-10,9.212149882633738e-11,5.802960066034175e-11,3.762430116224649e-11,2.4009908147375866e-11,1.5016309999682947e-11,8.646661988820301e-12,4.394228641249694e-12,2.3915741146682767e-12,1.1416222950224676e-12,6.765058291710567e-09,6.071716411896713e-09,5.06845097343626e-09,4.490418500992619e-09,3.611695584303947e-09,2.982431590951789e-09,2.523344737802946e-09,1.9286038554656858e-09,1.6616779907961983e-09,1.3140109352062217e-09,1.0430645501990371e-09,7.838101338011906e-10,5.98589846229024e-10,4.469817297786145e-10,3.305739716285326e-10,2.4854884276930746e-10,1.773859030604733e-10,1.2075210599921194e-10,9.016596943149321e-11,5.5213077585498996e-11,3.5314637052811715e-11
0.0,43,43.0,0.0,30.0,0.0,0.0,0.0,0.0,-13.0,0.0,2.0,0.0,0.0,0.0,1.0998879027831711e-09,8.230025179319444e-10,6.192481715095615e-10,4.418737467287439e-10,3.4951014668935737e-10,2.392347240505105e-10,1.9317472650304094e-10,1.3039022047461033e-10,8.993076488877068e-11,6.360317909230069e-11,3.9853937325642636e-11,2.4958025003493372e-11,1.4727838791045524e-11,8.08928852979902e-12,4.336940026948664e-12,2.287653261642769e-12,1.1946401579633576e-12,6.578800029154674e-09,6.190687024169426e-09,5.3768508330560385e-09,4.2855075755153915e-09,3.7833119408076825e-09,2.9403728225834666e-09,2.586694897802421e-09,2.1398416334708304e-09,1.614505932129434e-09,1.3478963822847176e-09,1.0431930882682669e-09,7.910226407342596e-10,5.963463744503141e-10,4.6493084257246443e-10,3.2352261868098464e-10,2.327281842016472e-10,1.7512045512195423e-10,1.2629922620955695e-10,8.871381922445839e-11,5.7379873646503905e-11,3.7423473361986754e-11
0.0,44,44.0,0.0,30.0,0.0,0.0,0.0,0.0,-13.0,0.0,2.0,0.0,0.0,0.0,1.0448511373924466e-09,8.151669599826763e-10,6.251612411206898e-10,4.44002656403686e-10,3.35707344887919e-10,2.433230124437575e-10,1.8983233332346655e-10,1.3196386033843971e-10,9.103464894065109e-11,6.20681544358622e-11,3.992936530066173e-11,2.3412009199763584e-11,1.4755534074809762e-11,7.992758532417204e-12,4.360569119929039e-12,2.2656081386168503e-12,1.0910658230168003e-12,6.389414619387451e-09,6.098867468223322e-09,5.2764147748903116e-09,4.09689476979817e-09,3.660860320529263e-09,3.016252713078106e-09,2.593412708944668e-09,2.1177174385531236e-09,1.7096657073977432e-09,1.331508167348515e-09,1.0323621926058846e-09,7.991861788222698e-10,5.75003154643467e-10,4.3186192256090513e-10,3.2639534779198213e-10,2.479210949933219e-10,1.762822328407049e-10,1.1982849780637257e-10,9.323984141256005e-11,5.756071500244868e-11,3.579624121249162e-11
0.0,45,45.0,0.0,30.0,0.0,0.0,0.0,0.0,-13.0,0.0,2.0,0.0,0.0,0.0,1.035680007849696e-09,8.26675857700405e-10,6.419335954778842e-10,4.552359421990458e-10,3.2866829012805945e-10,2.445987555384244e-10,1.770365606864253e-10,1.2673172603308333e-10,9.720777492831182e-11,5.86317319473088e-11,3.916414967856036e-11,2.338136447255213e-11,1.4341986823378382e-11,7.967284525010923e-12,4.319442663748756e-12,2.3430823723161547e-12,1.1049519861052834e-12,6.560820508768901e-09,6.219233122497039e-09,5.470210968907521e-09,4.497396937988761e-09,3.806382634345602e-09,3.005212439493603e-09,2.587720010295288e-09,2.0713410118642283e-09,1.7074898729199909e-09,1.2880438500980428e-09,1.0251982930286298e-09,7.677489458416931e-10,5.834212697423966e-10,4.472085303844382e-10,3.3828357781253593e-10,2.2921853831281927e-10,1.810492764624139e-10,1.346516260639803e-10,8.890533344737221e-11,5.62470381259634e-11,3.63030207214078e-11
0.0,46,46.0,0.0,30.0,0.0,0.0,0.0,0.0,-13.0,0.0,2.0,0.0,0.0,0.0,1.1016269544808516e-09,8.288571171896031e-10,6.032851040454737e-10,4.473118871056207e-10,3.162770253361156e-10,2.5539348790608784e-10,1.709304079498575e-10,1.273248433981178e-10,8.848710899046936e-11,6.032940573070252e-11,4.1625180975125645e-11,2.489015289085716e-11,1.3611003285552038e-11,7.481659507152241e-12,4.341160648076345e-12,2.1409905283540858e-12,1.0866611374691926e-12,6.440485502829036e-09,5.962053002541175e-09,5.2516233164571854e-09,4.279429043534778e-09,3.6261774986220867e-09,3.034832551345344e-09,2.629314748537089e-09,2.0798630338292452e-09,1.6766858325901159e-09,1.3989119355117883e-09,1.0568366864631459e-09,7.882306269880374e-10,6.213338585407493e-10,4.750960491107415e-10,3.4631433626346466e-10,2.3735128522417065e-10,1.843534013512484e-10,1.3082429478064574e-10,8.783336341572355e-11,6.001842064602556e-11,3.6901347641156965e-11
0.0,47,47.0,0.0,30.0,0.0,0.0,0.0,0.0,-13.0,0.0,2.0,0.0,0.0,0.0,1.0466529428963452e-09,7.844230564514385e-10,5.93184856199312e-10,4.4071060097511355e-10,3.4586088168700805e-10,2.5059981102034323e-10,1.8649828456958524e-10,1.3026841064319603e-10,8.743211656831897e-11,6.030187343786445e-11,3.8996233834240985e-11,2.3396229033904158e-11,1.4018483873396506e-11,7.56948694311087e-12,4.332449547599879e-12,2.1003327079593085e-12,1.114631708258154e-12,6.839402704491768e-09,5.9456857509083335e-09,5.402666044765351e-09,4.3781271908442145e-09,3.684996697767079e-09,3.132341629168522e-09,2.6171433971734587e-09,2.042733126245531e-09,1.5976383294135048e-09,1.331799546100843e-09,1.0197055924800519e-09,7.886277095136034e-10,6.000927981804089e-10,4.475945645149287e-10,3.2901848179334103e-10,2.334320734320782e-10,1.825164184987263e-10,1.3148167471461505e-10,8.385438845573263e-11,5.427174668376632e-11,3.8262400749875875e-11
0.0,48,48.0,0.0,30.0,0.0,0.0,0.0,0.0,-13.0,0.0,2.0,0.0,0.0,0.0,1.0740991900899637e-09,8.200777908321864e-10,6.057881961151951e-10,4.2420043941916064e-10,3.5164987886811097e-10,2.705870217466834e-10,1.8663881909912603e-10,1.319293082635707e-10,9.531968137040757e-11,6.143211308677816e-11,3.840783906773e-11,2.432302781766701e-11,1.4009022898223578e-11,7.857337587511473e-12,4.1017145867894475e-12,2.0196058802056315e-12,1.0464386824348726e-12,6.744600524356467e-09,5.6617599043139e-09,5.326456987321214e-09,4.576527959699415e-09,3.5732040436706254e-09,3.0304383484511353e-09,2.53783055170958e-09,2.143061926785758e-09,1.554462873986467e-09,1.2472443521593453e-09,1.0750917479471753e-09,7.767396870018297e-10,6.021389169923894e-10,4.421672294694076e-10,3.2776182834881887e-10,2.619826910767772e-10,1.7795157626410553e-10,1.3419052655113717e-10,8.865173476498479e-11,6.073124435478632e-11,3.598886649648115e-11
0.0,49,49.0,0.0,30.0,0.0,0.0,0.0,0.0,-13.0,0.0,2.0,0.0,0.0,0.0,1.1014040536448725e-09,8.034085422012307e-10,5.992578427265686e-10,4.5040112087031456e-10,3.467746649752968e-10,2.495447449387539e-10,1.8174746906588238e-10,1.3454735026833938e-10,8.95918898182208e-11,5.917053100280982e-11,3.845879099945586e-11,2.313204370230506e-11,1.3875290051483736e-11,7.874852853021811e-12,4.104263485871201e-12,2.1114209871875176e-12,1.0294517466873983e-12,6.684023265380555e-09,6.221517386805089e-09,5.3221488077004666e-09,4.700808955315894e-09,3.6729115800832093e-09,2.9687522860669665e-09,2.4235139468084113e-09,2.060867011335761e-09,1.5781230977778263e-09,1.341809914865525e-09,1.0067282321992707e-09,8.022247125571141e-10,6.121363926291739e-10,4.4427923447515374e-10,3.484775130697968e-10,2.618933498931787e-10,1.883613382097569e-10,1.2738520778399746e-10,9.479710996046537e-11,6.043839664508412e-11,3.629646166050241e-11
0.0,50,50.0,0.0,30.0,0.0,0.0,0.0,0.0,-13.0,0.0,2.0,0.0,0.0,0.0,1.0507724992985058e-09,8.677303850050898e-10,6.35363337148099e-10,4.809295662299775e-10,3.396372339875765e-10,2.732432944404408e-10,1.7978663776597537e-10,1.3354987895247918e-10,9.098702257263681e-11,6.029305607494711e-11,3.713294614285518e-11,2.3078160550595876e-11,1.368980186805127e-11,7.54924452573461e-12,4.122733529425876e-12,2.0831004110233636e-12,9.300464241364931e-13,6.7438318852028994e-09,6.188916066318032e-09,5.372865978446962e-09,4.331443430663198e-09,3.6827556847801887e-09,3.0301455574226376e-09,2.5193987830342484e-09,2.092311711746025e-09,1.6990854575738164e-09,1.285384933326407e-09,9.791442388987154e-10,8.131608780735005e-10,6.234190472204542e-10,4.611904733007974e-10,3.4265661354839703e-10,2.4570486946008037e-10,1.7684707320847438e-10,1.3023085552180425e-10,8.7596835026742e-11,5.829756305435652e-11,3.767967904060919e-11
0.0,51,51.0,0.0,30.0,0.0,0.0,0.0,0.0,-13.0,0.0,2.0,0.0,0.0,0.0,1.1028551299448573e-09,8.288947357873327e-10,6.14456568586721e-10,4.3698674156406755e-10,3.3466457645524114e-10,2.4847831587889325e-10,1.9205877387923149e-10,1.3907270023504518e-10,8.733588635743923e-11,5.6760483467605996e-11,3.876327175661091e-11,2.427442750977188e-11,1.3262539784826736e-11,7.439057032164048e-12,3.914306066276604e-12,2.0923980743193216e-12,9.345090940442096e-13,6.843074726239306e-09,6.050265802801728e-09,5.295911779470683e-09,4.369609760739046e-09,3.5593474453097157e-09,3.041361165330788e-09,2.4872271125168484e-09,2.122582622901363e-09,1.6683969390959923e-09,1.3181335549120408e-09,1.0583806212733218e-09,8.01055499355772e-10,6.08714681793707e-10,4.69081777751259e-10,3.407173637742253e-10,2.51651750703436e-10,1.883431248066089e-10,1.3866296986433456e-10,8.72772778722369e-11,5.947161419038918e-11,3.50671541417868e-11
0.0,52,52.0,0.0,30.0,0.0,0.0,0.0,0.0,-13.0,0.0,2.0,0.0,0.0,0.0,1.1024236404662948e-09,8.221967994830091e-10,6.443650480067916e-10,4.467401707392731e-10,3.458707849805567e-10,2.580733831937525e-10,1.9389889568326198e-10,1.3367296579977412e-10,8.852100491791692e-11,6.283708652639649e-11,3.7413634388296636e-11,2.381931171739791e-11,1.3773130747395175e-11,7.58575048098371e-12,3.9106879956521535e-12,1.9603727979870015e-12,1.003916993447466e-12,6.89078822295614e-09,5.972891112511367e-09,5.179044554022983e-09,4.7414482221742545e-09,3.819466813625268e-09,3.1552732532412797e-09,2.5350454376047887e-09,1.9948742616613944e-09,1.676551537858659e-09,1.3570657157655972e-09,1.0271818041657048e-09,8.019762783324554e-10,6.252553668532908e-10,4.741367989438832e-10,3.449827296410417e-10,2.4568350748761983e-10,1.8675480096587058e-10,1.2554920048842957e-10,9.640693223427768e-11,6.217993316395545e-11,3.6130342867413016e-11
0.0,53,53.0,0.0,30.0,0.0,0.0,0.0,0.0,-13.0,0.0,2.0,0.0,0.0,0.0,1.0563586088675418e-09,7.856057565147747e-10,6.012432563092659e-10,4.610929069504989e-10,3.4462554689822377e-10,2.535943785623149e-10,1.9597656267540413e-10,1.2848481017667666e-10,8.936552876519118e-11,5.952739640219262e-11,3.766674596714722e-11,2.3811419224040255e-11,1.3325110925475613e-11,7.012979836831014e-12,3.688439412273049e-12,2.03252984495929e-12,9.398710588397366e-13,6.852412196299122e-09,5.9509315444498385e-09,5.556162175973366e-09,4.406896272291562e-09,3.691916950186884e-09,3.0302141159039805e-09,2.527617779763266e-09,2.055961505892965e-09,1.5912751283627332e-09,1.3033140847463778e-09,1.0639576193747723e-09,7.456499153582849e-10,6.107430731293089e-10,4.43477552433408e-10,3.663348740393282e-10,2.5140010462762834e-10,1.777801454304892e-10,1.326032125643535e-10,9.659479664654414e-11,5.948856039303371e-11,3.7745868442453176e-11
0.0,54,54.0,0.0,30.0,0.0,0.0,0.0,0.0,-13.0,0.0,2.0,0.0,0.0,0.0,1.0625474717297431e-09,7.856732141204424e-10,6.026377976722731e-10,4.409190451713888e-10,3.5885752307015116e-10,2.582241261223422e-10,1.8219777419461985e-10,1.3312391040642188e-10,8.664916012121441e-11,5.926136272094522e-11,3.791359357896954e-11,2.203464839757897e-11,1.3143168171788564e-11,7.254524213332367e-12,3.758816931589007e-12,1.97316874264123e-12,9.662815573209906e-13,6.632825117385008e-09,6.171104267725981e-09,5.240998537553384e-09,4.287285860625533e-09,3.871009272638849e-09,3.0739244349688497e-09,2.5821206807605445e-09,1.929147651409267e-09,1.6931674555166407e-09,1.2629348257657877e-09,1.016248841547851e-09,7.948376677733478e-10,5.922220812416939e-10,4.741125092064413e-10,3.60382490832948e-10,2.523863541880836e-10,1.9193893638119307e-10,1.2981191906078978e-10,9.043243652942593e-11,6.070270131935424e-11,3.8955347496814805e-11
0.0,55,55.0,0.0,30.0,0.0,0.0,0.0,0.0,-13.0,0.0,2.0,0.0,0.0,0.0,1.0765598287896783e-09,8.084025950064416e-10,6.070008474000963e-10,4.701953451057744e-10,3.48875248001303e-10,2.6241913436855543e-10,1.878846000245742e-10,1.325211814440898e-10,8.905224739017271e-11,5.870464309664636e-11,3.827376593389499e-11,2.3117041824296697e-11,1.3107512888337829e-11,6.772272644512278e-12,3.799942871137181e-12,1.8480559706150067e-12,8.721700310870347e-13,6.3942462377067296e-09,6.055978088983094e-09,5.34523410064468e-09,4.464572736543009e-09,3.4621236366505775e-09,2.969217705339854e-09,2.496515989875613e-09,1.9705578226263357e-09,1.6165458382549507e-09,1.336298190224748e-09,1.0127753909538919e-09,8.241364199483657e-10,6.103365124976168e-10,4.461705371448802e-10,3.4046592407562485e-10,2.68115220091409e-10,1.7661296776559253e-10,1.4487538829089827e-10,9.169139443539115e-11,5.872285518921946e-11,3.962349464548264e-11
0.0,56,56.0,0.0,30.0,0.0,0.0,0.0,0.0,-13.0,0.0,2.0,0.0,0.0,0.0,1.070111752976093e-09,8.366515343785595e-10,6.025587837543335e-10,4.884638875242548e-10,3.4676477678780254e-10,2.5805334946194423e-10,1.862737565766564e-10,1.262108665473064e-10,8.984164663803272e-11,6.052308368248751e-11,3.836401294021435e-11,2.1399876222163517e-11,1.2716135345989707e-11,6.772638734806359e-12,3.691582786463135e-12,1.905973083596278e-12,8.954648741337692e-13,7.0657892173832204e-09,5.744066770702943e-09,5.0046419404754305e-09,4.670778414232915e-09,3.769562906039064e-09,2.9396712424462843e-09,2.539851087286552e-09,2.1674708552140855e-09,1.6731682116545627e-09,1.3500300415952285e-09,1.0219847303583138e-09,7.955172416010809e-10,6.126622029716938e-10,4.849166708365946e-10,3.5210256014661857e-10,2.596091940939651e-10,1.9443198577840867e-10,1.3263572361093372e-10,8.968689289871013e-11,6.038261006728183e-11,3.610302753973463e-11
0.0,57,57.0,0.0,30.0,0.0,0.0,0.0,0.0,-13.0,0.0,2.0,0.0,0.0,0.0,1.0548245164856532e-09,8.131428779437838e-10,6.385345921428398e-10,4.6118433787859363e-10,3.61760421400468e-10,2.629695801405931e-10,1.889588788011737e-10,1.3379494069100388e-10,9.223727686259413e-11,5.963778601900516e-11,3.713647233736424e-11,1.9516693168456254e-11,1.2421990993147413e-11,6.985876897198331e-12,3.6032592533720883e-12,1.7270414051050815e-12,9.001976472146087e-13,6.936450594320427e-09,6.231186288000846e-09,5.257633349238118e-09,4.425466887524503e-09,3.577604220004262e-09,3.1180959599825304e-09,2.669130046722584e-09,2.0155753459836447e-09,1.6475101097542907e-09,1.327331854898077e-09,1.0344835373231033e-09,8.053040457907536e-10,6.384352850761262e-10,4.390401454958037e-10,3.664667512183169e-10,2.73824428231992e-10,1.927217627414088e-10,1.3797439149998278e-10,9.474717797317705e-11,5.917135126518858e-11,3.7547286857707687e-11
0.0,58,58.0,0.0,30.0,0.0,0.0,0.0,0.0,-13.0,0.0,2.0,0.0,0.0,0.0,1.0545305337077893e-09,8.247678898630411e-10,5.973039994820519e-10,4.629749934353552e-10,3.55933794039507e-10,2.6886320663604605e-10,1.9266843992258238e-10,1.276668692909426e-10,9.38413259023453e-11,5.615374576506329e-11,3.675223981167013e-11,2.1889567501451935e-11,1.324858948885267e-11,6.665389707190774e-12,3.467809358238439e-12,1.8039290634187485e-12,8.237752596182085e-13,6.825685083578365e-09,6.025882954729109e-09,5.047139242992408e-09,4.6616233429951605e-09,3.654389850913505e-09,2.9793402570613736e-09,2.4879885831777674e-09,2.1041594368918336e-09,1.7680751528188955e-09,1.3193962594883972e-09,1.025130470453797e-09,7.898234705487452e-10,6.130005165961828e-10,4.816700209427823e-10,3.584164277264856e-10,2.770881982294533e-10,1.937176973596655e-10,1.3428600611264521e-10,9.38393322798203e-11,6.076074175729105e-11,3.761656673460382e-11
0.0,59,59.0,0.0,30.0,0.0,0.0,0.0,0.0,-13.0,0.0,2.0,0.0,0.0,0.0,1.064523102155199e-09,7.877985834500211e-10,6.044209967412432e-10,4.776146918746216e-10,3.5818989141833807e-10,2.6634106894306407e-10,1.9595533331485252e-10,1.3293603736694354e-10,9.085890567720661e-11,6.010181936356674e-11,3.601802602409959e-11,2.2836295521304844e-11,1.1639875461327632e-11,6.799897229521843e-12,3.450365479041468e-12,1.7046443298807467e-12,8.178796955729202e-13,6.693352869464916e-09,6.043761323415935e-09,5.36206866255713e-09,4.348809062972815e-09,3.8835559636364224e-09,3.1339910553487647e-09,2.6209034388059643e-09,2.1527829435859375e-09,1.6656598490432217e-09,1.3568547257009228e-09,1.0369801522693453e-09,7.783789569905832e-10,6.323966119005985e-10,4.751918271812e-10,3.683672480010446e-10,2.7032737415644827e-10,1.9836394556615128e-10,1.4625972900159073e-10,9.58620179481084e-11,6.04955651881108e-11,3.923444116426855e-11
0.0,60,60.0,0.0,30.0,0.0,0.0,0.0,0.0,-13.0,0.0,2.0,0.0,0.0,0.0,1.1005441080873652e-09,8.259226753003245e-10,6.249206284901809e-10,4.733883090409416e-10,3.573793044058673e-10,2.7553052167955024e-10,1.9209774753697656e-10,1.3572588511092846e-10,9.01753077483872e-11,5.6226328411761244e-11,3.587283869862234e-11,2.114684436655218e-11,1.1947290983284673e-11,6.367454046502751e-12,3.4241683938704117e-12,1.6864261894493122e-12,7.373529650776207e-13,6.440303794349662e-09,6.3724432462999034e-09,5.065351056414121e-09,4.422124800022421e-09,3.67241638079935e-09,3.013378739984937e-09,2.486850254077327e-09,1.9868809081792987e-09,1.7067549464256875e-09,1.3758433843198765e-09,1.0097655345269596e-09,8.20301122452256e-10,5.929198457390627e-10,4.714280754270684e-10,3.50201207295454e-10,2.6532655915082035e-10,1.9577997469711625e-10,1.3955939209359266e-10,1.0028448115411937e-10,6.06319216060222e-11,3.610315879020202e-11
0.0,61,61.0,0.0,30.0,0.0,0.0,0.0,0.0,-13.0,0.0,2.0,0.0,0.0,0.0,1.085230890076472e-09,8.562722982247264e-10,6.301699534133927e-10,4.737366497106758e-10,3.463685396718142e-10,2.585803464135213e-10,1.9096897661005316e-10,1.3726924256907384e-10,8.604309001138616e-11,5.894165560375551e-11,3.678174153407823e-11,2.047057605851813e-11,1.1874264499040958e-11,6.4695734082122336e-12,3.1297639104264998e-12,1.6279030926360997e-12,7.69781246508308e-13,6.205170879359857e-09,6.0531099126499705e-09,5.436205692162079e-09,4.129038923630124e-09,3.6670998296532394e-09,3.0287798622044063e-09,2.4578980389094454e-09,2.0551444396853057e-09,1.690759566125061e-09,1.3510927473300607e-09,1.016482755394665e-09,8.420529910448209e-10,6.133065229624879e-10,4.5382156796771433e-10,3.755925532215733e-10,2.719224574402059e-10,1.9937819429620244e-10,1.429051949500246e-10,9.31441902666939e-11,6.320869717305849e-11,3.627418219612804e-11
0.0,62,62.0,0.0,30.0,0.0,0.0,0.0,0.0,-13.0,0.0,2.0,0.0,0.0,0.0,1.1156713905846092e-09,8.098327872758654e-10,5.974557431098301e-10,4.821579439975809e-10,3.5462742203059976e-10,2.692797499779061e-10,1.9608316113072987e-10,1.295645021460004e-10,9.016178127723137e-11,5.690971914313546e-11,3.66089472695444e-11,2.000584720722673e-11,1.1619127031333425e-11,6.256268362174287e-12,3.2206826571632584e-12,1.525989741431197e-12,7.161467414906669e-13,6.610588366244254e-09,5.782574633358118e-09,5.427218815687356e-09,4.36480880360357e-09,3.6198446782804813e-09,3.2126712569524545e-09,2.472388919034129e-09,2.0080541672622936e-09,1.6770386842575796e-09,1.3947610440055052e-09,9.946797406909464e-10,8.125774806654408e-10,6.562745877273595e-10,4.598566000658597e-10,3.7124553852396384e-10,2.7648229535013206e-10,2.0800186534725964e-10,1.3776926842405323e-10,9.567845772815654e-11,6.168083872527924e-11,3.492629638462571e-11
0.0,63,63.0,0.0,30.0,0.0,0.0,0.0,0.0,-13.0,0.0,2.0,0.0,0.0,0.0,1.0881028396972466e-09,8.166708045299704e-10,6.602072487389732e-10,4.843003659852297e-10,3.7092204964319345e-10,2.651902724025821e-10,1.9284026526827827e-10,1.3723453411814354e-10,8.866958632023354e-11,5.396935451461334e-11,3.53097955693937e-11,1.99743980458926e-11,1.0941551316762983e-11,6.325160685159092e-12,3.2641931210036807e-12,1.5863836125911777e-12,7.286846851123785e-13,6.782143777113486e-09,6.153496618457656e-09,5.381698625397619e-09,4.421403377632457e-09,3.754671425097199e-09,3.131242866526237e-09,2.652845938509524e-09,2.0087898188093294e-09,1.6387047670099047e-09,1.3197012030417016e-09,1.1194342797958462e-09,8.110151953946152e-10,6.432987074159559e-10,5.125269354571848e-10,3.786264078110532e-10,2.6618624504327986e-10,1.9503022580216036e-10,1.4884721588918564e-10,9.603469224281751e-11,6.253196539800078e-11,3.4719706775641556e-11
