Line_number,Fiducial,Easting,Northing,Height,Elevation,tx_pitch,tx_roll,tx_yaw,txrx_dx,txrx_dy,txrx_dz,rx_pitch,rx_roll,rx_yaw,S0Z_time_1.431e-04,S0Z_time_1.801e-04,S0Z_time_2.266e-04,S0Z_time_2.846e-04,S0Z_time_3.581e-04,S0Z_time_4.506e-04,S0Z_time_5.671e-04,S0Z_time_7.136e-04,S0Z_time_8.981e-04,S0Z_time_1.131e-03,S0Z_time_1.423e-03,S0Z_time_1.791e-03,S0Z_time_2.255e-03,S0Z_time_2.838e-03,S0Z_time_3.573e-03,S0Z_time_4.498e-03,S0Z_time_5.662e-03,S1Z_time_1.409e-05,S1Z_time_1.610e-05,S1Z_time_1.909e-05,S1Z_time_2.360e-05,S1Z_time_2.960e-05,S1Z_time_3.709e-05,S1Z_time_4.609e-05,S1Z_time_5.759e-05,S1Z_time_7.209e-05,S1Z_time_9.060e-05,S1Z_time_1.141e-04,S1Z_time_1.431e-04,S1Z_time_1.801e-04,S1Z_time_2.266e-04,S1Z_time_2.846e-04,S1Z_time_3.581e-04,S1Z_time_4.506e-04,S1Z_time_5.671e-04,S1Z_time_7.136e-04,S1Z_time_8.981e-04,S1Z_time_1.131e-03
0.0,0,0.0,0.0,30.0,0.0,0.0,0.0,0.0,-13.0,0.0,2.0,0.0,0.0,0.0,9.810927042641612e-11,6.814555324215762e-11,4.5853453179008985e-11,3.0975518568745223e-11,2.0173020248885907e-11,1.2813171491367126e-11,7.989027629925151e-12,4.843913002445316e-12,2.91475796458248e-12,1.704641562403908e-12,1.0119687889228927e-12,5.706487340617748e-13,3.298548426505166e-13,1.8207313926189808e-13,9.948328889016961e-14,5.515284215485607e-14,2.9421259963275795e-14,4.083404470887082e-09,3.008648231974742e-09,2.038893143234665e-09,1.2484103050932731e-09,7.582346265721782e-10,4.811459227073108e-10,3.30321906688957e-10,2.3777208175172613e-10,1.771779368924596e-10,1.336739038022956e-10,1.0001000590947761e-10,7.385633354300183e-11,5.296612537736271e-11,3.678828191715825e-11,2.486728429723092e-11,1.6180091703069125e-11,1.018404836466481e-11,6.189767837704869e-12,3.645963760839991e-12,2.0742662068907094e-12,1.140126938099767e-12
0.0,1,1.0,0.0,30.0,0.0,0.0,0.0,0.0,-13.0,0.0,2.0,0.0,0.0,0.0,9.682860508279709e-11,6.805787045674073e-11,4.645570655255452e-11,3.1809723480450966e-11,2.097722153229246e-11,1.346906894675905e-11,8.467594318430177e-12,5.167637607138771e-12,3.12107882785251e-12,1.829134930698456e-12,1.0844158337290817e-12,6.113157279226835e-13,3.5198079005968247e-13,1.9385179472087003e-13,1.0556896941043558e-13,5.824596022085171e-14,3.0945248886422357e-14,4.065158101435808e-09,2.9930776454363447e-09,2.027645076039837e-09,1.242220754057889e-09,7.554842485087453e-10,4.794028719480687e-10,3.27959403040912e-10,2.3450541638338487e-10,1.7367988227682833e-10,1.3083996336278316e-10,9.833127047951196e-11,7.326969423521754e-11,5.315948453144039e-11,3.73870081073914e-11,2.5578278074045623e-11,1.683328274601332e-11,1.0700633258700537e-11,6.55686329019327e-12,3.8875364454707065e-12,2.2212430847862164e-12,1.2242416032818003e-12
0.0,2,2.0,0.0,30.0,0.0,0.0,0.0,0.0,-13.0,0.0,2.0,0.0,0.0,0.0,9.55344647213026e-11,6.764119787559918e-11,4.670116866328753e-11,3.2366310128493154e-11,2.159785452837052e-11,1.4017738224426579e-11,8.890580425701226e-12,5.46592009575571e-12,3.3172616852165644e-12,1.9505197623114815e-12,1.1564553886684801e-12,6.523373031317029e-13,3.745624322232742e-13,2.0595440016080006e-13,1.1186030347313681e-13,6.145245364931963e-14,3.252832693585743e-14,4.046513992475266e-09,2.9772960763917074e-09,2.016369631368864e-09,1.2362588212390265e-09,7.53476379416289e-10,4.791291014622923e-10,3.275890560550354e-10,2.3321685322979544e-10,1.7160050866072162e-10,1.2865281835916617e-10,9.668025021346891e-11,7.239535169419629e-11,5.298288443265465e-11,3.765794723458169e-11,2.6046854422094404e-11,1.7328325721515962e-11,1.112467119555488e-11,6.875660137469044e-12,4.105915802812409e-12,2.3586200246065245e-12,1.3052583924050075e-12
0.0,3,3.0,0.0,30.0,0.0,0.0,0.0,0.0,-13.0,0.0,2.0,0.0,0.0,0.0,9.445693947460991e-11,6.708551522463051e-11,4.670182933443485e-11,3.2702320340619724e-11,2.20592497532762e-11,1.4466234292091092e-11,9.257795649756926e-12,5.736504977212879e-12,3.5011927293938735e-12,2.0673978599131625e-12,1.2272813373187588e-12,6.933139637854352e-13,3.9741455638315773e-13,2.1830256943316047e-13,1.18326464611591e-13,6.476027007811998e-14,3.4166720037613044e-14,4.027469472451814e-09,2.96131753486092e-09,2.0050811956246243e-09,1.2304189016740066e-09,7.517737195859511e-10,4.795315573778692e-10,3.2833859723737205e-10,2.3330277829841993e-10,1.7075920014874366e-10,1.2725020511622361e-10,9.530705509114364e-11,7.145437040793896e-11,5.2585419521820965e-11,3.768829303910601e-11,2.6318237040955718e-11,1.768461268717338e-11,1.1462113713523985e-11,7.146224690265859e-12,4.299452310134181e-12,2.484915142999672e-12,1.3821421671685103e-12
0.0,4,4.0,0.0,30.0,0.0,0.0,0.0,0.0,-13.0,0.0,2.0,0.0,0.0,0.0,9.371654059598059e-11,6.653381205983347e-11,4.655450482545955e-11,3.2871172491262e-11,2.2386874333922863e-11,1.4824302864439915e-11,9.571350990525356e-12,5.9785579684057206e-12,3.671495299481014e-12,2.1786818347440883e-12,1.2962012616203932e-12,7.338775980546425e-13,4.2035606621846623e-13,2.3081675112113014e-13,1.2493440651802464e-13,6.815628914076242e-14,3.585595933932106e-14,4.008023434571563e-09,2.945147120795299e-09,1.993795830839303e-09,1.224703159519691e-09,7.502530738818596e-10,4.802540598535737e-10,3.296739635328816e-10,2.3425194238341314e-10,1.70864112620608e-10,1.2660139528735636e-10,9.433879975067379e-11,7.060489921082697e-11,5.2090589167130804e-11,3.7556139291738736e-11,2.6435777236445465e-11,1.792323433404113e-11,1.1721428176211515e-11,7.37062934898957e-12,4.4677772397057476e-12,2.599357743584751e-12,1.4540567206318188e-12
0.0,5,5.0,0.0,30.0,0.0,0.0,0.0,0.0,-13.0,0.0,2.0,0.0,0.0,0.0,9.334941056990879e-11,6.608338022210409e-11,4.6339809119718184e-11,3.2921523422349575e-11,2.2605704880201667e-11,1.5102930698955384e-11,9.834831014020101e-12,6.1923347611607114e-12,3.82742591461021e-12,2.283578949789736e-12,1.3626449217733964e-12,7.737007083863081e-13,4.4321549692018406e-13,2.434183634488701e-13,1.3164988781903008e-13,7.162662084668153e-14,3.7590998788647084e-14,3.988179651087978e-09,2.9287913022541852e-09,1.982523332596464e-09,1.2191258275689312e-09,7.488958824587233e-10,4.811643637006332e-10,3.313146255872234e-10,2.357074785412893e-10,1.7162768111834629e-10,1.2658665207279604e-10,9.380714853228632e-11,6.994532013239032e-11,5.15950954832246e-11,3.7329568066312955e-11,2.6439685238264632e-11,1.8065276078289296e-11,1.191223953343551e-11,7.552239406042885e-12,4.611520706547531e-12,2.7017024461780967e-12,1.5203703022686471e-12
0.0,6,6.0,0.0,30.0,0.0,0.0,0.0,0.0,-13.0,0.0,2.0,0.0,0.0,0.0,9.333586880435464e-11,6.579028262482094e-11,4.6121057274575245e-11,3.289655772134463e-11,2.2739503739559194e-11,1.5313476193248526e-11,1.0052670136616194e-11,6.378881256133047e-12,3.96875848255526e-12,2.3815608276023343e-12,1.4261633272707378e-12,8.125012891380174e-13,4.658350442246798e-13,2.56031668613663e-13,1.3843838383646108e-13,7.515690004385013e-14,3.9366337606134066e-14,3.967944386851118e-09,2.912259837361626e-09,1.9712729725938065e-09,1.2136971978090258e-09,7.477081131092698e-10,4.822251078684576e-10,3.3313273527237713e-10,2.3745218573783984e-10,1.7282046578784888e-10,1.2705908526718862e-10,9.368139462305256e-11,6.952255540635611e-11,5.116823219493106e-11,3.706564980625448e-11,2.6366475474568293e-11,1.8131003817807574e-11,1.2044494129071648e-11,7.695154798382265e-12,4.732040070968448e-12,2.7920434977145015e-12,1.580699557605325e-12
0.0,7,7.0,0.0,30.0,0.0,0.0,0.0,0.0,-13.0,0.0,2.0,0.0,0.0,0.0,9.362638258543803e-11,6.567711713719999e-11,4.59439835418324e-11,3.283323033861528e-11,2.2810407010247368e-11,1.546719758909445e-11,1.0229731171857149e-11,6.539782421394865e-12,4.095670194036789e-12,2.472327426260342e-12,1.4864217804746338e-12,8.500441050273769e-13,4.880731886760969e-13,2.685853182374405e-13,1.452658721558714e-13,7.873256353888129e-14,4.1176143124252365e-14,3.947324633514004e-09,2.8955644129319387e-09,1.9600557101616233e-09,1.2084252691336228e-09,7.466972986692423e-10,4.834314330532503e-10,3.350786540051731e-10,2.3936819215385183e-10,1.7428239964730844e-10,1.2788233532359819e-10,9.389896331659678e-11,6.934451177963705e-11,5.085336477174132e-11,3.680953337118328e-11,2.6248433816017283e-11,1.8139463565848012e-11,1.2128015052542722e-11,7.803818014507923e-12,4.831166348768524e-12,2.870691229164188e-12,1.6349199355144743e-12
0.0,8,8.0,0.0,30.0,0.0,0.0,0.0,0.0,-13.0,0.0,2.0,0.0,0.0,0.0,9.416119542379764e-11,6.574244162374601e-11,4.5837843281142756e-11,3.276161531370185e-11,2.283853919480033e-11,1.557498826382054e-11,1.0371046954990107e-11,6.676967702614348e-12,4.208637897727766e-12,2.555769799560544e-12,1.5431893908748449e-12,8.861394399708217e-13,5.098061065243038e-13,2.810135133643279e-13,1.5209948862567413e-13,8.233910435067675e-14,4.301436936858754e-14,3.926327715838499e-09,2.8787175131233836e-09,1.9488839551387574e-09,1.2033180732861454e-09,7.458689608346294e-10,4.847863069961654e-10,3.371371671581593e-10,2.4139821756819115e-10,1.7591268575061229e-10,1.289473487247321e-10,9.438821768890059e-11,6.939366281470224e-11,5.067167205983338e-11,3.6594192355119244e-11,2.6113030896432628e-11,1.8108189927225168e-11,1.2172283580682727e-11,7.882770690922463e-12,4.910987606983564e-12,2.9381148541868723e-12,1.6831245443496124e-12
0.0,9,9.0,0.0,30.0,0.0,0.0,0.0,0.0,-13.0,0.0,2.0,0.0,0.0,0.0,9.488277311120676e-11,6.596993982382901e-11,4.58177956724786e-11,3.270463603341957e-11,2.2841615255551612e-11,1.5647183994264037e-11,1.0481668321297467e-11,6.792571449853084e-12,4.3083507731715015e-12,2.6319341043728822e-12,1.59632668161021e-12,9.206403052249176e-13,5.309281253697636e-13,2.932567643190281e-13,1.589080523711804e-13,8.596230070713479e-14,4.487486688194301e-14,3.904961535937682e-09,2.8617320796096613e-09,1.937770916602216e-09,1.1983844040139658e-09,7.452275028577364e-10,4.86292970335007e-10,3.393056935124645e-10,2.435176457215175e-10,1.7765321734455073e-10,1.3017537479233117e-10,9.50824532342896e-11,6.963908214942094e-11,5.062730434231177e-11,3.64411141065247e-11,2.5982467745975015e-11,1.8052911268486825e-11,1.2186309970445339e-11,7.93651866207388e-12,4.973686413676737e-12,2.994923946993986e-12,1.7255552140104191e-12
0.0,10,10.0,0.0,30.0,0.0,0.0,0.0,0.0,-13.0,0.0,2.0,0.0,0.0,0.0,9.574216107646905e-11,6.633600830774639e-11,4.588804324000844e-11,3.267831467979361e-11,2.2834605816683186e-11,1.569338021858834e-11,1.0566565777616146e-11,6.88883857252427e-12,4.395641915650317e-12,2.7009885427429043e-12,1.6457723760252556e-12,9.53438813575001e-13,5.513514814313015e-13,3.0526228617074546e-13,1.6566246222055866e-13,8.958841665925595e-14,4.675148066586955e-14,3.883234912362598e-09,2.844621607825577e-09,1.926730239731145e-09,1.1936337058433024e-09,7.447771880904943e-10,4.879536504465699e-10,3.415850622230524e-10,2.4571748327642777e-10,1.794732083895421e-10,1.3151391363813324e-10,9.592653601301321e-11,7.004550020801245e-11,5.071284397848878e-11,3.636183135412224e-11,2.587353360431603e-11,1.7987266498039788e-11,1.217851571383247e-11,7.969458581017533e-12,5.021435666757881e-12,3.0418593654704615e-12,1.7625362196559553e-12
0.0,11,11.0,0.0,30.0,0.0,0.0,0.0,0.0,-13.0,0.0,2.0,0.0,0.0,0.0,9.670107233664949e-11,6.681523241506816e-11,4.604512531216532e-11,3.26925002683404e-11,2.282955010711257e-11,1.5722253095653638e-11,1.0630549261861264e-11,6.968061505665908e-12,4.471438157608576e-12,2.7631945023294693e-12,1.691530212976785e-12,9.844621483518875e-13,5.710055876313633e-13,3.169840999486898e-13,1.7233597346515736e-13,9.320437012646603e-14,4.8638135052319044e-14,3.861157826976791e-09,2.827400350208171e-09,1.915775930403726e-09,1.1890758039701753e-09,7.445225287697021e-10,4.897699255255921e-10,3.4397635650188514e-10,2.4799523114308556e-10,1.813577300328155e-10,1.3293028315855666e-10,9.687854132933796e-11,7.057914140053352e-11,5.091419093717806e-11,3.635996715409542e-11,2.579784014054194e-11,1.7922593822931708e-11,1.2156604236777005e-11,7.985827857111967e-12,5.0563437280447605e-12,3.0797771334495643e-12,1.7944276323237783e-12
0.0,12,12.0,0.0,30.0,0.0,0.0,0.0,0.0,-13.0,0.0,2.0,0.0,0.0,0.0,9.773145350866969e-11,6.738381841130572e-11,4.62808980714051e-11,3.2751921303373104e-11,2.283555895633473e-11,1.57414051859687e-11,1.0678189705735649e-11,7.0325350730990576e-12,4.536724954550138e-12,2.8188826176649845e-12,1.733656509289113e-12,1.01366837791808e-12,5.898359635436543e-13,3.2838291944000593e-13,1.789043699995355e-13,9.679786490464135e-14,5.052890589476735e-14,3.838741572674637e-09,2.810083483795742e-09,1.9049224157750606e-09,1.1847207278456536e-09,7.444683075527648e-10,4.917431917637614e-10,3.4648022323139815e-10,2.5035057714355966e-10,1.8330023816157246e-10,1.3440537785497222e-10,9.790859530306366e-11,7.12108238733495e-11,5.1214399510334426e-11,3.643342079651212e-11,2.5762383900551658e-11,1.786784188049355e-11,1.2127430881171816e-11,7.989655553810882e-12,5.080432436885613e-12,3.1096216965966183e-12,1.8216004775081014e-12
0.0,13,13.0,0.0,30.0,0.0,0.0,0.0,0.0,-13.0,0.0,2.0,0.0,0.0,0.0,9.88138566872788e-11,6.802137041252724e-11,4.658493858755323e-11,3.285737667048403e-11,2.285900070639186e-11,1.5757260060861265e-11,1.071374073588632e-11,7.084519373089461e-12,4.592521996930063e-12,2.8684338135752943e-12,1.7722490315395804e-12,1.0410422850094459e-12,6.078029338313656e-13,3.3942589391938447e-13,1.8534605005522587e-13,1.0035748562551966e-13,5.2418081254044555e-14,3.815998842823722e-09,2.7926872169812646e-09,1.8941846327496223e-09,1.180578648905364e-09,7.446194824481878e-10,4.938749089272259e-10,3.490969641688455e-10,2.5278365783496083e-10,1.8529819139817088e-10,1.359286847890657e-10,9.89965359516292e-11,7.191708233784569e-11,5.159635073430347e-11,3.6576397147904403e-11,2.5770324907983752e-11,1.782962152335526e-11,1.2096894913802835e-11,7.984707115709823e-12,5.095631212754674e-12,3.1323922734584167e-12,1.8444279718241613e-12
0.0,14,14.0,0.0,30.0,0.0,0.0,0.0,0.0,-13.0,0.0,2.0,0.0,0.0,0.0,9.993547213268593e-11,6.871149664376826e-11,4.694629300404942e-11,3.3006902720097106e-11,2.290382831607961e-11,1.5775020842229387e-11,1.0741066589044284e-11,7.126205270900087e-12,4.639865310833426e-12,2.9122647946932053e-12,1.807437523849529e-12,1.0665913517660486e-12,6.248801773487026e-13,3.5008625922759614e-13,1.9164204350321553e-13,1.0387275770916392e-13,5.4300211835171344e-14,3.792943797687687e-09,2.7752288527760957e-09,1.8835780995251777e-09,1.1766598863375653e-09,7.449810996962298e-10,4.961666686209395e-10,3.518267529600607e-10,2.552945218535115e-10,1.8735072479880597e-10,1.374947509164882e-10,1.0012938574276111e-10,7.268006033931666e-11,5.204437804796214e-11,3.6781099082535535e-11,2.5821855031261332e-11,1.7812385311972378e-11,1.2069873322458323e-11,7.974426029188868e-12,5.103774632073236e-12,3.1491079748733995e-12,1.863285523633192e-12
0.0,15,15.0,0.0,30.0,0.0,0.0,0.0,0.0,-13.0,0.0,2.0,0.0,0.0,0.0,1.0108828877232588e-10,6.944168997841678e-11,4.73546138269691e-11,3.319680468244748e-11,2.297199115582345e-11,1.5798694908892566e-11,1.0763584178883303e-11,7.159680899828958e-12,4.679792539182992e-12,2.9508170640879098e-12,1.8393759978554235e-12,1.0903420242590612e-12,6.410531990070637e-13,3.6034293208982085e-13,1.9777597613754698e-13,1.073341768576195e-13,5.617015213121643e-14,3.769592126594956e-09,2.757726830078091e-09,1.8731189624077587e-09,1.1729749382047892e-09,7.455582483344705e-10,4.986201812679901e-10,3.5466978853184806e-10,2.578830701998297e-10,1.8945754618678444e-10,1.3910089582863097e-10,1.0129913627894728e-10,7.348676537328532e-11,5.254507340903499e-11,3.703901237417606e-11,2.591504823696158e-11,1.7818701734641878e-11,1.2050206503009097e-11,7.961880023452169e-12,5.106596518342571e-12,3.160776278809669e-12,1.87855372160389e-12
0.0,16,16.0,0.0,30.0,0.0,0.0,0.0,0.0,-13.0,0.0,2.0,0.0,0.0,0.0,1.0226758303761549e-10,7.020282891680577e-11,4.7800796726232124e-11,3.3422493579645416e-11,2.3063876134743438e-11,1.5831176340711182e-11,1.078422545873332e-11,7.186900042372116e-12,4.713329338175577e-12,2.9845484346170802e-12,1.868236677627063e-12,1.1123363536950905e-12,6.563177918719772e-13,3.7018006991321767e-13,2.037339929870639e-13,1.1073321399823063e-13,5.8023092864471e-14,3.745961112187251e-09,2.7402007566696312e-09,1.86282402362924e-09,1.169534513898377e-09,7.463560504756127e-10,5.012372452771312e-10,3.576263691257927e-10,2.605491374863781e-10,1.9161848970265587e-10,1.4074584493627773e-10,1.025010238924219e-10,7.432809388164302e-11,5.308752202257895e-11,3.7341792469415586e-11,2.6046617863387227e-11,1.7849583702645214e-11,1.2040735634913677e-11,7.949719513383754e-12,5.1057185432026685e-12,3.1683674085702122e-12,1.8906207606456e-12
0.0,17,17.0,0.0,30.0,0.0,0.0,0.0,0.0,-13.0,0.0,2.0,0.0,0.0,0.0,1.0347077830698246e-10,7.098853655891953e-11,4.8277247398978976e-11,3.3679113193631225e-11,2.3178733367264347e-11,1.5874371258048122e-11,1.0805422913005149e-11,7.2096543548255126e-12,4.741475986068654e-12,3.0139260934631483e-12,1.8942053433997005e-12,1.1326290725212017e-12,6.706785508979627e-13,3.795866111751693e-13,2.0950464970965213e-13,1.1406230176342304e-13,5.98545850754537e-14,3.7220696968211388e-09,2.7226714398829815e-09,1.8527107574455657e-09,1.1663495585118747e-09,7.473796717588553e-10,5.040197256373176e-10,3.6069691613637686e-10,2.632925828558571e-10,1.9383338550433866e-10,1.4242897688989002e-10,1.0373229585418563e-10,7.519786887661989e-11,5.3663184291826724e-11,3.7681809409725935e-11,2.6212540314711584e-11,1.7904832999737692e-11,1.2043383763229749e-11,7.940153603210506e-12,5.102634627617329e-12,3.172795342498144e-12,1.8998826079372254e-12
0.0,18,18.0,0.0,30.0,0.0,0.0,0.0,0.0,-13.0,0.0,2.0,0.0,0.0,0.0,1.0469663763605343e-10,7.179454179714562e-11,4.877790096161201e-11,3.396197118107749e-11,2.331505576536891e-11,1.5929349021344775e-11,1.0829117680174396e-11,7.2295514406418845e-12,4.765194168209079e-12,3.0394205065135044e-12,1.91747774603112e-12,1.1512851195224165e-12,6.841474892622568e-13,3.8855580845799463e-13,2.1507877906673203e-13,1.1731480791012077e-13,6.166055615560115e-14,3.697938549060252e-09,2.7051609161088776e-09,1.8427973194051642e-09,1.1634312674313848e-09,7.486343389438098e-10,5.069695474204118e-10,3.6388197591207395e-10,2.66113353450118e-10,1.9610205985483365e-10,1.4414994772784094e-10,1.0499138654706955e-10,7.60920109167935e-11,5.426559336935256e-11,3.8052426637091495e-11,2.6408532868019022e-11,1.7983370038806906e-11,1.2059268308091776e-11,7.934945777837943e-12,5.0986939878183545e-12,3.174904988862496e-12,1.906740481819225e-12
0.0,19,19.0,0.0,30.0,0.0,0.0,0.0,0.0,-13.0,0.0,2.0,0.0,0.0,0.0,1.059447224525782e-10,7.261811750253035e-11,4.9298094400464364e-11,3.426680479438259e-11,2.3470895765349883e-11,1.5996503235879147e-11,1.085678725974605e-11,7.248000198552756e-12,4.785394413579944e-12,3.0614997178039076e-12,1.9382567606513398e-12,1.1683775878828943e-12,6.967427937519425e-13,3.97084765194351e-13,2.2044933837916817e-13,1.2048499995924729e-13,6.34373182191997e-14,3.6735901279517315e-09,2.687692478154232e-09,1.8331025510317252e-09,1.160791092334127e-09,7.501253567356533e-10,5.100887005186312e-10,3.671822162475567e-10,2.6901151956778736e-10,1.984243747935195e-10,1.4590852792498102e-10,1.0627740124090829e-10,7.700788366651205e-11,5.4889984547268446e-11,3.844809022739783e-11,2.6630393042264254e-11,1.8083527988240026e-11,1.2088831560677892e-11,7.935428495505738e-12,5.0950858879330035e-12,3.175464474240165e-12,1.9115959940919006e-12
0.0,20,20.0,0.0,30.0,0.0,0.0,0.0,0.0,-13.0,0.0,2.0,0.0,0.0,0.0,1.0721504716642712e-10,7.345762434867357e-11,4.98343667273802e-11,3.458991778534318e-11,2.3644113734616282e-11,1.6075709375916594e-11,1.0889488243978213e-11,7.266204046550794e-12,4.802924854140199e-12,3.080623845771202e-12,1.9567499931410783e-12,1.1839860407364074e-12,7.084877392260302e-13,4.0517398662891693e-13,2.2561124345213912e-13,1.2356800414418038e-13,6.518156939439277e-14,3.649048743176044e-09,2.6702906988271035e-09,1.823645980391054e-09,1.1584407402610303e-09,7.518581201212905e-10,5.133792499527724e-10,3.7059842455828313e-10,2.7198729042171444e-10,2.008002689509116e-10,1.4770454898353034e-10,1.0758981295406372e-10,7.794380995803504e-11,5.553292824540155e-11,3.886429537166787e-11,2.6874218489019774e-11,1.8203299689010955e-11,1.2131976804676142e-11,7.942533789655272e-12,5.092828565434086e-12,3.1751613467933204e-12,1.9148447177281307e-12
0.0,21,21.0,0.0,30.0,0.0,0.0,0.0,0.0,-13.0,0.0,2.0,0.0,0.0,0.0,1.0850786942864623e-10,7.431216160109578e-11,5.03842374018564e-11,3.492822433330586e-11,2.3832560709453936e-11,1.6166469487663304e-11,1.0927908971409978e-11,7.285161815436775e-12,4.8185619446296506e-12,3.0972397666473137e-12,1.9731676243016564e-12,1.1981951226870246e-12,7.194097663459714e-13,4.128269544454996e-13,2.305611943517882e-13,1.265597607342103e-13,6.689038881116291e-14,3.624340609721402e-09,2.6529814492779442e-09,1.8144478181764676e-09,1.156392167059642e-09,7.538381210883597e-10,5.168433471147731e-10,3.741315090633444e-10,2.7504101909598745e-10,2.0322978704175767e-10,1.4953789941291152e-10,1.0892829712638773e-10,7.889873283879411e-11,5.6192004848468166e-11,3.929748280971844e-11,2.7136531273487647e-11,1.8340533494073528e-11,1.2188200061625059e-11,7.956835812502389e-12,5.0927638473449275e-12,3.1746016049983046e-12,1.91686908354852e-12
0.0,22,22.0,0.0,30.0,0.0,0.0,0.0,0.0,-13.0,0.0,2.0,0.0,0.0,0.0,1.0982356943326177e-10,7.518131229855772e-11,5.0945993934946895e-11,3.5279231237563e-11,2.403420310544513e-11,1.6268038058590968e-11,1.0972427197054113e-11,7.305675463891119e-12,4.833003610496673e-12,3.1117760944667995e-12,1.9877203544216416e-12,1.2110933924508597e-12,7.295397135789668e-13,4.2004973267682936e-13,2.35297498308732e-13,1.2945697705217412e-13,6.856122622497705e-14,3.59949389630859e-09,2.6357919111062144e-09,1.8055289487871267e-09,1.1546575660514678e-09,7.560709499327992e-10,5.204832390838623e-10,3.777825018898935e-10,2.7817320238510594e-10,2.0571309681989456e-10,1.5140853797953787e-10,1.102926496074605e-10,7.98719894619877e-11,5.6865536847850436e-11,3.9744903387489685e-11,2.7414330730845805e-11,1.8493079755816793e-11,1.2256710301396133e-11,7.978600895593796e-12,5.0955579987586776e-12,3.1743106863545294e-12,1.918031457467918e-12
0.0,23,23.0,0.0,30.0,0.0,0.0,0.0,0.0,-13.0,0.0,2.0,0.0,0.0,0.0,1.1116258479278541e-10,7.606496497828847e-11,5.151850503266725e-11,3.564098338005813e-11,2.4247199468764942e-11,1.6379526280472512e-11,1.1023168548865862e-11,7.328363348028571e-12,4.8468650644152574e-12,3.124638621901496e-12,2.0006173816842277e-12,1.2227723083433168e-12,7.389111850795529e-13,4.268506100609877e-13,2.398198947160984e-13,1.3225707903886702e-13,7.019188730906676e-14,3.5745387672885363e-09,2.618750581778782e-09,1.7969109160763777e-09,1.1532493525184338e-09,7.585622919343109e-10,5.243012747179628e-10,3.815525625002864e-10,2.8138447850828835e-10,2.0825049612214026e-10,1.533165088832016e-10,1.116827513333584e-10,8.086316711577422e-11,5.7552379767216895e-11,4.020447612761149e-11,2.7705096642721388e-11,1.8658893224032244e-11,1.233653373218791e-11,8.00784095030896e-12,5.1017085273263974e-12,3.174735797024753e-12,1.9186680752037102e-12
0.0,24,24.0,0.0,30.0,0.0,0.0,0.0,0.0,-13.0,0.0,2.0,0.0,0.0,0.0,1.1252537833198522e-10,7.69631937967173e-11,5.210106573280912e-11,3.601199106880953e-11,2.4469939888727442e-11,1.6499984372199185e-11,1.1080062454186284e-11,7.353677578880765e-12,4.860677304563772e-12,3.1362063902465243e-12,2.012064403760877e-12,1.2333253111882415e-12,7.475600307315376e-13,4.332397812927483e-13,2.441293866150616e-13,1.3495816197842995e-13,7.178051567090563e-14,3.549507418087995e-09,2.6018872733472224e-09,1.7886159037625877e-09,1.1521801445245473e-09,7.613179203618976e-10,5.282999073050554e-10,3.8544298018694277e-10,2.846756239452015e-10,2.1084241320272223e-10,1.5526195278007175e-10,1.1309855667423338e-10,8.187201571779567e-11,5.825176586142828e-11,4.0674655060890056e-11,2.8006760713532697e-11,1.8836098430952297e-11,1.2426600164872983e-11,8.044366655892603e-12,5.111556086675132e-12,3.176249179935478e-12,1.9190842797308584e-12
0.0,25,25.0,0.0,30.0,0.0,0.0,0.0,0.0,-13.0,0.0,2.0,0.0,0.0,0.0,1.13912424249808e-10,7.787618106646005e-11,5.269327483921338e-11,3.639115214946222e-11,2.470105802673201e-11,1.6628463332612038e-11,1.1142893190607578e-11,7.381923984746092e-12,4.8748881152663365e-12,3.14682852688188e-12,2.0222616702384165e-12,1.2428469648737446e-12,7.555239130006457e-13,4.3922906701761597e-13,2.4822808224466944e-13,1.3755894091303277e-13,7.3325572605952e-14,3.5244341044652993e-09,2.5852331047294493e-09,1.7806667107706985e-09,1.1514627406095406e-09,7.643436867767312e-10,5.324816941912134e-10,3.8945517496082796e-10,2.880475497456314e-10,2.134894029723503e-10,1.5724511222433588e-10,1.1454009196445441e-10,8.289839708099262e-11,5.896319142927569e-11,4.115431265746247e-11,2.8317660226153934e-11,1.9023025664990183e-11,1.252581129283313e-11,8.087837687355924e-12,5.125300285524024e-12,3.179152082070551e-12,1.9195512729291147e-12
0.0,26,26.0,0.0,30.0,0.0,0.0,0.0,0.0,-13.0,0.0,2.0,0.0,0.0,0.0,1.1532420377540831e-10,7.880416930742493e-11,5.3294941572777163e-11,3.6777677095409524e-11,2.4939424375389526e-11,1.6764058536599927e-11,1.1211344620207583e-11,7.413283312250048e-12,4.889865249257165e-12,3.1568219398784332e-12,2.0314021349337707e-12,1.2514321304292232e-12,7.628419365336659e-13,4.448316702321797e-13,2.521190492609119e-13,1.40058701267685e-13,7.482581550937513e-14,3.4993551658845804e-09,2.5688204879454212e-09,1.7730867219490032e-09,1.1511100949356928e-09,7.676455095309159e-10,5.368492940998538e-10,3.935906966816705e-10,2.915012973316882e-10,2.1619214095520478e-10,1.592663321323755e-10,1.1600745695644508e-10,8.394225681064331e-11,5.968633806692802e-11,4.164264269295735e-11,2.8636483923790726e-11,1.9218224794514864e-11,1.2633092023170564e-11,8.137808072583574e-12,5.1430180847232675e-12,3.1836792868494447e-12,1.920304394206278e-12
0.0,27,27.0,0.0,30.0,0.0,0.0,0.0,0.0,-13.0,0.0,2.0,0.0,0.0,0.0,1.1676120520167817e-10,7.97474330189337e-11,5.390601685446399e-11,3.717102173063739e-11,2.5184127744879888e-11,1.6905938094428926e-11,1.1285037934053479e-11,7.44783250041539e-12,4.905901384064513e-12,3.1664699045841706e-12,2.0396697643973094e-12,1.2591751632478088e-12,7.695543197183863e-13,4.50061965158641e-13,2.558061832065477e-13,1.4245725022309613e-13,7.628027574286298e-14,3.474309043268148e-09,2.552683108707614e-09,1.7658998746828369e-09,1.1511352904964696e-09,7.712293612649518e-10,5.414054629394025e-10,3.9785122263998465e-10,2.950380337705161e-10,2.189514161116896e-10,1.6132605653735824e-10,1.1750082575499655e-10,8.500360925116238e-11,6.042101908531313e-11,4.213908229285681e-11,2.896221690768565e-11,1.942046335573473e-11,1.274742679489868e-11,8.193765539381305e-12,5.1646835014848705e-12,3.190004131386628e-12,1.921542794229916e-12
0.0,28,28.0,0.0,30.0,0.0,0.0,0.0,0.0,-13.0,0.0,2.0,0.0,0.0,0.0,1.182239255411478e-10,8.070626309847111e-11,5.4526544308820443e-11,3.75708297086692e-11,2.5434450349927475e-11,1.7053359003020507e-11,1.1363562335705295e-11,7.485565103043838e-12,4.923220407918077e-12,3.176021524906189e-12,2.0472380555741385e-12,1.2661691338719242e-12,7.757020917974417e-13,4.549353137118138e-13,2.592940908368995e-13,1.4475486937566742e-13,7.768823661345782e-14,3.449336291288527e-09,2.5368559017117934e-09,1.7591306219312477e-09,1.151551510993938e-09,7.75101256104403e-10,5.461530488564156e-10,4.022385539995373e-10,2.9865904656891586e-10,2.217681232182724e-10,1.6342482292760023e-10,1.190204459653339e-10,8.608252934948626e-11,6.116714381467966e-11,4.264325120796862e-11,2.929408876325262e-11,1.96287142379333e-11,1.2867883216339358e-11,8.25516436394771e-12,5.190187485991625e-12,3.198243943604473e-12,1.9234302844368874e-12
0.0,29,29.0,0.0,30.0,0.0,0.0,0.0,0.0,-13.0,0.0,2.0,0.0,0.0,0.0,1.197128724562901e-10,8.168095901347599e-11,5.515662641296713e-11,3.7976885192105426e-11,2.5689840399710615e-11,1.720567395773172e-11,1.1446499026833035e-11,7.526410183013295e-12,4.941984593920686e-12,3.185692008097667e-12,2.054268805326834e-12,1.2725050802420582e-12,7.813268038547601e-13,4.594679043318742e-13,2.625879880553706e-13,1.4695226919401769e-13,7.904921197887272e-14,3.4244795852413716e-09,2.5213750208868062e-09,1.7528038921730822e-09,1.1523720119640135e-09,7.792672371557239e-10,5.51094987191048e-10,4.067546115793418e-10,3.023657381301261e-10,2.2464325521703742e-10,1.6556325524186494e-10,1.2056663592037415e-10,8.717914774929879e-11,6.192469413920802e-11,4.315490563887543e-11,2.9631527210967214e-11,1.9842137174909394e-11,1.2993625448785383e-11,8.3214517400299e-12,5.219357043167762e-12,3.208465824896089e-12,1.9260971053904824e-12
0.0,30,30.0,0.0,30.0,0.0,0.0,0.0,0.0,-13.0,0.0,2.0,0.0,0.0,0.0,1.2122856590511537e-10,8.267182547771377e-11,5.5796401867110877e-11,3.838907515654217e-11,2.5949884852705667e-11,1.7362331372315784e-11,1.153343914109439e-11,7.570249234575401e-12,4.962302254266419e-12,3.195663658876014e-12,2.0609111605332503e-12,1.2782713036177858e-12,7.864702465023916e-13,4.636766081150879e-13,2.6569361153361815e-13,1.4905054571676364e-13,8.036292585904875e-14,3.3997837224136705e-09,2.506277804764345e-09,1.7469450466874685e-09,1.1536100916825146e-09,7.837333648062995e-10,5.562342958702331e-10,4.1140143143956833e-10,3.0615962007434324e-10,2.275778957903295e-10,1.677420563208986e-10,1.221397803599993e-10,8.829364707173823e-11,6.2693709086093e-11,4.367390379327564e-11,2.997411823763238e-11,2.0060057202497246e-11,1.3123919651234693e-11,8.392088052928537e-12,5.2519729037361175e-12,3.22069268344668e-12,1.929642356906813e-12
0.0,31,31.0,0.0,30.0,0.0,0.0,0.0,0.0,-13.0,0.0,2.0,0.0,0.0,0.0,1.227715393513771e-10,8.367917156524159e-11,5.6446031009330913e-11,3.8807360199443224e-11,2.6214284011490256e-11,1.752287075665714e-11,1.1623996429126602e-11,7.616930892276942e-12,4.984235518630391e-12,3.2060874772631672e-12,2.06730096232028e-12,1.2835527219606164e-12,7.911741710155997e-13,4.675788477065693e-13,2.686171426059277e-13,1.5105113984111922e-13,8.162929331097361e-14,3.3752956177336703e-09,2.491602737031484e-09,1.7415798345239405e-09,1.1552790623281128e-09,7.885057062452235e-10,5.615740716520423e-10,4.161811606724994e-10,3.100423076475884e-10,2.305732123303386e-10,1.6996200036835355e-10,1.2374032509477417e-10,8.942625837786195e-11,6.347427452582237e-11,4.420018056709377e-11,3.0321572787528916e-11,2.0281942332439022e-11,1.3258133561814973e-11,8.46656167863827e-12,5.28778527599528e-12,3.2349094018480936e-12,1.9341368568556195e-12
0.0,32,32.0,0.0,30.0,0.0,0.0,0.0,0.0,-13.0,0.0,2.0,0.0,0.0,0.0,1.2434234057562686e-10,8.470331100757144e-11,5.7105686814529966e-11,3.923175251669182e-11,2.6482828887053667e-11,1.7686915186237177e-11,1.171781555582657e-11,7.666283350848695e-12,5.007807943466224e-12,3.2170852338884814e-12,2.07356038353436e-12,1.2884302940124638e-12,7.954800137953446e-13,4.71192475188548e-13,2.713651417349362e-13,1.5295579944021318e-13,8.284840271934443e-14,3.3510642933650382e-09,2.4773894022367986e-09,1.7367343454490512e-09,1.1573922218174476e-09,7.93590326539421e-10,5.671174875226128e-10,4.210960537148214e-10,3.140155144336981e-10,2.33630449425108e-10,1.722239257805124e-10,1.253687711705538e-10,9.057725742495724e-11,6.426651599933816e-11,4.4733729110001035e-11,3.067369956940822e-11,2.050738194764983e-11,1.3395731988029168e-11,8.544399056884742e-12,5.3265274146779206e-12,3.251069007306942e-12,1.939626232050786e-12
0.0,33,33.0,0.0,30.0,0.0,0.0,0.0,0.0,-13.0,0.0,2.0,0.0,0.0,0.0,1.2594153218976034e-10,8.574456295584816e-11,5.77755496431923e-11,3.966229969815024e-11,2.675538172784347e-11,1.7854162203104173e-11,1.18145768579569e-11,7.718124547809353e-12,5.033011724615039e-12,3.2287518950446657e-12,2.079797845982001e-12,1.2929805252343669e-12,7.994286263130213e-13,4.745356560807044e-13,2.739444917248245e-13,1.5476654442786667e-13,8.402049956796975e-14,3.3271408617910254e-09,2.4636784365399473e-09,1.7324349610956013e-09,1.1599628266682834e-09,7.98993281525032e-10,5.728677914490846e-10,4.2614846940841106e-10,3.180810475515059e-10,2.3675092295038253e-10,1.745287285627434e-10,1.270256689596418e-10,9.174696066407396e-11,6.507059339515678e-11,4.5274587454997915e-11,3.103038326443651e-11,2.073606684252997e-11,1.353626965571873e-11,8.625170831207128e-12,5.367926915435509e-12,3.2690987072206106e-12,1.9461340849896917e-12
0.0,34,34.0,0.0,30.0,0.0,0.0,0.0,0.0,-13.0,0.0,2.0,0.0,0.0,0.0,1.2756969196435695e-10,8.680325282876932e-11,5.84558044179443e-11,4.009907310102723e-11,2.7031859747770285e-11,1.8024374138039543e-11,1.1913998349231265e-11,7.77227025173317e-12,5.059814349037177e-12,3.2411582755804596e-12,2.086108193955913e-12,1.2972750637715061e-12,8.030600141469529e-13,4.776267574659474e-13,2.7636234788221224e-13,1.5648563477558703e-13,8.51459716872152e-14,3.303578501830242e-09,2.450511473329112e-09,1.7287083044925354e-09,1.163004066193402e-09,8.047206127070829e-10,5.788283066088502e-10,4.31340868953741e-10,3.2224080347483977e-10,2.3993601483072776e-10,1.7687735645168294e-10,1.2871161249326663e-10,9.293572108419129e-11,6.588669669705634e-11,4.582282879398554e-11,3.139156732004707e-11,2.0967771399101452e-11,1.3679382556269892e-11,8.708494832303536e-12,5.411714778769655e-12,3.288905658074478e-12,1.9536651187142643e-12
0.0,35,35.0,0.0,30.0,0.0,0.0,0.0,0.0,-13.0,0.0,2.0,0.0,0.0,0.0,1.292274130596791e-10,8.787971307093217e-11,5.91466393058534e-11,4.054215972540712e-11,2.7312221861385633e-11,1.819736854812489e-11,1.2015835670867016e-11,7.828540258428059e-12,5.0881645790559976e-12,3.2543538087302378e-12,2.0925730933241896e-12,1.3013803911760008e-12,8.064130894481031e-13,4.804842390883411e-13,2.7862609345763397e-13,1.5811554138695725e-13,8.622533592018196e-14,3.2804324269376064e-09,2.43793108348455e-09,1.7255811881218313e-09,1.1665290382843287e-09,8.107783443026378e-10,5.850024331472008e-10,4.366758148283164e-10,3.2649676456512496e-10,2.431871685092768e-10,1.7927080379507075e-10,1.3042723424605496e-10,9.414392406175195e-11,6.671504235679179e-11,4.637855433343333e-11,3.175724052191865e-11,2.120233808288793e-11,1.382477865160427e-11,8.79403662277676e-12,5.457632385856754e-12,3.310382350339135e-12,1.9622081356569654e-12
0.0,36,36.0,0.0,30.0,0.0,0.0,0.0,0.0,-13.0,0.0,2.0,0.0,0.0,0.0,1.309153042258836e-10,8.897428376167544e-11,5.984824528458175e-11,4.0991656700218145e-11,2.7596458108619507e-11,1.837300922510453e-11,1.2119880583184256e-11,7.886762930020296e-12,5.1179977121704345e-12,3.2683693363505232e-12,2.09926162093326e-12,1.3053576091394106e-12,8.095254413021267e-13,4.831265469917016e-13,2.807432989096894e-13,1.5965891965277063e-13,8.72592261114915e-14,3.257759845075998e-09,2.425980710042194e-09,1.7230805606353297e-09,1.1705507270119997e-09,8.171724825143675e-10,5.91393651461102e-10,4.4215597068440856e-10,3.308509963613354e-10,2.465058851424897e-10,1.8171010719640104e-10,1.321732004967479e-10,9.537198337104191e-11,6.755587005916768e-11,4.694188795383672e-11,3.212742660481983e-11,2.1439664237123752e-11,1.3972228556221746e-11,8.881508238897313e-12,5.505436593923124e-12,3.3334115139610377e-12,1.971738853825197e-12
0.0,37,37.0,0.0,30.0,0.0,0.0,0.0,0.0,-13.0,0.0,2.0,0.0,0.0,0.0,1.32633990014451e-10,9.008731307418919e-11,6.056081618808336e-11,4.144766766619687e-11,2.7884581396395606e-11,1.855119804460869e-11,1.2225958489116663e-11,7.94677832375281e-12,5.1492401003266915e-12,3.283219839133588e-12,2.1062310069895427e-12,1.309262320248834e-12,8.124331281289025e-13,4.855720098476121e-13,2.8272168378656837e-13,1.6111858545160552e-13,8.824838229761164e-14,3.2356199093963755e-09,2.414704597009408e-09,1.7212334523697808e-09,1.1750819822518292e-09,8.239090170830109e-10,5.980055269649122e-10,4.477841021957529e-10,3.353056456334711e-10,2.498937205153459e-10,1.8419634190222052e-10,1.339502073230753e-10,9.662033748113965e-11,6.840943977438189e-11,4.751297212377005e-11,3.250217626084218e-11,2.1679691026631502e-11,1.4121556617904987e-11,8.970665671090948e-12,5.554903195498225e-12,3.3578704752503667e-12,1.9822225050827904e-12
0.0,38,38.0,0.0,30.0,0.0,0.0,0.0,0.0,-13.0,0.0,2.0,0.0,0.0,0.0,1.343841110242255e-10,9.121915761109943e-11,6.128454898014473e-11,4.191030050213035e-11,2.8176621176603256e-11,1.8731867788250163e-11,1.2333925380860241e-11,8.008440153494091e-12,5.181812944490105e-12,3.2989070428960582e-12,2.113527493063363e-12,1.313144597972178e-12,8.151704956137954e-13,4.87838738553036e-13,2.845690802902482e-13,1.624974933235113e-13,8.919364096267225e-14,3.2140736589377483e-09,2.4041477121054515e-09,1.7200669198210897e-09,1.180135501532079e-09,8.309939251377805e-10,6.04841716263279e-10,4.535630787910273e-10,3.3986293917519766e-10,2.533522826541683e-10,1.867306188910741e-10,1.357589772408536e-10,9.788944622685373e-11,6.927602906278795e-11,4.809196469039926e-11,3.2881561009824576e-11,2.1922394313007024e-11,1.4272632662158422e-11,9.061305529106914e-12,5.6058289995654426e-12,3.383634923650733e-12,1.993616196325191e-12
0.0,39,39.0,0.0,30.0,0.0,0.0,0.0,0.0,-13.0,0.0,2.0,0.0,0.0,0.0,1.3616632419234245e-10,9.237018265053537e-11,6.201964410757902e-11,4.237966597623404e-11,2.8472618701324335e-11,1.8914975972337486e-11,1.2443664510860413e-11,8.071616812260147e-12,5.21563540397512e-12,3.315421853004738e-12,2.1211872699740165e-12,1.3170490388053849e-12,8.17770022820538e-13,4.899445299617008e-13,2.862933978547311e-13,1.6379871652864076e-13,9.009592621819694e-14,3.193183948552765e-09,2.394355663240757e-09,1.7196079892773702e-09,1.1857238143055476e-09,8.384331773421484e-10,6.119059746350842e-10,4.594958761910451e-10,3.4452518328923933e-10,2.568832300998235e-10,1.8931408261149762e-10,1.3760025646497638e-10,9.917978790377096e-11,7.015593063078613e-11,4.867903629265387e-11,3.3265668498946045e-11,2.2167777213508627e-11,1.4425364546144382e-11,9.15326124679753e-12,5.658032788946766e-12,3.4105820735717254e-12,2.005871025972374e-12
0.0,40,40.0,0.0,30.0,0.0,0.0,0.0,0.0,-13.0,0.0,2.0,0.0,0.0,0.0,1.3798130313190427e-10,9.354076233497182e-11,6.276630585258973e-11,4.28558770150349e-11,2.8772623533833112e-11,1.9100499650800633e-11,1.2555083010259663e-11,8.136191662437102e-12,5.250627076180826e-12,3.332746583703054e-12,2.129237462641284e-12,1.3210148878201024e-12,8.202621981988237e-13,4.919067757665316e-13,2.879025883167895e-13,1.6502542870479302e-13,9.09562417663159e-14,3.1730153672793138e-09,2.3853746086104363e-09,1.7198835998618447e-09,1.1918592688526255e-09,8.462327463170055e-10,6.192021647187412e-10,4.655855796548008e-10,3.4929476390482033e-10,2.6048827079352433e-10,1.9194790931000136e-10,1.3947481274945417e-10,1.0049185680593185e-10,7.104945014817727e-11,4.927436823057766e-11,3.3654598889816266e-11,2.2415864093710208e-11,1.4579691580487487e-11,9.246399099199558e-12,5.711355392334217e-12,3.4385932303306132e-12,2.018933956415223e-12
0.0,41,41.0,0.0,30.0,0.0,0.0,0.0,0.0,-13.0,0.0,2.0,0.0,0.0,0.0,1.3982973851352757e-10,9.473127982940913e-11,6.352474264627297e-11,4.333904836923004e-11,2.9076691038565962e-11,1.9288431118717082e-11,1.2668108612543335e-11,8.202062775044505e-12,5.286709912248943e-12,3.3508569621040794e-12,2.1376971326325034e-12,1.3250762277248512e-12,8.226754262511093e-13,4.93742377588782e-13,2.8940461147379743e-13,1.661808868542494e-13,9.177566351281593e-14,3.15363414441333e-09,2.377251160357171e-09,1.720920546299192e-09,1.1985540220365946e-09,8.543986173119625e-10,6.267342662813478e-10,4.718353878350314e-10,3.54174147258977e-10,2.641691615208533e-10,1.946333058872078e-10,1.413834337521572e-10,1.018261612002288e-10,7.195690433683722e-11,4.9878150683573087e-11,3.404846206907548e-11,2.266669575832099e-11,1.473557881628845e-11,9.340614233274133e-12,5.7656590856567695e-12,3.467555789081603e-12,2.0327494487259774e-12
0.0,42,42.0,0.0,30.0,0.0,0.0,0.0,0.0,-13.0,0.0,2.0,0.0,0.0,0.0,1.4171233848562452e-10,9.594212746867946e-11,6.429516733043223e-11,4.382929652269932e-11,2.938488061904098e-11,1.947877442028685e-11,1.2782686587104131e-11,8.26914227273345e-12,5.32380963886956e-12,3.3697238976854385e-12,2.1465782732473712e-12,1.32926222095386e-12,8.250359647272059e-13,4.954676692770281e-13,2.908074010036464e-13,1.6726841541849191e-13,9.255533270725725e-14,3.1351080425936503e-09,2.3700322818555367e-09,1.7227454217893432e-09,1.2058200321467874e-09,8.629368010871504e-10,6.345063869510765e-10,4.782486171448815e-10,3.591658810713856e-10,2.679277078565857e-10,1.9737150922022246e-10,1.4332692586474657e-10,1.0318322171430577e-10,7.287861933448254e-11,5.0490581208937904e-11,3.444737548204691e-11,2.2920325628123877e-11,1.489301215455485e-11,9.435826853926772e-12,5.820826509560356e-12,3.497364710828886e-12,2.0472608698050893e-12
0.0,43,43.0,0.0,30.0,0.0,0.0,0.0,0.0,-13.0,0.0,2.0,0.0,0.0,0.0,1.4362982912769662e-10,9.717370690742639e-11,6.507779736872311e-11,4.4326739740566817e-11,2.969725451589056e-11,1.9671542555955935e-11,1.2898776945782838e-11,8.33735540501934e-12,5.3618567571291075e-12,3.389315017199595e-12,2.155886776279716e-12,1.3335973941619133e-12,8.273678914134928e-13,4.970983472979467e-13,2.921188308633486e-13,1.6829139123345183e-13,9.329644950055385e-14,3.1175062372863245e-09,2.3637651787833344e-09,1.725384561449845e-09,1.2136690550804826e-09,8.718533489606858e-10,6.425227737919593e-10,4.848287065422084e-10,3.642725961444237e-10,2.7176576455279694e-10,2.0016378589124233e-10,1.4530611344751912e-10,1.0456357010363877e-10,7.381492932940466e-11,5.1111863476302973e-11,3.485146243943886e-11,2.3176816718523655e-11,1.505199421115534e-11,9.531978658540292e-12,5.8767592604874345e-12,3.5279235301188693e-12,2.0624116847112988e-12
0.0,44,44.0,0.0,30.0,0.0,0.0,0.0,0.0,-13.0,0.0,2.0,0.0,0.0,0.0,1.4558295493126024e-10,9.842642928118786e-11,6.587285501479508e-11,4.483149818833393e-11,3.0013877015794966e-11,1.9866755283403037e-11,1.3016351953764675e-11,8.406639459713107e-12,5.400787186958629e-12,3.4095959720528743e-12,2.1656233538447603e-12,1.3381019547528403e-12,8.296930989031975e-13,4.986494099303442e-13,2.9334668238630964e-13,1.692532291970163e-13,9.400026682572744e-14,3.1008991821564156e-09,2.358497184275288e-09,1.7288639868688527e-09,1.222112644127325e-09,8.811543699697089e-10,6.507878256023487e-10,4.915792226457071e-10,3.6949700832498385e-10,2.756852363149348e-10,2.030114322657431e-10,1.4732183841103864e-10,1.0596774835733528e-10,7.476617545457426e-11,5.174220620800146e-11,3.526085078604e-11,2.3436239263316662e-11,1.5212540858142617e-11,9.6290295752623e-12,5.9333762842069804e-12,3.5591449551105445e-12,2.078146448613762e-12
0.0,45,45.0,0.0,30.0,0.0,0.0,0.0,0.0,-13.0,0.0,2.0,0.0,0.0,0.0,1.4757247930382605e-10,9.970071538317824e-11,6.668056744743553e-11,4.5343694079654425e-11,3.033481395528186e-11,2.006443741299526e-11,1.313539395299724e-11,8.476942592350917e-12,5.440542621288089e-12,3.4305315305545986e-12,2.1757844026951887e-12,1.3427921296264181e-12,8.320313151902663e-13,5.001351057758136e-13,2.94498612365862e-13,1.7015736852013507e-13,9.46680845232562e-14,3.08535845994011e-09,2.3542756385993176e-09,1.7332093523942965e-09,1.2311621536298863e-09,8.908460500850509e-10,6.593061058218883e-10,4.985038651066262e-10,3.748419207714381e-10,2.796880789143969e-10,2.0591577486786278e-10,1.493749600903726e-10,1.0739630809992041e-10,7.573270492348525e-11,5.2381822303459346e-11,3.567567184979727e-11,2.3698668853865443e-11,1.5374678358389798e-11,9.72695483147389e-12,5.990612174016642e-12,3.5909511229714773e-12,2.0944116138756194e-12
0.0,46,46.0,0.0,30.0,0.0,0.0,0.0,0.0,-13.0,0.0,2.0,0.0,0.0,0.0,1.495991850923621e-10,1.0099699585870919e-10,6.750116688264054e-11,4.5863451827884193e-11,3.066013243098771e-11,2.0264617507618255e-11,1.3255893490036336e-11,8.548222636030718e-12,5.481070648213135e-12,3.4520864711863226e-12,2.1863628021439536e-12,1.3476805171124062e-12,8.344001475212166e-13,5.01568891888101e-13,2.955821224494522e-13,1.7100725947125974e-13,9.53012436483378e-14,3.070956618582302e-09,2.3511477639562527e-09,1.7384458938690532e-09,1.2408287467992012e-09,9.009346734104132e-10,6.680823559362324e-10,5.056064721702189e-10,3.8031022647690004e-10,2.837763005911208e-10,2.0887817100558113e-10,1.5146635536271104e-10,1.0884981024673783e-10,7.671487038589817e-11,5.303092812985587e-11,3.609605961140967e-11,2.3964184987738126e-11,1.553844101222559e-11,9.825742357800687e-12,6.048415452076204e-12,3.623273572653886e-12,2.111156168405418e-12
0.0,47,47.0,0.0,30.0,0.0,0.0,0.0,0.0,-13.0,0.0,2.0,0.0,0.0,0.0,1.5166387512362552e-10,1.0231571141747196e-10,6.833489067126922e-11,4.639089818822818e-11,3.0989900650397835e-11,2.046732690773163e-11,1.3377847729511035e-11,8.620445937529204e-12,5.522324692930783e-12,3.4742262954147817e-12,2.19734863999679e-12,1.3527764440011951e-12,8.368151466655038e-13,5.02963401612113e-13,2.966045301760488e-13,1.7180635055922116e-13,9.590112091247796e-14,3.057766992587056e-09,2.3491605351787527e-09,1.7445983806045838e-09,1.2511234079629042e-09,9.114266452857893e-10,6.771215092739155e-10,5.128910263723813e-10,3.8590491100827975e-10,2.8795196370514025e-10,2.1190000960344166e-10,1.5359691896459233e-10,1.1032882487287458e-10,7.771302947918862e-11,5.368974296320106e-11,3.6522150050376696e-11,2.423286994154487e-11,1.5703869240011045e-11,9.925390518338352e-12,6.106746891800706e-12,3.6560529937831444e-12,2.1283321216961692e-12
0.0,48,48.0,0.0,30.0,0.0,0.0,0.0,0.0,-13.0,0.0,2.0,0.0,0.0,0.0,1.53767372759637e-10,1.036573130629357e-10,6.918198138921394e-11,4.692616238476313e-11,3.1324187874836305e-11,2.0672599013846227e-11,1.3501259127977717e-11,8.693586251848272e-12,5.564263824389848e-12,3.496917779797498e-12,2.2087298637297215e-12,1.3580863206141515e-12,8.39289888612414e-13,5.043304220241575e-13,2.9757294197719463e-13,1.7255807613091965e-13,9.646912322619409e-14,3.045863509741529e-09,2.3483605472934958e-09,1.7516910714648335e-09,1.2620569595158435e-09,9.223285172023793e-10,6.86428705095459e-10,5.203616603281245e-10,3.9162905542876307e-10,2.922171866017444e-10,2.149827122059231e-10,1.557675639704882e-10,1.118339312588588e-10,7.872754455013353e-11,5.435848856475707e-11,3.695408063469962e-11,2.450480790008363e-11,1.5871008031822016e-11,1.002590614812117e-11,6.165577922054162e-12,3.689238805402036e-12,2.145894854995494e-12
0.0,49,49.0,0.0,30.0,0.0,0.0,0.0,0.0,-13.0,0.0,2.0,0.0,0.0,0.0,1.5591052246727297e-10,1.0502226233763361e-10,7.004268692527017e-11,4.746937622114383e-11,3.1663064420267937e-11,2.0880468769584642e-11,1.3626134339730458e-11,8.767623716210128e-12,5.606852464877211e-12,3.5201293874330976e-12,2.2204928565176573e-12,1.3636139879269286e-12,8.418360706574124e-13,5.056808806836913e-13,2.9849422843162944e-13,1.7326584438641554e-13,9.700668232214409e-14,3.035320483622342e-09,2.348793881112506e-09,1.7597476760064527e-09,1.273640083827305e-09,9.336470134214997e-10,6.960093028808206e-10,5.280226625798264e-10,3.974858393792442e-10,2.9657414566042865e-10,2.1812773411971674e-10,1.5797922239987512e-10,1.133657180803413e-10,7.975878252229359e-11,5.5037388878040145e-11,3.739198992937418e-11,2.4780084288207397e-11,1.6039905703458734e-11,1.0127302873120863e-11,6.2248891398872716e-12,3.722788612249508e-12,2.163803351839708e-12
0.0,50,50.0,0.0,30.0,0.0,0.0,0.0,0.0,-13.0,0.0,2.0,0.0,0.0,0.0,1.5809419040156266e-10,1.0641103158299881e-10,7.091726057031943e-11,4.802067417631793e-11,3.200660169194405e-11,2.109097229857169e-11,1.3752483325262679e-11,8.842543915729484e-12,5.65006003437871e-12,3.5438315583945475e-12,2.2326229396431546e-12,1.3693610518246249e-12,8.444636188881808e-13,5.070248412489319e-13,2.993750020212195e-13,1.7393302583472599e-13,9.751524944947943e-14,3.0262123925766677e-09,2.350505968230468e-09,1.768791321687067e-09,1.2858833503346853e-09,9.453890591741416e-10,7.058688967279142e-10,5.358784834842168e-10,4.034785443014021e-10,3.0102507750292154e-10,2.213365656681212e-10,1.6023284592499672e-10,1.1492478371315501e-10,8.08071148853891e-11,5.5726669831879484e-11,3.7836017304332094e-11,2.5058785263342475e-11,1.6210612906163025e-11,1.0229599685228478e-11,6.28466894749258e-12,3.756667579704275e-12,2.18202032476743e-12
0.0,51,51.0,0.0,30.0,0.0,0.0,0.0,0.0,-13.0,0.0,2.0,0.0,0.0,0.0,1.6031926500269106e-10,1.0782410421248206e-10,7.180596111015742e-11,4.8580193487800224e-11,3.2354872236724685e-11,2.130414665735824e-11,1.3880318633813573e-11,8.91833704623729e-12,5.6938605556791814e-12,3.567996897840352e-12,2.2451048043151364e-12,1.375327200589585e-12,8.471808042015673e-13,5.083715073780427e-13,3.0022159758536187e-13,1.7456294222969593e-13,9.799629013973085e-14,3.0186136461915357e-09,2.353541457025426e-09,1.7788445282088776e-09,1.298797248020045e-09,9.575618103005482e-10,7.160133297822061e-10,5.439337411276531e-10,4.0961055679150646e-10,3.055722813402922e-10,2.2461073353538e-10,1.6252940665619572e-10,1.1651173662926942e-10,8.187291778492087e-11,5.642655923538189e-11,3.828630272633807e-11,2.5340997335726015e-11,1.6383181845178228e-11,1.0332819743903046e-11,6.344912320552178e-12,3.7908477618900634e-12,2.2005122534428913e-12
0.0,52,52.0,0.0,30.0,0.0,0.0,0.0,0.0,-13.0,0.0,2.0,0.0,0.0,0.0,1.625866576070498e-10,1.09261974996884e-10,7.270905292330208e-11,4.91480742254594e-11,3.270794980259544e-11,2.1520029674327672e-11,1.400965483322241e-11,8.994997174700655e-12,5.738232240892493e-12,3.5926002791822987e-12,2.2579228770462754e-12,1.3815105026804973e-12,8.499943641629494e-13,5.097292342336228e-13,3.0104005561587047e-13,1.751588560349277e-13,9.845127905193592e-14,3.0125983406236997e-09,2.3579440814850764e-09,1.7899291901067908e-09,1.3123922234230366e-09,9.701726841713985e-10,7.264487086252281e-10,5.521932272694897e-10,4.1588537207967325e-10,3.102181214431675e-10,2.279518021829769e-10,1.648698979859087e-10,1.1812719586308157e-10,8.295657219250133e-11,5.7137286751255836e-11,3.87429866220277e-11,2.5626807090589798e-11,1.6557665669372755e-11,1.0436989376853072e-11,6.405619708838375e-12,3.825307411070815e-12,2.2192493486557437e-12
0.0,53,53.0,0.0,30.0,0.0,0.0,0.0,0.0,-13.0,0.0,2.0,0.0,0.0,0.0,1.648973030729279e-10,1.1072515036106296e-10,7.36268060843802e-11,4.9724459358705754e-11,3.306590939894554e-11,2.1738659851060324e-11,1.414050806271732e-11,9.072521594090534e-12,5.783157075490607e-12,3.617618878142082e-12,2.2710616235178106e-12,1.3879076827308774e-12,8.529096282412875e-13,5.111055468327584e-13,3.0183610847829247e-13,1.7572396047372509e-13,9.888169491161418e-14,3.0082400045587937e-09,2.3637565349071172e-09,1.8020665687157448e-09,1.3266787242911765e-09,9.832293917144006e-10,7.371814175587775e-10,5.606619133229111e-10,4.2230659763385985e-10,3.14965029722582e-10,2.3136137532373509e-10,1.6725533547619053e-10,1.1977179153102754e-10,8.40584641397166e-11,5.785908393472545e-11,3.92062098012031e-11,2.591630099204885e-11,1.6734118000419334e-11,1.054213725368998e-11,6.466796065434847e-12,3.860030290568181e-12,2.2382054557751075e-12
0.0,54,54.0,0.0,30.0,0.0,0.0,0.0,0.0,-13.0,0.0,2.0,0.0,0.0,0.0,1.672521604215952e-10,1.1221414869142585e-10,7.45594964732008e-11,5.030949481964342e-11,3.3428827353976914e-11,2.196007630804375e-11,1.4272895686980336e-11,9.150910267113192e-12,5.828620411923454e-12,3.643032151851465e-12,2.2845057963492823e-12,1.3945143744719863e-12,8.559306442052443e-13,5.125071644347382e-13,3.026151695901112e-13,1.7626137022050428e-13,9.928901556172326e-14,3.005611338001466e-09,2.3710203507446264e-09,1.8152772946576056e-09,1.341667248906221e-09,9.96739970353125e-10,7.482181327314187e-10,5.693449563916665e-10,4.288779568916673e-10,3.1981550841175423e-10,2.3484109744290336e-10,1.6968675777792926e-10,1.214461653907668e-10,8.51789850007511e-11,5.859218432628004e-11,3.9676113430926646e-11,2.6209565252721998e-11,1.6912592575453416e-11,1.0648293708609545e-11,6.528449997902783e-12,3.895005008167789e-12,2.25735791021741e-12
0.0,55,55.0,0.0,30.0,0.0,0.0,0.0,0.0,-13.0,0.0,2.0,0.0,0.0,0.0,1.696522134946785e-10,1.1372950065382215e-10,7.55074058892911e-11,5.0903329564327167e-11,3.379678136750049e-11,2.2184318761002757e-11,1.4406836032607669e-11,9.230165351703386e-12,5.874610581574222e-12,3.66882177544183e-12,2.2982406324359026e-12,1.401325349958404e-12,8.590603037324839e-13,5.13940030133153e-13,3.033823255343363e-13,1.7677411278907644e-13,9.967471314760788e-14,3.0047839465634604e-09,2.37977579307977e-09,1.8295813819704467e-09,1.357368401054225e-09,1.0107128176496867e-09,7.595658360648944e-10,5.782477053894251e-10,4.356032931259099e-10,3.247721328414216e-10,2.383926553583898e-10,1.7216522757277287e-10,1.2315097142893172e-10,8.63185318112898e-11,5.933682358759639e-11,4.015283905207144e-11,2.6506685756346733e-11,1.7093142981740868e-11,1.0755490190529496e-11,6.590593032818267e-12,3.93022438238609e-12,2.2766873563907022e-12
0.0,56,56.0,0.0,30.0,0.0,0.0,0.0,0.0,-13.0,0.0,2.0,0.0,0.0,0.0,1.7209847162881053e-10,1.1527174952163772e-10,7.64708221714933e-11,5.150611563382376e-11,3.416985055858743e-11,2.24114275176384e-11,1.454234819079485e-11,9.310290800368746e-12,5.921118531025467e-12,3.694971546883653e-12,2.3122520055606133e-12,1.408334725046932e-12,8.62300465557858e-13,5.154093448146106e-13,3.0414233103998926e-13,1.7726512066834016e-13,1.000402494590134e-13,3.0058280744109696e-09,2.3900617594052057e-09,1.8449982549591568e-09,1.3737929505268315e-09,1.0251567254302433e-09,7.712318289504721e-10,5.873757072760716e-10,4.424865734518468e-10,3.298375543030129e-10,2.420177798148677e-10,1.7469183253126736e-10,1.2488687646890106e-10,8.747750761335946e-11,6.009323967117489e-11,4.063652863091795e-11,2.6807748023154635e-11,1.7275822465752586e-11,1.0863758821523477e-11,6.653238984075736e-12,3.96568485010266e-12,2.2961775404093047e-12
0.0,57,57.0,0.0,30.0,0.0,0.0,0.0,0.0,-13.0,0.0,2.0,0.0,0.0,0.0,1.7459197034862988e-10,1.1684145151403627e-10,7.745003932213001e-11,5.2118008216356505e-11,3.4548115508273694e-11,2.2641443487320813e-11,1.4679451872600752e-11,9.39129202519467e-12,5.9681374863697944e-12,3.721467269232835e-12,2.3265265398759315e-12,1.4155361415529956e-12,8.656520747569276e-13,5.169196046606297e-13,3.0489960671822983e-13,1.7773722424867196e-13,1.0038707145312619e-13,3.008812339547383e-09,2.401915698562929e-09,1.8615467887722696e-09,1.3909518989544547e-09,1.0400809141635962e-09,7.832237456986871e-10,5.9673471345181e-10,4.495318929853227e-10,3.3501450299528754e-10,2.4571824710868955e-10,1.7726768628274237e-10,1.266545607920543e-10,8.865632181771716e-11,6.086167301544163e-11,4.1127324639210905e-11,2.7112837209669225e-11,1.746068380223125e-11,1.0973132046750838e-11,6.71640341496424e-12,4.0013859208559086e-12,2.3158150856678132e-12
0.0,58,58.0,0.0,30.0,0.0,0.0,0.0,0.0,-13.0,0.0,2.0,0.0,0.0,0.0,1.771337720792665e-10,1.1843917614438484e-10,7.844535763523502e-11,5.2739165711469535e-11,3.493165829792867e-11,2.2874408198418624e-11,1.4818167305436362e-11,9.473175620422884e-12,6.015662647520196e-12,3.7482966179445256e-12,2.3410516896175102e-12,1.422922926889445e-12,8.691152770217364e-13,5.184746413993627e-13,3.056582394081393e-13,1.7819314557401077e-13,1.007166069817536e-13,3.0138034756348664e-09,2.4153735468268413e-09,1.879245364602866e-09,1.4088565506786514e-09,1.0554950673590895e-09,7.955495667409265e-10,6.063306863556815e-10,4.5674347916153004e-10,3.4030579105094134e-10,2.494958807424436e-10,1.7989392939425659e-10,1.2845471876768893e-10,8.98553905771016e-11,6.164236675825535e-11,4.1625370156828015e-11,2.7422038136065147e-11,1.7647779211462984e-11,1.1083642361273938e-11,6.7801031840912186e-12,4.037329680531812e-12,2.335589259159667e-12
0.0,59,59.0,0.0,30.0,0.0,0.0,0.0,0.0,-13.0,0.0,2.0,0.0,0.0,0.0,1.7972496687950918e-10,1.2006550657898138e-10,7.945708382837539e-11,5.3369749796843333e-11,3.532056254407345e-11,2.3110363819572226e-11,1.4958515161456093e-11,9.555949134889253e-12,6.063690913101858e-12,3.775448999553158e-12,2.3558157900897033e-12,1.430488232285571e-12,8.726895270317225e-13,5.200776645560169e-13,3.064219849564441e-13,1.7863549294491003e-13,1.0103026074487972e-13,3.020866085084272e-09,2.4304696852067326e-09,1.8981119402689434e-09,1.4275185882744683e-09,1.0714093657520425e-09,8.082176315971159e-10,6.161698063194835e-10,4.641256962241426e-10,3.4571431564033817e-10,2.533525531095763e-10,1.8257173035729314e-10,1.3028805948813158e-10,9.107513716518067e-11,6.243556696290397e-11,4.2130808991923405e-11,2.7735435335385637e-11,1.783716031510789e-11,1.1195322101155806e-11,6.844356065597497e-12,4.073520345171105e-12,2.355491735217287e-12
0.0,60,60.0,0.0,30.0,0.0,0.0,0.0,0.0,-13.0,0.0,2.0,0.0,0.0,0.0,1.8236667319689956e-10,1.2172104000622285e-10,8.048553117764845e-11,5.4009925498175784e-11,3.571491343048438e-11,2.334935318243452e-11,1.5100516510290207e-11,9.639620887145277e-12,6.112220635472949e-12,3.802915406797167e-12,2.370808084585176e-12,1.4382251509030856e-12,8.763736902498648e-13,5.217313050029708e-13,3.071942732326105e-13,1.7906675638731565e-13,1.0132941049028604e-13,3.0300624086536858e-09,2.4472369210866852e-09,1.9181641367473217e-09,1.4469501522348405e-09,1.0878345210539092e-09,8.212366516407563e-10,6.262584787313032e-10,4.716830498939742e-10,3.5124306214998014e-10,2.5729018721087743e-10,1.8530228658208098e-10,1.3215530740669958e-10,9.231599235728518e-11,6.324152285173179e-11,4.2643785814063106e-11,2.8053113119830902e-11,1.8028878122677754e-11,1.1308203288024017e-11,6.909180434687146e-12,4.109963864099011e-12,2.375516362200336e-12
0.0,61,61.0,0.0,30.0,0.0,0.0,0.0,0.0,-13.0,0.0,2.0,0.0,0.0,0.0,1.850600386460527e-10,1.23406388016382e-10,8.153101965551699e-11,5.465986126235874e-11,3.611479773836918e-11,2.3591419804296778e-11,1.524419279006555e-11,9.724199816731924e-12,6.161251404675718e-12,3.830688274192882e-12,2.386018731483372e-12,1.4461268173131237e-12,8.801661376792984e-13,5.234376591696783e-13,3.0797821516454645e-13,1.7948930399197386e-13,1.016154034771397e-13,3.041452117272049e-09,2.465706497278496e-09,1.9394193410159055e-09,1.4671639242328646e-09,1.1047818090611856e-09,8.346157227098677e-10,6.36603341564548e-10,4.794201922254215e-10,3.5689510743362894e-10,2.6131075840573683e-10,1.880868254002915e-10,1.3405720297703981e-10,9.357839481011711e-11,6.406048704349756e-11,4.316444629650721e-11,2.837515566009028e-11,1.8222983042167877e-11,1.142231751785588e-11,6.974595010168422e-12,4.146667570478737e-12,2.3956589365417748e-12
0.0,62,62.0,0.0,30.0,0.0,0.0,0.0,0.0,-13.0,0.0,2.0,0.0,0.0,0.0,1.8780624081152578e-10,1.2512217699213673e-10,8.259387607122652e-11,5.531972903405953e-11,3.6520303875314344e-11,2.3836607909657474e-11,1.538956579192651e-11,9.809695365760395e-12,6.21078385960431e-12,3.8587613371304445e-12,2.4014387953409093e-12,1.454186489889986e-12,8.840648332995714e-13,5.251983333360936e-13,3.087766115691086e-13,1.79905379118526e-13,1.0188955321801733e-13,3.055092132223643e-09,2.485908131457098e-09,1.961894825299372e-09,1.4881732132860433e-09,1.1222631019428907e-09,8.483643376300843e-10,6.472112733284848e-10,4.873419266578e-10,3.6267362313440215e-10,2.654162962020037e-10,1.9092660507757538e-10,1.3599450329301282e-10,9.48627914384926e-11,6.489271579142712e-11,4.369293726437258e-11,2.8701647074309233e-11,1.84195249095006e-11,1.15376958861143e-11,7.040618646443501e-12,4.183639876627485e-12,2.415916987526574e-12
0.0,63,63.0,0.0,30.0,0.0,0.0,0.0,0.0,-13.0,0.0,2.0,0.0,0.0,0.0,1.9060648807658797e-10,1.2686904850999458e-10,8.367443421364122e-11,5.598970433572276e-11,3.693152190359325e-11,2.408496245024158e-11,1.5536657654317744e-11,9.896117385647638e-12,6.260819524352578e-12,3.8871294967725104e-12,2.417060225353604e-12,1.4623976177164398e-12,8.880674140605281e-13,5.270144874994925e-13,3.0959196354627257e-13,1.803170984490043e-13,1.0215313651110046e-13,3.071036480167033e-09,2.507870088739181e-09,1.9856078825165843e-09,1.5099920440644937e-09,1.1402908995612163e-09,8.62492398733144e-10,6.580894014946209e-10,4.954532132674043e-10,3.6858187907648354e-10,2.6960888608903814e-10,1.938229158378727e-10,1.3796798272881643e-10,9.616963778791831e-11,6.573846921967509e-11,4.422940684595998e-11,2.9032671523813328e-11,1.861855303237092e-11,1.1654368942555328e-11,7.107270168117303e-12,4.220890010943232e-12,2.4362895752241386e-12
