Line_number,Fiducial,Easting,Northing,Height,Elevation,tx_pitch,tx_roll,tx_yaw,txrx_dx,txrx_dy,txrx_dz,rx_pitch,rx_roll,rx_yaw,S0Z_time_3.834e-04,S0Z_time_3.924e-04,S0Z_time_4.039e-04,S0Z_time_4.184e-04,S0Z_time_4.364e-04,S0Z_time_4.589e-04,S0Z_time_4.869e-04,S0Z_time_5.224e-04,S0Z_time_5.679e-04,S0Z_time_6.249e-04,S0Z_time_6.969e-04,S0Z_time_7.879e-04,S0Z_time_9.019e-04,S0Z_time_1.046e-03,S0Z_time_1.227e-03,S0Z_time_1.456e-03,S0Z_time_1.744e-03,S0Z_time_2.109e-03,S0Z_time_2.567e-03,S0Z_time_3.145e-03,S0Z_time_3.864e-03,S0Z_time_4.745e-03,S0Z_time_5.821e-03,S0Z_time_7.140e-03,S0Z_time_8.754e-03,S0Z_time_1.073e-02,S1Z_time_2.057e-05,S1Z_time_2.607e-05,S1Z_time_3.307e-05,S1Z_time_4.206e-05,S1Z_time_5.356e-05,S1Z_time_6.807e-05,S1Z_time_8.607e-05,S1Z_time_1.086e-04,S1Z_time_1.366e-04,S1Z_time_1.721e-04,S1Z_time_2.176e-04,S1Z_time_2.746e-04,S1Z_time_3.466e-04,S1Z_time_4.376e-04,S1Z_time_5.516e-04,S1Z_time_6.956e-04,S1Z_time_8.771e-04,S1Z_time_1.106e-03,S1Z_time_1.394e-03
0.0,0,0.0,0.0,30.0,0.0,0.0,0.0,0.0,-13.0,0.0,2.0,0.0,0.0,0.0,3.2649318897075344e-11,2.8846959710887402e-11,2.5139334461425166e-11,2.1757502525034496e-11,1.8700871286235666e-11,1.608376205778591e-11,1.3842468607026643e-11,1.1883314328626348e-11,1.0149269959260738e-11,8.620497144344541e-12,7.268471872861269e-12,6.057036591130421e-12,4.9918926777653286e-12,4.05444755546386e-12,3.2374840184269154e-12,2.53799749366136e-12,1.95190172686829e-12,1.4687317108912855e-12,1.0784779192358594e-12,7.727021769815338e-13,5.408205051560153e-13,3.717758919358003e-13,2.5028690181136536e-13,1.6526531003008966e-13,1.0685163637580156e-13,6.773388457825229e-14,3.550147768289746e-09,1.6357115215619718e-09,8.202756551810384e-10,4.4724259633263763e-10,2.603234677572692e-10,1.5634358932090391e-10,9.436601425817906e-11,5.637921679489809e-11,3.39108296520978e-11,2.080454763407945e-11,1.32138329244137e-11,8.798106950179857e-12,6.021457144488819e-12,4.185698495881671e-12,2.915357278635051e-12,2.0178099916121623e-12,1.3789477480755587e-12,9.317287480310405e-13,6.174956468874451e-13
0.0,1,1.0,0.0,30.0,0.0,0.0,0.0,0.0,-13.0,0.0,2.0,0.0,0.0,0.0,3.5251473893596926e-11,3.1061210145105866e-11,2.6900545791881746e-11,2.3022104154854312e-11,1.947047719806369e-11,1.6418387233920744e-11,1.3835644424871607e-11,1.16352263505855e-11,9.761228697772314e-12,8.177659295891456e-12,6.827446471214409e-12,5.650080646339067e-12,4.63481112233102e-12,3.752802590111625e-12,2.9910052754656884e-12,2.342641756596799e-12,1.8015978910594098e-12,1.3564613666327345e-12,9.97239880019811e-13,7.157152811599672e-13,5.019916915714816e-13,3.4593975423368455e-13,2.335135716039255e-13,1.5462536843641468e-13,1.0026771280105481e-13,6.374671181625797e-14,3.5349544495677496e-09,1.6268035505386574e-09,8.181935063849653e-10,4.5140522126467453e-10,2.6964031590507106e-10,1.6819722197365775e-10,1.0559924732407139e-10,6.492480973237365e-11,3.928947996038226e-11,2.3594320796080872e-11,1.4345681155668493e-11,9.094007871954922e-12,5.974708534038462e-12,4.0390651840344744e-12,2.761644846929894e-12,1.8896357961396563e-12,1.2816921834999824e-12,8.614403549830706e-13,5.70060221088164e-13
0.0,2,2.0,0.0,30.0,0.0,0.0,0.0,0.0,-13.0,0.0,2.0,0.0,0.0,0.0,3.795882117750474e-11,3.348572611567352e-11,2.8968444624827327e-11,2.4665373308194415e-11,2.0651078705816747e-11,1.7151776250661428e-11,1.4179513354173679e-11,1.1668305968275979e-11,9.581600975303083e-12,7.883021744276383e-12,6.4908166349692095e-12,5.318380509864342e-12,4.333485673058101e-12,3.493189101252534e-12,2.776192815254767e-12,2.170753711376177e-12,1.668466511277244e-12,1.2563558877847995e-12,9.244321734083783e-13,6.643443073076488e-13,4.668150670463002e-13,3.2241017596352176e-13,2.1816847426393645e-13,1.4483994183115866e-13,9.418699547637258e-14,6.003954187707925e-14,3.5195471646235274e-09,1.6178006442397797e-09,8.151899685477886e-10,4.528822226731789e-10,2.748703710710926e-10,1.7612892404369834e-10,1.1433411725700159e-10,7.257810268815474e-11,4.482615913880817e-11,2.6930850454075712e-11,1.59873496950381e-11,9.724049749213535e-12,6.111024546054363e-12,3.9844348961603e-12,2.6562854171918463e-12,1.7892443934912228e-12,1.201027297450724e-12,8.013313606872879e-13,5.294911763987087e-13
0.0,3,3.0,0.0,30.0,0.0,0.0,0.0,0.0,-13.0,0.0,2.0,0.0,0.0,0.0,4.060074760184839e-11,3.59326837186992e-11,3.115296577704337e-11,2.6513796712290826e-11,2.2103285317616863e-11,1.8187708777477752e-11,1.481954347536143e-11,1.1960204921140014e-11,9.606155884888545e-12,7.737711823127184e-12,6.2584279684594135e-12,5.059069407864835e-12,4.083671903710811e-12,3.2713117588723586e-12,2.589392410948697e-12,2.0195340840809438e-12,1.550428252496063e-12,1.1669728124544661e-12,8.590852683197788e-13,6.179676466179003e-13,4.3490602434925007e-13,3.009537588579947e-13,2.0411573240208167e-13,1.3583163675862284e-13,8.856828568634216e-14,5.659966587458598e-14,3.503922746261356e-09,1.6088565659325788e-09,8.120727739938779e-10,4.5333215320957166e-10,2.7783574122403074e-10,1.812201274750511e-10,1.2069225782587036e-10,7.888960681894412e-11,4.99833763713606e-11,3.045020173447889e-11,1.7979907083247257e-11,1.0651488721806974e-11,6.434708420110508e-12,4.029162108164634e-12,2.6016829881242414e-12,1.7157444707192703e-12,1.135567147178643e-12,7.503768748294399e-13,4.947595808704066e-13
0.0,4,4.0,0.0,30.0,0.0,0.0,0.0,0.0,-13.0,0.0,2.0,0.0,0.0,0.0,4.308123814258399e-11,3.82825450743312e-11,3.3318087682754227e-11,2.8427282617206143e-11,2.369863061460638e-11,1.942281712340872e-11,1.568428099666699e-11,1.2470875410715551e-11,9.818502513223729e-12,7.737827006201974e-12,6.130120074226615e-12,4.8712029766521945e-12,3.883002696043129e-12,3.084136625005497e-12,2.4277272080555022e-12,1.8866843373732377e-12,1.445731728973697e-12,1.087086421278805e-12,8.003567025262261e-13,5.760441416274432e-13,4.0592521939323015e-13,2.8136370467188746e-13,1.9123350463908814e-13,1.2753098470130077e-13,8.33741992584374e-14,5.341485263274108e-14,3.48808318936211e-09,1.5999858033564848e-09,8.090785244371948e-10,4.535187785418534e-10,2.7971337469577863e-10,1.844975570940385e-10,1.2514084133058985e-10,8.380013250716486e-11,5.4455799654394425e-11,3.3852699649910164e-11,2.0141471534587757e-11,1.180338597615117e-11,6.930526328126906e-12,4.176025390200061e-12,2.6009396438159442e-12,1.6695226922382332e-12,1.084641645971671e-12,7.078886550040757e-13,4.649376435557384e-13
0.0,5,5.0,0.0,30.0,0.0,0.0,0.0,0.0,-13.0,0.0,2.0,0.0,0.0,0.0,4.535598640289711e-11,4.046944360349563e-11,3.537771390878768e-11,3.0305524507473934e-11,2.533344656258081e-11,2.0762760927215902e-11,1.6698781602637794e-11,1.3150041805510631e-11,1.019154474664837e-11,7.872387941239824e-12,6.1030456856078375e-12,4.754066172721424e-12,3.7303143430384506e-12,2.9297231198215104e-12,2.2890394839544743e-12,1.7703384430083983e-12,1.3529083544434107e-12,1.0156544076306191e-12,7.475160894641479e-13,5.381023448593574e-13,3.7957252975763336e-13,2.634567624109165e-13,1.7941243374669618e-13,1.198756817618483e-13,7.857061210657423e-14,5.0468325992442205e-14,3.4720344135594277e-09,1.5911902345044341e-09,8.062566329130593e-10,4.5374279344196506e-10,2.8116280738745286e-10,1.8673822161121985e-10,1.2821973682001175e-10,8.747424966401712e-11,5.8135991937807255e-11,3.693930326901952e-11,2.2309210603120873e-11,1.3091030456778715e-11,7.566351002323595e-12,4.419980596110531e-12,2.6556159844386317e-12,1.651570338456162e-12,1.0481789778426794e-12,6.734519083248359e-13,4.3931737790530483e-13
0.0,6,6.0,0.0,30.0,0.0,0.0,0.0,0.0,-13.0,0.0,2.0,0.0,0.0,0.0,4.7413320818532476e-11,4.24650847986271e-11,3.72851034571722e-11,3.208466090525009e-11,2.6932615826892138e-11,2.2130745039601962e-11,1.779450383576036e-11,1.3945188324720941e-11,1.0691710969378622e-11,8.124045496942956e-12,6.170467796642364e-12,4.705745225617254e-12,3.6247852109358172e-12,2.806904401701949e-12,2.1718090447239493e-12,1.6690226793615865e-12,1.2707383426991264e-12,9.517886025672848e-13,6.999320707738275e-13,5.037312569893525e-13,3.555823365860681e-13,2.4707039987956934e-13,1.6855423698510488e-13,1.1280984025160607e-13,7.41261559214345e-14,4.773843796109698e-14,3.455781433734601e-09,1.582477176784114e-09,8.036118247711272e-10,4.541018070636493e-10,2.825114900534496e-10,1.8845517003506093e-10,1.3040333662102774e-10,9.016851031509109e-11,6.105106501706775e-11,3.9607861539155275e-11,2.4360210380907918e-11,1.4428313309930668e-11,8.30053897940303e-12,4.748276704080616e-12,2.7642581183739613e-12,1.6626128110401112e-12,1.0264510699022318e-12,6.468724909564022e-13,4.17461155098589e-13
0.0,7,7.0,0.0,30.0,0.0,0.0,0.0,0.0,-13.0,0.0,2.0,0.0,0.0,0.0,4.926056221373844e-11,4.426526866174036e-11,3.9021514350488956e-11,3.372998119829626e-11,2.8447424281433846e-11,2.3470039094426645e-11,1.8914758364752693e-11,1.480761848810859e-11,1.1283561872419704e-11,8.471301106568309e-12,6.321958397114477e-12,4.722374249098503e-12,3.5651743900981254e-12,2.7148722296272805e-12,2.0750103641928464e-12,1.5816167260680744e-12,1.1982269131176592e-12,8.947329500783644e-13,6.570600701418224e-13,4.725720794879148e-13,3.3371982164365394e-13,2.3206031390599535e-13,1.5857046320998937e-13,1.0628328258360117e-13,7.001172205453681e-14,4.520158061401951e-14,3.4393281351816112e-09,1.5738565456164694e-09,8.011449281710455e-10,4.546188194061173e-10,2.8390298668333864e-10,1.8995354151484284e-10,1.3205259538568025e-10,9.214813674089863e-11,6.330303013679605e-11,4.18319407772599e-11,2.6215779914775796e-11,1.5743114100076155e-11,9.089589703602126e-12,5.142759635809626e-12,2.9220804705053177e-12,1.7024174280372738e-12,1.0197505119128428e-12,6.281034247697699e-13,3.99176371275241e-13
0.0,8,8.0,0.0,30.0,0.0,0.0,0.0,0.0,-13.0,0.0,2.0,0.0,0.0,0.0,5.0915070243808785e-11,4.587995739766692e-11,4.058647632633451e-11,3.5227964559193984e-11,2.985074531791693e-11,2.4742784670454037e-11,2.00165584929399e-11,1.5696030829610472e-11,1.193346893300762e-11,8.891057289812267e-12,6.544446019942441e-12,4.7980689197598736e-12,3.549350670243594e-12,2.652781622784192e-12,1.997921911233061e-12,1.5072956206791107e-12,1.1345830377187185e-12,8.438487479206292e-13,6.184314666742686e-13,4.443109134168275e-13,3.137777701618854e-13,2.1829829180521219e-13,1.4938144439604297e-13,1.002508869840675e-13,6.620005365328e-14,4.283554140945739e-14,3.4226784615444345e-09,1.565338184968568e-09,7.988596969363468e-10,4.552956811001168e-10,2.853911980546634e-10,1.9139851670995969e-10,1.3341605850362667e-10,9.364393537773958e-11,6.502389020812784e-11,4.363610362331819e-11,2.7836500195716862e-11,1.6982025684772654e-11,9.893799315489839e-12,5.5828393615274486e-12,3.1215601960535374e-12,1.7694720060580425e-12,1.0281036118809602e-12,6.171496906289243e-13,3.8444502243357794e-13
0.0,9,9.0,0.0,30.0,0.0,0.0,0.0,0.0,-13.0,0.0,2.0,0.0,0.0,0.0,5.2398711394144286e-11,4.732653656695207e-11,4.199039612255043e-11,3.6579247090758996e-11,3.1131583049006047e-11,2.5926959525221096e-11,2.1070114954784146e-11,1.657798108913449e-11,1.261197742544074e-11,9.360789422741695e-12,6.823543395571412e-12,4.925332315193625e-12,3.5741463124593934e-12,2.619465007175976e-12,1.939929337697577e-12,1.4454504505420518e-12,1.079193148502797e-12,7.986040524886288e-13,5.836448105591907e-13,4.1867262708450213e-13,2.955735641941709e-13,2.0567035421522824e-13,1.4091543175354923e-13,9.467197893709635e-14,6.266552306011314e-14,4.0621581789541825e-14,3.4058372513622927e-09,1.556931355110915e-09,7.967616556894498e-10,4.561312081818218e-10,2.8699181350604427e-10,1.928711906020383e-10,1.346515070681183e-10,9.483658196488569e-11,6.63464972833024e-11,4.5074088388492464e-11,2.92135184349447e-11,1.811053097500042e-11,1.0680460956296901e-11,6.048099595546779e-12,3.3534748583815863e-12,1.861022710221471e-12,1.0510898234506025e-12,6.139714449634617e-13,3.733415920999511e-13
0.0,10,10.0,0.0,30.0,0.0,0.0,0.0,0.0,-13.0,0.0,2.0,0.0,0.0,0.0,5.373460382395999e-11,4.862552881159985e-11,4.3249382369100906e-11,3.7793092704042746e-11,3.2290065932901854e-11,2.7012758380845856e-11,2.2057054663985414e-11,1.7429869776833286e-11,1.3294971181332261e-11,9.86007068495137e-12,7.144773745856111e-12,5.095676817282851e-12,3.6354645195942173e-12,2.613288547351007e-12,1.9003622676434893e-12,1.3955993361468075e-12,1.0315870270927194e-12,7.585634485110181e-13,5.5235886735884e-13,3.9541604555591075e-13,2.789463266638175e-13,1.940751041311793e-13,1.3310787407817527e-13,8.950976511893085e-14,5.938411567772351e-14,3.8544955394459177e-14,3.3888105138232073e-09,1.5486451200728395e-09,7.948565921002823e-10,4.571254112382092e-10,2.887069033872827e-10,1.9440690361683422e-10,1.358518955828427e-10,9.58568336261124e-11,6.738845051547504e-11,4.621210498004265e-11,3.0359285244156627e-11,1.9110682939061532e-11,1.142506011421843e-11,6.52013312783504e-12,3.607985033553007e-12,1.9733510202720162e-12,1.087784398440066e-12,6.184075346838457e-13,3.659607000967191e-13
0.0,11,11.0,0.0,30.0,0.0,0.0,0.0,0.0,-13.0,0.0,2.0,0.0,0.0,0.0,5.4945288220635864e-11,4.979802094528756e-11,4.438186037195084e-11,3.888338952630085e-11,3.3333356685965807e-11,2.7999126346923058e-11,2.2968135149711188e-11,1.8236052565535764e-11,1.3963939228228784e-11,1.0371452365769651e-11,7.494515583826437e-12,5.300265249859091e-12,3.728533963762027e-12,2.6321362951051765e-12,1.87838666139195e-12,1.3573039934679912e-12,9.913980769293577e-13,7.233756949478204e-13,5.242866413594837e-13,3.743303438314409e-13,2.637543237260821e-13,1.8342224558188782e-13,1.259007883783413e-13,8.473081758835538e-14,5.6333557399443306e-14,3.6594377730936836e-14,3.3716054025058364e-09,1.5404887814604176e-09,7.931499508671209e-10,4.582794666115936e-10,2.9053506724458525e-10,1.960184785975912e-10,1.3706792627380162e-10,9.679330321086758e-11,6.824536172986271e-11,4.711740430284992e-11,3.1299310185509825e-11,1.9977733829242385e-11,1.2111131769622107e-11,6.983583841729005e-12,3.875531526609054e-12,2.102153298424657e-12,1.1368024410564333e-12,6.301316617567709e-13,3.6236358057851607e-13
0.0,12,12.0,0.0,30.0,0.0,0.0,0.0,0.0,-13.0,0.0,2.0,0.0,0.0,0.0,5.605175640680476e-11,5.086421153701438e-11,4.5406493886050675e-11,3.98659413755589e-11,3.4272571013629984e-11,2.8890804128912966e-11,2.3800938950958317e-11,1.8987528738548363e-11,1.4605655918055894e-11,1.0880821288467598e-11,7.86062654103578e-12,5.530457690824113e-12,3.848214961918574e-12,2.6734842790782384e-12,1.8729557704004534e-12,1.3301035940361833e-12,9.583227965820646e-13,6.927586857043426e-13,4.99189456533445e-13,3.552322883710129e-13,2.498727302978795e-13,1.7363127147679666e-13,1.1924218496730103e-13,8.030462290421483e-14,5.349348411188055e-14,3.4761095601306354e-14,3.35423011330237e-09,1.5324721149978142e-09,7.916468170053549e-10,4.595949817921669e-10,2.92474817990879e-10,1.9770890893238033e-10,1.3832484626813836e-10,9.770250599449574e-11,6.899006538255018e-11,4.78513767450675e-11,3.2065564159827363e-11,2.0716586879524735e-11,1.2729355944594333e-11,7.426554027000115e-12,4.147464862698925e-12,2.2429190108592357e-12,1.1964064963581945e-12,6.486424156815119e-13,3.62544484752335e-13
0.0,13,13.0,0.0,30.0,0.0,0.0,0.0,0.0,-13.0,0.0,2.0,0.0,0.0,0.0,5.70729841196461e-11,5.184265667114865e-11,4.634099682482882e-11,4.0756750406024416e-11,3.512060544629483e-11,2.9696002175590434e-11,2.455781253150288e-11,1.9680515030554304e-11,1.5211530094990823e-11,1.1377383986936955e-11,8.232781266210835e-12,5.7782187382421576e-12,3.989291769605433e-12,2.7345230917231134e-12,1.882809936584699e-12,1.3134713762635243e-12,9.320843569321076e-13,6.664826577297426e-13,4.768705173188554e-13,3.3796388867049397e-13,2.3719178272321714e-13,1.6463033214489597e-13,1.1308552768908243e-13,7.620320911314496e-14,5.0845562961565216e-14,3.303800690734991e-14,3.336693809597165e-09,1.5246054397855718e-09,7.903520932703122e-10,4.6107351408054345e-10,2.9452526725269774e-10,1.9947759614697012e-10,1.3963369240232809e-10,9.8618323160553e-11,6.967506744720869e-11,4.846612321287993e-11,3.269164292947907e-11,2.1338543803097876e-11,1.3276300852547247e-11,7.84057298116003e-12,4.41641594613329e-12,2.391247987085631e-12,1.2646406844336784e-12,6.732807115298002e-13,3.664143470303577e-13
0.0,14,14.0,0.0,30.0,0.0,0.0,0.0,0.0,-13.0,0.0,2.0,0.0,0.0,0.0,5.8025758019546025e-11,5.274993569826406e-11,4.720151949050394e-11,4.1571005551134865e-11,3.5890699230205186e-11,3.042468307410429e-11,2.524416414251276e-11,2.0315091493704885e-11,1.577680897579379e-11,1.1853412216795639e-11,8.602586253113535e-12,6.036383134183474e-12,4.146715665721625e-12,2.8122950942138086e-12,1.906510062447141e-12,1.3067938124385771e-12,9.124037158681962e-13,6.443532651227809e-13,4.571678376165461e-13,3.2239008673726486e-13,2.2561525856619322e-13,1.563552865133808e-13,1.0738922477717698e-13,7.240085538471122e-14,4.837351386392926e-14,3.1419026100275264e-14,3.319006597091941e-09,1.516899604938426e-09,7.892706697338136e-10,4.6271640905620224e-10,2.966859786265057e-10,2.0132305270318467e-10,1.4099820386741616e-10,9.95596773783553e-11,7.03363432739499e-11,4.9003436705547237e-11,3.320953848746467e-11,2.185857211047571e-11,1.3753074934527986e-11,8.220296603872246e-12,4.676457456596216e-12,2.5430837973890115e-12,1.3394635890083447e-12,7.032649343966719e-13,3.737978871007988e-13
0.0,15,15.0,0.0,30.0,0.0,0.0,0.0,0.0,-13.0,0.0,2.0,0.0,0.0,0.0,5.892467515220597e-11,5.3600563314428505e-11,4.8002390085634324e-11,4.232254631097056e-11,3.659554653932581e-11,3.108736561019377e-11,2.5867141816302752e-11,2.0894018112004415e-11,1.629976046737333e-11,1.2303855370303759e-11,8.963536445577967e-12,6.2987991417254854e-12,4.315786175143903e-12,2.903823528240166e-12,1.9424895784435685e-12,1.309368511842365e-12,8.989797690734988e-13,6.261961188942984e-13,4.399467984087641e-13,3.0839626073709797e-13,2.150591764822923e-13,1.4874891930716565e-13,1.021161533756215e-13,6.887387905510266e-14,4.606302179776169e-14,2.9898708454632376e-14,3.3011795383817655e-09,1.5093659550260334e-09,7.884075285637151e-10,4.645248226614126e-10,2.989567104174787e-10,2.0324386865148972e-10,1.424187500309156e-10,1.0053618372618884e-10,7.09973167052356e-11,4.949528134849221e-11,3.364773974227951e-11,2.229316649242026e-11,1.4164043083632135e-11,8.563064218839898e-12,4.923114309799723e-12,2.694863803005597e-12,1.4188630905865627e-12,7.377342450154845e-13,3.8444035819640943e-13
0.0,16,16.0,0.0,30.0,0.0,0.0,0.0,0.0,-13.0,0.0,2.0,0.0,0.0,0.0,5.978224394702248e-11,5.4407043103247445e-11,4.87560677309619e-11,4.302363192435754e-11,3.724679843729303e-11,3.169434286128922e-11,2.6434661049176923e-11,2.1421761672303377e-11,1.6780909514449657e-11,1.2725896107049915e-11,9.310869285100609e-12,6.560376324373324e-12,4.492271709805688e-12,3.0062211543897227e-12,1.989112632503041e-12,1.3204155064091763e-12,8.914783583815627e-13,6.118439571717494e-13,4.2509278537298114e-13,2.9588547910351627e-13,2.0545060509924714e-13,1.4176029156618155e-13,9.723322189789405e-14,6.560048674895263e-14,4.390156090803817e-14,2.8472060554578404e-14,3.283224690981163e-09,1.5020163029761551e-09,7.877677913570197e-10,4.664998074955128e-10,3.01337253053748e-10,2.0523893266974287e-10,1.4389438547393747e-10,1.0155201294292074e-10,7.167240325798e-11,4.996506573043266e-11,3.403034544846072e-11,2.2658789746885762e-11,1.451569237739574e-11,8.868399006660058e-12,5.15327489468731e-12,2.8435981984515986e-12,1.5009456064329593e-12,7.757924958470746e-13,3.9802061432861543e-13
0.0,17,17.0,0.0,30.0,0.0,0.0,0.0,0.0,-13.0,0.0,2.0,0.0,0.0,0.0,6.060904404091361e-11,5.518000000605639e-11,4.947321637422937e-11,4.3684898088045345e-11,3.785482776477424e-11,3.2255210382114515e-11,2.6954728110654888e-11,2.1903735410582097e-11,1.722236926189999e-11,1.3118500975042166e-11,9.641359690305105e-12,6.817063941343488e-12,4.672477845693124e-12,3.116773730839017e-12,2.0447300275930447e-12,1.3390965665616572e-12,8.895288481098718e-13,6.011270389856312e-13,4.1250437806295394e-13,2.8477556665199374e-13,1.967264961043709e-13,1.353441841061564e-13,9.271097190523529e-14,6.256067189218593e-14,4.187816596064914e-14,2.7134449354845435e-14,3.2651551553537566e-09,1.49486291729001e-09,7.873567319450743e-10,4.686423991677225e-10,3.038273724089215e-10,2.073073951786832e-10,1.4542382328946215e-10,1.0260836949641433e-10,7.236987120979836e-11,5.04292198823269e-11,3.4376886832242274e-11,2.297082838821777e-11,1.4815687328312763e-11,9.137508110822603e-12,5.3650433188492415e-12,2.9868941828046284e-12,1.5839986018425637e-12,8.165477647469804e-13,4.1416772732619636e-13
0.0,18,18.0,0.0,30.0,0.0,0.0,0.0,0.0,-13.0,0.0,2.0,0.0,0.0,0.0,6.14139177368875e-11,5.5928354104525626e-11,5.016284384430018e-11,4.431542305919446e-11,3.8428663238059104e-11,3.2778615581434465e-11,2.7434998626333646e-11,2.2345733012804486e-11,1.7627283927225865e-11,1.3481998861073464e-11,9.95308800239636e-12,7.065782446626073e-12,4.853273808366721e-12,3.2329985169316173e-12,2.1077279493631174e-12,1.3645380604402515e-12,8.927264508586546e-13,5.938668342396895e-13,4.020874674752163e-13,2.7499611671929146e-13,1.888324957879894e-13,1.2946059495091115e-13,8.852321769987778e-14,5.973614036889778e-14,3.9983187707990966e-14,2.588154335852005e-14,3.2469851241839502e-09,1.4879185203841468e-09,7.871797736262461e-10,4.709536797044007e-10,3.0642681933668185e-10,2.094485826067361e-10,1.470058341816149e-10,1.0370498773686503e-10,7.30939949640627e-11,5.089876795242378e-11,3.470260128713371e-11,2.324297348029012e-11,1.507212514877451e-11,9.372817136721956e-12,5.557561756279432e-12,3.122940820321895e-12,1.6665289220180258e-12,8.591448509816916e-13,4.3247893431383653e-13
0.0,19,19.0,0.0,30.0,0.0,0.0,0.0,0.0,-13.0,0.0,2.0,0.0,0.0,0.0,6.220417477806593e-11,5.665951249697075e-11,5.0832472118148546e-11,4.492285293820044e-11,3.897602677441677e-11,3.327215775526912e-11,2.7882514451099236e-11,2.2753528563836956e-11,1.7999384737268674e-11,1.381770614540239e-11,1.02452034359453e-11,7.304326017938752e-12,5.032087561119688e-12,3.3526805778226885e-12,2.176567243353413e-12,1.39585405700725e-12,9.006384080196116e-13,5.898727032206997e-13,3.937505314528131e-13,2.664856056651836e-13,1.817217269501379e-13,1.2407425977388115e-13,8.46467190641422e-14,5.711024836089578e-14,3.820806138239341e-14,2.4709250501075478e-14,3.228729928201175e-09,1.4811962923100082e-09,7.872424817890569e-10,4.734348162621224e-10,3.0913536719498213e-10,2.1166193394633375e-10,1.486393699669196e-10,1.0484097960758245e-10,7.384658631455384e-11,5.1380728665348853e-11,3.5018954519962666e-11,2.3486930391329195e-11,1.5292982392463198e-11,9.57755907055401e-12,5.730823041450392e-12,3.2504676939475807e-12,1.7472811389076173e-12,9.027898511413779e-13,4.5253721467883904e-13
0.0,20,20.0,0.0,30.0,0.0,0.0,0.0,0.0,-13.0,0.0,2.0,0.0,0.0,0.0,6.298579766105602e-11,5.7379564482393594e-11,5.1488318158188114e-11,4.5513554652543614e-11,3.9503429296818074e-11,3.374238571714295e-11,2.8303569774459145e-11,2.313261109201307e-11,1.8342650881737287e-11,1.4127607467532952e-11,1.0517698148676607e-11,7.53124977453106e-12,5.206878574212481e-12,3.473890701679163e-12,2.2498128353146095e-12,1.432167534829901e-12,9.128123384920343e-13,5.889410392696326e-13,3.874011461410421e-13,2.591887513526005e-13,1.7535356116309828e-13,1.191541755499938e-13,8.10608812415057e-14,5.466794027100759e-14,3.654510686445668e-14,2.361364360550031e-14,3.210406076717326e-09,1.4747098749818969e-09,7.875505565987457e-10,4.760870811505959e-10,3.1195285336878726e-10,2.139469713001137e-10,1.5032357274728724e-10,1.0601528047841614e-10,7.462803015552153e-11,5.187927279718965e-11,3.5334264749721496e-11,2.3712366121452716e-11,1.5485732535060443e-11,9.755427452600014e-12,5.8854870492344824e-12,3.36868757972012e-12,1.8252404530419654e-12,9.467670873899312e-13,4.739272761259111e-13
0.0,21,21.0,0.0,30.0,0.0,0.0,0.0,0.0,-13.0,0.0,2.0,0.0,0.0,0.0,6.376363858971421e-11,5.80934704568323e-11,5.213547273845388e-11,4.609277729456922e-11,4.0016295621173085e-11,3.419485474110573e-11,2.8703666747943752e-11,2.348802359748228e-11,1.866106240979434e-11,1.4414094133600666e-11,1.0771201399464301e-11,7.745751754382943e-12,5.376095711066432e-12,3.5949888541335544e-12,2.3261539690431453e-12,1.4726285189066991e-12,9.28785413468306e-13,5.908562654668504e-13,3.829436860516991e-13,2.530542211534267e-13,1.6969241719748725e-13,1.1467311888997317e-13,7.774747633170647e-14,5.239567893734143e-14,3.498736868823648e-14,2.2590880437143832e-14,3.192031292666357e-09,1.468473373863244e-09,7.881098268247488e-10,4.789118601116302e-10,3.148792135633525e-10,2.1630329582298597e-10,1.5205774858005054e-10,1.0722686121184516e-10,7.543795228059434e-11,5.239662769861257e-11,3.5654331976328076e-11,2.3927014796324055e-11,1.565710775191468e-11,9.910296482520998e-12,6.022709677575992e-12,3.4772307664944105e-12,1.899624335250216e-12,9.904492946593032e-13,4.962491633765048e-13
0.0,22,22.0,0.0,30.0,0.0,0.0,0.0,0.0,-13.0,0.0,2.0,0.0,0.0,0.0,6.454160213370808e-11,5.880523836759968e-11,5.277806965713738e-11,4.66648101887754e-11,4.051909969477217e-11,3.4634216168187524e-11,2.9087529955471613e-11,2.3824279898188365e-11,1.8958429975257125e-11,1.4679757676111948e-11,1.100679904729849e-11,7.947556843246585e-12,5.538626094741993e-12,3.714616744093143e-12,2.4044164650218543e-12,1.5164286735186654e-12,9.480933890867002e-13,5.95393091777401e-13,3.8027807761655375e-13,2.4803275121551377e-13,1.647066259660943e-13,1.1060715987356995e-13,7.469038135817806e-14,5.0281364295523844e-14,3.3528495910905654e-14,2.163713168682747e-14,3.1736245426113724e-09,1.4625013556586481e-09,7.88926244341277e-10,4.819106542190256e-10,3.17914505702307e-10,2.1873059722641606e-10,1.5384133903912718e-10,1.0847481354526147e-10,7.627562911044153e-11,5.2933752288916817e-11,3.598301478453869e-11,2.4136877058180786e-11,1.5812975989045402e-11,1.004600574243069e-11,6.1439898611118155e-12,3.5760765397410034e-12,1.9698664435066386e-12,1.0333022335417795e-12,5.191290788802601e-13
0.0,23,23.0,0.0,30.0,0.0,0.0,0.0,0.0,-13.0,0.0,2.0,0.0,0.0,0.0,6.532281001148862e-11,5.95180840208014e-11,5.3419440921585115e-11,4.723313095727181e-11,4.101549866486816e-11,3.5064321757114834e-11,2.945915693170693e-11,2.414533697452281e-11,1.9238286278449004e-11,1.4927233331865892e-11,1.1225880551564578e-11,8.136807583624313e-12,5.693739464981928e-12,3.831682548150389e-12,2.4835683735793403e-12,1.5628123451873507e-12,9.702788683517203e-13,6.02319513889029e-13,3.7929942194807435e-13,2.440756968136472e-13,1.603673984775138e-13,1.0693517865526241e-13,7.187532986000161e-14,4.831423980156508e-14,3.216265663297015e-14,2.0748529389357187e-14,3.1552060622887506e-09,1.456808841605074e-09,7.900058784627049e-10,4.85085078794472e-10,3.2105892427330135e-10,2.212286677030117e-10,1.5567390132986747e-10,1.0975837274002673e-10,7.71402252699898e-11,5.3490820597500896e-11,3.632272615381113e-11,2.434646466288888e-11,1.5958305248274674e-11,1.0166203891930638e-11,6.251037560626383e-12,3.665485734913405e-12,2.035595644164938e-12,1.0748849211056163e-12,5.422273122885862e-13
0.0,24,24.0,0.0,30.0,0.0,0.0,0.0,0.0,-13.0,0.0,2.0,0.0,0.0,0.0,6.61097462803902e-11,6.023457335842504e-11,5.40622556212353e-11,4.7800539969319665e-11,4.150845903910918e-11,3.548833118251535e-11,2.9821888391533604e-11,2.445460493993676e-11,1.9503825183043988e-11,1.5159086770894043e-11,1.1430013428841065e-11,8.313965023216027e-12,5.841031425908319e-12,3.945340294746858e-12,2.562720361053392e-12,1.6110843230972791e-12,9.94898439019437e-13,6.114001368598128e-13,3.7989828576245153e-13,2.411339991639785e-13,1.5664792434771223e-13,1.0363839556633639e-13,6.92896755190452e-14,4.6484788140880805e-14,3.088447940079224e-14,1.9921143587628797e-14,3.136797378130234e-09,1.4514112965157187e-09,7.913549094335242e-10,4.884368611803075e-10,3.2431280739401876e-10,2.237974148410513e-10,1.57555097671607e-10,1.1107691314268514e-10,7.803092175673461e-11,5.406755498586909e-11,3.667483940887621e-11,2.455905583870576e-11,1.6097189786536457e-11,1.0274243689339591e-11,6.3456638184739e-12,3.745937053054097e-12,2.096612321956819e-12,1.1148465707388405e-12,5.652434089337586e-13
0.0,25,25.0,0.0,30.0,0.0,0.0,0.0,0.0,-13.0,0.0,2.0,0.0,0.0,0.0,6.690438264091535e-11,6.095674618340151e-11,5.4708641671064394e-11,4.836927956668905e-11,4.2000371328538023e-11,3.5908815536294313e-11,3.01784868887014e-11,2.4754980860766476e-11,1.9757876245689076e-11,1.5377736916282073e-11,1.1620843620370588e-11,8.479721389668715e-12,5.980368088935051e-12,4.05496591517767e-12,2.641122032392616e-12,1.6606147185899384e-12,1.0215285381019752e-12,6.223995130122839e-13,3.819614663219807e-13,2.3915752936806924e-13,1.5352261734963407e-13,1.006999262983047e-13,6.692216775147158e-14,4.478461906991668e-14,2.968901323843817e-14,1.9150989192556073e-14,3.1184213250539674e-09,1.446324613976512e-09,7.929796207081635e-10,4.919678382201868e-10,3.27676638966446e-10,2.2643687107151592e-10,1.5948469127938858e-10,1.1242993491908672e-10,7.894697801611508e-11,5.4663446899829457e-11,3.704000758085594e-11,2.4776938941276575e-11,1.6232916785336067e-11,1.0373119762371641e-11,6.429692584064131e-12,3.8180689160926755e-12,2.152863622203023e-12,1.1529211772762677e-12,5.879188679846216e-13
0.0,26,26.0,0.0,30.0,0.0,0.0,0.0,0.0,-13.0,0.0,2.0,0.0,0.0,0.0,6.770828459195868e-11,6.168622180284505e-11,5.536029062655811e-11,4.894113775524485e-11,4.249315158552405e-11,3.632785274860774e-11,3.053121643969822e-11,2.5048896181084637e-11,2.0002904399033238e-11,1.558540784354869e-11,1.1800019280167116e-11,8.634925326526907e-12,6.111833894161983e-12,4.16013154849377e-12,2.7181552240838767e-12,1.7108414087138661e-12,1.0497700324357278e-12,6.35085280455275e-13,3.8537305807414207e-13,2.380947551549777e-13,1.509665135054547e-13,9.81043726919024e-14,6.47627402071771e-14,4.3206352819462385e-14,2.8571698919076656e-14,1.8434059783583004e-14,3.100102060718565e-09,1.44156509817691e-09,7.948863899568275e-10,4.956799537685853e-10,3.3115104784430933e-10,2.2914719908164745e-10,1.6146254588011805e-10,1.1381705023894127e-10,7.988775635684917e-11,5.5277896900213496e-11,3.741840600073486e-11,2.500163133487581e-11,1.6368056286858388e-11,1.046544044717047e-11,6.504893006430683e-12,3.882627938494701e-12,2.204418834789561e-12,1.1889205183461428e-12,6.100377549853175e-13
0.0,27,27.0,0.0,30.0,0.0,0.0,0.0,0.0,-13.0,0.0,2.0,0.0,0.0,0.0,6.852269986023425e-11,6.24242877410491e-11,5.601854646149466e-11,4.951753688740156e-11,4.298832953404714e-11,3.6747112899684986e-11,3.0881918445804496e-11,2.5338370413116896e-11,2.024102652379936e-11,1.578410330358388e-11,1.1969134982875256e-11,8.780519638635006e-12,6.235683810632688e-12,4.260579339267847e-12,2.7933251327046326e-12,1.7612704787995201e-12,1.0792515905712725e-12,6.492309693628572e-13,3.900156780143818e-13,2.3789266947258577e-13,1.4895481775052905e-13,9.583745738844399e-14,6.280231368782746e-14,4.174350252610228e-14,2.7528345650052128e-14,1.7766381480814355e-14,3.0818650763849803e-09,1.437149442860436e-09,7.970816789572979e-10,4.995752563217794e-10,3.3473680538330506e-10,2.319286936198384e-10,1.6348862639963597e-10,1.1523797188680765e-10,8.085272646457959e-11,5.5910298946696167e-11,3.780991066704324e-11,2.523406733723627e-11,1.6504561323265086e-11,1.055342550707959e-11,6.572930206004275e-12,3.940424548215962e-12,2.2514457885431717e-12,1.2227261891976458e-12,6.314256519709593e-13
0.0,28,28.0,0.0,30.0,0.0,0.0,0.0,0.0,-13.0,0.0,2.0,0.0,0.0,0.0,6.934863092951778e-11,6.31719730973619e-11,5.6684479638367615e-11,5.0099608377607536e-11,4.3487123784248876e-11,3.716793273645406e-11,3.1232081236993525e-11,2.5625066052805677e-11,2.0474038482457964e-11,1.597559819483703e-11,1.2129693166852873e-11,8.9174909306406e-12,6.352300644729652e-12,4.356195679990338e-12,2.8662499926912056e-12,1.8114750618909106e-12,1.109631967627006e-12,6.646184057253848e-13,3.957717381599335e-13,2.384969198267362e-13,1.47462587929551e-13,9.388570776110137e-14,6.103261515288563e-14,4.039035883823203e-14,2.6555109118910018e-14,1.714407824730818e-14,3.063737204495889e-09,1.4330947078473178e-09,7.995720226703418e-10,5.036558968015159e-10,3.3843482226232507e-10,2.3478178050544955e-10,1.6556299936247812e-10,1.1669250474651433e-10,8.184146052512411e-11,5.656008762278008e-11,3.821422523139277e-11,2.5474753809394934e-11,1.664386887273623e-11,1.0638922422414407e-11,6.635332128889851e-12,3.9922958673779825e-12,2.294188858235221e-12,1.2542811550689495e-12,6.519473642233619e-13
0.0,29,29.0,0.0,30.0,0.0,0.0,0.0,0.0,-13.0,0.0,2.0,0.0,0.0,0.0,7.018689367505234e-11,6.393010834095006e-11,5.7358948044418044e-11,5.068825478777345e-11,4.399050508925598e-11,3.7591379554294366e-11,3.158290193628016e-11,2.591034144025474e-11,2.0703447788337565e-11,1.6161442186173713e-11,1.2283079680366502e-11,9.04683014310973e-12,6.4621578082566305e-12,4.4469866114263e-12,2.93664988664381e-12,1.8610929253122576e-12,1.1406013440341733e-12,6.81039687723948e-13,4.025246832310071e-13,2.398520815849529e-13,1.4646453999885529e-13,9.223619162497674e-14,5.944601431600629e-14,3.91418793218639e-14,2.564846850343524e-14,1.6563439854920973e-14,3.0457466230406642e-09,1.4294182935299309e-09,8.023640178597822e-10,5.079241265349955e-10,3.4224614511023016e-10,2.377070137036821e-10,1.6768583230146883e-10,1.1818053960464913e-10,8.28536247911961e-11,5.722676170453479e-11,3.863096837962446e-11,2.5723894972981143e-11,1.678699539819885e-11,1.0723435031058554e-11,6.693469908676597e-12,4.039075639923185e-12,2.3329489777170475e-12,1.2835811939445893e-12,6.715037690377043e-13
0.0,30,30.0,0.0,30.0,0.0,0.0,0.0,0.0,-13.0,0.0,2.0,0.0,0.0,0.0,7.103816412417703e-11,6.469937339380782e-11,5.804264646039331e-11,5.128420075533285e-11,4.4499248847567455e-11,3.801830510923201e-11,3.193534026011237e-11,2.619529959067598e-11,2.0930508421732444e-11,1.6342971569557047e-11,1.2430550510534381e-11,9.169502764014898e-12,6.565787600591464e-12,4.533054894664181e-12,3.0043351615602264e-12,1.90982310619392e-12,1.1718818612592387e-12,6.982987407014891e-13,4.1016013759480727e-13,2.4190202546822484e-13,1.4593495563675978e-13,9.087630456760026e-14,5.80353789431912e-14,3.799358468946762e-14,2.4805201410147957e-14,1.6020984846243468e-14,3.0279228567193615e-09,1.4261379136821883e-09,8.054643116283426e-10,5.123822955077998e-10,3.4617195323960686e-10,2.407050712107066e-10,1.6985739199016946e-10,1.197020484848697e-10,8.388897055897423e-11,5.7909893318971274e-11,3.9059731677850044e-11,2.5981489721681106e-11,1.6934623213717146e-11,1.0808159455460394e-11,6.7485491659657614e-12,4.081570755613335e-12,2.368065888449015e-12,1.3106665114109995e-12,6.900281404040396e-13
0.0,31,31.0,0.0,30.0,0.0,0.0,0.0,0.0,-13.0,0.0,2.0,0.0,0.0,0.0,7.190301526755755e-11,6.548033579996133e-11,5.873614621418414e-11,5.188803425971547e-11,4.501397815141162e-11,3.844939049925915e-11,3.2290164454697386e-11,2.648083195956919e-11,2.1156255382657827e-11,1.6521326242132462e-11,1.2573227083231991e-11,9.2864273882969e-12,6.663754832868665e-12,4.614579100798558e-12,3.0691948315572337e-12,1.9574218530470177e-12,1.2032274899992764e-12,7.162124759821494e-13,4.185669268274302e-13,2.445903377141111e-13,1.4584767264050774e-13,8.979360654460753e-14,5.6793949448632094e-14,3.694146327648947e-14,2.4022356703981965e-14,1.5513512660815897e-14,3.010296774860388e-09,1.4232715668670823e-09,8.088795902168645e-10,5.170328509932674e-10,3.5021355564795895e-10,2.4377675032667793e-10,1.7207804161035451e-10,1.2125708082440751e-10,8.49473258619115e-11,5.860912883205881e-11,3.9500116065121934e-11,2.6247405443199942e-11,1.7087175806017762e-11,1.0894023371662291e-11,6.801609817305251e-12,4.120543756256959e-12,2.3999027234194827e-12,1.335613735216517e-12,7.074822239345035e-13
0.0,32,32.0,0.0,30.0,0.0,0.0,0.0,0.0,-13.0,0.0,2.0,0.0,0.0,0.0,7.278194567896679e-11,6.627348065110938e-11,5.94399265814188e-11,5.250023966865871e-11,4.5535198680526685e-11,3.8885183072351975e-11,3.2647989916138356e-11,2.676765675584798e-11,2.1381537410789085e-11,1.669746944638827e-11,1.2712097878748578e-11,9.398461286506563e-12,6.756635457892696e-12,4.6917949236481584e-12,3.1311852684427598e-12,2.0036980910859093e-12,1.2344233540501093e-12,7.34611589518474e-13,4.2763795579032756e-13,2.4786075985357705e-13,1.461761390758567e-13,8.897570373398606e-14,5.5715232825897945e-14,3.5981884643903647e-14,2.3297225833051316e-14,1.503814122238825e-14,2.9929005859922858e-09,1.4208375066792083e-09,8.126165683754881e-10,5.218783366744769e-10,3.5437238836771187e-10,2.469229627305113e-10,1.7434823710631973e-10,1.2284576000836104e-10,8.602858829738301e-11,5.932418538361032e-11,3.995175337736267e-11,2.6521432497464862e-11,1.724488158561716e-11,1.0981725693108682e-11,6.853532198881164e-12,4.156700610929249e-12,2.428832925522234e-12,1.3585284370200864e-12,7.238522759441029e-13
0.0,33,33.0,0.0,30.0,0.0,0.0,0.0,0.0,-13.0,0.0,2.0,0.0,0.0,0.0,7.367540149854175e-11,6.707923376809789e-11,6.015439935800944e-11,5.312122390134122e-11,4.6063326677082475e-11,3.932612643717402e-11,3.3009311226371385e-11,2.7056351847315515e-11,2.160704693837951e-11,1.6872208519477674e-11,1.2848024476262081e-11,9.506391699744056e-12,6.844999759088433e-12,4.7649788046819076e-12,3.1903194131041914e-12,2.0485085949410326e-12,1.265284619210175e-12,7.533410411188593e-13,4.3727093729777413e-13,2.516576229960847e-13,1.4689351370628505e-13,8.841017054182933e-14,5.4792915418453556e-14,3.5111522720743774e-14,2.2627313586496867e-14,1.4592328355679416e-14,2.9757678289269114e-09,1.4188542110261282e-09,8.166819795733243e-10,5.26921392373766e-10,3.5865001220507155e-10,2.5014472963398034e-10,1.766685230153144e-10,1.2446827997856687e-10,8.713271897167496e-11,6.005484545670711e-11,4.041431771603481e-11,2.6803323248539934e-11,1.740782644464774e-11,1.107177461885424e-11,6.905047597384991e-12,4.190683001968746e-12,2.4552294221824014e-12,1.3795382800710108e-12,7.391452242752069e-13
0.0,34,34.0,0.0,30.0,0.0,0.0,0.0,0.0,-13.0,0.0,2.0,0.0,0.0,0.0,7.458379311912943e-11,6.789797944745159e-11,6.087992786770927e-11,5.37513369119133e-11,4.6598711136101815e-11,3.9772584608043047e-11,3.33745284105637e-11,2.734738257121706e-11,2.183334680605103e-11,1.7046215416134586e-11,1.2981750494861198e-11,9.6109316801608e-12,6.929399586932803e-12,4.834433865336878e-12,3.2466566810962326e-12,2.0917530229608556e-12,1.2956550429926638e-12,7.722602558999909e-13,4.473689739221696e-13,2.559262585508697e-13,1.4797279737607662e-13,8.808450605089623e-14,5.4020793565251115e-14,3.432728852429107e-14,2.2010309317729002e-14,1.4173877184356163e-14,2.9589333601813043e-09,1.4173403506343136e-09,8.210825672747341e-10,5.3216475449326e-10,3.630481108875562e-10,2.5344317718975996e-10,1.7903952804377858e-10,1.2612490179087155e-10,8.825973737965894e-11,6.080095085651389e-11,4.0887530178954835e-11,2.7092819097891235e-11,1.757599605144669e-11,1.1164522718273546e-11,6.956751589156813e-12,4.2230643622731446e-12,2.4794559208937164e-12,1.3987868521484885e-12,7.533850591748882e-13
0.0,35,35.0,0.0,30.0,0.0,0.0,0.0,0.0,-13.0,0.0,2.0,0.0,0.0,0.0,7.550750770442e-11,6.87300738898075e-11,6.16168414975811e-11,5.4390887550546995e-11,4.714165122470403e-11,4.02248612346065e-11,3.374396822355894e-11,2.764112491402835e-11,2.2060893597735242e-11,1.72200461798655e-11,1.3113912223663967e-11,9.712719425793486e-12,7.010359103672111e-12,4.9004780683815246e-12,3.3002936838169254e-12,2.133368941570518e-12,1.325405268426666e-12,7.912430881669635e-13,4.578410009752194e-13,2.6061337323285996e-13,1.493869824391579e-13,8.798611902282412e-14,5.3392720783652476e-14,3.362627220927823e-14,2.1444059591872848e-14,1.378092702863675e-14,2.942433337546246e-09,1.416314756959632e-09,8.258250774789699e-10,5.376112572529086e-10,3.675684896302231e-10,2.5681953225513813e-10,1.8146196061319163e-10,1.2781595009997812e-10,8.940971700178017e-11,6.156239682940205e-11,4.137115944779149e-11,2.7389668435817632e-11,1.774930910323062e-11,1.126019829473808e-11,7.009118894744049e-12,4.254348936587511e-12,2.501860150468337e-12,1.4164282114113292e-12,7.666095216588881e-13
0.0,36,36.0,0.0,30.0,0.0,0.0,0.0,0.0,-13.0,0.0,2.0,0.0,0.0,0.0,7.644691847159451e-11,6.957585524397019e-11,6.236544668762461e-11,5.5040155711173447e-11,4.7692409815441905e-11,4.068321476674391e-11,3.4117901230711986e-11,2.793788459451302e-11,2.2290057669940537e-11,1.739415885503276e-11,1.3245050019542321e-11,9.812320200848999e-12,7.088368498702019e-12,4.963434475092053e-12,3.351355841564004e-12,2.1733269453400884e-12,1.3544309341127887e-12,8.101775852360072e-13,4.686021019302641e-13,2.6566738097946566e-13,1.5110920977653232e-13,8.810233571179262e-14,5.290256987979401e-14,3.300569398810831e-14,2.0926543039574674e-14,1.3411932236365081e-14,2.9263051995993006e-09,1.415796389685854e-09,8.30916252694732e-10,5.432638347925564e-10,3.722130741253992e-10,2.602751185645806e-10,1.8393660454629804e-10,1.2954180961174362e-10,9.05827814285293e-11,6.23391266624574e-11,4.186501994839721e-11,2.7693637893049608e-11,1.7927642863541355e-11,1.1358932701776934e-11,7.062518742347551e-12,4.2849731954455745e-12,2.5227688476593054e-12,1.4326221476433455e-12,7.788671245302606e-13
0.0,37,37.0,0.0,30.0,0.0,0.0,0.0,0.0,-13.0,0.0,2.0,0.0,0.0,0.0,7.740239149603355e-11,7.043565103336868e-11,6.31260351453101e-11,5.5699401533520065e-11,4.825122389259722e-11,4.1147870298577685e-11,3.4496555381308373e-11,2.8237912599170332e-11,2.2521140087961038e-11,1.756892957110111e-11,1.3375619794435087e-11,9.910230076686078e-12,7.16388016032101e-12,5.0236234267736016e-12,3.3999899261861385e-12,2.2116259579314096e-12,1.38265066291598e-12,8.289655854898901e-13,4.795737091361913e-13,2.7103868810482193e-13,1.5311292526312006e-13,8.842042513275107e-14,5.254420820798656e-14,3.246286332398246e-14,2.0455847972814533e-14,1.3065631868395093e-14,2.9105876409558446e-09,1.4158043040044034e-09,8.363628275014036e-10,5.491255241843199e-10,3.769839099568947e-10,2.638113533333829e-10,1.8646431501445722e-10,1.3130292157034377e-10,9.17791008704211e-11,6.313112687974348e-11,4.23689687265322e-11,2.8004518780563328e-11,1.8110852292290638e-11,1.1460783595506832e-11,7.117229989553809e-12,4.315309001599991e-12,2.5424842759982086e-12,1.447530141748802e-12,7.902145170106928e-13
0.0,38,38.0,0.0,30.0,0.0,0.0,0.0,0.0,-13.0,0.0,2.0,0.0,0.0,0.0,7.837429064370878e-11,7.130978358447911e-11,6.3898889915856e-11,5.636887229688756e-11,4.8818312471174724e-11,4.161902873004488e-11,3.4880126693870946e-11,2.8541417699287655e-11,2.275438675916219e-11,1.7744666703194023e-11,1.3506004115403766e-11,1.0006880866774318e-11,7.237306828035717e-12,5.081356455403221e-12,3.446357538732613e-12,2.2482887805699107e-12,1.4100039830446236e-12,8.475221816251128e-13,4.906837031349325e-13,2.7667993076859406e-13,1.5537202962657422e-13,8.892763696639476e-14,5.231148422519556e-14,3.199514571253422e-14,2.0030153081391325e-14,1.2741013283676822e-14,2.8953205830534235e-09,1.4163576178821695e-09,8.421715258322297e-10,5.551994693815481e-10,3.8188316243581265e-10,2.674297442960134e-10,1.890460148246916e-10,1.330997803534187e-10,9.299888895910316e-11,6.393842303379138e-11,4.288290177131217e-11,2.8322130174897186e-11,1.8298783980894483e-11,1.1565754317393103e-11,7.173455472731614e-12,4.34566800790812e-12,2.561282060935488e-12,1.4613119914526415e-12,8.007141867790064e-13
0.0,39,39.0,0.0,30.0,0.0,0.0,0.0,0.0,-13.0,0.0,2.0,0.0,0.0,0.0,7.936298110833637e-11,7.219857395036755e-11,6.468428981678256e-11,5.7048807527041975e-11,4.939388255985945e-11,4.2096873785193454e-11,3.5268787590736775e-11,2.8848576438196927e-11,2.2990000088369032e-11,1.7921623133061428e-11,1.3636522602141596e-11,1.010264575568042e-11,7.30902129752455e-12,5.136931716612933e-12,3.4906295012059225e-12,2.2833579379391183e-12,1.4364492275619433e-12,8.657750768452743e-13,5.018664236344847e-13,2.825461657900673e-13,1.5786101743399056e-13,8.961124790847863e-14,5.2198223491647284e-14,3.159993632490111e-14,1.964771131080186e-14,1.2437272515260523e-14,2.8805451402721186e-09,1.417475479540811e-09,8.483490601004658e-10,5.614889261120956e-10,3.869131168507977e-10,2.7113188717192777e-10,1.9168269109179362e-10,1.3493293024122212e-10,9.424239978401074e-11,6.476107603686003e-11,4.340675023392623e-11,2.8646319746202378e-11,1.8491285968425092e-11,1.1673809732225461e-11,7.2313352359826085e-12,4.376306846906078e-12,2.579410130544002e-12,1.4741230602893014e-12,8.10432481896735e-13
0.0,40,40.0,0.0,30.0,0.0,0.0,0.0,0.0,-13.0,0.0,2.0,0.0,0.0,0.0,8.036883192388641e-11,7.310234471637932e-11,6.548251264088853e-11,5.7739442736686323e-11,4.997813360305456e-11,4.2581577336041583e-11,3.56626933398781e-11,2.9159541026039664e-11,2.3228148486121135e-11,1.8100006713143607e-11,1.3767441432736855e-11,1.0197845234662512e-11,7.37935730311632e-12,5.190630736574855e-12,3.5329811209068058e-12,2.3168918563490346e-12,1.4619614514064752e-12,8.836638587766049e-13,5.130626045036124e-13,2.8859501714826093e-13,1.6055510242933618e-13,9.045861292473619e-14,5.2198232337431886e-14,3.1274639773950904e-14,1.9306836837383667e-14,1.2153773981337469e-14,2.866303581208211e-09,1.4191770353901838e-09,8.549021322765444e-10,5.67997267706462e-10,3.920761791210928e-10,2.749194635458408e-10,1.9437539231615542e-10,1.3680296241248615e-10,9.55099251367324e-11,6.559917895886984e-11,4.3940476797505026e-11,2.8976963135293723e-11,1.8688214361701843e-11,1.1784888916407239e-11,7.290958437797492e-12,4.407432751315867e-12,2.5970885621933036e-12,1.486112099523993e-12,8.194379283846184e-13
0.0,41,41.0,0.0,30.0,0.0,0.0,0.0,0.0,-13.0,0.0,2.0,0.0,0.0,0.0,8.139221773643887e-11,7.402142198761172e-11,6.629383744451548e-11,5.844101213410371e-11,5.057126075378655e-11,4.307330340081356e-11,3.606198698832603e-11,2.947444552418823e-11,2.34689740473856e-11,1.82799890835933e-11,1.3898981863957084e-11,1.0292753053451912e-11,7.448611256573467e-12,5.2427162703924186e-12,3.5735882705076154e-12,2.348961395683412e-12,1.4865303986177319e-12,9.011392131555949e-13,5.242192442529341e-13,2.947867813220131e-13,1.634303276351495e-13,9.145721851490728e-14,5.2305307533311674e-14,3.101665527863212e-14,1.9005894915414165e-14,1.1890011616624336e-14,2.8526392849410003e-09,1.421481398680003e-09,8.618374370121636e-10,5.747279918361779e-10,3.9737487683625503e-10,2.787942391464324e-10,1.9712522587052973e-10,1.387105122045212e-10,9.680179195285258e-11,6.645285422016268e-11,4.4484072329454564e-11,2.9313962457494713e-11,1.888943752922094e-11,1.1898915117580431e-11,7.352373846697303e-12,4.43920931839791e-12,2.6145101509613394e-12,1.4974195880755746e-12,8.277998159548193e-13
0.0,42,42.0,0.0,30.0,0.0,0.0,0.0,0.0,-13.0,0.0,2.0,0.0,0.0,0.0,8.243352005009972e-11,7.495613678707535e-11,6.711854616628508e-11,5.91537505628339e-11,5.1173457258408685e-11,4.357221111597087e-11,3.646680310545547e-11,2.979341064688609e-11,2.371259869378313e-11,1.8461713016161852e-11,1.4031327742141036e-11,1.0387601979219482e-11,7.517044573392206e-12,5.2934310813132155e-12,3.6126242163792315e-12,2.379646744999371e-12,1.5101585465750575e-12,9.18162096845249e-13,5.352894224860276e-13,3.0108449506637776e-13,1.6646365955256936e-13,9.259473569026282e-14,5.2513250454593905e-14,3.082336652977581e-14,1.8743294273179263e-14,1.1645573005284166e-14,2.8395966921642816e-09,1.424407619157992e-09,8.691616668955245e-10,5.816847281245122e-10,4.0281186066254995e-10,2.8275806250620475e-10,1.9993335588701786e-10,1.4065625666046235e-10,9.811835995066722e-11,6.73222511168677e-11,4.503755286991233e-11,2.965724433618916e-11,1.9094838495887287e-11,1.2015803401768664e-11,7.415598921196856e-12,4.471762197413557e-12,2.6318415336124804e-12,1.5081765333202634e-12,8.355870235898178e-13
0.0,43,43.0,0.0,30.0,0.0,0.0,0.0,0.0,-13.0,0.0,2.0,0.0,0.0,0.0,8.34931281071214e-11,7.590682603710049e-11,6.79569247635799e-11,5.98778948763213e-11,5.1784916174795983e-11,4.407845692235806e-11,3.687727059647317e-11,3.0116547456376856e-11,2.3959129041914697e-11,1.8645298466473124e-11,1.4164632029726982e-11,1.0482589220347242e-11,7.584886366857848e-12,5.342997465660364e-12,3.6502571212454714e-12,2.409034681744518e-12,1.5328592486147384e-12,9.347028874439433e-13,5.462320718275884e-13,3.074539693985783e-13,1.6963306647781002e-13,9.385907091025979e-14,5.2815884398115984e-14,3.069213560026001e-14,1.8517481678594236e-14,1.142010759930597e-14,2.8272212510956632e-09,1.4279746540485512e-09,8.768815199103774e-10,5.888712465805075e-10,4.083899060929772e-10,2.868128639848277e-10,2.0280100152805547e-10,1.4264091237396215e-10,9.946001947002758e-11,6.820754362870095e-11,4.5600956964159537e-11,3.000675773831163e-11,1.9304316038113075e-11,1.2135466379345867e-11,7.48062752894409e-12,4.5051845374657126e-12,2.6492247214546362e-12,1.5185036753904474e-12,8.428670574585614e-13
0.0,44,44.0,0.0,30.0,0.0,0.0,0.0,0.0,-13.0,0.0,2.0,0.0,0.0,0.0,8.457143951999999e-11,7.687383325230715e-11,6.880926400794651e-11,6.061368490380397e-11,5.240583159695067e-11,4.459219615624561e-11,3.7293514796702194e-11,3.044396018130178e-11,2.4208660227736437e-11,1.8830847512657837e-11,1.4299022404835814e-11,1.0577881425779895e-11,7.652336334537588e-12,5.391617366298822e-12,3.686648144317905e-12,2.4372161863431498e-12,1.5546549913751549e-12,9.507405246219015e-13,5.570117139090273e-13,3.1386379356334163e-13,1.7291758143975361e-13,9.523841369617696e-14,5.320707389233643e-14,3.062030028818391e-14,1.8326938274168615e-14,1.1213299651854966e-14,2.8155593581287605e-09,1.4322013406937755e-09,8.850037091598487e-10,5.962914667980841e-10,4.1411191551602125e-10,2.909606551385692e-10,2.0572943562058756e-10,1.4466523363140313e-10,1.0082718951477016e-10,6.910892847048561e-11,4.617434332188639e-11,3.0362471788616034e-11,1.9517784869279496e-11,1.2257818364496307e-11,7.547436399329156e-12,4.539542082301583e-12,2.666778915266301e-12,1.5285110388523144e-12,8.497052754345785e-13
0.0,45,45.0,0.0,30.0,0.0,0.0,0.0,0.0,-13.0,0.0,2.0,0.0,0.0,0.0,8.566886074087277e-11,7.78575090382023e-11,6.9675860044418e-11,6.136136412567644e-11,5.303639951932683e-11,4.511358419509856e-11,3.771565901521055e-11,3.077574834710992e-11,2.4461278884599836e-11,1.9018448347623937e-11,1.4434606010942928e-11,1.0673619212017731e-11,7.719567701116613e-12,5.439472936454322e-12,3.7219500620458935e-12,2.464284397329396e-12,1.5755757786406705e-12,9.662616563275816e-13,5.675981671346666e-13,3.202853126267755e-13,1.7629735058977834e-13,9.672128003999187e-14,5.368074501955277e-14,3.0605174330462346e-14,1.8170177289098352e-14,1.1024846106242774e-14,2.8046582932556486e-09,1.437106371226616e-09,8.935349749036178e-10,6.039494678547283e-10,4.1998092057756144e-10,2.952035284190259e-10,2.0871998363029532e-10,1.467300108440164e-10,1.0222031600029484e-10,7.00266233581768e-11,4.675778877443224e-11,3.072437367160027e-11,1.9735175213963805e-11,1.2382778280466732e-11,7.615990427427798e-12,4.574877839490092e-12,2.6846024949561102e-12,1.5382977780913726e-12,8.561642747387235e-13
0.0,46,46.0,0.0,30.0,0.0,0.0,0.0,0.0,-13.0,0.0,2.0,0.0,0.0,0.0,8.678580742904016e-11,7.88582114633174e-11,7.055701479175218e-11,6.212118014663569e-11,5.3676818442446755e-11,4.56427772744928e-11,3.8143825661322455e-11,3.111200837178202e-11,2.4717065442127962e-11,1.920817847740008e-11,1.4571473443714798e-11,1.076992120093853e-11,7.786730115280841e-12,5.4867274347975574e-12,3.75630633488889e-12,2.490332887169877e-12,1.5956576493223664e-12,9.812598011271975e-13,5.779662331673014e-13,3.266925821588081e-13,1.797536680755838e-13,9.829655105604144e-14,5.423090594174275e-14,3.064404997422911e-14,1.8045742764814638e-14,1.0854439368393409e-14,2.7945661503600144e-09,1.4427082696740613e-09,9.024820989436852e-10,6.118494988387127e-10,4.260000848109387e-10,2.9954365718523047e-10,2.1177402295180048e-10,1.48836069256796e-10,1.0363987020498738e-10,7.096086546741983e-11,4.735138649725942e-11,3.109246668278294e-11,1.9956431994597826e-11,1.251027157910715e-11,7.686246958558067e-12,4.6112162842872754e-12,2.7027750950909936e-12,1.547952266047904e-12,8.6230342164071e-13
0.0,47,47.0,0.0,30.0,0.0,0.0,0.0,0.0,-13.0,0.0,2.0,0.0,0.0,0.0,8.792270475918316e-11,7.987630635308957e-11,7.145303623918173e-11,6.289338503165964e-11,5.432728979625775e-11,4.617993306566567e-11,3.857813705875604e-11,3.145283475007328e-11,2.4976095885403538e-11,1.9400107261166875e-11,1.470970206518459e-11,1.0866887574281591e-11,7.85395242681879e-12,5.533526351148528e-12,3.789850549512497e-12,2.515454235296103e-12,1.6149413335476866e-12,9.957345361666703e-13,5.880953683551864e-13,3.3306230323915604e-13,1.8326899853763138e-13,9.995350658777932e-14,5.485166698170665e-14,3.0734202442991625e-14,1.7952208974128548e-14,1.0701754655919329e-14,2.7853317625646494e-09,1.4490253719146594e-09,9.118519213791515e-10,6.199959899296996e-10,4.321727065119325e-10,3.039832960143922e-10,2.1489298249081185e-10,1.5098426791751266e-10,1.0508634742116179e-10,7.191191006779194e-11,4.795524446546764e-11,3.146676845924983e-11,2.0181513794549015e-11,1.2640231400814108e-11,7.758159185186355e-12,4.648567084241911e-12,2.7213596944972527e-12,1.557552379860638e-12,8.681785045005018e-13
0.0,48,48.0,0.0,30.0,0.0,0.0,0.0,0.0,-13.0,0.0,2.0,0.0,0.0,0.0,8.907998769945438e-11,8.091216753905481e-11,7.236423867914859e-11,6.367823555203376e-11,5.4988018238036145e-11,4.6725211081721093e-11,3.901871602873367e-11,3.17983209243083e-11,2.5238443089420926e-11,1.9594297911295888e-11,1.4849358733707165e-11,1.096460316636242e-11,7.921345293579782e-12,5.5799986794269076e-12,3.822706171021009e-12,2.5397388725057427e-12,1.6334710476381902e-12,1.0096907185723393e-12,5.979693456640547e-13,3.393737407832722e-13,1.8682698840418457e-13,1.016818536870701e-13,5.5537259755806166e-14,3.087289588201642e-14,1.7888180265115665e-14,1.0566441455880126e-14,2.7770046229110187e-09,1.456075808938798e-09,9.216513597340051e-10,6.283935639550056e-10,4.385022218380003e-10,3.085247812977133e-10,2.1807834251484833e-10,1.531754988870818e-10,1.0656026579841978e-10,7.288002931927455e-11,4.856948411289313e-11,3.1847309398739787e-11,2.0410391714880818e-11,1.2772599161782565e-11,7.831678784066477e-12,4.6869283500732915e-12,2.740404663542645e-12,1.5671659412642665e-12,8.738414935861089e-13
0.0,49,49.0,0.0,30.0,0.0,0.0,0.0,0.0,-13.0,0.0,2.0,0.0,0.0,0.0,9.025810127893283e-11,8.196617708620031e-11,7.32909429035022e-11,6.447599337513301e-11,5.565921186646633e-11,4.727877296359148e-11,3.946568630459785e-11,3.2148559918975e-11,2.5504177822480065e-11,1.9790809054943387e-11,1.499050203321646e-11,1.1063140126826312e-11,7.989003586834074e-12,5.626258270227734e-12,3.8549865458225145e-12,2.5632741696252028e-12,1.6512934260373922e-12,1.0231377465374948e-12,6.075759120678295e-13,3.456086279470302e-13,1.9041246715108684e-13,1.0347175003883729e-13,5.628205498342716e-14,3.105739041383274e-14,1.7852291115604904e-14,1.0448118526816735e-14,2.769634800752445e-09,1.4638774938806993e-09,9.31887430443661e-10,6.370470483424732e-10,4.449922081146837e-10,3.131705321091099e-10,2.213316347501378e-10,1.554106866716384e-10,1.0806216537008826e-10,7.386551121958446e-11,4.9194239168930616e-11,3.223413126377173e-11,2.0643048206148386e-11,1.2907324720405246e-11,7.906757913451349e-12,4.7262894324924054e-12,2.7599457263242646e-12,1.576851274065402e-12,8.793403930119327e-13
0.0,50,50.0,0.0,30.0,0.0,0.0,0.0,0.0,-13.0,0.0,2.0,0.0,0.0,0.0,9.145750085705644e-11,8.303872551360595e-11,7.423347638186603e-11,6.528692522158239e-11,5.6341082381943184e-11,4.7840782683673564e-11,3.991917282550751e-11,3.2503644799409117e-11,2.5773369494076994e-11,1.998969594312481e-11,1.513318407846618e-11,1.1162560191218172e-11,8.057008578455339e-12,5.672405209452943e-12,3.886795102114206e-12,2.586143742987235e-12,1.6684565860018257e-12,1.0360888648829163e-12,6.169064457806031e-13,3.517510591394083e-13,1.9401143965123532e-13,1.053138225155535e-13,5.708057870828701e-14,3.1284949977440496e-14,1.7843206237243082e-14,1.0346371839261388e-14,2.7632728543566348e-09,1.4724481133068674e-09,9.425672726657494e-10,6.459614873907605e-10,4.51646387336092e-10,3.179230513360464e-10,2.2465444270352816e-10,1.5769078785665393e-10,1.0959260725174105e-10,7.486865869218488e-11,4.9829654650864905e-11,3.262728595995465e-11,2.087947592951443e-11,1.3044366244117427e-11,7.983350679649937e-12,4.766633294334843e-12,2.7800078067799935e-12,1.586657845530241e-12,8.847191717896894e-13
0.0,51,51.0,0.0,30.0,0.0,0.0,0.0,0.0,-13.0,0.0,2.0,0.0,0.0,0.0,9.267865240284282e-11,8.41302120180343e-11,7.519217343453844e-11,6.611130300597912e-11,5.703384521440681e-11,4.841140669488091e-11,4.037930194500022e-11,3.286366900116486e-11,2.6046086707615754e-11,2.0191011379062103e-11,1.5277451965103764e-11,1.1262916599899878e-11,8.12542990474154e-12,5.71852718170411e-12,3.918225701468376e-12,2.6084269496907717e-12,1.6850093190649823e-12,1.0485605185379134e-12,6.259556171749049e-13,3.577873739555662e-13,1.9761107067895188e-13,1.0719918112329013e-13,5.792752676076004e-14,3.155285066586819e-14,1.785962061753606e-14,1.0260754849554115e-14,2.7579697403362243e-09,1.4818051232554424e-09,9.536981743588105e-10,6.551421547794027e-10,4.584686298509844e-10,3.2278492706298226e-10,2.2804840218951693e-10,1.6001679092403933e-10,1.1115217299976841e-10,7.588978880537971e-11,5.047588599285864e-11,3.302683447389258e-11,2.111967668145788e-11,1.3183689871964754e-11,8.061414170353147e-12,4.807938493473873e-12,2.8006067377568814e-12,1.596626962936342e-12,8.90017762386155e-13
0.0,52,52.0,0.0,30.0,0.0,0.0,0.0,0.0,-13.0,0.0,2.0,0.0,0.0,0.0,9.392203278843914e-11,8.524104470633789e-11,7.61673754078144e-11,6.694940397197202e-11,5.773771963352227e-11,4.899081404510718e-11,4.0846201581024895e-11,3.322872656573295e-11,2.632239766565127e-11,2.0394806425104863e-11,1.5423348925271593e-11,1.1364255706239652e-11,8.194327310139716e-12,5.764700787662959e-12,3.949363101369492e-12,2.6301985466234833e-12,1.7010004019024152e-12,1.0605717561701843e-12,6.347210567200188e-13,3.6370603413854833e-13,2.0119966256501423e-13,1.0911942865001022e-13,5.881777736779365e-14,3.1858389314589925e-14,1.790025943173937e-14,1.019079053470906e-14,2.7537767206583446e-09,1.4919657505242465e-09,9.652876005490036e-10,6.645945662434274e-10,4.654629582306971e-10,3.2775883419924015e-10,2.315152020438328e-10,1.6238971623417797e-10,1.1274146411745405e-10,7.692923211319275e-11,5.113309829559642e-11,3.343284595468995e-11,2.1363660401857422e-11,1.3325269246419927e-11,8.140909139952455e-12,4.85018081523331e-12,2.821750820408587e-12,1.6067925007805712e-12,8.952721163768455e-13
0.0,53,53.0,0.0,30.0,0.0,0.0,0.0,0.0,-13.0,0.0,2.0,0.0,0.0,0.0,9.518813009937081e-11,8.637164083998847e-11,7.715943085650492e-11,6.780151082864684e-11,5.845292885124892e-11,4.9579176471249856e-11,4.13200013269563e-11,3.3598912309607446e-11,2.6602370465030428e-11,2.0601130936688277e-11,1.5570915241417698e-11,1.1466618313738206e-11,8.263752180153181e-12,5.810992793531899e-12,3.9802834946183315e-12,2.6515284886869133e-12,1.7164780182284354e-12,1.0721436851053372e-12,6.432030327901714e-13,3.6949749548735384e-13,2.0476662692564707e-13,1.1106666635399382e-13,5.974640187924803e-14,3.2198892128302384e-14,1.7963877792716074e-14,1.0135974670859845e-14,2.7507452681230172e-09,1.5029469996996906e-09,9.773432236803306e-10,6.743244923417788e-10,4.726335513201945e-10,3.3284753634419845e-10,2.350565850063243e-10,1.6481061615612136e-10,1.1436110169595558e-10,7.798733210882925e-11,5.180146568295586e-11,3.384539692309362e-11,2.1611444275000512e-11,1.3469084970112703e-11,8.221800420143517e-12,4.893334594083602e-12,2.843442228081244e-12,1.6171816381173774e-12,9.005143078052702e-13
0.0,54,54.0,0.0,30.0,0.0,0.0,0.0,0.0,-13.0,0.0,2.0,0.0,0.0,0.0,9.647744396246713e-11,8.752242709334866e-11,7.816869573632648e-11,6.866791189247322e-11,5.91797001233931e-11,5.017666848259369e-11,4.180083253769015e-11,3.397432194692063e-11,2.6886073310918847e-11,2.081003396253587e-11,1.572018896342495e-11,1.1570040779397822e-11,8.333748876751358e-12,5.857461297908827e-12,4.011055097164512e-12,2.6724818434403327e-12,1.7314892827023774e-12,1.0832989777200466e-12,6.514041417310422e-13,3.7515407644926547e-13,2.0830245131699844e-13,1.1303349604141621e-13,6.070867362897741e-14,3.25717231662563e-14,1.8049260335821858e-14,1.0095779904954444e-14,2.7489269713455613e-09,1.5147656664045193e-09,9.898729559184017e-10,6.843379712545844e-10,4.799847484784179e-10,3.3805388788367913e-10,2.3867434875720766e-10,1.6728057533063435e-10,1.1601172617790426e-10,7.906444478162968e-11,5.248117075396077e-11,3.426457059315192e-11,2.1863051926051013e-11,1.3615124028688088e-11,8.304057117886575e-12,4.937373763842307e-12,2.8656782542453185e-12,1.6278155891854236e-12,9.057726757472182e-13
