Line_number,Fiducial,Easting,Northing,Height,Elevation,tx_pitch,tx_roll,tx_yaw,txrx_dx,txrx_dy,txrx_dz,rx_pitch,rx_roll,rx_yaw,S0Z_time_1.431e-04,S0Z_time_1.801e-04,S0Z_time_2.266e-04,S0Z_time_2.846e-04,S0Z_time_3.581e-04,S0Z_time_4.506e-04,S0Z_time_5.671e-04,S0Z_time_7.136e-04,S0Z_time_8.981e-04,S0Z_time_1.131e-03,S0Z_time_1.423e-03,S0Z_time_1.791e-03,S0Z_time_2.255e-03,S0Z_time_2.838e-03,S0Z_time_3.573e-03,S0Z_time_4.498e-03,S0Z_time_5.662e-03,S1Z_time_1.409e-05,S1Z_time_1.610e-05,S1Z_time_1.909e-05,S1Z_time_2.360e-05,S1Z_time_2.960e-05,S1Z_time_3.709e-05,S1Z_time_4.609e-05,S1Z_time_5.759e-05,S1Z_time_7.209e-05,S1Z_time_9.060e-05,S1Z_time_1.141e-04,S1Z_time_1.431e-04,S1Z_time_1.801e-04,S1Z_time_2.266e-04,S1Z_time_2.846e-04,S1Z_time_3.581e-04,S1Z_time_4.506e-04,S1Z_time_5.671e-04,S1Z_time_7.136e-04,S1Z_time_8.981e-04,S1Z_time_1.131e-03
0.0,0,0.0,0.0,30.0,0.0,0.0,0.0,0.0,-13.0,0.0,2.0,0.0,0.0,0.0,5.43896772192077e-11,3.3584786099426604e-11,2.1979888505251926e-11,1.6115889618264517e-11,1.201135415274478e-11,9.176039794887574e-12,7.120202938370128e-12,5.470870612092515e-12,4.219376653576511e-12,3.200143372456677e-12,2.4324971046145772e-12,1.7906978958547819e-12,1.3119061499834134e-12,9.336121384040605e-13,6.511851084308717e-13,4.4485755607503816e-13,2.951531221587722e-13,4.081539203705961e-09,3.006737765521449e-09,2.0369470920052237e-09,1.2460416569478164e-09,7.533124903769965e-10,4.694661493421168e-10,3.078477823874227e-10,2.0259711149758974e-10,1.3183148997531708e-10,8.412088725315913e-11,5.294897817615905e-11,3.3974744986026986e-11,2.2409093070245383e-11,1.5305849931966645e-11,1.0873241070273767e-11,7.828207898252626e-12,5.671187835388124e-12,4.086478965770632e-12,2.9135959288097856e-12,2.0490228553345735e-12,1.4175879551021611e-12
0.0,1,1.0,0.0,30.0,0.0,0.0,0.0,0.0,-13.0,0.0,2.0,0.0,0.0,0.0,6.118601873874185e-11,3.6888682362572924e-11,2.304656310283361e-11,1.6119749178419206e-11,1.1613736740858974e-11,8.685419563535748e-12,6.661465565136331e-12,5.081708292869748e-12,3.904720443026701e-12,2.955610359923758e-12,2.247146406449734e-12,1.654054440426988e-12,1.2139026252912177e-12,8.651027132097824e-13,6.047315647320429e-13,4.1427559155820085e-13,2.756604084082921e-13,4.0640200587341875e-09,2.991898583437554e-09,2.0264171967874175e-09,1.2409394722075523e-09,7.535883287701142e-10,4.748537408495695e-10,3.1756246893643963e-10,2.1513590686544412e-10,1.447446112756003e-10,9.505784631730287e-11,6.06561528366869e-11,3.855271995923672e-11,2.461554613654085e-11,1.6080428253477226e-11,1.0953574476427143e-11,7.633026618142796e-12,5.412350272696531e-12,3.848341969323215e-12,2.7150029323871907e-12,1.900971082795842e-12,1.309648800854183e-12
0.0,2,2.0,0.0,30.0,0.0,0.0,0.0,0.0,-13.0,0.0,2.0,0.0,0.0,0.0,6.786904322188389e-11,4.0820360805029454e-11,2.4779690752882325e-11,1.658520851619763e-11,1.1485803701330494e-11,8.347774307427274e-12,6.295482572355415e-12,4.753761649411183e-12,3.6330908526080224e-12,2.7415314680791648e-12,2.083222413421194e-12,1.5323857756808008e-12,1.1260468696887428e-12,8.033330703196545e-13,5.626160679727039e-13,3.8639570751524186e-13,2.577977245565098e-13,4.0459924302283505e-09,2.976757314947524e-09,2.015782814044651e-09,1.235623012859924e-09,7.52730449297565e-10,4.775389371011427e-10,3.232802098646929e-10,2.2343804862126593e-10,1.544039578759917e-10,1.0434545274109637e-10,6.812056174652789e-11,4.364031805051693e-11,2.7510822196563417e-11,1.7413096358290208e-11,1.1388936856066689e-11,7.636461016340654e-12,5.261142412960589e-12,3.671130038121611e-12,2.5555018197076597e-12,1.776737152391296e-12,1.2167853431104044e-12
0.0,3,3.0,0.0,30.0,0.0,0.0,0.0,0.0,-13.0,0.0,2.0,0.0,0.0,0.0,7.388917908457864e-11,4.493354301448007e-11,2.6974104990146737e-11,1.7458739533686584e-11,1.16272772135307e-11,8.167465581806642e-12,6.020546060011974e-12,4.482584955786465e-12,3.400035152809503e-12,2.5543018840572428e-12,1.938173680713735e-12,1.4239156128505355e-12,1.0471629616436787e-12,7.475639987734745e-13,5.243801461382122e-13,3.6094914286991325e-13,2.4141141664609306e-13,4.027479848684776e-09,2.9613229490810147e-09,2.0050586851326863e-09,1.2303379313011528e-09,7.516465226333251e-10,4.791872246750031e-10,3.269078241973557e-10,2.2892164043259024e-10,1.6132468335469607e-10,1.1172452182669641e-10,7.47527983824127e-11,4.8708165214955994e-11,3.07845398628874e-11,1.9183809304565488e-11,1.2158525620248932e-11,7.846933490817621e-12,5.223891660604926e-12,3.5549660582430845e-12,2.43323040928926e-12,1.6734102916972132e-12,1.1374266140541722e-12
0.0,4,4.0,0.0,30.0,0.0,0.0,0.0,0.0,-13.0,0.0,2.0,0.0,0.0,0.0,7.900324492478522e-11,4.888964912937808e-11,2.9408665442344045e-11,1.8648106413920966e-11,1.2016811826376425e-11,8.144557854216472e-12,5.836960717882003e-12,4.265928686210632e-12,3.2023111399513164e-12,2.391035275435922e-12,1.8098820287397608e-12,1.3271265008791963e-12,9.762404239792148e-13,6.971495830977078e-13,4.89619520618858e-13,3.3769731452439175e-13,2.2636357504283833e-13,4.008501225085686e-09,2.9456194505033665e-09,1.994253696322305e-09,1.2251146493477507e-09,7.506059462713832e-10,4.80541157033144e-10,3.295858884691437e-10,2.3274122286032665e-10,1.66245535027804e-10,1.173613933357252e-10,8.031212129787934e-11,5.339354916978542e-11,3.414700461559584e-11,2.1234464258563905e-11,1.3205590794197265e-11,8.256507544580286e-12,5.304712148514309e-12,3.5021512855038426e-12,2.34725400003046e-12,1.5895691382552777e-12,1.0702490720788707e-12
0.0,5,5.0,0.0,30.0,0.0,0.0,0.0,0.0,-13.0,0.0,2.0,0.0,0.0,0.0,8.318586874636878e-11,5.248024355541869e-11,3.1891409766525854e-11,2.004555818221321e-11,1.2614538938466985e-11,8.270939614450728e-12,5.744373299473794e-12,4.1029014600103785e-12,3.037773677613142e-12,2.249503481254079e-12,1.6965918160522261e-12,1.2407260696448007e-12,9.124125228484612e-13,6.51524078000302e-13,4.57977791356274e-13,3.1642816819104623e-13,2.1253040444007842e-13,3.989065883458335e-09,2.92966724550085e-09,1.98338712242211e-09,1.2199577523100771e-09,7.496667883259396e-10,4.818802388950736e-10,3.3190486872073824e-10,2.3567799236356e-10,1.6984792684520285e-10,1.2160445011232254e-10,8.479892621184626e-11,5.7504080844044594e-11,3.737694210666679e-11,2.340784344691726e-11,1.4452027205846394e-11,8.840230721942283e-12,5.5013338162459756e-12,3.514846544181105e-12,2.297446347428056e-12,1.524876017337401e-12,1.0143239826181185e-12
0.0,6,6.0,0.0,30.0,0.0,0.0,0.0,0.0,-13.0,0.0,2.0,0.0,0.0,0.0,8.653678840788565e-11,5.56096152992843e-11,3.427970801252203e-11,2.1547829087581902e-11,1.3369948609944148e-11,8.530124642051571e-12,5.7397993982252265e-12,3.992895839515272e-12,2.905111477224433e-12,2.128073882293401e-12,1.5968668169218689e-12,1.1636188070405124e-12,8.549354702619135e-13,6.101916718412149e-13,4.291410580680684e-13,2.9695283129916245e-13,1.9980082857645118e-13,3.969179349541849e-09,2.9134807676386228e-09,1.972478524153381e-09,1.2148780329090993e-09,7.488368673054674e-10,4.832899844220207e-10,3.3413279003031326e-10,2.381973412948828e-10,1.7265244619527537e-10,1.2483009042761746e-10,8.834671585029141e-11,6.098054093224661e-11,4.033246939696259e-11,2.5571905877780637e-11,1.5814787591933932e-11,9.561142572095662e-12,5.803881544788334e-12,3.5930270779053677e-12,2.2839587807333278e-12,1.479563017358841e-12,9.691541153702593e-13
0.0,7,7.0,0.0,30.0,0.0,0.0,0.0,0.0,-13.0,0.0,2.0,0.0,0.0,0.0,8.920983817891134e-11,5.826381659378852e-11,3.6482469724728125e-11,2.30681749595441e-11,1.423020717491695e-11,8.899525696233592e-12,5.816888418677366e-12,3.9346565463654824e-12,2.8034591224334183e-12,2.0256071031623327e-12,1.5095617305102766e-12,1.0948845129294688e-12,8.031698960977811e-13,5.727180223989441e-13,4.0283316580200743e-13,2.7910272078774505e-13,1.8807525864772798e-13,3.948847805509737e-09,2.897072195410076e-09,1.9615445364504553e-09,1.2098900645222714e-09,7.481199501673925e-10,4.847897480386529e-10,3.3637534903819367e-10,2.4054853338516586e-10,1.7501181918652653e-10,1.2736523870716485e-10,9.114150499657345e-11,6.385144289404949e-11,4.294189279202852e-11,2.7629489041310484e-11,1.7217999120115667e-11,1.037700693941416e-11,6.196130478172601e-12,3.733460198727818e-12,2.3065089361238455e-12,1.4540065635120628e-12,9.345642449067937e-13
0.0,8,8.0,0.0,30.0,0.0,0.0,0.0,0.0,-13.0,0.0,2.0,0.0,0.0,0.0,9.13672036080413e-11,6.048005183546365e-11,3.8452987191356615e-11,2.4541170719921466e-11,1.5146394762423812e-11,9.353576557104697e-12,5.966259263546588e-12,3.92573343887929e-12,2.7319958194583383e-12,1.941310343315599e-12,1.4337899371063215e-12,1.0337617767087395e-12,7.565661775799615e-13,5.38722924153603e-13,3.788112962480433e-13,2.6272715940669253e-13,1.7726444976513179e-13,3.92807970736478e-09,2.88045449321166e-09,1.9506002160929096e-09,1.2050084416591982e-09,7.475233658252084e-10,4.863829502888264e-10,3.3866778276375365e-10,2.4285229974404566e-10,1.7714394151001234e-10,1.2946073712669958e-10,9.337137642996157e-11,6.619363491710378e-11,4.518693016569963e-11,2.9518365692512324e-11,1.8599597651145404e-11,1.1246143637988444e-11,6.657964258702488e-12,3.929747795914256e-12,2.3638289252483866e-12,1.4484031548083338e-12,9.105347564640413e-13
0.0,9,9.0,0.0,30.0,0.0,0.0,0.0,0.0,-13.0,0.0,2.0,0.0,0.0,0.0,9.315447895902994e-11,6.23219432498601e-11,4.017838508419584e-11,2.5922683298044662e-11,1.607713827355445e-11,9.866578369718318e-12,6.17644018136966e-12,3.962351737555374e-12,2.6896333460546644e-12,1.8745710485188107e-12,1.368877479353105e-12,9.796323855325098e-13,7.146537583614879e-13,5.078740240615157e-13,3.56861834015432e-13,2.4769142377311146e-13,1.6728841108575943e-13,3.9068859369124285e-09,2.863642634055939e-09,1.9396608850216316e-09,1.2002469448523857e-09,7.470566882790031e-10,4.880725091705191e-10,3.4101995915492877e-10,2.45161490029935e-10,1.7917318175659575e-10,1.3129294288901968e-10,9.520026576522977e-11,6.810324190452026e-11,4.708528792645418e-11,3.1206351391694695e-11,1.99135951152767e-11,1.2131376017359282e-11,7.167944810046719e-12,4.173070013430357e-12,2.4534421773449182e-12,1.4625358400860196e-12,8.970489718250107e-13
0.0,10,10.0,0.0,30.0,0.0,0.0,0.0,0.0,-13.0,0.0,2.0,0.0,0.0,0.0,9.469027119440256e-11,6.386191459992986e-11,4.1668982934136006e-11,2.7187238598744932e-11,1.6990085503935714e-11,1.0414779451347798e-11,6.434974475833509e-12,4.039595443294898e-12,2.674841137385745e-12,1.8248039452061106e-12,1.3143046004566744e-12,9.320030279979754e-13,6.770331638318079e-13,4.798816302679456e-13,3.3679661045887555e-13,2.3387509697647226e-13,1.580753759658705e-13,3.8852795398968205e-09,2.8466537219314158e-09,1.9287431176481398e-09,1.1956190775604809e-09,7.46730094795843e-10,4.898635649370628e-10,3.43435263860372e-10,2.474971984221578e-10,1.811656680307279e-10,1.329775852572781e-10,9.675832142706915e-11,6.967678458156227e-11,4.8675702005326165e-11,3.2684580928724346e-11,2.112955893259447e-11,1.3002132810689696e-11,7.705394823079085e-12,4.453204972397741e-12,2.571750986859603e-12,1.4956375013218213e-12,8.939836418625045e-13
0.0,11,11.0,0.0,30.0,0.0,0.0,0.0,0.0,-13.0,0.0,2.0,0.0,0.0,0.0,9.606471217810756e-11,6.517003037474748e-11,4.294911947249983e-11,2.832431059719537e-11,1.786191110658724e-11,1.0977629225483834e-11,6.729411713959194e-12,4.151759677536618e-12,2.6856043344891852e-12,1.7913358104317782e-12,1.2696431095576794e-12,8.904830016697372e-13,6.433689451372595e-13,4.5449447914160106e-13,3.1844966174141613e-13,2.2117062299131036e-13,1.4956085662641778e-13,3.8632754590522276e-09,2.829506717710695e-09,1.917864951726506e-09,1.1911386788418837e-09,7.465537147833305e-10,4.917628056178807e-10,3.4591696181809013e-10,2.49867749619177e-10,1.8315451154687046e-10,1.345863767329358e-10,9.814207711251731e-11,7.100060339786606e-11,5.000647712938423e-11,3.396070515566065e-11,2.2230596485628573e-11,1.3835143443193047e-11,8.25180773051053e-12,4.759515881716646e-12,2.7143220614492614e-12,1.5463566210165108e-12,9.010459321531682e-13
0.0,12,12.0,0.0,30.0,0.0,0.0,0.0,0.0,-13.0,0.0,2.0,0.0,0.0,0.0,9.734261930936317e-11,6.630792385196065e-11,4.404999170102858e-11,2.9334446259279903e-11,1.8677460946607526e-11,1.1538349037677503e-11,7.048059905126594e-12,4.292748857626072e-12,2.719480934822932e-12,1.7733377343529933e-12,1.2344990234442763e-12,8.547590118941813e-13,6.133821899939248e-13,4.3149612627387356e-13,3.0167456090473304e-13,2.0948200961029848e-13,1.4168680539314658e-13,3.840890340232009e-09,2.812222117279145e-09,1.907045706326248e-09,1.1868201996911325e-09,7.465375648630737e-10,4.937775092691692e-10,3.484694954983076e-10,2.522774630528947e-10,1.8515577666279067e-10,1.3616170721198412e-10,9.941941086111075e-11,7.214628320793015e-11,5.112752261002423e-11,3.5052880072388365e-11,2.3210716368948412e-11,1.4614209892567914e-11,8.791634039317505e-12,5.081745865092636e-12,2.8762476823930623e-12,1.6128155646528355e-12,9.177489258848155e-13
0.0,13,13.0,0.0,30.0,0.0,0.0,0.0,0.0,-13.0,0.0,2.0,0.0,0.0,0.0,9.85684705659951e-11,6.732633464218562e-11,4.50045309990357e-11,3.0225720722624615e-11,1.9428472409139856e-11,1.208401414857208e-11,7.380478992909186e-12,4.456440795283153e-12,2.7737163154236165e-12,1.769802128039206e-12,1.2084673572847521e-12,8.24569488717043e-13,5.868420258943727e-13,4.107015672874276e-13,2.863422747115979e-13,1.9872366356777163e-13,1.3440089225774242e-13,3.818142393448775e-09,2.794821691940816e-09,1.8963056882526435e-09,1.1826786824013037e-09,7.46691632242545e-10,4.959149779871317e-10,3.510981878374076e-10,2.547300585442684e-10,1.8717761146872388e-10,1.3772780954764552e-10,1.0063603612839844e-10,7.316994453106624e-11,5.208539848579619e-11,3.598490831726448e-11,2.407209843511026e-11,1.532944481734678e-11,9.31258271730028e-12,5.410573839858557e-12,3.0524930794603794e-12,1.6927356134771012e-12,9.434150683467402e-13
0.0,14,14.0,0.0,30.0,0.0,0.0,0.0,0.0,-13.0,0.0,2.0,0.0,0.0,0.0,9.977153537438406e-11,6.826494812012413e-11,4.58440720961136e-11,3.1010757013459e-11,2.0112156359820803e-11,1.260532163302628e-11,7.717749289460158e-12,4.636977587723162e-12,2.8453789804478345e-12,1.7795544596563485e-12,1.1911021274715842e-12,7.996810154500509e-13,5.635562647706633e-13,3.919537809128859e-13,2.72339416588981e-13,1.8881935502163578e-13,1.2765589532199977e-13,3.795051287307654e-09,2.7773283019127036e-09,1.8856659220259314e-09,1.1787295904741965e-09,7.470259130728368e-10,4.981823045075386e-10,3.5380869975070605e-10,2.5722960319644977e-10,1.8922496193548772e-10,1.392984106264712e-10,1.0182171187167734e-10,7.411369725977824e-11,5.292070251035295e-11,3.678260196480772e-11,2.4822574904331536e-11,1.5976250960019618e-11,9.805585140033494e-12,5.73794875879032e-12,3.238181898653702e-12,1.783595788711107e-12,9.771982280806913e-13
0.0,15,15.0,0.0,30.0,0.0,0.0,0.0,0.0,-13.0,0.0,2.0,0.0,0.0,0.0,1.0097034369718394e-10,6.915351543193777e-11,4.659645817340091e-11,3.1704387090289385e-11,2.0729815886607748e-11,1.3096177942524136e-11,8.052566390399442e-12,4.8289730698154075e-12,2.931492221888204e-12,1.8012873978127733e-12,1.1819012924682731e-12,7.798688377481724e-13,5.433617769961308e-13,3.7512004912444416e-13,2.5956674020957924e-13,1.7970130486557615e-13,1.2140919113743273e-13,3.7716380693696874e-09,2.7597657680576706e-09,1.875147945503404e-09,1.174988605621664e-09,7.475503754666993e-10,5.005863042678373e-10,3.5660663592344094e-10,2.597805162812321e-10,1.9130172529435414e-10,1.4088155277343204e-10,1.0299536536374396e-10,7.500804583237468e-11,5.36671179603512e-11,3.747127210470513e-11,2.5473477404548936e-11,1.6554222806977616e-11,1.026454494177801e-11,6.057245604802639e-12,3.428804159095393e-12,1.8827946869439664e-12,1.0181172561161096e-12
0.0,16,16.0,0.0,30.0,0.0,0.0,0.0,0.0,-13.0,0.0,2.0,0.0,0.0,0.0,1.0217620811942218e-10,7.00135340476694e-11,4.72852057365046e-11,3.232193661501838e-11,2.128560236049446e-11,1.3553200486205988e-11,8.379213147145197e-12,5.027643073214514e-12,3.0291472075618088e-12,1.833606053005615e-12,1.1803042029464861e-12,7.649024849014697e-13,5.26115313827768e-13,3.600880713187314e-13,2.4793773729343927e-13,1.7130937845169e-13,1.1562232701852385e-13,3.747925112741806e-09,2.742158786796381e-09,1.8647736707288735e-09,1.1714714525668783e-09,7.482748777135821e-10,5.031335017918269e-10,3.5949733516084446e-10,2.6238732559964255e-10,1.9341156582616083e-10,1.4248240501386615e-10,1.0416893246003318e-10,7.587447947192369e-11,5.4351527122909566e-11,3.807416678350906e-11,2.603791016182191e-11,1.7066084281718485e-11,1.0685966260953091e-11,6.363290410812336e-12,3.620350658113578e-12,1.987792711859908e-12,1.0650958190018e-12
0.0,17,17.0,0.0,30.0,0.0,0.0,0.0,0.0,-13.0,0.0,2.0,0.0,0.0,0.0,1.0339580854759718e-10,7.086003145139764e-11,4.7929387482392564e-11,3.2878062046018894e-11,2.178545974094301e-11,1.3975196819123585e-11,8.693450809378092e-12,5.22887189955518e-12,3.135591426282727e-12,1.8750756102758895e-12,1.1856981830767204e-12,7.545366438789064e-13,5.116854036123358e-13,3.4676200451458767e-13,2.37377248197758e-13,1.6359036154921384e-13,1.1026065630938762e-13,3.7239360897740213e-09,2.72453287753163e-09,1.8545652960611296e-09,1.1681937713340381e-09,7.49209077731882e-10,5.058301234940919e-10,3.6248578666578877e-10,2.650544392499805e-10,1.9555811350850273e-10,1.4410477393631462e-10,1.0535003414201749e-10,7.672782714843319e-11,5.499472226924614e-11,3.8611648087084073e-11,2.6529448617389853e-11,1.7516730149599472e-11,1.1068526000806681e-11,6.652295478729331e-12,3.809386520585416e-12,2.0962221461333973e-12,1.1170045807700727e-12
0.0,18,18.0,0.0,30.0,0.0,0.0,0.0,0.0,-13.0,0.0,2.0,0.0,0.0,0.0,1.0463298365851389e-10,7.17031968072587e-11,4.854395280371449e-11,3.338604265396815e-11,2.2236274793105922e-11,1.4362662864033303e-11,8.992361637470961e-12,5.429229892988943e-12,3.2482919232807778e-12,1.9242655829758634e-12,1.1974308190718368e-12,7.485067677842871e-13,4.999457371589068e-13,3.3505861477086776e-13,2.278200448059416e-13,1.5649729237368215e-13,1.0529301905474084e-13,3.6996959715216194e-09,2.706914355214302e-09,1.8445452547630277e-09,1.1651710352321873e-09,7.503623568689647e-10,5.086820857345878e-10,3.655766127863456e-10,2.6778600090174255e-10,1.9774492772854963e-10,1.457518399957668e-10,1.0654372982228673e-10,7.757819609390877e-11,5.561237879732371e-11,3.9100903526844816e-11,2.6961225029690222e-11,1.791240701227764e-11,1.1412635250633364e-11,6.921737139236316e-12,3.993078420236205e-12,2.2059614430124116e-12,1.1727026458512128e-12
0.0,19,19.0,0.0,30.0,0.0,0.0,0.0,0.0,-13.0,0.0,2.0,0.0,0.0,0.0,1.0588991197448905e-10,7.254974591967122e-11,4.914027468125869e-11,3.3857423427319926e-11,2.2645228719034133e-11,1.4717325921235212e-11,9.27416669868387e-12,5.625955648150871e-12,3.3649757849977274e-12,1.979787484470956e-12,1.2148250180491362e-12,7.46528521154958e-13,4.907702222042467e-13,3.249037242182526e-13,2.1920938832098815e-13,1.4998882716987842e-13,1.0069145341988021e-13,3.6752310496060654e-09,2.6893303225301404e-09,1.8347361883706744e-09,1.1624185048320936e-09,7.517437675063683e-10,5.116949814523918e-10,3.6877408026321284e-10,2.705858224820353e-10,1.999754059181155e-10,1.4742646997872586e-10,1.0775360158950392e-10,7.843245961301814e-11,5.621607267594682e-11,3.955601230474028e-11,2.7345342051984622e-11,1.826004749465372e-11,1.1720020085857103e-11,7.170200198105465e-12,4.169188400555696e-12,2.3151764375815433e-12,1.2310757753056227e-12
0.0,20,20.0,0.0,30.0,0.0,0.0,0.0,0.0,-13.0,0.0,2.0,0.0,0.0,0.0,1.071678545685929e-10,7.340399281699144e-11,4.972677638874138e-11,3.430191097383368e-11,2.3019331635941424e-11,1.504174699267188e-11,9.53803583225359e-12,5.8169140270600614e-12,3.4836516117172134e-12,2.040324635667792e-12,1.2371946092649858e-12,7.483000296598567e-13,4.840296831372491e-13,3.1622910112202566e-13,2.1149559330291154e-13,1.4402862406503424e-13,9.643092667175945e-14,3.6505689761382032e-09,2.6718086772047698e-09,1.8251609366335804e-09,1.1599512073877813e-09,7.533620049441351e-10,5.148740712639799e-10,3.72082121147391e-10,2.734573693396307e-10,2.022527079127969e-10,1.4913132020320678e-10,1.0898238719263965e-10,7.929533785678206e-11,5.681421681429067e-11,3.998822224406252e-11,2.7692547481837266e-11,1.8566755718955285e-11,1.1993341048862882e-11,7.39720670756322e-12,4.3360445128833986e-12,2.4223346418739106e-12,1.2910694369232707e-12
0.0,21,21.0,0.0,30.0,0.0,0.0,0.0,0.0,-13.0,0.0,2.0,0.0,0.0,0.0,1.0846760014584272e-10,7.426864987853268e-11,5.0309545354325136e-11,3.472743804593147e-11,2.336511346847098e-11,1.5338988764485437e-11,9.78390170275691e-12,6.000538739401882e-12,3.6026159362040575e-12,2.1046540892458926e-12,1.2638589814321003e-12,7.535059418095329e-13,4.795900361968816e-13,3.089698861282237e-13,2.0463464288567528e-13,1.3858473826935788e-13,9.248907801076564e-14,3.6257388172129118e-09,2.6543781305284777e-09,1.8158425384469344e-09,1.157783933029497e-09,7.552253996951283e-10,5.182242829504079e-10,3.755043562418063e-10,2.7640377502753535e-10,2.0457971444543511e-10,1.5086885119448144e-10,1.1023232768173509e-10,8.017014725569357e-11,5.741285711485523e-11,4.0406330058943094e-11,2.8012104594822456e-11,1.8839431868499513e-11,1.2235862455384696e-11,7.603041838439556e-12,4.492495898559368e-12,2.5261998991683032e-12,1.3517153425061235e-12
0.0,22,22.0,0.0,30.0,0.0,0.0,0.0,0.0,-13.0,0.0,2.0,0.0,0.0,0.0,1.0978971798193339e-10,7.514540025635216e-11,5.0892882615459574e-11,3.51403290075051e-11,2.3688441693644073e-11,1.5612349641603053e-11,1.0012286049393377e-11,6.175766159087315e-12,3.720448222674428e-12,2.1716613714303017e-12,1.2941558697916452e-12,7.618224531448609e-13,4.773116860385954e-13,3.0306259139493007e-13,1.9858690119079247e-13,1.336290292165873e-13,8.884596868089441e-14,3.600771115736857e-09,2.6370682336003115e-09,1.806804239878024e-09,1.1559312414172436e-09,7.573419250509346e-10,5.217502205811674e-10,3.790441194819997e-10,2.7942787018046114e-10,2.069590167997701e-10,1.5264131554843808e-10,1.1150534596554804e-10,8.105929920025845e-11,5.801631195459907e-11,4.081709109943613e-11,2.8311799376619952e-11,1.908451754160131e-11,1.2451176488773213e-11,7.788586008871423e-12,4.637857933963767e-12,2.6258142157143484e-12,1.4121507706244672e-12
0.0,23,23.0,0.0,30.0,0.0,0.0,0.0,0.0,-13.0,0.0,2.0,0.0,0.0,0.0,1.1113469276571899e-10,7.603529175643998e-11,5.1479765167166196e-11,3.5545515426754904e-11,2.3994436687480225e-11,1.5865160046913626e-11,1.0224143318791896e-11,6.3419653912858466e-12,3.835997545169483e-12,2.2403490715237805e-12,1.3274518808870386e-12,7.729226299587058e-13,4.770498580105085e-13,2.984436604254474e-13,1.9331596151924624e-13,1.2913658574460472e-13,8.548383739054594e-14,3.575697959772979e-09,2.6199094081140124e-09,1.798069506371463e-09,1.1544074745126345e-09,7.59719215093517e-10,5.254561825455283e-10,3.8270448357940524e-10,2.8253221663532893e-10,2.093929284591976e-10,1.5445074650438144e-10,1.1280313228452e-10,8.196461966790204e-11,5.862766378677394e-11,4.1225612207276504e-11,2.8598035794185997e-11,1.930784081910503e-11,1.2642982403472878e-11,7.955159645885788e-12,4.771851664220335e-12,2.720472318660614e-12,1.4716306156766866e-12
0.0,24,24.0,0.0,30.0,0.0,0.0,0.0,0.0,-13.0,0.0,2.0,0.0,0.0,0.0,1.1250299055454774e-10,7.693899786118653e-11,5.207221710799729e-11,3.5946766168543914e-11,2.4287458002795105e-11,1.610063448423111e-11,1.0420724593886466e-11,6.49886831797033e-12,3.948363482313851e-12,2.3098403893673005e-12,1.3631506713634645e-12,7.864815588751392e-13,4.786555876452034e-13,2.9504853989066214e-13,1.8878765693862368e-13,1.250851785155741e-13,8.238686106513109e-14,3.5505530530857204e-09,2.6029329788448558e-09,1.7896620368029974e-09,1.1532267725235968e-09,7.623645892332454e-10,5.293461867111734e-10,3.8648828742927414e-10,2.857191424588491e-10,2.1188350980512493e-10,1.5629895662578218e-10,1.1412718310933567e-10,8.288754733476193e-11,5.924912373488988e-11,4.163570215779132e-11,2.8875980916228706e-11,1.951453969345362e-11,1.2814917814949287e-11,8.10438473577547e-12,4.8945408240454e-12,2.8096929818911015e-12,1.529532667251405e-12
0.0,25,25.0,0.0,30.0,0.0,0.0,0.0,0.0,-13.0,0.0,2.0,0.0,0.0,0.0,1.1389508693318077e-10,7.785698416298073e-11,5.267159625013668e-11,3.6346908945710115e-11,2.4571138763615492e-11,1.6321771365444966e-11,1.0603462955685437e-11,6.6465023487792896e-12,4.0568732608849235e-12,2.3793786912971936e-12,1.4006989017282552e-12,8.021810163969542e-13,4.8197712036737e-13,2.928111916122353e-13,1.8496924663138204e-13,1.2145474972646895e-13,7.954092231917062e-14,3.525371785099852e-09,2.586171205376393e-09,1.78160577745411e-09,1.1524030909979977e-09,7.652850803356237e-10,5.334240005973126e-10,3.903981653719817e-10,2.889907760972628e-10,2.144325991619688e-10,1.5818754742821252e-10,1.1547881996603082e-10,8.382925309996883e-11,5.98822939886666e-11,4.205016880437364e-11,2.914973181071949e-11,1.970904395661536e-11,1.2970436830962936e-11,8.238065501390825e-12,5.006269100858926e-12,2.8931897742627595e-12,1.5853570439157368e-12
0.0,26,26.0,0.0,30.0,0.0,0.0,0.0,0.0,-13.0,0.0,2.0,0.0,0.0,0.0,1.1531147603841732e-10,7.878961011005297e-11,5.3278808090895006e-11,3.674803001983875e-11,2.484844971208253e-11,1.6531292070866382e-11,1.0773880056230757e-11,6.785127808460895e-12,4.161056759071542e-12,2.4483240015460956e-12,1.4395901967105905e-12,8.19713487833111e-13,4.868615180719494e-13,2.9166396188085663e-13,1.818287790821581e-13,1.1822694924239328e-13,7.693338583326847e-14,3.5001912979930312e-09,2.569657311009831e-09,1.77392493431444e-09,1.1519502176449799e-09,7.684874643428967e-10,5.376931745507782e-10,3.9443657793877283e-10,2.9234907907438796e-10,2.170418458427666e-10,1.6011792747243424e-10,1.1685920198627554e-10,8.479071121286471e-11,6.05283519729492e-11,4.247106151814019e-11,2.942248491698351e-11,1.9895098133452132e-11,1.3112728510879025e-11,8.358089059315367e-12,5.107599791397392e-12,2.9708427876273094e-12,1.6387209520761846e-12
0.0,27,27.0,0.0,30.0,0.0,0.0,0.0,0.0,-13.0,0.0,2.0,0.0,0.0,0.0,1.1675267102764022e-10,7.973718821229634e-11,5.3894460674168585e-11,3.7151645792026634e-11,2.5121778732114685e-11,1.6731610903070416e-11,1.0933512687526619e-11,6.915181245991791e-12,4.260620637962702e-12,2.5161472145830766e-12,1.4793673896941488e-12,8.38785465754894e-13,4.931563160251283e-13,2.915377239297565e-13,1.7933462315275547e-13,1.1538472419357664e-13,7.455288613584411e-14,3.4750505490842015e-09,2.553425507187665e-09,1.7666439824236915e-09,1.1518817878706298e-09,7.719782899516986e-10,5.421570762245495e-10,3.986058434115051e-10,2.957958771118894e-10,2.197127426735595e-10,1.6209133571486557e-10,1.182693384374091e-10,8.577274213348998e-11,6.118817705846132e-11,4.289986303693761e-11,2.969669567765442e-11,2.0075811019814904e-11,1.3244668646966449e-11,8.466345731516253e-12,5.1992595511160496e-12,3.0426721335369272e-12,1.6893500186819645e-12
0.0,28,28.0,0.0,30.0,0.0,0.0,0.0,0.0,-13.0,0.0,2.0,0.0,0.0,0.0,1.1821920157250737e-10,8.070001639117087e-11,5.451897337382006e-11,3.7558844791254674e-11,2.539301554936963e-11,1.6924828278729487e-11,1.1083857459106954e-11,7.037225419363923e-12,4.35542259201814e-12,2.5824226791757787e-12,1.5196233338167873e-12,8.591200274631205e-13,5.00711117589097e-13,2.923622148550955e-13,1.774551508534832e-13,1.1291196638741693e-13,7.238912922613128e-14,3.4499903670332466e-09,2.537511012105183e-09,1.7597876712449117e-09,1.1522112983103348e-09,7.757639073917463e-10,5.46818925033719e-10,4.0290816940822705e-10,2.993328896317759e-10,2.2244665668508983e-10,1.6410886728791563e-10,1.1971010333874727e-10,8.67760398533888e-11,6.186243655822108e-11,4.333763754808518e-11,2.997422160261951e-11,2.0253720427915352e-11,1.3368797959219752e-11,8.564667801416756e-12,5.2820874983092856e-12,3.1088135200459648e-12,1.7370673878462951e-12
0.0,29,29.0,0.0,30.0,0.0,0.0,0.0,0.0,-13.0,0.0,2.0,0.0,0.0,0.0,1.1971161103220935e-10,8.167839413505165e-11,5.515265104308421e-11,3.797040153022271e-11,2.5663634586414043e-11,1.711274047928101e-11,1.1226331301214387e-11,7.1519062753249005e-12,4.445446480367545e-12,2.6468196873450325e-12,1.56000054475737e-12,8.804587345031207e-13,5.093790522978753e-13,2.9406649794392377e-13,1.761585511579382e-13,1.1079321907204956e-13,7.043271014131003e-14,3.4250535006365504e-09,2.5219500624686835e-09,1.753381025312507e-09,1.1529521178695926e-09,7.798504957011554e-10,5.516818256258515e-10,4.073456837325852e-10,3.0296175755993945e-10,2.252448573798742e-10,1.661714996016491e-10,1.2118225221999773e-10,8.780119126377327e-11,6.255164379270435e-11,4.378514268670961e-11,3.025644579173827e-11,2.043086457965171e-11,1.348732030486034e-11,8.6547848959039e-12,5.356990508683086e-12,3.1694959633808176e-12,1.7817816202933363e-12
0.0,30,30.0,0.0,30.0,0.0,0.0,0.0,0.0,-13.0,0.0,2.0,0.0,0.0,0.0,1.2123045435216987e-10,8.267262942178954e-11,5.579573297195245e-11,3.8386865322716137e-11,2.593477157719244e-11,1.7296860387285986e-11,1.1362245342705904e-11,7.259916895047362e-12,4.530778908272383e-12,2.709093302993729e-12,1.6001899122356082e-12,9.025629212780186e-13,5.190180534860461e-13,2.965794930650809e-13,1.7541275219087664e-13,1.0901344199340941e-13,6.867494806917693e-14,3.400284659205676e-09,2.50677991759338e-09,1.7474493396227564e-09,1.1541174959757e-09,7.842440881488838e-10,5.567487997161016e-10,4.119204638403981e-10,3.0668406929720776e-10,2.2810854237160073e-10,1.6828011736624047e-10,1.2268644023817676e-10,8.884869177632759e-11,6.325619755077206e-11,4.424291287336388e-11,3.0544380523880585e-11,2.060885406280664e-11,1.3602115266459203e-11,8.738293814554026e-12,5.4249051349436805e-12,3.2250215792336247e-12,1.8234742355240664e-12
0.0,31,31.0,0.0,30.0,0.0,0.0,0.0,0.0,-13.0,0.0,2.0,0.0,0.0,0.0,1.2277629692275414e-10,8.368304076515602e-11,5.644842408313607e-11,3.8808627849446255e-11,2.620729154051385e-11,1.7478444749761762e-11,1.149278972252627e-11,7.36196810824195e-12,4.61158766360605e-12,2.769074883880143e-12,1.6399286864128404e-12,9.252144500661874e-13,5.294919349707768e-13,2.99830529870688e-13,1.751854290467997e-13,1.0755783152511524e-13,6.710774002384226e-14,3.3757305436732103e-09,2.49203885522913e-09,1.7420181694350097e-09,1.155720567908936e-09,7.88950595644277e-10,5.620228158924667e-10,4.1663456443321177e-10,3.1050138470398275e-10,2.3103886038568873e-10,1.7043553570454803e-10,1.2422324067415168e-10,8.991895929748527e-11,6.39764094807615e-11,4.4711320568211365e-11,3.083875210740169e-11,2.0788940306826246e-11,1.3714760367565416e-11,8.8166404774256e-12,5.486766228486359e-12,3.275747372112615e-12,1.862187526721367e-12
0.0,32,32.0,0.0,30.0,0.0,0.0,0.0,0.0,-13.0,0.0,2.0,0.0,0.0,0.0,1.2434971427654177e-10,8.470995698144439e-11,5.711091399121153e-11,3.923597334789405e-11,2.6481847150974093e-11,1.7658524550298127e-11,1.1619027032231908e-11,7.458765283319952e-12,4.688102271917326e-12,2.8266625834038948e-12,1.6789979158482924e-12,9.482160110453127e-13,5.406712629533281e-13,3.037498899486744e-13,1.754440758359307e-13,1.0641169102226852e-13,6.572343350582374e-14,3.3514398676970297e-09,2.4777661586694242e-09,1.7371133143317956e-09,1.157774357230683e-09,7.939758281187155e-10,5.675068171961104e-10,4.2149004285293733e-10,3.144152569624203e-10,2.340369316970439e-10,1.7263852093510215e-10,1.257931629376887e-10,9.101234742973498e-11,6.471252381533548e-11,4.519062093568765e-11,3.114006904413542e-11,2.09720781391725e-11,1.3826559071892511e-11,8.891111679541877e-12,5.543482041977085e-12,3.322068952501649e-12,1.8980130833936425e-12
0.0,33,33.0,0.0,30.0,0.0,0.0,0.0,0.0,-13.0,0.0,2.0,0.0,0.0,0.0,1.2595129238882117e-10,8.575371613043058e-11,5.778338803896824e-11,3.966911503260886e-11,2.6758927522030008e-11,1.783793598938743e-11,1.1741892310530017e-11,7.550990672395903e-12,4.76059681308268e-12,2.881812062026985e-12,1.7172194872802613e-12,9.713910419336442e-13,5.524340304452248e-13,3.0826931410737027e-13,1.7615612280430047e-13,1.0556034547317796e-13,6.451471800912394e-14,3.327463368136842e-09,2.464002094843855e-09,1.7327607965475536e-09,1.1602917754595208e-09,7.993255139781311e-10,5.732037464336017e-10,4.2648898210331986e-10,3.1842725222651074e-10,2.3710386611939115e-10,1.7488980888033557e-10,1.2739666942884476e-10,9.212915811771438e-11,6.546473228338138e-11,4.5680984309340175e-11,3.144867590922434e-11,2.1158981184795035e-11,1.3938571581663605e-11,8.962834479022091e-12,5.595915361507242e-12,3.3644061314020193e-12,1.9310812912399338e-12
0.0,34,34.0,0.0,30.0,0.0,0.0,0.0,0.0,-13.0,0.0,2.0,0.0,0.0,0.0,1.2758162834790914e-10,8.68146643757597e-11,5.84660332250033e-11,4.010822090077639e-11,2.70388980281967e-11,1.8017350344374403e-11,1.186219778173072e-11,7.639290618329335e-12,4.829375041547419e-12,2.9345275893862794e-12,1.754452894722695e-12,9.945833351881803e-13,5.646661483404145e-13,3.1332245935921397e-13,1.772890821130745e-13,1.0498909395622022e-13,6.347453475077442e-14,3.3038538043597616e-09,2.4507878832193303e-09,1.728986833717722e-09,1.1632856192632595e-09,8.050053178144839e-10,5.79116569290016e-10,4.31633511452421e-10,3.22538967031638e-10,2.402407786798601e-10,1.771901207268315e-10,1.2903419083519247e-10,9.326965365311739e-11,6.623318598213125e-11,4.618251984042213e-11,3.17647953707776e-11,2.135016972618839e-11,1.40516462192253e-11,9.032781265086264e-12,5.644870056739489e-12,3.403190354683547e-12,1.9615519482866886e-12
0.0,35,35.0,0.0,30.0,0.0,0.0,0.0,0.0,-13.0,0.0,2.0,0.0,0.0,0.0,1.2924133120953993e-10,8.789315509163419e-11,5.915904102185454e-11,4.0553431560640415e-11,2.7322032132862266e-11,1.8197301602999223e-11,1.1980640818623918e-11,7.724266906797734e-12,4.8947577699648405e-12,2.9848536754152336e-12,1.790591845919625e-12,1.0176563930646573e-12,5.77261770875821e-13,3.188452968476465e-13,1.788107087593546e-13,1.0468319327556989e-13,6.259600360025032e-14,3.2806659458925775e-09,2.4381656554409694e-09,1.7258178063219754e-09,1.1667685655330935e-09,8.11020856632409e-10,5.852482953916752e-10,4.36925824672091e-10,3.2675204349937246e-10,2.434488031263416e-10,1.7954017656539755e-10,1.3070613964452782e-10,9.443406785152699e-11,6.70180052616988e-11,4.6695292859698615e-11,3.2088560600416516e-11,2.1546011213654995e-11,1.4166449831411785e-11,9.101778815956557e-12,5.691082342676189e-12,3.4388539399469952e-12,1.9896060403417965e-12
0.0,36,36.0,0.0,30.0,0.0,0.0,0.0,0.0,-13.0,0.0,2.0,0.0,0.0,0.0,1.3093102290676533e-10,8.89895483121406e-11,5.986260841099669e-11,4.100487220997425e-11,2.7608536333526345e-11,1.837821124654262e-11,1.2097813894462241e-11,7.80647155940874e-12,4.957072411846086e-12,3.0328673309807948e-12,1.825560797513641e-12,1.040492583273278e-12,5.901234746178451e-13,3.247764470359582e-13,1.8068916593895357e-13,1.0462786635967853e-13,6.187236588494061e-14,3.257956547980439e-09,2.4261784057312924e-09,1.7232802201971808e-09,1.1707531647840296e-09,8.173777148956609e-10,5.91601997520354e-10,4.423681960455328e-10,3.310681824316496e-10,2.467291034278473e-10,1.8194070679336087e-10,1.3241292180728778e-10,9.562261621973686e-11,6.781928821457386e-11,4.721933779308609e-11,3.2420040053382534e-11,2.1746753967626053e-11,1.428349619212089e-11,9.170519936226e-12,5.7352160086766525e-12,3.4718210667616885e-12,2.015438652961096e-12
0.0,37,37.0,0.0,30.0,0.0,0.0,0.0,0.0,-13.0,0.0,2.0,0.0,0.0,0.0,1.3265133913741445e-10,9.010421050479744e-11,6.057693798192028e-11,4.1462660428719306e-11,2.7898569351055578e-11,1.8560409916218604e-11,1.221421555330351e-11,7.886404404324896e-12,5.016644531471737e-12,3.0786710250918e-12,1.859311495746637e-12,1.0629921409907263e-12,6.031623100565199e-13,3.3105745214753126e-13,1.8289318673458355e-13,1.0480832946488432e-13,6.12969415410303e-14,3.2357843146361287e-09,2.414869932138328e-09,1.7214006645788092e-09,1.1752518333835167e-09,8.240814587277256e-10,5.981808292118727e-10,4.479629943250218e-10,3.354891544360877e-10,2.5008288344007127e-10,1.8439246158718611e-10,1.341549465924772e-10,9.683550498482261e-11,6.863711808501748e-11,4.775466793846865e-11,3.275925628900557e-11,2.1952554803753688e-11,1.4403171799848691e-11,9.239576537109921e-12,5.777860878167095e-12,3.50250045069078e-12,2.0392529556292677e-12
0.0,38,38.0,0.0,30.0,0.0,0.0,0.0,0.0,-13.0,0.0,2.0,0.0,0.0,0.0,1.3440293018964837e-10,9.123751460281061e-11,6.13022376121962e-11,4.192691105272478e-11,2.8192256623012176e-11,1.874415594923919e-11,1.2330261663711827e-11,7.964512819895279e-12,5.0737912172263596e-12,3.122386376426919e-12,1.8918195866065485e-12,1.0850720568246649e-12,6.162977439685032e-13,3.3763298835155427e-13,1.853922262728484e-13,1.0520983284921495e-13,6.086309895885331e-14,3.2142098487771654e-09,2.4042847687851337e-09,1.7202057661974625e-09,1.1802768451489234e-09,8.311376496137348e-10,6.049880409849706e-10,4.5371269485215133e-10,3.4001680925892727e-10,2.5351139491810855e-10,1.8689621866163447e-10,1.3593263475233054e-10,9.807293892236854e-11,6.947156975700155e-11,4.8301283012358816e-11,3.3106200198851214e-11,2.216350138477665e-11,1.4525758784888515e-11,9.309413276557858e-12,5.819533804466483e-12,3.5312796070407643e-12,2.0612551707119006e-12
0.0,39,39.0,0.0,30.0,0.0,0.0,0.0,0.0,-13.0,0.0,2.0,0.0,0.0,0.0,1.361864616923968e-10,9.238984022025351e-11,6.203872002522607e-11,4.2397739068912013e-11,2.848970104946793e-11,1.8929650938948838e-11,1.2446296423197443e-11,8.04119311672994e-12,5.128816075812306e-12,3.1641485917018493e-12,1.9230813476847165e-12,1.1066648849817898e-12,6.294575093406403e-13,3.444510217689321e-13,1.8815660039222572e-13,1.05817710291436e-13,6.056423582714358e-14,3.193295589054535e-09,2.3944681093279227e-09,1.7197221400126442e-09,1.1858403228768619e-09,8.385518579489519e-10,6.120269954453863e-10,4.5961989006638345e-10,3.446530835235795e-10,2.5701594406449547e-10,1.8945278952935602e-10,1.3774642515270086e-10,9.93351279831825e-11,7.03227154000766e-11,4.885917508635144e-11,3.346084173342226e-11,2.237963009927499e-11,1.4651454870302124e-11,9.380401100693536e-12,5.8606815732496944e-12,3.558520585968735e-12,2.0816504296239436e-12
0.0,40,40.0,0.0,30.0,0.0,0.0,0.0,0.0,-13.0,0.0,2.0,0.0,0.0,0.0,1.3800261529345486e-10,9.356157398199343e-11,6.278660238100677e-11,4.287526121258137e-11,2.8790990808406638e-11,1.9117052575485206e-11,1.256260274879608e-11,8.116793098280103e-12,5.182005637379579e-12,3.204101642220946e-12,1.9531105833774723e-12,1.1277175012752925e-12,6.425773781048773e-13,3.5146291325421556e-13,1.9115760840309148e-13,1.0661743357118856e-13,6.039376929803895e-14,3.173105732984139e-09,2.3854657218856277e-09,1.7199763372146671e-09,1.1919542303764104e-09,8.46329676764725e-10,6.193011814977317e-10,4.656872986281423e-10,3.494000070827551e-10,2.6059789680255104e-10,1.9206302446630554e-10,1.3959678004619617e-10,1.0062229276776044e-10,7.11906293194087e-11,4.942833333043246e-11,3.382313797947286e-11,2.2600940215838623e-11,1.4780390487451714e-11,9.452830219360413e-12,5.901685160691008e-12,3.5845570397764755e-12,2.100639417157857e-12
0.0,41,41.0,0.0,30.0,0.0,0.0,0.0,0.0,-13.0,0.0,2.0,0.0,0.0,0.0,1.3985208927650833e-10,9.475310991468643e-11,6.35461059684988e-11,4.335959674719192e-11,2.909620492370465e-11,1.9306485076199086e-11,1.26794118242537e-11,8.191615414491204e-12,5.233626963304969e-12,3.2423941527611194e-12,1.981935715334693e-12,1.1481898365931397e-12,6.556008703949593e-13,3.586234772848742e-13,1.9436763872303696e-13,1.0759466874882749e-13,6.034513386149553e-14,3.1537061460047858e-09,2.377323855761927e-09,1.720994791169086e-09,1.1986303655765303e-09,8.544767359393195e-10,6.268142278782643e-10,4.719177733737053e-10,3.542597081920553e-10,2.6425868296212156e-10,1.9472781637620925e-10,1.4148418917011106e-10,1.0193466893358133e-10,7.207539204847624e-11,5.000874784185422e-11,3.41930392417336e-11,2.2827404983520767e-11,1.4912643246108366e-11,9.52692220600196e-12,5.942864880353349e-12,3.6096924680098403e-12,2.1184157087045045e-12
0.0,42,42.0,0.0,30.0,0.0,0.0,0.0,0.0,-13.0,0.0,2.0,0.0,0.0,0.0,1.4173559913166352e-10,9.596484986061616e-11,6.431745601809725e-11,4.385086775631366e-11,2.940541714216625e-11,1.9498047532589554e-11,1.2796911679375287e-11,8.265921393991847e-12,5.283926257062669e-12,3.2791759635620788e-12,2.0095970911814244e-12,1.1680536079020206e-12,6.684789125865133e-13,3.658910003185514e-13,1.977602570754144e-13,1.0873533175955221e-13,6.041178542053693e-14,3.1351642561120205e-09,2.3700891403487554e-09,1.7228037620212407e-09,1.2058803552684596e-09,8.629987171700632e-10,6.345699161964099e-10,4.783143083038788e-10,3.5923441770556694e-10,2.679997995576318e-10,1.9744810373286959e-10,1.4340917284620914e-10,1.0327251064284342e-10,7.297709372740722e-11,5.060041274677398e-11,3.4570493623337515e-11,2.3058980260908128e-11,1.5048250014689135e-11,9.602841037404386e-12,5.984486035358066e-12,3.6341994773465164e-12,2.1351637117487702e-12
0.0,43,43.0,0.0,30.0,0.0,0.0,0.0,0.0,-13.0,0.0,2.0,0.0,0.0,0.0,1.4365387809426144e-10,9.71972038897763e-11,6.51008816263039e-11,4.434919916706019e-11,2.9718698562878415e-11,1.9691820494081535e-11,1.2915254755991687e-11,8.339935105240066e-12,5.333128292390109e-12,3.314595316394127e-12,2.036144526530951e-12,1.187291065673091e-12,6.811694550668356e-13,3.732272237867444e-13,2.0131027759128537e-13,1.1002564144359982e-13,6.058721018704217e-14,3.1175489337584786e-09,2.363808476678458e-09,1.7254292807214063e-09,1.2137156520279215e-09,8.719013699477183e-10,6.425721936453687e-10,4.848800447893762e-10,3.643264724810839e-10,2.7182281332757514e-10,2.0022487276347026e-10,1.4537228424829962e-10,1.0463609316962852e-10,7.389583681863403e-11,5.120332870322589e-11,3.495545047430144e-11,2.3295611166753853e-11,1.5187216889814506e-11,9.680702985113285e-12,6.026764770988679e-12,3.658319891284257e-12,2.1510571309190147e-12
0.0,44,44.0,0.0,30.0,0.0,0.0,0.0,0.0,-13.0,0.0,2.0,0.0,0.0,0.0,1.4560767766524326e-10,9.845059069631937e-11,6.58966157729261e-11,4.4854718645429944e-11,3.0036119364723167e-11,1.9887871087407972e-11,1.3034564471815044e-11,8.413847454713856e-12,5.381436490048993e-12,3.3487966091130134e-12,2.0616350881879155e-12,1.2058937736999665e-12,6.936370595050635e-13,3.805972965738491e-13,2.0499381759996634e-13,1.114521686622335e-13,6.086493716039978e-14,3.1009303567739984e-09,2.3585289221846715e-09,1.728897093276457e-09,1.2221475338412755e-09,8.811905287349996e-10,6.508251855131788e-10,4.916182771551221e-10,3.695383181663673e-10,2.757293626910573e-10,2.0305915901975117e-10,1.4737411098892393e-10,1.0602571478818757e-10,7.483173822008527e-11,5.1817504897672714e-11,3.5347862981724104e-11,2.3537237161080637e-11,1.532952733583332e-11,9.760585341569812e-12,6.069873893894767e-12,3.682265548692014e-12,2.1662578839557444e-12
0.0,45,45.0,0.0,30.0,0.0,0.0,0.0,0.0,-13.0,0.0,2.0,0.0,0.0,0.0,1.475977681240386e-10,9.972543797328945e-11,6.670489540794581e-11,4.536755644912214e-11,3.035774989657896e-11,2.0086256940242394e-11,1.3154940832214199e-11,8.48782018000748e-12,5.429033493441628e-12,3.381918659399302e-12,2.0861311202410885e-12,1.2238614345795833e-12,7.058524643446789e-13,3.879697014488656e-13,2.0878833717704089e-13,1.1300188059564518e-13,6.123855310177577e-14,3.085379860146822e-09,2.3542975693399737e-09,1.7332326060806283e-09,1.2311871069344349e-09,8.908721315102735e-10,6.593332075972471e-10,4.985324577848821e-10,3.7487251151988273e-10,2.797211592616956e-10,2.0595204846750645e-10,1.4941527616025368e-10,1.0744169806057338e-10,7.578493084238871e-11,5.2442960605529145e-11,3.574769010354308e-11,2.378379589035398e-11,1.5475148761844968e-11,9.842534014294244e-12,6.113948485997387e-12,3.706219639360383e-12,2.1809154036830626e-12
0.0,46,46.0,0.0,30.0,0.0,0.0,0.0,0.0,-13.0,0.0,2.0,0.0,0.0,0.0,1.4962493904256003e-10,1.010221827647678e-10,6.752596158655473e-11,4.588784528633808e-11,3.068366132864178e-11,2.0287029143831873e-11,1.3276465164405895e-11,8.56198963754888e-12,5.476082112978888e-12,3.414093417091452e-12,2.1096985094755326e-12,1.2412007716129566e-12,7.177921362991589e-13,3.953161595186505e-13,2.126726646764268e-13,1.1466217968379448e-13,6.170171906636702e-14,3.07096977062289e-09,2.3511614189628637e-09,1.73846083322706e-09,1.2408453122744463e-09,9.00952239795877e-10,6.681007785982619e-10,5.056262018676645e-10,3.8033172240085086e-10,2.8379998904297674e-10,2.0890467820871834e-10,1.5149643894762273e-10,1.0888439063410666e-10,7.675556471973493e-11,5.307972637331479e-11,3.615489799475118e-11,2.4035226065150792e-11,1.562403778193156e-11,9.926570054859612e-12,6.159091193502484e-12,3.730338437544226e-12,2.1951662680895305e-12
0.0,47,47.0,0.0,30.0,0.0,0.0,0.0,0.0,-13.0,0.0,2.0,0.0,0.0,0.0,1.5168999980665255e-10,1.0234127179774424e-10,6.836005963432848e-11,4.641572020493e-11,3.1013926010753144e-11,2.0490234454958305e-11,1.3399204062028594e-11,8.636470318968709e-12,5.522726528485537e-12,3.445445065223382e-12,2.1324051821865196e-12,1.2579244755415294e-12,7.294378147764596e-13,4.0261151638426966e-13,2.1662700954209828e-13,1.164209369624535e-13,6.224818770222523e-14,3.0577732262288095e-09,2.3491672491279742e-09,1.7446063467510789e-09,1.2511329361802601e-09,9.11437060248466e-10,6.771326325444922e-10,5.129032918891927e-10,3.859187355453128e-10,2.8796771341282103e-10,2.1191823693512778e-10,1.536182949179882e-10,1.1035416564899918e-10,7.77438077242562e-11,5.372784487256338e-11,3.656946103649776e-11,2.4291469583903527e-11,1.5776144378066947e-11,1.0012695209592766e-11,6.205377114343715e-12,3.754753309870592e-12,2.209134106897068e-12
0.0,48,48.0,0.0,30.0,0.0,0.0,0.0,0.0,-13.0,0.0,2.0,0.0,0.0,0.0,1.5379378014945944e-10,1.0368316179770362e-10,6.920743932859875e-11,4.6951318521210034e-11,3.134861764274066e-11,2.0695916904750455e-11,1.3523212633392941e-11,8.711358057557515e-12,5.569093657384429e-12,3.4760894521422674e-12,2.1543198210225395e-12,1.2740502223647101e-12,7.40776055366708e-13,4.098336133199481e-13,2.206329636991933e-13,1.182665197702668e-13,6.287182066069113e-14,3.0458639810068058e-09,2.3483614807718004e-09,1.751693230805708e-09,1.2620606254417185e-09,9.223329678475866e-10,6.864337312753432e-10,5.203676819557167e-10,3.9163645222773947e-10,2.9222626998907073e-10,2.1499396519734015e-10,1.5578157607028123e-10,1.1185142184494107e-10,7.874984595142064e-11,5.438737147102345e-11,3.6991362550936575e-11,2.4552473071146704e-11,1.5931415157462505e-11,1.0100896589158399e-11,6.252858241489862e-12,3.779572890725263e-12,2.2229297385264123e-12
0.0,49,49.0,0.0,30.0,0.0,0.0,0.0,0.0,-13.0,0.0,2.0,0.0,0.0,0.0,1.5593713069970028e-10,1.050483197925751e-10,7.006835508600251e-11,4.749477978891433e-11,3.168781133057038e-11,2.0904118951909538e-11,1.3648537146215702e-11,8.786732907536916e-12,5.615294613465576e-12,3.506133800518969e-12,2.1755107878677463e-12,1.289599766493673e-12,7.51797777787204e-13,4.16963146465484e-13,2.2467349278728828e-13,1.2018781396851205e-13,6.356660559053022e-14,3.035316195470274e-09,2.348790041259532e-09,1.7597450408163024e-09,1.2736389073032715e-09,9.33646530678144e-10,6.960092769938944e-10,5.280235020238636e-10,3.974878918920246e-10,2.9657767345257364e-10,2.1813315555998465e-10,1.5798705072059687e-10,1.1337658344369632e-10,7.977388383965871e-11,5.5058374563365354e-11,3.742059526506092e-11,2.4818188962171263e-11,1.6089795869031293e-11,1.0191150557131724e-11,6.301567445887461e-12,3.804885335315798e-12,2.2366514962508986e-12
0.0,50,50.0,0.0,30.0,0.0,0.0,0.0,0.0,-13.0,0.0,2.0,0.0,0.0,0.0,1.5812092354675645e-10,1.0643722340966969e-10,7.094306614952993e-11,4.8046245804154065e-11,3.203158357878556e-11,2.1114882291453288e-11,1.3775217157230334e-11,8.862661694874413e-12,5.661426196418555e-12,3.5356766433124716e-12,2.196045236931883e-12,1.3045981116942706e-12,7.624978229767958e-13,4.2398351672632534e-13,2.287329184359979e-13,1.2217424093270859e-13,6.432667230135317e-14,3.02620421354847e-09,2.3504982273669537e-09,1.7687847687037626e-09,1.2858782146213133e-09,9.453845362637305e-10,7.058647248826143e-10,5.358750620991378e-10,4.0347619382147896e-10,3.01024016390467e-10,2.2133715270105686e-10,1.6023552328251693e-10,1.1493009987317935e-10,8.081614408181655e-11,5.574093570077692e-11,3.785716157285034e-11,2.5088576236965066e-11,1.6251233318330122e-11,1.028342593554676e-11,6.35152200235723e-12,3.830760577233196e-12,2.2503857066893923e-12
0.0,51,51.0,0.0,30.0,0.0,0.0,0.0,0.0,-13.0,0.0,2.0,0.0,0.0,0.0,1.6034605282368584e-10,1.0785036116985569e-10,7.183183677107026e-11,4.860586064015525e-11,3.238001225259617e-11,2.132824840730797e-11,1.3903287208201645e-11,8.93920024994874e-12,5.7075723658591645e-12,3.5648079415039735e-12,2.2159884010586515e-12,1.3190727606666385e-12,7.728745233621533e-13,4.308806728109398e-13,2.3279689270678737e-13,1.2421576965202062e-13,6.51463077829874e-14,3.0186023270892115e-09,2.353530569330594e-09,1.7788348153007108e-09,1.298788916450347e-09,9.575540193706735e-10,7.160057957641293e-10,5.43926856457153e-10,4.096046189051403e-10,3.05567470209708e-10,2.2460735350244807e-10,1.625278339915772e-10,1.1651244538769937e-10,8.187686737966984e-11,5.643514955598984e-11,3.830107363516128e-11,2.5363600883438165e-11,1.6415676797560446e-11,1.03776866199782e-11,6.402726675690707e-12,3.857252532888498e-12,2.264207287721088e-12
0.0,52,52.0,0.0,30.0,0.0,0.0,0.0,0.0,-13.0,0.0,2.0,0.0,0.0,0.0,1.6261343530881299e-10,1.0928823278262964e-10,7.273493638743586e-11,4.917377070516788e-11,3.273317653072059e-11,2.1544258937900644e-11,1.4032778161653395e-11,9.016395340302267e-12,5.753805665270805e-12,3.5936093434162895e-12,2.235403033711096e-12,1.3330530427074025e-12,7.829292896787317e-13,4.376429495959485e-13,2.3685236574384713e-13,1.2630292431876148e-13,6.601996985556448e-14,3.0125845293307944e-09,2.3579306978279145e-09,1.7899169711102322e-09,1.3123813542535174e-09,9.701622911682306e-10,7.26438488780517e-10,5.521835679352984e-10,4.158765515468668e-10,3.102102861595949e-10,2.2794520716894676e-10,1.648648586130898e-10,1.1812411862915255e-10,8.29563120860236e-11,5.714112375725628e-11,3.8752353349616826e-11,2.5643236152187967e-11,1.6583079127175245e-11,1.0473893689299332e-11,6.455176393516687e-12,3.884401209291276e-12,2.2781804365195653e-12
0.0,53,53.0,0.0,30.0,0.0,0.0,0.0,0.0,-13.0,0.0,2.0,0.0,0.0,0.0,1.6492401104626463e-10,1.1075134944510509e-10,7.365263978924115e-11,4.975012481739835e-11,3.309115686150239e-11,2.1762955908070292e-11,1.4163718240874323e-11,9.094286326740706e-12,5.800188571170169e-12,3.6221545504669245e-12,2.2543489890449947e-12,1.3465695177040282e-12,7.926662171199133e-13,4.442609037925587e-13,2.408875475959411e-13,1.2842678781147404e-13,6.694229929972463e-14,3.0082242591362966e-09,2.3637412159611385e-09,1.8020524065681145e-09,1.3266658838663693e-09,9.83216969598623e-10,7.371690940597202e-10,5.606500723386058e-10,4.222955017545398e-10,3.1495479649222616e-10,2.3135221540448687e-10,1.6724750816405065e-10,1.1976564216516279e-10,8.405475377229782e-11,5.785897862155379e-11,3.921103221744212e-11,2.5927462651314805e-11,1.6753397388422887e-11,1.0572007086854442e-11,6.508858538196762e-12,3.912234683996756e-12,2.2923593817732244e-12
0.0,54,54.0,0.0,30.0,0.0,0.0,0.0,0.0,-13.0,0.0,2.0,0.0,0.0,0.0,1.6727874398570271e-10,1.1224023414733123e-10,7.458522728292982e-11,5.0335074291720705e-11,3.3454034928986035e-11,2.1984381867755363e-11,1.4296133830059712e-11,9.172906568786861e-12,5.846774751002683e-12,3.6505097591091676e-12,2.2728829228517202e-12,1.3596534537168144e-12,8.020917130106971e-13,4.507271486880775e-13,2.448918650943044e-13,1.3057900147868224e-13,6.790813037957267e-14,3.0055941382058126e-09,2.371003578530054e-09,1.8152616729642222e-09,1.34165292326945e-09,9.967260107825074e-10,7.482042053362943e-10,5.693314430010579e-10,4.2886510743889556e-10,3.1980341578146196e-10,2.3482993266733793e-10,1.6967672867264174e-10,1.2143756203241423e-10,8.517248475315888e-11,5.858884681392385e-11,3.9677151130095344e-11,2.6216268319245803e-11,1.6926593411567915e-11,1.0671986941084182e-11,6.56375489291802e-12,3.940770936624877e-12,2.306789177320697e-12
0.0,55,55.0,0.0,30.0,0.0,0.0,0.0,0.0,-13.0,0.0,2.0,0.0,0.0,0.0,1.6967862264151532e-10,1.1375542198579082e-10,7.553298484678556e-11,5.092877303397445e-11,3.3821893631811047e-11,2.2208579967651846e-11,1.4430050082168153e-11,9.252284606521005e-12,5.89361021992595e-12,3.67873415336807e-12,2.291058097852443e-12,1.3723363746061777e-12,8.112141476603637e-13,4.57036189549638e-13,2.488559145994616e-13,1.3275176162101533e-13,6.891249972288556e-14,3.004765703938993e-09,2.3797579810831675e-09,1.829564715152713e-09,1.3573530061453605e-09,1.0106977412612392e-09,7.595507324958538e-10,5.782329555430585e-10,4.3558913694502444e-10,3.2475864241374556e-10,2.383799665198756e-10,1.7215350099281875e-10,1.2314044730683001e-10,8.630981359388997e-11,5.933087295639392e-11,4.0150760095253555e-11,2.6509648305438736e-11,1.7102634072365424e-11,1.0773794585145822e-11,6.6198432779808314e-12,3.970019520127562e-12,2.3215065174248394e-12
0.0,56,56.0,0.0,30.0,0.0,0.0,0.0,0.0,-13.0,0.0,2.0,0.0,0.0,0.0,1.7212466077179867e-10,1.1529746048645913e-10,7.649620428202602e-11,5.1531377639687534e-11,3.419481707540037e-11,2.2435593993956307e-11,1.4565491374444222e-11,9.332445145602442e-12,5.9407343919167e-12,3.706880426694525e-12,2.3089242777724476e-12,1.3846496735497288e-12,8.200435295467664e-13,4.63184261101209e-13,2.5277141136475297e-13,1.3493781305177107e-13,6.995065356458501e-14,3.0058091411079293e-09,2.3900432614256836e-09,1.8449808971299476e-09,1.3737768411092508e-09,1.0251408908580283e-09,7.712159140179277e-10,5.87360092865968e-10,4.4247149183409934e-10,3.2982306025835594e-10,2.4200397808383884e-10,1.74678840686483e-10,1.2487488971658975e-10,8.746706462091968e-11,6.008521320653518e-11,4.063191791895055e-11,2.6807604782603063e-11,1.7281491439294778e-11,1.087739332705506e-11,6.677098912633826e-12,3.999983067058224e-12,2.3365405567455553e-12
0.0,57,57.0,0.0,30.0,0.0,0.0,0.0,0.0,-13.0,0.0,2.0,0.0,0.0,0.0,1.746178980775745e-10,1.168669099384195e-10,7.747518336018024e-11,5.2143047494975484e-11,3.457289057652227e-11,2.2665468378058917e-11,1.47024816447236e-11,9.413409871143147e-12,5.988181024716332e-12,3.734995315789172e-12,2.3265276957501444e-12,1.3966242878515728e-12,8.285912055241277e-13,4.6916916831705e-13,2.566311362034611e-13,1.371304400928741e-13,7.101805339278035e-14,3.0087930160110436e-09,2.4018968164291916e-09,1.861529041480742e-09,1.3909353764099132e-09,1.0400646259261518e-09,7.832073293003279e-10,5.967185504259833e-10,4.4951620992835973e-10,3.3499934051974605e-10,2.4570368260805983e-10,1.7725379798169686e-10,1.2664150330932609e-10,8.864457745126513e-11,6.085203482245405e-11,4.112069185825099e-11,2.7110146709278567e-11,1.7463142805811747e-11,1.0982749014554425e-11,6.735495536154735e-12,4.030658631642235e-12,2.3519137207366505e-12
0.0,58,58.0,0.0,30.0,0.0,0.0,0.0,0.0,-13.0,0.0,2.0,0.0,0.0,0.0,1.771594009228471e-10,1.1846434373872497e-10,7.847022596790068e-11,5.2763944878134547e-11,3.495620067860676e-11,2.289824819228346e-11,1.484104463562617e-11,9.495198114398626e-12,6.035979061187534e-12,3.763120132555825e-12,2.343911083870615e-12,1.4082904301577584e-12,8.368695863313099e-13,4.749901316135957e-13,2.6042888009251163e-13,1.3932345533723066e-13,7.211038006124104e-14,3.013784017302776e-09,2.4153545371208977e-09,1.8792274835830096e-09,1.4088398698019698e-09,1.0554785827447497e-09,7.95532910859078e-10,6.063142418311335e-10,4.5672746862854497e-10,3.4029024377090026e-10,2.4948085015277924e-10,1.798794578121871e-10,1.2844092418096875e-10,8.984270655264906e-11,6.163151572795438e-11,4.161715725670484e-11,2.7417289557860453e-11,1.7647570635174532e-11,1.1089830432325218e-11,6.79500631959013e-12,4.062038872611751e-12,2.3676424946774418e-12
0.0,59,59.0,0.0,30.0,0.0,0.0,0.0,0.0,-13.0,0.0,2.0,0.0,0.0,0.0,1.7975026307623106e-10,1.2009034874895217e-10,7.948164225027206e-11,5.339423506105493e-11,3.5344835175924085e-11,2.31339791392001e-11,1.498120406855992e-11,9.577827394183331e-12,6.084153371849069e-12,3.791291283430083e-12,2.36111375191098e-12,1.4196773710420332e-12,8.448918973095612e-13,4.806476373674505e-13,2.6415938729444366e-13,1.4151118648239462e-13,7.322353645087566e-14,3.020846708217817e-09,2.430450765119786e-09,1.8980941413161422e-09,1.4275019631906847e-09,1.0713929008224635e-09,8.082009564114288e-10,6.161533048068506e-10,4.6410958850973533e-10,3.4569862216364864e-10,2.533373063925039e-10,1.8255693994088864e-10,1.3027381027060122e-10,9.106182084262216e-11,6.242384408881569e-11,4.212139717287532e-11,2.7729055020207516e-11,1.7834762439946016e-11,1.1198609563367354e-11,6.8556045969284605e-12,4.094113084776112e-12,2.383738181857117e-12
0.0,60,60.0,0.0,30.0,0.0,0.0,0.0,0.0,-13.0,0.0,2.0,0.0,0.0,0.0,1.8239160647503735e-10,1.2174552566371443e-10,8.050974875353761e-11,5.403408641003848e-11,3.573888314474264e-11,2.3372707539405086e-11,1.5122983765056723e-11,9.661313852696825e-12,6.1327254048500625e-12,3.819540767995647e-12,2.3781717046924473e-12,1.430813267891918e-12,8.526719539172561e-13,4.861432945384426e-13,2.678182975331131e-13,1.4368846151390795e-13,7.435364877536225e-14,3.0300432954188784e-09,2.447218273521598e-09,1.9181466008366355e-09,1.4469337615512766e-09,1.0878182558763663e-09,8.212201408644782e-10,6.262421075768174e-10,4.716670371988469e-10,3.5122742180979805e-10,2.572749335378471e-10,1.8528739916835772e-10,1.3214084122324492e-10,9.230230333223546e-11,6.322921790864668e-11,4.263350201045513e-11,2.804547070061426e-11,1.802471061388758e-11,1.1309061741301387e-11,6.917264441701471e-12,4.126868089315737e-12,2.4002076235117395e-12
0.0,61,61.0,0.0,30.0,0.0,0.0,0.0,0.0,-13.0,0.0,2.0,0.0,0.0,0.0,1.8508458201282367e-10,1.2343048939127414e-10,8.155486856802822e-11,5.4683670485931475e-11,3.61384349797444e-11,2.361448032076709e-11,1.5266407729270994e-11,9.745672603183981e-12,6.18171375056491e-12,3.8478966510735284e-12,2.3951177887221815e-12,1.4417250350929417e-12,8.602239613563178e-13,4.914796980352571e-13,2.7140208771385484e-13,1.4585059249206604e-13,7.549706663395406e-14,3.0414334201721572e-09,2.465688275301122e-09,1.9394022187638742e-09,1.4671479155273274e-09,1.1047658922700398e-09,8.345995282485764e-10,6.365872557063929e-10,4.794044335346349e-10,3.56879685325453e-10,2.6129567137588303e-10,1.8807202562551041e-10,1.3404271832055305e-10,9.356455081748858e-11,6.404784465057751e-11,4.315356915689105e-11,2.836656980400536e-11,1.821741223039875e-11,1.1421165715999719e-11,6.9799611122286415e-12,4.160288994018271e-12,2.417053874992651e-12
0.0,62,62.0,0.0,30.0,0.0,0.0,0.0,0.0,-13.0,0.0,2.0,0.0,0.0,0.0,1.8783037035152468e-10,1.2514586944627665e-10,8.261733147194203e-11,5.534316214370877e-11,3.654358243421739e-11,2.385934501080364e-11,1.541150020242672e-11,9.830918004651493e-12,6.231134628464377e-12,3.876383504372575e-12,2.411981860046186e-12,1.4524382506569565e-12,8.675623373973316e-13,4.966602993264011e-13,2.7490801363724586e-13,1.479933581729532e-13,7.665036191914235e-14,3.055073977974649e-09,2.4858904621874013e-09,1.9618782408600473e-09,1.4881577070215018e-09,1.1222476547199234e-09,8.48348583651764e-10,6.471955994554599e-10,4.873265520091747e-10,3.6265855453014015e-10,2.6540151842801157e-10,1.909120451491378e-10,1.3598016447795938e-10,9.48489736199661e-11,6.487994088918812e-11,4.368170263596958e-11,2.869239082564208e-11,1.841286881880087e-11,1.153490365120434e-11,7.043671386039982e-12,4.1943598352687455e-12,2.4342768342885183e-12
0.0,63,63.0,0.0,30.0,0.0,0.0,0.0,0.0,-13.0,0.0,2.0,0.0,0.0,0.0,1.9063018275935465e-10,1.268923103545733e-10,8.36974740765173e-11,5.601273963177832e-11,3.695441866280731e-11,2.410734973294306e-11,1.5558285697508747e-11,9.917063876783297e-12,6.281002304044852e-12,3.905022815355682e-12,2.4287909663996735e-12,1.462977094653768e-12,8.747015573073243e-13,5.016892846729645e-13,2.783340521147896e-13,1.50112985673357e-13,7.781032668736739e-14,3.07101897309573e-09,2.5078530767618475e-09,1.9855919369913186e-09,1.5099771370096536e-09,1.140276019114289e-09,8.624771852287581e-10,6.58074241685775e-10,4.954383274881196e-10,3.685672732920639e-10,2.695945332241594e-10,1.9380871973799497e-10,1.3795392430577992e-10,9.61559953766714e-11,6.572573199549027e-11,4.4218012778538056e-11,2.9022977247307635e-11,1.8611086127429798e-11,1.1650261069628848e-11,7.108373801509877e-12,4.229064113713721e-12,2.451873820441453e-12
