Line_number,Fiducial,Easting,Northing,Height,Elevation,tx_pitch,tx_roll,tx_yaw,txrx_dx,txrx_dy,txrx_dz,rx_pitch,rx_roll,rx_yaw,S0Z_time_3.834e-04,S0Z_time_3.924e-04,S0Z_time_4.039e-04,S0Z_time_4.184e-04,S0Z_time_4.364e-04,S0Z_time_4.589e-04,S0Z_time_4.869e-04,S0Z_time_5.224e-04,S0Z_time_5.679e-04,S0Z_time_6.249e-04,S0Z_time_6.969e-04,S0Z_time_7.879e-04,S0Z_time_9.019e-04,S0Z_time_1.046e-03,S0Z_time_1.227e-03,S0Z_time_1.456e-03,S0Z_time_1.744e-03,S0Z_time_2.109e-03,S0Z_time_2.567e-03,S0Z_time_3.145e-03,S0Z_time_3.864e-03,S0Z_time_4.745e-03,S0Z_time_5.821e-03,S0Z_time_7.140e-03,S0Z_time_8.754e-03,S0Z_time_1.073e-02,S1Z_time_2.057e-05,S1Z_time_2.607e-05,S1Z_time_3.307e-05,S1Z_time_4.206e-05,S1Z_time_5.356e-05,S1Z_time_6.807e-05,S1Z_time_8.607e-05,S1Z_time_1.086e-04,S1Z_time_1.366e-04,S1Z_time_1.721e-04,S1Z_time_2.176e-04,S1Z_time_2.746e-04,S1Z_time_3.466e-04,S1Z_time_4.376e-04,S1Z_time_5.516e-04,S1Z_time_6.956e-04,S1Z_time_8.771e-04,S1Z_time_1.106e-03,S1Z_time_1.394e-03
0.0,0,0.0,0.0,30.0,0.0,0.0,0.0,0.0,-13.0,0.0,2.0,0.0,0.0,0.0,6.00858667872689e-11,5.278673901955429e-11,4.830136712878425e-11,4.4310962044490264e-11,3.799005492671979e-11,2.96726215357088e-11,2.6134420802905178e-11,2.0409702450039793e-11,1.5953384043005268e-11,1.22780521548753e-11,8.948117023773716e-12,6.607385136156008e-12,4.4746721422297464e-12,2.944610592429208e-12,1.935044469643472e-12,1.219660888092839e-12,7.794128019749895e-13,4.458196460695278e-13,2.6604272461649183e-13,1.470927531238221e-13,7.821237244512186e-14,4.864545052520691e-14,2.7456866812086718e-14,1.3654937141908802e-14,1.0301922330472022e-14,2.704062512116986e-15,3.5453102889770525e-09,1.6171986056111552e-09,8.507599374036829e-10,4.679682206962182e-10,2.763926759401868e-10,1.8780480371551136e-10,1.293708741478986e-10,9.08408065356208e-11,6.894718339495849e-11,4.9162609878423775e-11,3.4338721030147275e-11,2.2502365782237323e-11,1.3571260069701686e-11,8.293697422664203e-12,4.777509546174359e-12,2.6905707840948552e-12,1.4648201435688799e-12,8.786316198799909e-13,4.2180874589013327e-13
0.0,1,1.0,0.0,30.0,0.0,0.0,0.0,0.0,-13.0,0.0,2.0,0.0,0.0,0.0,5.6310167274105156e-11,5.031020256425037e-11,4.827767444511405e-11,3.98921700869743e-11,3.6282303376219024e-11,3.037770889624019e-11,2.642254578835252e-11,2.0898380661260895e-11,1.6094517246974436e-11,1.2723255314908143e-11,9.534730629300625e-12,6.739892197609592e-12,4.710706472560616e-12,3.0808012579871137e-12,2.025542296858111e-12,1.2695813223357422e-12,7.911529288767903e-13,4.684450104539776e-13,2.6669001869183675e-13,1.6166771926996794e-13,8.923629570036958e-14,4.72549913362501e-14,2.8339996303131105e-14,1.4184778719634901e-14,8.386819686963532e-15,5.0769774157461555e-15,3.5397479127498274e-09,1.6733241616498608e-09,7.799890928291197e-10,4.517586335183884e-10,2.668960033348559e-10,1.774505614414672e-10,1.2733462680173373e-10,9.334335149034362e-11,6.858444505093428e-11,4.693538102208345e-11,3.425473031258911e-11,2.247828099557188e-11,1.353921923941275e-11,9.140432755784039e-12,5.5038593799691385e-12,3.095924363003061e-12,1.6438907593097807e-12,8.567325743192942e-13,4.798219989801051e-13
0.0,2,2.0,0.0,30.0,0.0,0.0,0.0,0.0,-13.0,0.0,2.0,0.0,0.0,0.0,5.625670183977161e-11,5.414802069747527e-11,4.75267562095522e-11,4.332751536436146e-11,3.720721333181677e-11,3.229840527184379e-11,2.6624075015332782e-11,2.2932133353770817e-11,1.7295244935067552e-11,1.339926844620647e-11,1.0408275695223485e-11,6.7953221105929195e-12,4.751635779500108e-12,3.433656260426578e-12,2.104978150744069e-12,1.4633828505174623e-12,8.430979331703429e-13,5.007049443160228e-13,3.169600423540552e-13,1.7854712273613335e-13,1.0142672521817557e-13,5.4703842048827346e-14,2.8027357123131744e-14,1.804489965929948e-14,8.430287062446629e-15,5.330244294366928e-15,3.611280944029892e-09,1.6023056732531597e-09,8.221570683135926e-10,4.583564658543274e-10,2.749803025259516e-10,1.7458742201547483e-10,1.2848081173411953e-10,9.588470217286261e-11,6.576206859869451e-11,4.784992282071879e-11,3.28809933157248e-11,2.365039721436314e-11,1.4809195490538514e-11,9.158556040472958e-12,5.3126445726395364e-12,3.1991449805998525e-12,1.7159696832051834e-12,9.459329764238178e-13,4.813379165004308e-13
0.0,3,3.0,0.0,30.0,0.0,0.0,0.0,0.0,-13.0,0.0,2.0,0.0,0.0,0.0,5.796725071605437e-11,5.303413212000558e-11,4.689111588923377e-11,4.2629117576045076e-11,3.5736053394721076e-11,3.0439567844356827e-11,2.7298433480052897e-11,2.2269488031968944e-11,1.7987880233813856e-11,1.4628859168826755e-11,1.0514906673586195e-11,7.19303715491615e-12,5.361212115438323e-12,3.3810205594254436e-12,2.2779082356084655e-12,1.4645736130882477e-12,9.537675372226757e-13,5.321849081841303e-13,3.101056515282925e-13,1.8051897785740244e-13,9.912040817579623e-14,5.809574164650371e-14,2.918646118962333e-14,1.5416999977248547e-14,8.636336011087805e-15,4.2030093672434105e-15,3.6990259308146874e-09,1.6472030003699549e-09,8.069451694010193e-10,4.299435382239433e-10,2.7943367850609025e-10,1.7483303373743435e-10,1.2030720486405116e-10,9.397833361164558e-11,6.659167297692568e-11,4.868743823411102e-11,3.3412700114939795e-11,2.3060726288940383e-11,1.4433627511877406e-11,8.984652749359673e-12,5.7438127330588466e-12,3.2059969010636235e-12,1.803200876211091e-12,9.847384923377913e-13,5.227221506462647e-13
0.0,4,4.0,0.0,30.0,0.0,0.0,0.0,0.0,-13.0,0.0,2.0,0.0,0.0,0.0,5.611787876673601e-11,4.9891566476274985e-11,4.6200416610416635e-11,3.928765827944014e-11,3.7675531015984074e-11,3.0444613350408475e-11,2.6244039659551127e-11,2.246536825339623e-11,1.757036844464535e-11,1.4630329637548318e-11,1.0129429349042446e-11,7.73030436779426e-12,5.403437351859574e-12,3.5600739276918247e-12,2.469219414906871e-12,1.541457429111093e-12,9.817438169578821e-13,5.906322405406528e-13,3.5856444732014513e-13,1.9925746910376981e-13,1.0561670997547262e-13,5.838646761629955e-14,3.370831383626763e-14,1.823685025951837e-14,1.0147389964098664e-14,3.264022100624139e-15,3.478948026508744e-09,1.5581219803980564e-09,8.092598806911238e-10,4.456900242014028e-10,2.812814364683945e-10,1.825841645823053e-10,1.2881865997978035e-10,8.860381393672788e-11,6.316929354031688e-11,4.612043689569209e-11,3.2756606233780005e-11,2.2694776849527587e-11,1.5835757389686942e-11,9.420820735559015e-12,5.613962742159994e-12,3.367302128821447e-12,1.894975280263256e-12,1.0650299205099242e-12,5.208894203054396e-13
0.0,5,5.0,0.0,30.0,0.0,0.0,0.0,0.0,-13.0,0.0,2.0,0.0,0.0,0.0,5.679833371407558e-11,5.2230641020680936e-11,4.737682881115822e-11,4.12917860144681e-11,3.6702856122735e-11,3.065495614531355e-11,2.6849473877927464e-11,2.2239588692910265e-11,1.8426957284954214e-11,1.3747027019891533e-11,1.1048943352257908e-11,8.257839567854824e-12,5.259091912912522e-12,3.893231742443959e-12,2.5961070575176677e-12,1.5965084629273367e-12,9.984266662183708e-13,6.055254162024526e-13,3.519878466994765e-13,2.0006116418999605e-13,1.0665905596238604e-13,6.434862650328507e-14,3.5282703747482704e-14,1.7386661396471088e-14,8.352919050282188e-15,5.6243556504642105e-15,3.406226137947751e-09,1.5919998639602888e-09,7.926668097709487e-10,4.5712012621536837e-10,2.811590350394852e-10,1.780933193282983e-10,1.2097477847293845e-10,8.52727778451811e-11,6.554451900410498e-11,4.4457095336807793e-11,3.192054566253883e-11,2.1917919094162898e-11,1.4841266600125662e-11,8.983956775364984e-12,5.930128775994646e-12,3.5557567373942315e-12,1.9978641002308966e-12,1.0839810450298322e-12,5.791480883007511e-13
0.0,6,6.0,0.0,30.0,0.0,0.0,0.0,0.0,-13.0,0.0,2.0,0.0,0.0,0.0,5.741634406775488e-11,4.7671662646090683e-11,4.97894863118551e-11,4.250282563410108e-11,3.621627131358656e-11,3.1649868883213604e-11,2.7707873796328728e-11,2.2636834886991875e-11,1.7242478219047755e-11,1.5331532710317117e-11,1.0967958712500311e-11,8.350135879813058e-12,5.660640874374209e-12,4.167574302157017e-12,2.672307521666889e-12,1.7327981655319005e-12,1.0263938280291419e-12,6.621373002141498e-13,3.8135950552849865e-13,2.2088044086648912e-13,1.1601249698979184e-13,6.396424447634295e-14,3.870693508080977e-14,1.7929225049961653e-14,1.0149476864860348e-14,6.4532219939551435e-15,3.460568225178923e-09,1.6047186137850271e-09,7.887097274944244e-10,4.5375728700971925e-10,2.6634596114253837e-10,1.9271553123292816e-10,1.2658922688782746e-10,8.781311724381328e-11,6.531812378738393e-11,4.502085038232728e-11,3.0784985678509513e-11,2.1255831680057332e-11,1.515301857509848e-11,9.552889505435616e-12,5.95870933912588e-12,3.69637156665764e-12,1.983016490900457e-12,1.10962099794447e-12,5.939815158367172e-13
0.0,7,7.0,0.0,30.0,0.0,0.0,0.0,0.0,-13.0,0.0,2.0,0.0,0.0,0.0,5.702231963724949e-11,5.200966548065993e-11,4.666099682957308e-11,4.1936047001721885e-11,3.6806143178198036e-11,3.1325494988772174e-11,2.66551250366187e-11,2.2964255163490094e-11,1.7975262298446336e-11,1.4076454852258793e-11,1.1065335115088058e-11,8.228995145039994e-12,6.332697360159027e-12,4.022328969921122e-12,2.8238786585852622e-12,1.8110137888530584e-12,1.0672216671063185e-12,6.845293152819038e-13,3.778029365319491e-13,2.0498488688306023e-13,1.2646792019415706e-13,6.41646643414442e-14,3.765546286541126e-14,1.920772093908579e-14,1.2452746176115181e-14,6.595045165450744e-15,3.387840989612286e-09,1.536694639955375e-09,7.673484792193931e-10,4.4388377872207617e-10,2.767654213527823e-10,1.832719986594701e-10,1.2877248517856699e-10,9.16755230497922e-11,6.467278565389135e-11,4.433118690945025e-11,3.040648573635073e-11,2.286975797817294e-11,1.448011876585491e-11,9.435065001583105e-12,5.947868488733477e-12,3.441056119204446e-12,2.0744925534826665e-12,1.1543291508348033e-12,6.379179336333899e-13
0.0,8,8.0,0.0,30.0,0.0,0.0,0.0,0.0,-13.0,0.0,2.0,0.0,0.0,0.0,5.825620206626698e-11,5.2229704044549835e-11,4.848126803898149e-11,4.2492603073382356e-11,3.69227475475462e-11,3.2170969731538236e-11,2.7171278714447236e-11,2.253839654784101e-11,1.8389072352322613e-11,1.4190396823360501e-11,1.1393883396843934e-11,8.154343918504086e-12,6.2133897105512104e-12,4.1887964054605355e-12,2.838477758113668e-12,1.8634181420479427e-12,1.1737214196745686e-12,6.65155997365694e-13,4.0703388373163287e-13,2.395963883615805e-13,1.2310392121017236e-13,7.224757102851816e-14,3.518754738414723e-14,1.966698099971356e-14,1.1176502860535478e-14,4.045638159773632e-15,3.3173504903627053e-09,1.4921369355377403e-09,8.338600461519873e-10,4.5322982046911415e-10,2.8588021024164707e-10,1.8587440123607598e-10,1.2811717283794457e-10,8.643053724691866e-11,6.364965546678038e-11,4.422851087920598e-11,3.237569401947797e-11,2.2545856804295483e-11,1.5354024032742446e-11,9.867150744313607e-12,5.970812540321391e-12,3.567877488396071e-12,2.1982574724794907e-12,1.2170116725300062e-12,6.070601213008009e-13
0.0,9,9.0,0.0,30.0,0.0,0.0,0.0,0.0,-13.0,0.0,2.0,0.0,0.0,0.0,5.794083685362787e-11,5.3719511603108557e-11,4.740368644868177e-11,4.1930944479792485e-11,3.60973058786309e-11,3.064749568027485e-11,2.799348099475304e-11,2.261522623157698e-11,1.845105107696963e-11,1.5528089029185723e-11,1.1631181843149342e-11,8.610412373566896e-12,6.196439937566053e-12,4.515120713390658e-12,3.0643556812569695e-12,1.949229743731914e-12,1.214669308109222e-12,6.803748797148907e-13,4.285513867138003e-13,2.426743219193942e-13,1.361197269599898e-13,7.682857911627313e-14,3.601986364551304e-14,2.107334874440625e-14,1.185542442575161e-14,5.4714186596549754e-15,3.257431184023732e-09,1.593614908067222e-09,7.995266539787186e-10,4.391229973663707e-10,2.8582836481040146e-10,1.936778300661663e-10,1.3094723522063643e-10,9.393897663516996e-11,6.477059408811643e-11,4.477590323003521e-11,3.034539916094378e-11,2.1600714170418112e-11,1.470538501941816e-11,9.851626445449441e-12,6.078815032976212e-12,3.779205680775853e-12,2.119724757898213e-12,1.2012212325037872e-12,6.620780755220778e-13
0.0,10,10.0,0.0,30.0,0.0,0.0,0.0,0.0,-13.0,0.0,2.0,0.0,0.0,0.0,5.583744081527887e-11,5.401074438682959e-11,4.8195184944788245e-11,4.267237518847092e-11,3.7466593802911914e-11,3.4034376488902546e-11,2.6976137585259732e-11,2.133495789030167e-11,1.8720831881470996e-11,1.478906312714216e-11,1.1292763559463852e-11,8.351767821449207e-12,6.179868914693295e-12,4.427504601129014e-12,2.9406518021543138e-12,2.0929709178268507e-12,1.1980190207873531e-12,7.348405583170358e-13,4.1326653304086287e-13,2.5564266826990136e-13,1.3267781473742283e-13,7.63390704158628e-14,4.15695831446839e-14,2.1784281603404243e-14,1.3859277498134156e-14,7.180537738642869e-15,3.519416886952907e-09,1.5043588568749746e-09,8.182583028751625e-10,4.6046494336698343e-10,2.9188808958962756e-10,1.9686300415307614e-10,1.2882401924103836e-10,9.157283472483307e-11,6.686162629252154e-11,4.1877197629635244e-11,3.283276907807243e-11,2.1911240360587487e-11,1.4517567814726274e-11,9.629155142816226e-12,5.916699054220018e-12,3.713230369614071e-12,2.285821143274312e-12,1.3051960126952268e-12,7.429266949733163e-13
0.0,11,11.0,0.0,30.0,0.0,0.0,0.0,0.0,-13.0,0.0,2.0,0.0,0.0,0.0,5.792246323490363e-11,5.1996419610233894e-11,4.7064973693363926e-11,4.122160034772112e-11,3.7141253834164996e-11,3.2542658861153774e-11,2.7377950128043826e-11,2.3619721632062806e-11,1.8501196472448368e-11,1.469258255409745e-11,1.1324543159104024e-11,8.249670536008974e-12,6.040905932521676e-12,4.318984114173106e-12,3.1687411694966183e-12,2.0561448067338343e-12,1.3231808561841736e-12,7.470512893458338e-13,4.328669116412617e-13,2.583047437779406e-13,1.4794360618323047e-13,8.219481495670293e-14,4.544411192582468e-14,2.3886320174192466e-14,1.4319281151440246e-14,6.171312819115644e-15,3.276348033804272e-09,1.459950006157319e-09,7.690694544627663e-10,4.5855857023668647e-10,2.7982835453461564e-10,1.9837989601715248e-10,1.3966722138465342e-10,8.717686569424713e-11,6.754656685492625e-11,4.272841617665488e-11,3.18412748774952e-11,2.2287333092883523e-11,1.4495952575068094e-11,9.161239158861638e-12,5.993731112848271e-12,3.73888117788731e-12,2.2216903268353532e-12,1.2663756717193428e-12,6.941607777015107e-13
0.0,12,12.0,0.0,30.0,0.0,0.0,0.0,0.0,-13.0,0.0,2.0,0.0,0.0,0.0,5.88660945318834e-11,5.148769651108076e-11,4.776861592313922e-11,4.471574710245637e-11,3.697643240838201e-11,3.186228227266732e-11,2.8365138234983048e-11,2.1146445664578016e-11,1.9317142329703706e-11,1.4592777750816396e-11,1.1623129245284807e-11,8.754603229550795e-12,6.583165422524761e-12,4.504254636147437e-12,3.0431941459388223e-12,2.1282248166531647e-12,1.2126974027617222e-12,8.02722047438562e-13,4.56486891031429e-13,2.6687223252939903e-13,1.621716275700147e-13,8.392216399337237e-14,4.57518501450135e-14,2.2229856224366643e-14,1.2130878144244579e-14,6.832764970899191e-15,3.3872676041096414e-09,1.5581408554963133e-09,7.891935257597502e-10,4.6414099629779416e-10,2.9372312418563604e-10,1.842899027715181e-10,1.3573107861462696e-10,9.718218210045508e-11,6.775995322537791e-11,4.5696325936779613e-11,3.083285351519879e-11,2.0769154960936796e-11,1.4360727183200305e-11,9.811744328834464e-12,5.732472140877137e-12,3.701902568902191e-12,2.1728090617933416e-12,1.3221362792585147e-12,6.970033599572904e-13
0.0,13,13.0,0.0,30.0,0.0,0.0,0.0,0.0,-13.0,0.0,2.0,0.0,0.0,0.0,5.8144169994644725e-11,5.3498546834102696e-11,4.912398693447168e-11,4.2549502684180886e-11,3.4187826443852546e-11,3.2973836741397874e-11,2.793665365038362e-11,2.2808501477307157e-11,1.8078682569458388e-11,1.5056489995876857e-11,1.1729520985027313e-11,8.648444647634613e-12,6.41166087721005e-12,4.4663890332858954e-12,3.139424232566068e-12,1.9929429592469146e-12,1.3540348215876051e-12,8.015067152439468e-13,4.942846338777585e-13,2.7046854220177586e-13,1.5536236353411653e-13,8.685905056833003e-14,4.425112742701195e-14,2.5486542917407312e-14,1.2963216505161985e-14,5.093729798101367e-15,3.2040118827663514e-09,1.5499124372247898e-09,8.091818267059442e-10,4.568969491186054e-10,2.956895064921583e-10,1.9839800449259988e-10,1.3855737517454592e-10,9.98840983892878e-11,6.433079232380323e-11,4.761186978564103e-11,3.143412970633312e-11,2.138647163368515e-11,1.4259960417154053e-11,9.349230305850898e-12,5.850551708366662e-12,3.800477770585274e-12,2.377098669255912e-12,1.301766285687892e-12,7.216203295759107e-13
0.0,14,14.0,0.0,30.0,0.0,0.0,0.0,0.0,-13.0,0.0,2.0,0.0,0.0,0.0,5.827521793953498e-11,5.4120725387094885e-11,4.955581145976472e-11,4.289967937996191e-11,3.736355976943617e-11,3.3024251347598895e-11,2.693456404587642e-11,2.3208369552684586e-11,1.9188025624636406e-11,1.553409293904471e-11,1.159194964242114e-11,9.16709009157244e-12,6.69695495871293e-12,4.50145069804121e-12,3.0831146624665275e-12,2.108260210418418e-12,1.4089442460593817e-12,8.443271291303173e-13,4.9595567607369e-13,3.0511985198074247e-13,1.650262307924157e-13,8.355415329283858e-14,4.938782433805014e-14,2.6906831509057163e-14,1.4079366685374286e-14,7.578973677660112e-15,3.3102789124824933e-09,1.4549399007066229e-09,7.784583418811414e-10,4.4757246280356277e-10,2.863431390421014e-10,1.9165348323540372e-10,1.4073334422698853e-10,9.76650795457811e-11,6.729208979566065e-11,4.62619302007763e-11,3.203428928016725e-11,2.231729689936602e-11,1.3523618186683234e-11,9.53759383068902e-12,5.958736648043167e-12,3.563647273136264e-12,2.1364257645337895e-12,1.277465030064369e-12,7.369081574087568e-13
0.0,15,15.0,0.0,30.0,0.0,0.0,0.0,0.0,-13.0,0.0,2.0,0.0,0.0,0.0,6.077070948740823e-11,5.326548360744367e-11,5.080592019536955e-11,4.560626898024412e-11,3.861683815609811e-11,3.226042382204137e-11,2.8786274736692943e-11,2.3652366581111492e-11,1.926936631692329e-11,1.4661285177827863e-11,1.0656818033125225e-11,9.3939961002744e-12,6.213723448291176e-12,4.673337022160242e-12,3.4693369541490233e-12,2.1827946234067052e-12,1.4334529709458035e-12,8.269794399439476e-13,4.909545322839655e-13,2.952955787861941e-13,1.7444921831961476e-13,9.225672121794718e-14,4.906962976917032e-14,2.7401290667434986e-14,1.5479262466830208e-14,5.891198781014684e-15,3.179578265265239e-09,1.4719061683498328e-09,8.124354440598222e-10,4.659635556594271e-10,3.161171266896552e-10,2.0703333199275461e-10,1.4037621445294398e-10,1.023474511589961e-10,6.950567013214626e-11,4.6725864507941416e-11,3.3020492627330965e-11,2.1289168489158053e-11,1.428780423595215e-11,9.792385686742275e-12,6.024696196173184e-12,3.6825572790702465e-12,2.24304626708898e-12,1.3646077810349941e-12,7.265781203187918e-13
0.0,16,16.0,0.0,30.0,0.0,0.0,0.0,0.0,-13.0,0.0,2.0,0.0,0.0,0.0,5.994992774752259e-11,5.4489708875533155e-11,5.00348783912262e-11,4.361477467461875e-11,3.6626111886218636e-11,3.2202491974895824e-11,2.723631704793606e-11,2.410944590207565e-11,1.9307694901821736e-11,1.525776370313172e-11,1.149474798612878e-11,8.639548828212182e-12,6.457136439969587e-12,4.561686388565011e-12,3.5159808878312925e-12,2.043694263674107e-12,1.4424137699613964e-12,8.504417820948339e-13,5.29880414547209e-13,2.992426501775406e-13,1.6764450126935901e-13,9.277682520624938e-14,5.544378973654097e-14,2.786920676689698e-14,1.3933877501794634e-14,8.197752020310328e-15,3.2826905301005997e-09,1.5328637051236927e-09,7.431646532626627e-10,4.691413597840237e-10,3.0666967399042186e-10,1.9344980038330136e-10,1.4414068752678268e-10,1.049307706909078e-10,6.991369353006169e-11,4.9508059677946796e-11,3.335725388311348e-11,2.143927114066711e-11,1.4480053286576296e-11,8.972787559029175e-12,5.949513916375868e-12,3.798360159527832e-12,2.3272191240563595e-12,1.3299436303795977e-12,7.646941048557944e-13
0.0,17,17.0,0.0,30.0,0.0,0.0,0.0,0.0,-13.0,0.0,2.0,0.0,0.0,0.0,5.924550097918407e-11,5.5720330374132485e-11,5.027372577880816e-11,4.700725538851248e-11,3.85616151219785e-11,3.28470539268364e-11,2.8233849098795038e-11,2.273124079673983e-11,1.903963925784801e-11,1.4875389776076695e-11,1.1070207539585094e-11,8.86197375566917e-12,6.5174084380744165e-12,4.505077121810891e-12,3.2925662256129544e-12,2.316988521723173e-12,1.4633595799105574e-12,9.182935923753736e-13,5.217775264575585e-13,3.2095030028170294e-13,1.7963415677449626e-13,1.0083273587739e-13,5.463790133903753e-14,2.7133505063227984e-14,1.5197029048863177e-14,7.108699275551048e-15,3.2588990524576095e-09,1.4532923297515082e-09,8.169290767659304e-10,4.5521156441165374e-10,2.9426051501611575e-10,2.063318568573123e-10,1.393100374435675e-10,9.982447611865305e-11,6.907364528657425e-11,5.099061231444596e-11,3.384539743164328e-11,2.2056161228588128e-11,1.4364781802070647e-11,9.693913748518957e-12,6.0975104715621625e-12,3.818793373258209e-12,2.275877988295236e-12,1.263738126736898e-12,7.49944821357973e-13
0.0,18,18.0,0.0,30.0,0.0,0.0,0.0,0.0,-13.0,0.0,2.0,0.0,0.0,0.0,6.092728710688385e-11,5.75611984184368e-11,5.229231346637026e-11,4.40813665671338e-11,3.971859767083636e-11,3.538150082778659e-11,2.786124142159762e-11,2.4713870449072974e-11,1.8539837279742503e-11,1.5106626063655798e-11,1.1726565270193935e-11,8.901700272657809e-12,6.434197321913715e-12,4.675129704694472e-12,3.256898787248142e-12,2.2633132022218336e-12,1.4755804928430408e-12,9.789242697359337e-13,5.780062684700751e-13,3.190145526564042e-13,1.8540064152510732e-13,1.0522267520964022e-13,5.552223717482815e-14,2.972409516119061e-14,1.5771537970829665e-14,9.042037099171992e-15,3.16320605336542e-09,1.4722087915100852e-09,7.970761722698953e-10,4.741322787943594e-10,3.073905540482496e-10,2.0588462013979595e-10,1.4997766662302532e-10,1.0894867534647186e-10,7.261775770925283e-11,4.924961106423202e-11,3.421161926161944e-11,2.1947420257841483e-11,1.4299889161837973e-11,9.462240520144194e-12,5.555376720642572e-12,3.6267104511701357e-12,2.252866240901032e-12,1.2804251318762293e-12,7.316298302644241e-13
0.0,19,19.0,0.0,30.0,0.0,0.0,0.0,0.0,-13.0,0.0,2.0,0.0,0.0,0.0,6.176205714866719e-11,5.425434318098392e-11,5.065427354109202e-11,4.469191635909626e-11,3.9574324978779975e-11,3.5107147047030785e-11,2.8811524981156144e-11,2.370887011093729e-11,1.9193618932158154e-11,1.526580081435151e-11,1.1408627464498463e-11,8.890148605497592e-12,6.679444834693103e-12,4.582151211107674e-12,3.431122840588033e-12,2.3353250896234917e-12,1.4513757665757087e-12,9.254843254283496e-13,5.509221297440103e-13,3.382127595397781e-13,1.8208403066461906e-13,1.0404285869580774e-13,5.5360551695985836e-14,3.076090568114414e-14,1.4191802510222752e-14,9.779184488692629e-15,3.1343080268997922e-09,1.4828290555150181e-09,7.811916641109581e-10,4.615829187112762e-10,2.9986110287310735e-10,2.1648468236252306e-10,1.45195179339601e-10,1.0453744874356256e-10,7.091355618230808e-11,4.9191455942466145e-11,3.4335784516757795e-11,2.3170895428218752e-11,1.4663393066054632e-11,9.086057232554268e-12,6.389595781611265e-12,3.657006533819488e-12,2.1691060044868146e-12,1.4455667415139648e-12,7.507187681088427e-13
0.0,20,20.0,0.0,30.0,0.0,0.0,0.0,0.0,-13.0,0.0,2.0,0.0,0.0,0.0,6.049339177077089e-11,5.6502121945951724e-11,5.239568116349995e-11,4.615280874242109e-11,3.8916192780231184e-11,3.612312175105416e-11,2.8458692989957293e-11,2.3027051799714895e-11,1.9814471962034107e-11,1.5846089842475208e-11,1.152119641376965e-11,8.569316309420024e-12,6.840561367013747e-12,4.500752659745081e-12,3.238394368266076e-12,2.3461810101059985e-12,1.4933534540741746e-12,9.381808147980257e-13,5.819888271281283e-13,3.365361613087137e-13,1.8496203009811105e-13,1.1176825572419765e-13,6.131476507856363e-14,3.1837663728689603e-14,1.6707692207587527e-14,1.1089207964959591e-14,3.1829094649864914e-09,1.4623442660345687e-09,7.95253007658137e-10,4.961494957011547e-10,3.258866553161741e-10,2.1134523580594665e-10,1.50730968337717e-10,1.0067212495542735e-10,7.290150075166702e-11,4.952305099001163e-11,3.3235807920555716e-11,2.39401916009417e-11,1.4515176115417975e-11,9.389311814762824e-12,6.105879763761182e-12,3.89936273725446e-12,2.3070954817401636e-12,1.4535174752531758e-12,7.615781682260291e-13
0.0,21,21.0,0.0,30.0,0.0,0.0,0.0,0.0,-13.0,0.0,2.0,0.0,0.0,0.0,6.446864286116333e-11,5.880214969953851e-11,5.4641162665484856e-11,4.7081420270169e-11,4.0203076925870665e-11,3.3599375826707246e-11,2.9386519593885186e-11,2.508225816808885e-11,1.915532903121204e-11,1.5567491225647385e-11,1.194832746328257e-11,9.205473599860807e-12,6.492247860539165e-12,5.148802031051732e-12,3.2479268510501757e-12,2.2706224570585564e-12,1.5530701411945035e-12,9.665038703378154e-13,5.99828395601806e-13,3.394415491655872e-13,1.9635656447351553e-13,1.1010405969617402e-13,6.340931215414426e-14,3.3368916551599786e-14,1.802183128078983e-14,8.248373575796683e-15,3.284030864579339e-09,1.4776387641289681e-09,8.201443324574816e-10,5.070121672881123e-10,3.1118517306083005e-10,2.128534670679064e-10,1.4729134576120408e-10,1.058958663082402e-10,7.367774473538413e-11,5.2005409571411995e-11,3.4544636126170426e-11,2.2801039738301904e-11,1.548917663315162e-11,9.332726993602274e-12,6.136897833841722e-12,3.7083799463911576e-12,2.322628184728109e-12,1.397110832269821e-12,7.577894187728443e-13
0.0,22,22.0,0.0,30.0,0.0,0.0,0.0,0.0,-13.0,0.0,2.0,0.0,0.0,0.0,6.5549702343183e-11,5.928747089397286e-11,5.169227769537194e-11,4.7213178672189264e-11,4.1117524732691385e-11,3.535956361371465e-11,2.927086203399884e-11,2.4345226207355913e-11,1.8866826204876577e-11,1.5253657079575748e-11,1.2116104908015536e-11,9.245435192611663e-12,6.58667522624978e-12,4.839136921319038e-12,3.414225103781858e-12,2.3235846181883857e-12,1.5484032544505078e-12,9.162983661084584e-13,5.930454755665654e-13,3.532614328741946e-13,1.9474013881668992e-13,1.1847259412150386e-13,6.201242826140104e-14,3.545161509532705e-14,1.6698374666238984e-14,8.242240667750054e-15,3.1943167516808446e-09,1.3882208567470426e-09,7.933393732477472e-10,4.826330940973086e-10,3.26885547522367e-10,2.2260330038383856e-10,1.511892709641121e-10,1.0416905397782416e-10,7.936390105628718e-11,5.0866884708629345e-11,3.402473928970832e-11,2.256221344552338e-11,1.5670031672815825e-11,9.523845851489769e-12,5.945560286178093e-12,3.7745821560900986e-12,2.257943379038853e-12,1.3117816318334618e-12,7.85648447137315e-13
0.0,23,23.0,0.0,30.0,0.0,0.0,0.0,0.0,-13.0,0.0,2.0,0.0,0.0,0.0,6.752289207737135e-11,6.140030923030848e-11,5.4785055971611486e-11,4.795859306145048e-11,3.9001222357566955e-11,3.704955395276672e-11,2.9999659070746874e-11,2.4940045951117116e-11,2.035342248438632e-11,1.6190346386496684e-11,1.2130928235915336e-11,9.157861473773296e-12,6.570744219532831e-12,4.842148833279022e-12,3.315800545325388e-12,2.271586956057235e-12,1.4942012074269659e-12,9.748125832217882e-13,6.209612834817513e-13,3.905856415902951e-13,2.0589162432582225e-13,1.101590651749146e-13,6.584604904950616e-14,3.3636559038681034e-14,1.7303277569508228e-14,9.650443495886795e-15,3.037231734125328e-09,1.4659586669871574e-09,7.873357146823828e-10,4.859279235229929e-10,3.2412638701015376e-10,2.210599122802029e-10,1.5511414244298985e-10,1.1002989253167668e-10,7.740635219654789e-11,5.113459816675852e-11,3.4038377677006386e-11,2.3555193470042027e-11,1.4663951204130356e-11,9.780348269088406e-12,6.287400204589215e-12,3.835898337740271e-12,2.2004703549787157e-12,1.3042515768260013e-12,7.758922716322701e-13
0.0,24,24.0,0.0,30.0,0.0,0.0,0.0,0.0,-13.0,0.0,2.0,0.0,0.0,0.0,6.538860774871396e-11,5.974508560777443e-11,5.512625799741476e-11,4.649074074787355e-11,4.1137707078923985e-11,3.479281842159644e-11,2.9084425417176884e-11,2.408324381422979e-11,2.0262037658205223e-11,1.5658555082629566e-11,1.173231988496553e-11,9.016453139469924e-12,6.382789739344362e-12,4.744051086938572e-12,3.634070002377286e-12,2.3260957166802092e-12,1.5797036165737097e-12,9.867172775761148e-13,6.158151824723977e-13,3.6919586603709257e-13,2.013986720709928e-13,1.1722593387071257e-13,6.800257150058847e-14,3.372279537359721e-14,1.7864310338174036e-14,9.355539408163228e-15,3.1616268403789488e-09,1.4737709905130476e-09,8.209290408137981e-10,4.952433276469281e-10,3.231936788519162e-10,2.317006133076404e-10,1.603224089818387e-10,1.0554750136423933e-10,8.330358024039078e-11,5.627527174569061e-11,3.582541871395721e-11,2.4152991155039066e-11,1.6106603298705324e-11,9.791554912397656e-12,6.287478854111713e-12,3.90413477826157e-12,2.2044657375020774e-12,1.3150277095508897e-12,7.913941610956323e-13
0.0,25,25.0,0.0,30.0,0.0,0.0,0.0,0.0,-13.0,0.0,2.0,0.0,0.0,0.0,6.787991699202501e-11,6.270341805116369e-11,5.455462296292122e-11,4.802446687120857e-11,3.9568101748841504e-11,3.478495285210829e-11,3.0369032124148247e-11,2.5569819947695752e-11,2.0349136694079854e-11,1.5692196916323225e-11,1.2026914099965362e-11,9.182820475396476e-12,6.752726023456407e-12,5.069658897772059e-12,3.4391412849258605e-12,2.2378176947394994e-12,1.4956312771534123e-12,1.042496335881375e-12,5.946297566849845e-13,3.755206898647702e-13,2.1016384006330772e-13,1.1895271915263763e-13,6.564702630050067e-14,3.745383925613586e-14,1.8742535612689776e-14,9.87899075979061e-15,2.9748157193786825e-09,1.4548710116223896e-09,8.051801006514428e-10,4.950602795171681e-10,3.409556412059859e-10,2.263539743244018e-10,1.604373815581857e-10,1.1747212901350837e-10,7.478302054975376e-11,5.3376262495507794e-11,3.801498037169797e-11,2.4849166606248248e-11,1.5984008693725318e-11,1.0184902985166132e-11,6.256314728217718e-12,3.979624916803047e-12,2.3037177140867942e-12,1.3502589141328853e-12,7.726361961424097e-13
0.0,26,26.0,0.0,30.0,0.0,0.0,0.0,0.0,-13.0,0.0,2.0,0.0,0.0,0.0,6.813005997284884e-11,5.95780502225425e-11,5.668132986946113e-11,4.8798186977719356e-11,4.488026807523598e-11,3.632427640040379e-11,3.1023049626865265e-11,2.5379971098752502e-11,1.9829130016340904e-11,1.6350419551697528e-11,1.2904719353515685e-11,9.167553153899525e-12,6.702564290669362e-12,4.827446421915365e-12,3.238958588133975e-12,2.3378916125950357e-12,1.5750141285339584e-12,1.0364209096591985e-12,6.406007650452663e-13,3.6718025771691813e-13,2.134018400931235e-13,1.2599553787190126e-13,6.689455820663563e-14,3.56832498245e-14,2.1021614598106486e-14,1.1230315854774751e-14,3.1014952384026894e-09,1.4155332839412194e-09,7.465668307118679e-10,5.040701704351647e-10,3.21874859142887e-10,2.1528485939180242e-10,1.6871224157985446e-10,1.1559526331120623e-10,7.672589570466648e-11,5.280675178560871e-11,3.787259310715949e-11,2.381800599575762e-11,1.6460196318747235e-11,1.0221772159495938e-11,6.3439113656885435e-12,3.857763392116708e-12,2.295610616878422e-12,1.3775550295752626e-12,7.57525246036237e-13
0.0,27,27.0,0.0,30.0,0.0,0.0,0.0,0.0,-13.0,0.0,2.0,0.0,0.0,0.0,6.871343474652247e-11,6.385006575973831e-11,5.6986693086321434e-11,4.776942157666711e-11,4.2379922339215945e-11,3.7077407644574526e-11,3.0574421123673916e-11,2.679564416827376e-11,2.015245744957416e-11,1.5930784942732568e-11,1.2577333739101163e-11,9.315456609715245e-12,6.763194282144808e-12,4.7841739986736095e-12,3.474797069118367e-12,2.431758710034412e-12,1.5931719812615927e-12,9.878196443298012e-13,6.612407035442297e-13,3.599128003489932e-13,2.078664963330542e-13,1.2749824616570897e-13,6.909955631793664e-14,3.6371429361209976e-14,1.857029151717235e-14,1.2802535677072489e-14,3.0923868303550624e-09,1.4598690438476003e-09,8.04367520725018e-10,5.057686887985732e-10,3.3982806129149523e-10,2.3668015368833455e-10,1.6130190653724166e-10,1.1386597610847001e-10,7.626340877262197e-11,5.42002378975921e-11,3.767009886838226e-11,2.5534200921064028e-11,1.6314712809116034e-11,1.0036369109225908e-11,6.056502270450777e-12,3.511976216999347e-12,2.368630519944745e-12,1.3178477004084089e-12,7.579630657326652e-13
0.0,28,28.0,0.0,30.0,0.0,0.0,0.0,0.0,-13.0,0.0,2.0,0.0,0.0,0.0,6.962372433793269e-11,6.051175870703608e-11,5.60965829076793e-11,5.3153370265223093e-11,4.416565145457654e-11,3.759819858349754e-11,2.979219133676e-11,2.742419143011351e-11,1.9704592607042563e-11,1.707587832746213e-11,1.1599008441026545e-11,9.67157136229785e-12,7.156055269580738e-12,4.790953909007795e-12,3.4973293128250925e-12,2.404378413607455e-12,1.5386850675127488e-12,9.733410055978032e-13,6.086833179218955e-13,3.86665398268817e-13,2.2075433542849117e-13,1.235742243159225e-13,7.208077740184015e-14,3.870188847001638e-14,1.9395384972727137e-14,9.332353595637817e-15,3.111568541460826e-09,1.4097240941877811e-09,8.016835443736114e-10,5.271874121585221e-10,3.432505703862322e-10,2.284267747799565e-10,1.6605889892435127e-10,1.1305098580477872e-10,8.544142245261526e-11,5.525800530167556e-11,3.8064545355356134e-11,2.528807474297314e-11,1.628989448685788e-11,9.645333256263086e-12,6.075326400816499e-12,3.804090009882729e-12,2.3189575552888545e-12,1.3384205160614162e-12,7.455406772272539e-13
0.0,29,29.0,0.0,30.0,0.0,0.0,0.0,0.0,-13.0,0.0,2.0,0.0,0.0,0.0,6.733910019053578e-11,6.31528809422475e-11,5.654815052588928e-11,5.146693214198796e-11,4.3564020169813326e-11,3.828346732057506e-11,3.104324595656626e-11,2.5754534659477513e-11,2.0561432395396637e-11,1.5903419797719584e-11,1.2714563473803116e-11,9.112346430045683e-12,6.752077961852251e-12,4.9202878969478205e-12,3.328998496106708e-12,2.349339526077866e-12,1.5493926718539666e-12,1.0112377783004573e-12,6.374892396514893e-13,3.750777432047166e-13,2.2263367092922596e-13,1.328409126786291e-13,7.098457056986633e-14,4.0404281026096304e-14,2.1109820858375292e-14,1.1622217617242237e-14,2.9747668991142503e-09,1.4336920787678996e-09,8.053581341493171e-10,4.98360104482696e-10,3.3356407797276583e-10,2.268430901474399e-10,1.749430816172888e-10,1.1447001040980169e-10,8.59013168270394e-11,5.612191294343705e-11,3.730682681278786e-11,2.5832223227142465e-11,1.609022183757323e-11,1.0535288199218874e-11,6.34637353921462e-12,3.939595912987766e-12,2.2386687848145366e-12,1.3812711119800553e-12,7.824412378025956e-13
0.0,30,30.0,0.0,30.0,0.0,0.0,0.0,0.0,-13.0,0.0,2.0,0.0,0.0,0.0,6.9061398625757e-11,6.981195521304545e-11,5.896870789355387e-11,5.479581407490468e-11,4.662770127613054e-11,3.780148159753155e-11,3.1548050406108796e-11,2.590076109233287e-11,1.9826507355048428e-11,1.6087800963208325e-11,1.267327112926862e-11,9.834310525987777e-12,6.736825511158802e-12,5.082352649132341e-12,3.344072745816795e-12,2.3373903374800586e-12,1.5668501612337022e-12,1.0396518703767417e-12,6.519187338091704e-13,3.991678956883142e-13,2.320709635493994e-13,1.3043164687327046e-13,7.314070388202368e-14,4.1807450816208377e-14,2.0510274995040795e-14,1.183521260317986e-14,2.863497406677931e-09,1.4435429349776147e-09,7.935950308932733e-10,5.122226425001412e-10,3.5676225078274924e-10,2.4168121127653836e-10,1.7414171576590221e-10,1.2475208399149885e-10,8.461877210283004e-11,5.967094917402899e-11,3.8392084298793907e-11,2.565720803307885e-11,1.633137828244717e-11,1.0799662537759002e-11,6.552921149264181e-12,3.8529027939222835e-12,2.3284478162308953e-12,1.3933732606166798e-12,7.699084584265871e-13
0.0,31,31.0,0.0,30.0,0.0,0.0,0.0,0.0,-13.0,0.0,2.0,0.0,0.0,0.0,6.983240985915919e-11,6.571599716140994e-11,5.5225534915827594e-11,5.306430094417975e-11,4.442829725983007e-11,3.789590311393341e-11,3.3133097833413396e-11,2.540248174063023e-11,2.2419668671744022e-11,1.6340951548455337e-11,1.2484284817440273e-11,9.76065971341837e-12,7.084024147053155e-12,5.33890073113339e-12,3.4640746036556205e-12,2.377376898110596e-12,1.5230108203794554e-12,1.0224314884229988e-12,6.331160011863292e-13,3.8596891940102906e-13,2.1713148900618965e-13,1.3790727266459022e-13,6.9905164108478e-14,3.565017357975773e-14,2.0104051090923105e-14,1.058859479096876e-14,2.906327280575074e-09,1.469998839288153e-09,8.053692619134017e-10,5.172566423882027e-10,3.5644864685411227e-10,2.4568605975346097e-10,1.7693576370297063e-10,1.1702913539145835e-10,8.334402709555738e-11,5.954834231421473e-11,3.626727058180358e-11,2.4900030973090662e-11,1.7036655692710783e-11,1.0434622997502213e-11,6.720532595313998e-12,4.0401715567888856e-12,2.2457268391904136e-12,1.3709499276105082e-12,8.022080791317754e-13
0.0,32,32.0,0.0,30.0,0.0,0.0,0.0,0.0,-13.0,0.0,2.0,0.0,0.0,0.0,7.307343181482185e-11,6.430142527375974e-11,6.097885242610026e-11,5.3473627329835966e-11,4.6251466514659345e-11,3.9698869663317577e-11,2.970076353711157e-11,2.746836307942153e-11,2.25507482021234e-11,1.6951593104772033e-11,1.2863861687375887e-11,9.739498222252378e-12,7.049610800222061e-12,5.0943816232112264e-12,3.49863132293127e-12,2.3378092856248164e-12,1.5503832113092224e-12,1.00580274263868e-12,6.239968655921845e-13,3.81658389862127e-13,2.4394659906702185e-13,1.3588600251292278e-13,7.2873805581573e-14,4.0072688465178025e-14,2.2046760232739593e-14,1.0735258728430999e-14,2.99882639759974e-09,1.4538411391560275e-09,8.116038685104772e-10,5.269930040028896e-10,3.6364397064316265e-10,2.44754115164283e-10,1.756756093349723e-10,1.2153754017197543e-10,8.577410892149627e-11,5.855305278132637e-11,3.9107653696460805e-11,2.6419872109630532e-11,1.7267690501233637e-11,1.0751401300439417e-11,6.701953563961969e-12,3.889097994278758e-12,2.259016307348211e-12,1.376230314611662e-12,7.905654209883179e-13
0.0,33,33.0,0.0,30.0,0.0,0.0,0.0,0.0,-13.0,0.0,2.0,0.0,0.0,0.0,7.37501970342446e-11,6.975586713902295e-11,6.175767668752998e-11,5.735781409147539e-11,4.575518370418969e-11,3.8120436676202476e-11,3.2253019150391074e-11,2.6580775532319047e-11,2.1910816362481425e-11,1.5794908362614148e-11,1.3409696930699472e-11,9.543547306679202e-12,6.971338496385166e-12,4.859197997053178e-12,3.4996298136786863e-12,2.400877041374432e-12,1.5972983677353108e-12,1.0512574499471796e-12,6.426306375228804e-13,3.864683019386418e-13,2.3765248436682924e-13,1.347388423074652e-13,7.591996655933257e-14,4.301491710453875e-14,2.1064921023334964e-14,1.0721299392365887e-14,3.087883804075008e-09,1.3556217962353313e-09,7.844851562335915e-10,5.397237954318446e-10,3.61085310975076e-10,2.508026598245178e-10,1.76046036844826e-10,1.2444026645887723e-10,8.673773994144841e-11,6.232293812886917e-11,3.975026367446402e-11,2.646879907520794e-11,1.8100438285853607e-11,1.0832012169812022e-11,7.1182859464513585e-12,3.999863601154226e-12,2.4578490877587928e-12,1.2945439325030253e-12,7.786937044344681e-13
0.0,34,34.0,0.0,30.0,0.0,0.0,0.0,0.0,-13.0,0.0,2.0,0.0,0.0,0.0,7.100071790850234e-11,6.957794287277828e-11,5.862770944546009e-11,5.417116190054011e-11,4.616851204841719e-11,3.8357955153218955e-11,3.1724089109345674e-11,2.690342373328829e-11,2.295708760481223e-11,1.6897148162510213e-11,1.3369752331809942e-11,9.670858782769083e-12,7.2559831620079545e-12,4.771839445110416e-12,3.4831309785114694e-12,2.47587238744331e-12,1.599787147267044e-12,1.041469009470358e-12,6.488050043783359e-13,4.1363878736895003e-13,2.379374125353667e-13,1.3597323644604962e-13,7.802595694448138e-14,4.2892525958920914e-14,2.292464019581289e-14,1.3463901697645435e-14,2.953484079547956e-09,1.4290636320618152e-09,8.05144811002433e-10,5.344563581464394e-10,3.802283540828409e-10,2.484427743933155e-10,1.7283814215656512e-10,1.2976961907748816e-10,8.773461537843756e-11,6.083271978724292e-11,4.0675056036563384e-11,2.6979691467089876e-11,1.7817496808554688e-11,1.0667488909671383e-11,6.5356093523893074e-12,4.05947837888564e-12,2.26118005376869e-12,1.3125058449973216e-12,8.240997775259913e-13
0.0,35,35.0,0.0,30.0,0.0,0.0,0.0,0.0,-13.0,0.0,2.0,0.0,0.0,0.0,7.717895705607585e-11,6.86664178073086e-11,6.386141013485378e-11,5.2652720671905583e-11,4.665538465302206e-11,4.093790256926269e-11,3.460868077284852e-11,2.8034316487810918e-11,2.03567128832125e-11,1.6709282824966242e-11,1.331438873876438e-11,9.660340551020051e-12,7.661220820843733e-12,5.217948884611092e-12,3.6001407525897556e-12,2.3341267324091597e-12,1.610421236441768e-12,1.0550436103090964e-12,6.8249416961965e-13,4.128945792068328e-13,2.451601978488972e-13,1.332566713901218e-13,8.09280873845177e-14,4.030732978340203e-14,2.2377779057031833e-14,1.2472459536979008e-14,2.929119595765534e-09,1.3734867197591422e-09,8.053868637748015e-10,5.125560014880638e-10,3.733418661233306e-10,2.6643335838241e-10,1.8081672578283388e-10,1.2617751083750429e-10,8.535335016714879e-11,6.312373209136088e-11,4.3972211293671116e-11,2.5768865736907568e-11,1.7013686932348304e-11,1.083865228399029e-11,6.695634047745925e-12,4.114961536624121e-12,2.511845308891492e-12,1.4205553882548253e-12,7.924906148444437e-13
0.0,36,36.0,0.0,30.0,0.0,0.0,0.0,0.0,-13.0,0.0,2.0,0.0,0.0,0.0,7.474107102396863e-11,6.719426183372624e-11,6.08301741902009e-11,5.7549347732405885e-11,4.756025351083984e-11,4.009594246483977e-11,3.3889676849132156e-11,2.859119236447644e-11,2.138238026371953e-11,1.8111107061298144e-11,1.3305852835643519e-11,9.780009465168164e-12,7.264522670194436e-12,5.1400562829974815e-12,3.5201762610593207e-12,2.4048870499512082e-12,1.5744830644835744e-12,1.071261280877407e-12,6.52139346764741e-13,3.928143664242698e-13,2.407061872792378e-13,1.441530080606219e-13,7.813517400422942e-14,4.2129453006485216e-14,2.3873163860927794e-14,1.4265945454989477e-14,2.7987769222225905e-09,1.4319576998364035e-09,8.359547961338776e-10,5.621168670877907e-10,3.8319843967884145e-10,2.5873747795787446e-10,1.7456162901242634e-10,1.3258558294489307e-10,8.822044803533415e-11,6.046777191814026e-11,4.3188457503543e-11,2.681031235994047e-11,1.8525077202284555e-11,1.1299470880374097e-11,6.948708732690024e-12,4.1641392279762524e-12,2.2939176212803164e-12,1.3094919246215132e-12,7.872485327842913e-13
0.0,37,37.0,0.0,30.0,0.0,0.0,0.0,0.0,-13.0,0.0,2.0,0.0,0.0,0.0,7.867118039091887e-11,7.056116376191576e-11,6.152299482114351e-11,5.568322052246521e-11,4.808569641116238e-11,3.992193945682151e-11,3.5500630277806924e-11,2.6733110685023372e-11,2.2881854426644528e-11,1.774311868130542e-11,1.3767835404453669e-11,9.625797236726976e-12,7.2435299290441315e-12,5.472440640648078e-12,3.64491955595888e-12,2.4392887418946057e-12,1.6474575200160124e-12,1.0562618851630702e-12,7.089018435703473e-13,4.1854904388360984e-13,2.4053824698928386e-13,1.407917752893968e-13,7.810904864453573e-14,4.567582176623947e-14,2.1993762509174633e-14,1.0677372939104045e-14,3.037897991557709e-09,1.5071920785253893e-09,8.480503159717214e-10,5.509193240350132e-10,3.8435086549092947e-10,2.586239501260547e-10,1.8735103086284465e-10,1.313812225885431e-10,9.342235671116543e-11,6.009650570680047e-11,4.162813346319808e-11,2.86005776780961e-11,1.7616689464707785e-11,1.0972994485849413e-11,7.381880048639993e-12,4.170708897089418e-12,2.390866410389485e-12,1.3210986754530712e-12,8.034452573919966e-13
0.0,38,38.0,0.0,30.0,0.0,0.0,0.0,0.0,-13.0,0.0,2.0,0.0,0.0,0.0,7.99654030780068e-11,7.061985021767206e-11,6.1736843573769e-11,5.62772129667876e-11,4.754600764057034e-11,4.0395785572788344e-11,3.4725411979242627e-11,2.759802348718469e-11,2.288173632376593e-11,1.8033687538460603e-11,1.3144835498124622e-11,9.59736354139823e-12,7.61622175342318e-12,5.024462863243982e-12,3.5207979497087485e-12,2.4567637689585805e-12,1.6552167291420217e-12,1.0482975048599941e-12,6.765977689325573e-13,4.0348024274712495e-13,2.3557195022707076e-13,1.4705829867339365e-13,8.639669251935008e-14,4.7036236767170547e-14,2.4223146505092998e-14,1.45316027666885e-14,2.9261673315234454e-09,1.3960275795983268e-09,8.539019852469403e-10,5.535743048425665e-10,3.70566929304717e-10,2.6016717913481436e-10,1.9353368541838835e-10,1.2566699476474306e-10,9.461542236173269e-11,6.074190769199888e-11,4.007622205687079e-11,2.6670239589217535e-11,1.9261033173446764e-11,1.1367427048265449e-11,7.046921652773332e-12,4.386374275249418e-12,2.523593609519009e-12,1.3427237580646377e-12,8.104922854942405e-13
0.0,39,39.0,0.0,30.0,0.0,0.0,0.0,0.0,-13.0,0.0,2.0,0.0,0.0,0.0,7.974764079322225e-11,7.140585959626944e-11,6.467863836025076e-11,5.918497693493695e-11,4.8030960689178865e-11,4.255204320614281e-11,3.520936768485528e-11,2.7248483226710647e-11,2.2393627346593836e-11,1.798657112270976e-11,1.4137553879850912e-11,1.0396089882813656e-11,7.462164929038988e-12,5.076812768109395e-12,3.805961921543756e-12,2.466747751896315e-12,1.5816602552323024e-12,1.0534534240846306e-12,6.874717600644566e-13,4.1025535409642705e-13,2.507042386877437e-13,1.4678401771589353e-13,8.175650441622436e-14,4.330029626895943e-14,2.4533969171473653e-14,1.2799990624405566e-14,3.0411800751068433e-09,1.3482772312431276e-09,8.448744737763267e-10,5.516064138966348e-10,3.907565455728135e-10,2.5126062293720606e-10,1.9804238389204882e-10,1.3493565927095912e-10,8.89731570728873e-11,6.399762057052279e-11,4.412829925436358e-11,2.720208092895288e-11,1.8398277768280115e-11,1.1193559447979001e-11,6.98411388955747e-12,4.2516004806437835e-12,2.4893072318024507e-12,1.392061254093126e-12,7.989557687651356e-13
0.0,40,40.0,0.0,30.0,0.0,0.0,0.0,0.0,-13.0,0.0,2.0,0.0,0.0,0.0,8.228454409102792e-11,7.243633947723928e-11,6.823810481379317e-11,6.021609586928014e-11,4.9282921901446636e-11,4.171551405257758e-11,3.3833670000855266e-11,2.899957902835233e-11,2.292860870304157e-11,1.847966850291938e-11,1.3111285097839258e-11,1.009449131700441e-11,7.60227832856757e-12,5.124277067280959e-12,3.547626909467931e-12,2.3543901633513596e-12,1.7647213839101698e-12,1.0382763654974701e-12,6.451981366218835e-13,4.018198976487703e-13,2.3973112915153056e-13,1.4179558564345697e-13,8.362309234947598e-14,4.472978734538871e-14,2.3525208849162682e-14,1.1371207688526873e-14,2.8681494721983026e-09,1.4209531582175287e-09,8.941282540997029e-10,5.695355290615522e-10,3.908736156811821e-10,2.662156356006611e-10,1.925499937949761e-10,1.349598445393916e-10,9.44022999599601e-11,6.366049352759876e-11,4.459009593020585e-11,2.8785487681756633e-11,1.8495756554040854e-11,1.1086060102802917e-11,7.283862735182874e-12,4.353148827534072e-12,2.4341395881438225e-12,1.466136104635676e-12,7.606702322950485e-13
0.0,41,41.0,0.0,30.0,0.0,0.0,0.0,0.0,-13.0,0.0,2.0,0.0,0.0,0.0,8.128247610269562e-11,7.336358112219498e-11,6.36207916591809e-11,5.871818635934895e-11,5.309706206625619e-11,4.310695001039379e-11,3.5509195506653537e-11,2.9817917858259164e-11,2.3494390131336114e-11,1.8249966935640898e-11,1.368349920327998e-11,1.070497872505096e-11,7.547553659179662e-12,5.191486977456902e-12,3.63953811886223e-12,2.4171703944822046e-12,1.6115280116863725e-12,1.0444862604618215e-12,6.503649577186995e-13,4.2295656748297174e-13,2.4455559827202e-13,1.464021288013243e-13,8.036085344869247e-14,4.5607079607927594e-14,2.408148202040206e-14,1.3873957338406484e-14,2.8313525661138275e-09,1.3902856157228063e-09,8.193626478529833e-10,5.794502652347968e-10,3.8889924160851556e-10,2.7862943876973297e-10,1.9418323026949191e-10,1.426435367576099e-10,9.834193303629787e-11,6.730022619646195e-11,4.3613259018712977e-11,2.966603507371162e-11,1.9789586666208183e-11,1.1520186968900288e-11,7.290373681190965e-12,4.1178969688379385e-12,2.6267937648652803e-12,1.4158268533847223e-12,8.207606568611393e-13
0.0,42,42.0,0.0,30.0,0.0,0.0,0.0,0.0,-13.0,0.0,2.0,0.0,0.0,0.0,7.811761138719777e-11,7.893816663597391e-11,6.634397643013437e-11,6.006507015691344e-11,5.1349275026282543e-11,4.3183984510813334e-11,3.825461219687924e-11,2.827056793107125e-11,2.387420221362087e-11,1.891741041482817e-11,1.3976897470665853e-11,1.0319492240791577e-11,7.472730468520547e-12,5.116623251995436e-12,3.677107693359877e-12,2.5217719766653767e-12,1.6505767996526712e-12,1.0591566216696238e-12,6.651889167718535e-13,4.112054246547909e-13,2.5732334842099064e-13,1.355456956582263e-13,8.291265742988493e-14,4.560674904301795e-14,2.708255054178662e-14,1.3329693559605576e-14,2.9660713555228995e-09,1.333627225340585e-09,8.811205941851231e-10,5.865467947832664e-10,4.195887689907954e-10,2.6880933334028734e-10,1.9897522843136376e-10,1.4090481872373953e-10,9.662692852318095e-11,6.974199598708183e-11,4.4539178863294135e-11,3.141683820849388e-11,1.9639439235004463e-11,1.2285353104639612e-11,7.451939930147905e-12,4.235965165381651e-12,2.510013498283234e-12,1.4699738546620922e-12,8.228261454812353e-13
0.0,43,43.0,0.0,30.0,0.0,0.0,0.0,0.0,-13.0,0.0,2.0,0.0,0.0,0.0,8.670710411264246e-11,7.478550949401556e-11,6.614752032830313e-11,6.136287339720189e-11,5.047228819139419e-11,4.5176358976794906e-11,3.814802778222651e-11,3.0474598850726474e-11,2.3651053945005548e-11,1.861923439310622e-11,1.437157336002969e-11,1.0449971046585298e-11,8.064148089196685e-12,5.191347931614444e-12,3.5840796862955415e-12,2.422427343187574e-12,1.623933178034698e-12,1.0008458141660138e-12,6.640864660778387e-13,4.0782653115883717e-13,2.4955353423521673e-13,1.4757138130034105e-13,8.008951448847648e-14,4.815142463640396e-14,2.780220504222629e-14,1.3210951433903497e-14,2.9607358984931666e-09,1.436480448996829e-09,9.291772117860602e-10,6.085886093275281e-10,3.892096161099186e-10,2.869513443943604e-10,2.0919180240042482e-10,1.4274706666231062e-10,9.932346355053439e-11,7.077513400930627e-11,4.459654483450879e-11,2.9982550465651976e-11,1.9443013007265758e-11,1.1954042775996164e-11,7.400997051306794e-12,4.5225920105340065e-12,2.600266365886673e-12,1.4197699577021102e-12,7.810953537269696e-13
0.0,44,44.0,0.0,30.0,0.0,0.0,0.0,0.0,-13.0,0.0,2.0,0.0,0.0,0.0,8.251238310440786e-11,7.681863460570604e-11,6.84216741554325e-11,5.904502947371659e-11,5.140978157057002e-11,4.2505315420732565e-11,3.7705195861423405e-11,3.0353476714852426e-11,2.324328026387705e-11,1.8796831436996285e-11,1.482675344926162e-11,1.030472461137608e-11,7.927564176859427e-12,5.3370671046747195e-12,3.740389270162999e-12,2.51547641445619e-12,1.7292697895352474e-12,1.07908815825451e-12,6.553542465128862e-13,4.007823527362827e-13,2.383672477881946e-13,1.387764182906755e-13,8.415035920053411e-14,4.536555207884486e-14,2.5695838343697333e-14,1.2837051639338803e-14,2.7504406252558123e-09,1.4115269286037536e-09,9.036681512021986e-10,6.128964029399054e-10,4.187064607693131e-10,2.823038241549312e-10,2.0968307773687418e-10,1.4763489896288728e-10,1.0163638681054842e-10,6.783394388716741e-11,4.7127885890917415e-11,3.071416416168901e-11,1.7655987049909087e-11,1.2442928797907348e-11,7.052710530136837e-12,4.552565023654669e-12,2.5784277063469696e-12,1.5217759360545048e-12,8.127876153273259e-13
0.0,45,45.0,0.0,30.0,0.0,0.0,0.0,0.0,-13.0,0.0,2.0,0.0,0.0,0.0,8.333323360191268e-11,7.745534539176259e-11,7.18314160245437e-11,6.135218599775806e-11,5.2797777104801254e-11,4.606242263354453e-11,3.7897891481013647e-11,3.071590367315235e-11,2.5408631568806254e-11,1.9852427501704448e-11,1.4651619066919403e-11,1.0540615781119892e-11,8.034401508226817e-12,5.621924320709823e-12,3.822825361920695e-12,2.429213630354909e-12,1.6731329820034703e-12,1.053158504235915e-12,6.771147206066335e-13,4.214427513802948e-13,2.516601563613231e-13,1.450845486857773e-13,8.805746428962307e-14,4.4472863707575505e-14,2.6981061538267545e-14,1.1745512999400596e-14,2.8368400226741442e-09,1.3988583018511294e-09,9.170665658553492e-10,6.055035899394485e-10,4.230890165430016e-10,2.861724138037038e-10,2.0460715336738954e-10,1.476265077765947e-10,1.039926478342486e-10,7.615933973983836e-11,4.704776263432651e-11,3.1596191311433104e-11,1.878145045894768e-11,1.1847555480664282e-11,7.479939067925232e-12,4.345378112099554e-12,2.732203197761385e-12,1.461392052318522e-12,8.576421692844229e-13
0.0,46,46.0,0.0,30.0,0.0,0.0,0.0,0.0,-13.0,0.0,2.0,0.0,0.0,0.0,9.05956916789952e-11,7.890115433368346e-11,7.15604550256617e-11,6.195929509588432e-11,5.448603731222424e-11,4.624751363478618e-11,3.794702068438755e-11,3.1527970910256595e-11,2.5939252372412465e-11,1.9566566117720912e-11,1.4664805437414913e-11,1.0766381062830004e-11,7.516983606624414e-12,5.301294621398245e-12,3.803123877602574e-12,2.430651695746774e-12,1.6345692312280395e-12,1.1221235698623458e-12,7.213248354779148e-13,3.9850939855244503e-13,2.641681785647317e-13,1.4697151908610707e-13,8.507327696142939e-14,4.760527836461145e-14,2.767746473956042e-14,1.2166513159194472e-14,2.832802615464197e-09,1.4018052960550279e-09,9.179268749956377e-10,6.401587669712238e-10,4.2598519696672457e-10,3.028955910329124e-10,2.143648388092698e-10,1.452541224383646e-10,1.0832612751319118e-10,7.457794184208856e-11,4.8330041115581275e-11,3.1138830607670684e-11,1.9652835985120175e-11,1.22401919048881e-11,8.031691449850614e-12,4.746075083754388e-12,2.6340385091080727e-12,1.420049202791114e-12,7.509315322843814e-13
0.0,47,47.0,0.0,30.0,0.0,0.0,0.0,0.0,-13.0,0.0,2.0,0.0,0.0,0.0,8.500867860039987e-11,7.950559989526031e-11,7.439550751402034e-11,6.160774362250255e-11,5.509247134518915e-11,4.7927044491703624e-11,3.867128720058001e-11,3.126418621073335e-11,2.3944314941061908e-11,1.8650540988194598e-11,1.4843550247315863e-11,1.075663893958024e-11,7.845576035962866e-12,5.5034674872717934e-12,3.8672353632025115e-12,2.4888746793908625e-12,1.6633808796801282e-12,1.1457668698688229e-12,6.674448694276165e-13,4.1706294857094874e-13,2.480902473230295e-13,1.5061801361228442e-13,8.843139359877093e-14,4.729122494140321e-14,2.5987147524764916e-14,1.3755140980545002e-14,2.829600403159812e-09,1.416878017658506e-09,9.015612009293371e-10,5.758675493117006e-10,4.142516337399415e-10,3.029505177365908e-10,2.2067304561203946e-10,1.5231186019677914e-10,1.016128092323219e-10,6.888009097153885e-11,4.819252160013576e-11,2.988976866116876e-11,2.0803969295950553e-11,1.2635090082119598e-11,7.345982738268353e-12,4.463793233648951e-12,2.6054918881986343e-12,1.4694984979596135e-12,7.925420051891271e-13
0.0,48,48.0,0.0,30.0,0.0,0.0,0.0,0.0,-13.0,0.0,2.0,0.0,0.0,0.0,8.668633212249792e-11,7.91945716419697e-11,7.07641235956942e-11,6.577429263171931e-11,5.5104428837521126e-11,4.5278793160786966e-11,3.857248108658633e-11,3.0906477889802006e-11,2.4958701404471037e-11,2.0056047083543066e-11,1.49119659843375e-11,1.1667387730355368e-11,7.970962223667793e-12,5.401201802776227e-12,3.9101216164969315e-12,2.646500575178033e-12,1.743295934691862e-12,1.0520144085284149e-12,6.826352723567339e-13,4.360435307739213e-13,2.4045207356451235e-13,1.4690719629532476e-13,8.213231319661444e-14,4.68655708097444e-14,2.5468633761554215e-14,1.5562380757478128e-14,2.7574633525273444e-09,1.4183594430966392e-09,8.930135704639686e-10,6.310602182334943e-10,4.3835136221446967e-10,3.209600890734977e-10,2.2134402721031094e-10,1.4659003173316932e-10,1.045425913980102e-10,7.521103054426532e-11,4.7654114917119464e-11,3.349019925490706e-11,1.972051632205064e-11,1.296771428153166e-11,7.596846711866155e-12,4.5715281379821184e-12,2.7780576717125256e-12,1.5122833863132582e-12,8.608250917815686e-13
0.0,49,49.0,0.0,30.0,0.0,0.0,0.0,0.0,-13.0,0.0,2.0,0.0,0.0,0.0,9.148174761281713e-11,8.376176668790051e-11,7.128297628531504e-11,6.399154356424641e-11,5.6311113175846733e-11,4.602062338106779e-11,4.1337675996535204e-11,3.1346410040253054e-11,2.5222388887516485e-11,1.914342410388569e-11,1.398040884728118e-11,1.1610645401712363e-11,7.899440869166483e-12,5.5210189456086735e-12,3.820734509220273e-12,2.6882978816171555e-12,1.6466675079980399e-12,1.1138394536445916e-12,6.787759934815529e-13,4.151246068957272e-13,2.584588215449654e-13,1.5432012521876763e-13,8.509800055605733e-14,4.747693595867215e-14,2.5482672360037478e-14,1.5545113266193334e-14,2.7218374219331292e-09,1.382669391835583e-09,9.713029604700223e-10,6.108651989956705e-10,4.553954736932086e-10,3.1489106186208737e-10,2.2324002087216736e-10,1.526822581479608e-10,1.0924266210526507e-10,7.016426792954427e-11,5.00542904470324e-11,3.3728918185407776e-11,2.1176111275593415e-11,1.2106883335865719e-11,7.646420532065143e-12,4.661869459799561e-12,2.75385667405135e-12,1.5263408257135968e-12,8.317030411601371e-13
0.0,50,50.0,0.0,30.0,0.0,0.0,0.0,0.0,-13.0,0.0,2.0,0.0,0.0,0.0,9.303352518148838e-11,8.588075450827386e-11,7.366070411569669e-11,6.66578874479698e-11,5.193105036354556e-11,4.64421823429955e-11,3.9480963368446507e-11,3.1974789666987845e-11,2.5977947872246205e-11,2.054517429401725e-11,1.5313299848558644e-11,1.090849889998081e-11,7.648951567513989e-12,5.733911285179909e-12,3.657001005545923e-12,2.6447235143037954e-12,1.694342873471063e-12,1.0569201715365096e-12,6.953858020693914e-13,4.237010745297095e-13,2.5451194625178974e-13,1.4992066007008274e-13,8.811744868931435e-14,5.0799838079210956e-14,2.783908816790931e-14,1.5583665596641227e-14,2.759615548544076e-09,1.543941621234035e-09,9.587163728363572e-10,6.354250969265042e-10,4.368242688940735e-10,3.1988490266305044e-10,2.1584755958349608e-10,1.530840714253726e-10,1.103760645412574e-10,7.349983683672542e-11,4.842936590565666e-11,3.258586704456343e-11,2.0914108133578342e-11,1.2948498089219418e-11,7.870569644465059e-12,4.8560473672019715e-12,2.7676070370428705e-12,1.5340853222872883e-12,9.192694671263827e-13
0.0,51,51.0,0.0,30.0,0.0,0.0,0.0,0.0,-13.0,0.0,2.0,0.0,0.0,0.0,9.316185957879617e-11,8.693021323167666e-11,7.387269960234261e-11,6.33557128388616e-11,5.562616039203179e-11,4.7968796347546364e-11,3.972527514084493e-11,3.412659932396802e-11,2.5900896352603517e-11,2.041948301044788e-11,1.5207459144671984e-11,1.1070549537412233e-11,8.092099980035631e-12,5.97603045800605e-12,3.807945520468475e-12,2.6698117009886243e-12,1.6597610243862039e-12,1.0845999877596782e-12,6.9148976945544e-13,4.2893014340800176e-13,2.6692127813285314e-13,1.5058404585692034e-13,8.497338189658525e-14,5.061168231085378e-14,2.692967738113212e-14,1.487275606142523e-14,2.748356848564716e-09,1.3954122803710677e-09,9.682423978543124e-10,6.666091125624258e-10,4.712142422609613e-10,3.402204192587546e-10,2.1987229008391618e-10,1.624959637009296e-10,1.1251615581459078e-10,7.493405623472513e-11,5.107410213564857e-11,3.351653447092374e-11,2.0339615603981274e-11,1.3269015185768973e-11,7.821477957974241e-12,4.6870150056980146e-12,2.6165223734712365e-12,1.5355276514077007e-12,8.526904823508508e-13
0.0,52,52.0,0.0,30.0,0.0,0.0,0.0,0.0,-13.0,0.0,2.0,0.0,0.0,0.0,9.541609194341017e-11,8.518916868590915e-11,7.259175838426468e-11,6.862595750311582e-11,5.747919024943199e-11,4.965492963308604e-11,4.1975971097985154e-11,3.459297075152694e-11,2.7817324022088056e-11,2.0301042706638478e-11,1.5518658014662616e-11,1.095192319233502e-11,8.411094911611842e-12,5.5248099671635366e-12,3.712921738430436e-12,2.691425119996681e-12,1.6943318610190391e-12,1.1299060394849125e-12,7.019677522871217e-13,4.048999687707947e-13,2.350266237978603e-13,1.461967973125368e-13,8.775685526505243e-14,4.753489624381064e-14,2.6748572801933758e-14,1.3144544849791998e-14,2.767815421224387e-09,1.496034268173996e-09,9.513496182677837e-10,6.924516728940772e-10,4.863792931785375e-10,3.3331891341986145e-10,2.1901638240678998e-10,1.5700905163574285e-10,1.1411915179828985e-10,7.54785727626665e-11,5.038460718807878e-11,3.433118127876786e-11,2.1685270959108167e-11,1.384130551757063e-11,8.021650907208994e-12,5.027115911600361e-12,2.7437869496426113e-12,1.644051563432851e-12,8.680479986718881e-13
0.0,53,53.0,0.0,30.0,0.0,0.0,0.0,0.0,-13.0,0.0,2.0,0.0,0.0,0.0,9.267898321295374e-11,8.209445680350222e-11,7.640922579976941e-11,6.722814812927172e-11,5.99033208888607e-11,4.936300749348091e-11,4.073325527983577e-11,3.4632139874497335e-11,2.637334516844947e-11,2.0196965465812294e-11,1.5791002569333553e-11,1.1253081379622375e-11,8.383374011516888e-12,5.67031032633985e-12,3.927313914184717e-12,2.654682379592895e-12,1.7109281158679194e-12,1.1082334615392968e-12,7.126395187748246e-13,4.3209685879440474e-13,2.6045273885723933e-13,1.487828287914155e-13,9.046931383559344e-14,5.120187490530668e-14,2.9090644107110016e-14,1.4067711545036294e-14,2.736519089678845e-09,1.531516381675683e-09,9.59496086847882e-10,6.697536782090305e-10,4.999431596127961e-10,3.5233990564133405e-10,2.438030294935025e-10,1.6945364029509563e-10,1.1086606764021012e-10,7.91879105763247e-11,5.1243580119090105e-11,3.2769004510101236e-11,2.1277681103214455e-11,1.3509155301719391e-11,8.075523176546262e-12,4.7938686015760885e-12,2.88378531673736e-12,1.5925213942354613e-12,8.785531431838448e-13
0.0,54,54.0,0.0,30.0,0.0,0.0,0.0,0.0,-13.0,0.0,2.0,0.0,0.0,0.0,9.674908845264457e-11,8.569747698643955e-11,7.490510837684009e-11,6.925581299425735e-11,5.822919540488376e-11,4.7102168943000996e-11,4.1258849508560195e-11,3.281301247900057e-11,2.73996058528238e-11,2.10869617209526e-11,1.590712116860577e-11,1.1295016365548362e-11,8.473073985690968e-12,5.875343385098561e-12,3.933460918581399e-12,2.623410018233912e-12,1.786300241168793e-12,1.0975769717954647e-12,7.041875429634547e-13,4.411932728166418e-13,2.721843333182778e-13,1.5994805465170894e-13,9.094325872371952e-14,4.752222666909246e-14,2.7063160785460103e-14,1.4381056743757445e-14,2.8852653391790243e-09,1.4829915910324723e-09,1.0013451141772265e-09,6.864133018687442e-10,4.665235263173575e-10,3.4193019401421057e-10,2.415298929520973e-10,1.6098172082563514e-10,1.2027087243186495e-10,7.411766705353739e-11,5.1552495742098e-11,3.52636290337207e-11,2.1078303388579324e-11,1.3753607001172288e-11,7.97256289860122e-12,4.908366563613842e-12,2.6438089717024453e-12,1.5580794800178196e-12,8.355171720835101e-13
