Line_number,Fiducial,Easting,Northing,Height,Elevation,tx_pitch,tx_roll,tx_yaw,txrx_dx,txrx_dy,txrx_dz,rx_pitch,rx_roll,rx_yaw,S0Z_time_7.292e-05,S0Z_time_7.642e-05,S0Z_time_8.092e-05,S0Z_time_8.642e-05,S0Z_time_9.341e-05,S0Z_time_1.024e-04,S0Z_time_1.139e-04,S0Z_time_1.284e-04,S0Z_time_1.464e-04,S0Z_time_1.689e-04,S0Z_time_1.969e-04,S0Z_time_2.324e-04,S0Z_time_2.779e-04,S0Z_time_3.349e-04,S0Z_time_4.069e-04,S0Z_time_4.979e-04,S0Z_time_6.119e-04,S0Z_time_7.559e-04,S0Z_time_9.373e-04,S0Z_time_1.166e-03,S0Z_time_1.454e-03,S0Z_time_1.818e-03,S0Z_time_2.276e-03,S0Z_time_2.855e-03,S0Z_time_3.574e-03,S0Z_time_4.454e-03,S0Z_time_5.530e-03,S0Z_time_6.849e-03,S0Z_time_8.463e-03,S0Z_time_1.044e-02,S1Z_time_1.273e-05,S1Z_time_1.623e-05,S1Z_time_2.073e-05,S1Z_time_2.623e-05,S1Z_time_3.323e-05,S1Z_time_4.222e-05,S1Z_time_5.373e-05,S1Z_time_6.822e-05,S1Z_time_8.622e-05,S1Z_time_1.087e-04,S1Z_time_1.367e-04,S1Z_time_1.722e-04,S1Z_time_2.177e-04,S1Z_time_2.747e-04,S1Z_time_3.467e-04,S1Z_time_4.377e-04,S1Z_time_5.517e-04,S1Z_time_6.957e-04,S1Z_time_8.772e-04,S1Z_time_1.106e-03,S1Z_time_1.394e-03
0.0,0,0.0,0.0,30.0,0.0,0.0,0.0,0.0,-13.0,0.0,2.0,0.0,0.0,0.0,3.0852261881445577e-10,2.717996167140021e-10,2.529405189676635e-10,2.073148419735241e-10,1.9050567833505504e-10,1.589060158079294e-10,1.3367559205845565e-10,1.0733708608788153e-10,9.369568349156124e-11,7.383804591812797e-11,5.659473632266516e-11,4.477416946679928e-11,3.1666939122373994e-11,2.38669981318512e-11,1.5950946095380998e-11,1.021495217276023e-11,6.966973562355098e-12,4.235990992681285e-12,2.755255789147421e-12,1.579469554671789e-12,9.277506143031303e-13,5.402483836287087e-13,3.087865873507048e-13,1.7910074280907614e-13,9.536119271660906e-14,5.111442963846239e-14,2.7336925530925712e-14,1.6047810410682633e-14,7.571143866668838e-15,3.294189219291065e-15,7.068197206249913e-09,3.834465373623503e-09,2.0369718682907356e-09,1.1498178492388493e-09,6.242867274941764e-10,3.9580719371244387e-10,2.378256332611244e-10,1.8862463933666443e-10,1.2130676620110658e-10,9.395047058151418e-11,6.73725737249648e-11,4.6737301239919e-11,3.32072537827998e-11,2.2096240923252452e-11,1.3528564042321257e-11,8.620901022835954e-12,4.926000549611937e-12,2.720139574450614e-12,1.5462721590911609e-12,8.169474189514454e-13,4.4136091700351514e-13
0.0,1,1.0,0.0,30.0,0.0,0.0,0.0,0.0,-13.0,0.0,2.0,0.0,0.0,0.0,2.8893045696381576e-10,2.7121470505716837e-10,2.316386906496398e-10,2.144697865723328e-10,1.8013627727515183e-10,1.4989793168528897e-10,1.4114469654368086e-10,1.0404614221214544e-10,9.077022505720174e-11,6.792012884358896e-11,5.7572015777264354e-11,4.411887726080379e-11,3.216559793492026e-11,2.2258766519689146e-11,1.5783926139418976e-11,1.0625835408892219e-11,6.8632770220857556e-12,4.386977946426425e-12,2.904670220354404e-12,1.7101987083799196e-12,1.0374252502834998e-12,5.599727237555658e-13,3.218202502635053e-13,1.7250871900239884e-13,9.648285634622364e-14,5.3714089829190455e-14,2.890450321023842e-14,1.791549764582127e-14,8.626905259813208e-15,4.366388532012264e-15,7.355654724764573e-09,3.874679337552808e-09,1.967132478872008e-09,1.0883061721825783e-09,6.596099259922249e-10,3.9511109646516906e-10,2.4917009334736804e-10,1.7650235911647965e-10,1.3026451900871619e-10,8.99727881757441e-11,6.708446148435952e-11,4.794388744326043e-11,3.1997408797173843e-11,2.2170575373666807e-11,1.3582682419716762e-11,8.726770822532027e-12,5.149246285542038e-12,3.028161198247852e-12,1.5889958162836017e-12,8.773050608974546e-13,4.981139722500602e-13
0.0,2,2.0,0.0,30.0,0.0,0.0,0.0,0.0,-13.0,0.0,2.0,0.0,0.0,0.0,2.904720047486215e-10,2.714688958168394e-10,2.3352996002853173e-10,2.06658959584374e-10,1.8242517080029843e-10,1.5080000755574581e-10,1.2798277371159613e-10,1.0650820462572525e-10,8.905183846083215e-11,7.448632772265258e-11,5.582611436624706e-11,4.52530436277732e-11,3.375084117245984e-11,2.4009307726332588e-11,1.7332854942027192e-11,1.141462335148773e-11,7.514876236869247e-12,4.757284107828295e-12,2.9384858574299814e-12,1.7911130296118429e-12,1.0054130796723562e-12,6.269785037172254e-13,3.4406300743670875e-13,1.8496539862119808e-13,1.0946077847558583e-13,5.5402119078968813e-14,3.2180203670179764e-14,1.590526423644145e-14,9.89144088376328e-15,6.720657660821321e-15,6.8904408473739355e-09,3.824542560682634e-09,2.0800954141879512e-09,1.1132622589179705e-09,6.370407824947706e-10,3.9053860648365314e-10,2.406438310816702e-10,1.6291555536483847e-10,1.1927972544069065e-10,9.281208188989576e-11,6.398399023345642e-11,4.494247615239457e-11,3.394061045408554e-11,2.1789181349834484e-11,1.4199698806081476e-11,8.624012152251467e-12,5.5101316500210194e-12,3.2024483382365993e-12,1.727753858530457e-12,9.143241521272648e-13,4.629442808481175e-13
0.0,3,3.0,0.0,30.0,0.0,0.0,0.0,0.0,-13.0,0.0,2.0,0.0,0.0,0.0,2.9696937604678044e-10,2.9230827458424787e-10,2.4130720361141814e-10,2.099327586430661e-10,1.8059516406714786e-10,1.5367669217139214e-10,1.268984977696073e-10,1.0677271336952255e-10,8.514511599640765e-11,6.869678233662058e-11,5.686904993478159e-11,4.438083837770572e-11,3.210303203932392e-11,2.3869435417553695e-11,1.7070826327197354e-11,1.2047912441393323e-11,7.860385207326116e-12,5.001019133901029e-12,2.980594297017424e-12,1.9262264726728222e-12,1.1491240900820033e-12,6.978141460168235e-13,3.740250054201325e-13,2.1108510279494839e-13,1.15625351223224e-13,5.675914357940973e-14,3.2425007915877454e-14,1.735980394702764e-14,8.815361455194148e-15,5.8455299991991975e-15,7.569251409207702e-09,3.7297027872109636e-09,2.001280444666948e-09,1.1129572990547923e-09,6.159727916664176e-10,3.566152492839597e-10,2.453840452744026e-10,1.6336097258001533e-10,1.136059083358278e-10,9.015505652697758e-11,6.748908803745635e-11,4.720441654049397e-11,3.3015568918244144e-11,2.250800910567384e-11,1.4570787608458277e-11,9.352491784020605e-12,5.592901514723703e-12,3.2125632802464145e-12,1.919680997107332e-12,1.0287445463387376e-12,5.765972892037893e-13
0.0,4,4.0,0.0,30.0,0.0,0.0,0.0,0.0,-13.0,0.0,2.0,0.0,0.0,0.0,2.8581604372219384e-10,2.6038356814343335e-10,2.489370172738225e-10,2.061561966245479e-10,1.8743218522116486e-10,1.6118374501606454e-10,1.2207976474367042e-10,1.024181168819359e-10,8.21087364531676e-11,7.039475115616723e-11,5.5081243648774265e-11,4.158660124869683e-11,3.352677950666907e-11,2.5515404030378795e-11,1.709546887591856e-11,1.2589786191898163e-11,8.281559246623914e-12,5.23648888871922e-12,3.181911857583569e-12,1.9856490051486556e-12,1.2721139501217553e-12,6.848289245539246e-13,3.974699597972031e-13,2.1535893014153905e-13,1.145338772730087e-13,6.52642788972803e-14,3.6605046141833603e-14,1.9608957864857057e-14,1.1373105335795271e-14,5.3117762141580704e-15,7.196018926675911e-09,3.878206078812649e-09,1.9859305226001403e-09,1.0778625711787284e-09,5.99801568371575e-10,3.935480083872167e-10,2.4857562152697253e-10,1.6127697952138787e-10,1.1364776005707571e-10,9.148097908995626e-11,6.544064600079719e-11,4.633878033735733e-11,3.088579846234538e-11,2.2012424739010863e-11,1.4264584468275723e-11,9.28864786324105e-12,5.730518154151977e-12,3.330654753388343e-12,1.846648591976456e-12,1.0799049109465727e-12,5.602564828299379e-13
0.0,5,5.0,0.0,30.0,0.0,0.0,0.0,0.0,-13.0,0.0,2.0,0.0,0.0,0.0,2.992740465662843e-10,2.829364922889663e-10,2.48644997806597e-10,2.1837591358356347e-10,1.8602524714641746e-10,1.5463697808444955e-10,1.2585815602045534e-10,1.0082450039084414e-10,8.754025726424484e-11,6.960924453500788e-11,5.927552993356446e-11,4.3316283657597005e-11,3.374050027080382e-11,2.496711241938584e-11,1.708160139680049e-11,1.212796746523704e-11,7.86092497546915e-12,5.487956843503368e-12,3.449168738987894e-12,2.1586938164186015e-12,1.230699900792238e-12,7.073232004242413e-13,4.083941260607677e-13,2.3196169764363554e-13,1.207367013427376e-13,6.796379996527885e-14,3.6646573898908294e-14,2.0202744399016994e-14,9.738959935338437e-15,5.453446807208521e-15,7.439729060314089e-09,3.719273171123217e-09,1.9855596476268765e-09,1.1546977209165524e-09,6.349930002813522e-10,3.940061051731644e-10,2.5207253928750905e-10,1.756323348081178e-10,1.2220357039763521e-10,8.590019811753515e-11,6.228909199484902e-11,4.4922837084312046e-11,3.259514397792434e-11,2.209438901565545e-11,1.4753902388522205e-11,9.523115048314017e-12,5.935027925251451e-12,3.6688094906010106e-12,1.9431273141310977e-12,1.13855370263172e-12,5.736538739655951e-13
0.0,6,6.0,0.0,30.0,0.0,0.0,0.0,0.0,-13.0,0.0,2.0,0.0,0.0,0.0,2.9310787067993456e-10,2.740932426245416e-10,2.3250380524521926e-10,2.0553820449371807e-10,1.8154482451607087e-10,1.5075859048858737e-10,1.3297645161846962e-10,1.0245935070746346e-10,8.54555213625286e-11,6.866586290999987e-11,5.77099093255409e-11,4.202064033308466e-11,3.3834727301064756e-11,2.574675727801259e-11,1.882095869328107e-11,1.2698832827133819e-11,9.011790811232539e-12,5.455982768828101e-12,3.5020840989833836e-12,2.167277970013878e-12,1.3279383195350763e-12,7.185356603935631e-13,4.4616048144654083e-13,2.5000615942893745e-13,1.3017244725117676e-13,7.343489075633385e-14,3.85148405120387e-14,1.8996672439039812e-14,9.813527442767211e-15,5.059633120201323e-15,7.223716131323754e-09,3.886599585747265e-09,2.0162138264045068e-09,1.0642524337111522e-09,6.30846054762251e-10,3.774947601005876e-10,2.635839939537124e-10,1.699250224343845e-10,1.2092646477377917e-10,8.578345003629733e-11,6.014337079868525e-11,4.467906164218156e-11,3.241009140117098e-11,2.1809285568154666e-11,1.401591934454001e-11,9.503955740509996e-12,5.846636489811051e-12,3.589990856183949e-12,2.1213680042962205e-12,1.117640714204306e-12,6.039787100525604e-13
0.0,7,7.0,0.0,30.0,0.0,0.0,0.0,0.0,-13.0,0.0,2.0,0.0,0.0,0.0,2.9830715895854677e-10,2.6530747889567814e-10,2.4678996765589267e-10,2.0940637363439373e-10,1.785535177307403e-10,1.485199043839678e-10,1.2871888836886687e-10,1.0816019185264005e-10,8.731420080131554e-11,6.738451095319999e-11,5.4865647730677206e-11,4.421146330775909e-11,3.453493898048543e-11,2.6017881227631512e-11,1.8301390995886983e-11,1.3214190051409924e-11,8.373759201707636e-12,5.8553617777999216e-12,3.85515130693654e-12,2.2848654032297803e-12,1.431212896921829e-12,8.353832059055047e-13,4.633590405368439e-13,2.6569954594654066e-13,1.3654499455919044e-13,7.3361493665064e-14,4.176629724312715e-14,2.149796069962356e-14,9.665776658928567e-15,5.820839691118195e-15,7.76763947291911e-09,3.493209995881555e-09,2.0428200276890663e-09,1.063362276957381e-09,6.382811924871844e-10,3.9563788108810663e-10,2.4331650382177917e-10,1.6542909286634287e-10,1.1901752921625818e-10,8.666308183685806e-11,5.917149534994906e-11,4.537275261824576e-11,3.190027015035639e-11,2.1942778956790633e-11,1.4792781377738832e-11,9.211745336794891e-12,5.978400410951113e-12,3.653092798700552e-12,2.162859314536984e-12,1.1841548518489178e-12,6.659225001371971e-13
0.0,8,8.0,0.0,30.0,0.0,0.0,0.0,0.0,-13.0,0.0,2.0,0.0,0.0,0.0,3.054306042782296e-10,2.796108528394661e-10,2.495165047094916e-10,2.2347194975596379e-10,1.7925264119283224e-10,1.5453135071661875e-10,1.2863283998852079e-10,1.0417642722971175e-10,8.396876789854835e-11,7.122873640045064e-11,5.461582482238864e-11,4.4291059990832765e-11,3.2800878814205705e-11,2.394927212385151e-11,1.8917909775887442e-11,1.3625408822208953e-11,8.942153718566737e-12,5.990179193465021e-12,3.982559847238854e-12,2.401945088105961e-12,1.477858489271529e-12,8.547186602363035e-13,4.942131868443074e-13,2.6709710951953415e-13,1.455393070780795e-13,7.890949797915524e-14,3.904329218267568e-14,2.0906481816559202e-14,1.285903325928968e-14,7.466810579929795e-15,7.198128923653556e-09,3.6337382063491594e-09,2.023871138816673e-09,1.0779648859836507e-09,6.060173154213489e-10,3.948991104661372e-10,2.62433593393355e-10,1.7990181879939225e-10,1.2229692293512848e-10,8.621028657707978e-11,6.003763009678651e-11,4.639557208588383e-11,3.132760711624208e-11,2.259602639774841e-11,1.4504980127516193e-11,1.0084384310466239e-11,5.742630874463618e-12,3.716264479405185e-12,2.1037512999929453e-12,1.1886982471445963e-12,6.222192249955273e-13
0.0,9,9.0,0.0,30.0,0.0,0.0,0.0,0.0,-13.0,0.0,2.0,0.0,0.0,0.0,2.9599660025028564e-10,2.973235832175678e-10,2.440381086225907e-10,2.2209894352827402e-10,1.76354757512937e-10,1.693480995286198e-10,1.3119424044810915e-10,1.101845944266218e-10,9.028076785184585e-11,6.906041639628809e-11,5.615523302385028e-11,4.3096065853664126e-11,3.2516283392665165e-11,2.3725622535278234e-11,1.824978578025145e-11,1.331205461127498e-11,9.246914451352587e-12,6.0501367432119144e-12,3.9276100633836156e-12,2.4599646778646745e-12,1.4453361179014292e-12,8.292580711665123e-13,4.869247650360544e-13,2.6280176026201455e-13,1.5442796599571638e-13,8.737032017176399e-14,4.464349285543623e-14,2.2537664938471167e-14,1.1893341663017216e-14,7.437236240247548e-15,6.954003991702069e-09,3.7351599929241785e-09,1.8154836492675191e-09,1.035198667308458e-09,6.172370323324754e-10,3.968455326721682e-10,2.517407960087889e-10,1.804082302649942e-10,1.254908424056281e-10,9.334593276102756e-11,6.082557914830622e-11,4.1713550334988035e-11,2.8732665940334443e-11,2.1344809431069865e-11,1.5036965227659088e-11,9.625492955726133e-12,6.2167822842199015e-12,3.7292078784201556e-12,2.2087296176154984e-12,1.1811785755987004e-12,7.139130414328939e-13
0.0,10,10.0,0.0,30.0,0.0,0.0,0.0,0.0,-13.0,0.0,2.0,0.0,0.0,0.0,3.083311482156083e-10,2.721798054927633e-10,2.356198446975975e-10,2.2062342823540084e-10,1.885755797920015e-10,1.5809264666548677e-10,1.3833481874230067e-10,1.0646114845895759e-10,8.554384080827212e-11,7.224639768134468e-11,5.665612236614433e-11,4.1803336291183086e-11,3.3953424498103054e-11,2.6313471330951552e-11,1.814270922508067e-11,1.2847048242224165e-11,8.887892802412627e-12,6.258442551949604e-12,4.0677895592342725e-12,2.4188353184431396e-12,1.5767674811437335e-12,9.34791996930076e-13,5.191408082061578e-13,2.684766374802476e-13,1.6076880475805844e-13,7.987641046540208e-14,4.604965958573829e-14,2.506157373398983e-14,1.336121877537836e-14,3.847860953220454e-15,6.901931056122627e-09,3.782127492524266e-09,1.9256766741301324e-09,1.0181113796271953e-09,6.197567320768725e-10,3.911768076402417e-10,2.464808222251228e-10,1.8816071969569496e-10,1.293165104458455e-10,8.977619217322836e-11,6.197163538286704e-11,4.415187434787749e-11,3.035237303866422e-11,2.070204896947305e-11,1.4518651152011474e-11,9.856662908689639e-12,6.068356482289281e-12,3.713815931949947e-12,2.2338201226749196e-12,1.2938191157941655e-12,6.75698032505096e-13
0.0,11,11.0,0.0,30.0,0.0,0.0,0.0,0.0,-13.0,0.0,2.0,0.0,0.0,0.0,2.934378615619289e-10,2.9368964091022334e-10,2.4225373365983936e-10,2.2276796400275522e-10,1.9057519356879055e-10,1.5682781745712667e-10,1.396471958200396e-10,1.1273053070581672e-10,9.01585628703869e-11,7.220577409130944e-11,5.674589643984401e-11,4.231743004707219e-11,3.262289637391306e-11,2.361719160969583e-11,1.8497922797411206e-11,1.3694759648431374e-11,9.05064223633942e-12,6.224845157326777e-12,3.970008522688904e-12,2.5247093495326503e-12,1.5519176634752706e-12,8.887348267856321e-13,5.513773557801382e-13,2.984251796656715e-13,1.6806713393604808e-13,8.859150629537205e-14,4.524983791992064e-14,2.4363694885650422e-14,1.111101930583662e-14,7.575643736114061e-15,7.05848530855957e-09,3.592104073305874e-09,1.8322702910066471e-09,1.0445463646943052e-09,6.073498721193085e-10,3.947743790981839e-10,2.53768699822477e-10,1.9206456860839838e-10,1.3150961987655113e-10,8.94073882043126e-11,6.114343243165477e-11,4.470070121401809e-11,2.9181578717649107e-11,2.1954727711439247e-11,1.472656655090657e-11,9.916676988121393e-12,5.997711541013971e-12,3.868648787049164e-12,2.3385218222003517e-12,1.2659062725471428e-12,6.859407744324745e-13
0.0,12,12.0,0.0,30.0,0.0,0.0,0.0,0.0,-13.0,0.0,2.0,0.0,0.0,0.0,3.208694989860306e-10,2.8914708050024606e-10,2.580933306831611e-10,2.2082002034180445e-10,1.858722911581152e-10,1.683226689288712e-10,1.273036513706307e-10,1.1397662769100343e-10,8.879605902846524e-11,7.150409308763887e-11,5.5440354953562555e-11,4.448860454327383e-11,3.365222873523885e-11,2.604853994544066e-11,1.824262743117059e-11,1.3088745293286506e-11,9.111806947922921e-12,6.264822860551436e-12,4.041938210309438e-12,2.704117070645009e-12,1.6738223688769676e-12,9.018496428934477e-13,5.295487727404999e-13,2.996652949995841e-13,1.7278760698908123e-13,8.855898736088669e-14,4.9438721890267194e-14,2.7438349551699415e-14,1.4119303764771562e-14,5.9683651103373766e-15,6.750049087269642e-09,3.364711297006537e-09,1.935667268750552e-09,1.019230769749992e-09,6.293862728080387e-10,3.9796661395433937e-10,2.5394639859454174e-10,1.8806623234567074e-10,1.2524241671457442e-10,8.988439241371982e-11,6.240840852010166e-11,4.528911106135336e-11,3.050626652676895e-11,2.2714544958871586e-11,1.4057405543219563e-11,9.518980692728693e-12,6.037871500790025e-12,3.8871253455181815e-12,2.26157675429159e-12,1.241013851839347e-12,7.213111029108248e-13
0.0,13,13.0,0.0,30.0,0.0,0.0,0.0,0.0,-13.0,0.0,2.0,0.0,0.0,0.0,3.148621883207417e-10,2.791318827731584e-10,2.4913448365761994e-10,2.192188949671961e-10,1.966372465520089e-10,1.6296397337187656e-10,1.2782281456193924e-10,1.0936364319518788e-10,9.360442159771902e-11,7.39976208679468e-11,5.79197258855708e-11,4.398089745523869e-11,3.552922471121243e-11,2.482752998818316e-11,1.822708868813811e-11,1.2995456506501962e-11,9.139534306224931e-12,6.445846763978663e-12,3.89141978763494e-12,2.5658462732224926e-12,1.7132787959280425e-12,9.59957657528634e-13,5.48574935063733e-13,3.179051102756109e-13,1.7137621599628132e-13,9.541367089783678e-14,4.8124433725831744e-14,2.857653854923141e-14,1.2355093119877489e-14,7.221003595740942e-15,6.985404175624747e-09,3.6627119010115317e-09,1.8928641678147396e-09,1.0552890387357353e-09,6.278011432370285e-10,4.1296280483575964e-10,2.6568819625509786e-10,1.9024117703238247e-10,1.2794125209813968e-10,9.264244491010766e-11,6.520983538572351e-11,4.703531554883728e-11,3.076554168648378e-11,2.085958110826005e-11,1.4239018366431031e-11,9.427078384147914e-12,5.690881733985004e-12,3.691238572253343e-12,2.3500754093842794e-12,1.3030531020107738e-12,7.22569457859609e-13
0.0,14,14.0,0.0,30.0,0.0,0.0,0.0,0.0,-13.0,0.0,2.0,0.0,0.0,0.0,3.18571700593125e-10,2.974776623824154e-10,2.7313191833755106e-10,2.3016392705618842e-10,1.946010554314258e-10,1.6684523452695463e-10,1.4186856556173064e-10,1.1646992011093494e-10,8.90593020982958e-11,7.485399274483854e-11,6.03667566501134e-11,4.4139438710046203e-11,3.352198024130026e-11,2.4245261966962366e-11,1.778859337197693e-11,1.3204471997891615e-11,9.500586198747731e-12,6.283865945841329e-12,4.336047157238173e-12,2.775627396806432e-12,1.6589796456808652e-12,1.02893369865587e-12,5.816179794784555e-13,3.304118371954887e-13,1.8719834632821767e-13,1.0542298632590571e-13,4.951486565597322e-14,2.717852388478492e-14,1.5524328091782666e-14,7.330513714446523e-15,6.854948581462206e-09,3.7947051332168426e-09,1.8816423078020437e-09,1.0768791892720813e-09,6.239853961150028e-10,3.809912389778411e-10,2.649955280162332e-10,1.907799858074356e-10,1.3316377805933305e-10,9.15638548326686e-11,7.036945608095285e-11,4.6323195379014264e-11,3.062002583495685e-11,2.2215025158557168e-11,1.4695947446772603e-11,9.250003934902763e-12,6.177836782227856e-12,3.8782975811227545e-12,2.3137702852405092e-12,1.3295178348781335e-12,6.955217917203813e-13
0.0,15,15.0,0.0,30.0,0.0,0.0,0.0,0.0,-13.0,0.0,2.0,0.0,0.0,0.0,3.1269436057077315e-10,2.948032008621749e-10,2.5747776428383266e-10,2.2577425302414895e-10,2.0352209819172782e-10,1.659318506428035e-10,1.3310793201522226e-10,1.123709622344634e-10,9.109814556192055e-11,7.381712143836608e-11,5.576362896383537e-11,4.4315805739872846e-11,3.282105132017871e-11,2.5609789943000817e-11,1.8299033148347277e-11,1.3434666196842467e-11,9.382744746010898e-12,6.1293940570706824e-12,4.2303087350663155e-12,2.875877035211449e-12,1.6250280857892727e-12,1.058457249385323e-12,6.008636665834024e-13,3.2362379783198406e-13,1.9024472471718522e-13,1.0433247505362956e-13,5.379159214823703e-14,2.8960075725682307e-14,1.674763184810565e-14,7.234194450453718e-15,7.293286364090187e-09,3.768567371972144e-09,1.7994476264930276e-09,1.0526831091697767e-09,6.319823932323674e-10,4.176842029764902e-10,2.811521911250768e-10,1.9760178285519914e-10,1.2749603818812183e-10,9.891508186951262e-11,6.823794830313875e-11,4.4118684672832667e-11,3.310884549284123e-11,2.078656091601244e-11,1.4656636380849694e-11,9.228476790829753e-12,6.006609878569176e-12,3.8347579207974295e-12,2.2722333675106985e-12,1.2727465832536082e-12,7.545722336576082e-13
0.0,16,16.0,0.0,30.0,0.0,0.0,0.0,0.0,-13.0,0.0,2.0,0.0,0.0,0.0,3.073859198739858e-10,3.027605513271957e-10,2.546712497403422e-10,2.3156293871214378e-10,2.0369830067925097e-10,1.8066567375116792e-10,1.336245759152937e-10,1.1696372893150978e-10,9.011795502839634e-11,7.60811456695534e-11,5.829859298916266e-11,4.6174968121438747e-11,3.538333525173405e-11,2.4884418370789458e-11,1.844524191641066e-11,1.3597399446007689e-11,9.17772203300081e-12,6.480304417307207e-12,4.3758253104155594e-12,2.6812949914139002e-12,1.6554100894106113e-12,1.0553469990237688e-12,6.295707568847316e-13,3.3243631595984693e-13,1.953992570523961e-13,1.0312669529091655e-13,5.5356201627369686e-14,3.0877048564978594e-14,1.5404015949771745e-14,7.250359573177944e-15,6.880331438995371e-09,3.5441351750283506e-09,1.8472298930037672e-09,1.0827767533811976e-09,6.193760673765375e-10,3.9497957484937696e-10,2.762638719723646e-10,1.9483875289127863e-10,1.3509714458015973e-10,9.263654807382405e-11,6.81649334257426e-11,5.069464001347058e-11,3.272816941777724e-11,2.0574711570280104e-11,1.3960429876939971e-11,9.417885358520848e-12,6.130410164093548e-12,3.699634823520615e-12,2.4394098254970155e-12,1.3611720883475299e-12,7.6242608051566e-13
0.0,17,17.0,0.0,30.0,0.0,0.0,0.0,0.0,-13.0,0.0,2.0,0.0,0.0,0.0,3.3323500074296203e-10,3.028184589322679e-10,2.5147553333554744e-10,2.3028843181902473e-10,1.998081983687816e-10,1.70590255756897e-10,1.440206781186204e-10,1.196694484165749e-10,9.255557649676973e-11,7.411290403740484e-11,5.898614125108103e-11,4.635218708979201e-11,3.4771603432882285e-11,2.5734252493079436e-11,1.9131555202634143e-11,1.3120975471063395e-11,9.658326283330883e-12,6.49011728046527e-12,4.3162006369341524e-12,2.949974893551086e-12,1.7424357454288137e-12,1.044238773153469e-12,6.544590509627245e-13,3.5649498153071995e-13,2.045337530815322e-13,1.0879795577826882e-13,5.395779228467086e-14,3.0817381746866084e-14,1.6436446897887335e-14,8.327316690117671e-15,6.97874875685136e-09,3.6732110515383317e-09,1.9338298313786297e-09,1.0677660483213862e-09,6.169990307412558e-10,4.087713068884234e-10,2.7092773055176176e-10,1.9068635239477846e-10,1.353458817588363e-10,9.725210557125465e-11,6.92654533237284e-11,5.083281788637966e-11,3.277837435809091e-11,2.3005953167402192e-11,1.4434406011502141e-11,9.61906362133265e-12,5.960546205384646e-12,3.777208845764235e-12,2.2400415701723994e-12,1.3722447720802899e-12,7.406194356532938e-13
0.0,18,18.0,0.0,30.0,0.0,0.0,0.0,0.0,-13.0,0.0,2.0,0.0,0.0,0.0,3.210624810356963e-10,3.0540193647337523e-10,2.7344877173829284e-10,2.392601156526835e-10,2.0305570994098218e-10,1.6722639081389738e-10,1.3537419929693144e-10,1.1544839201762939e-10,9.398296477053769e-11,7.512886738123046e-11,5.82643916080589e-11,4.6657850564844214e-11,3.42128381325456e-11,2.5337784809902655e-11,1.815529946290376e-11,1.3949139399634024e-11,9.285520474668484e-12,5.990225768003606e-12,4.218176432829066e-12,2.710448103406166e-12,1.7062726035650013e-12,1.1013552522788276e-12,6.85211316024283e-13,3.519957486386798e-13,2.00460864529191e-13,1.077790870084234e-13,5.477072863241164e-14,3.293763160700039e-14,1.5184702603840743e-14,9.45916440685362e-15,7.087303554663193e-09,3.510638178610262e-09,1.7831091367690583e-09,9.54318463438558e-10,6.47051583937007e-10,4.363947846701529e-10,2.758060128886445e-10,1.9831568091246767e-10,1.3738068530791296e-10,9.684806459626695e-11,7.289715919254682e-11,4.869042520984734e-11,3.292688547247113e-11,2.2130259512672126e-11,1.4584483696917123e-11,8.969918584765024e-12,5.992396042227442e-12,3.963133253036123e-12,2.3443127139895363e-12,1.3232116085183791e-12,7.695193504158849e-13
0.0,19,19.0,0.0,30.0,0.0,0.0,0.0,0.0,-13.0,0.0,2.0,0.0,0.0,0.0,3.3923661568231314e-10,3.0933238276983047e-10,2.931140403535037e-10,2.4051109796813605e-10,2.0982787228056004e-10,1.7065626288818858e-10,1.3957567172462253e-10,1.2375525935811154e-10,9.585732593127667e-11,7.583034865450293e-11,6.146381533597323e-11,4.564214019926871e-11,3.554743638844321e-11,2.5812033154236443e-11,1.8337622633163822e-11,1.3443049300798304e-11,8.967873544664074e-12,6.546944470459943e-12,4.271492244900096e-12,2.8407547708475936e-12,1.867345026858122e-12,1.1032554087300067e-12,6.384040213387611e-13,3.8428451297624927e-13,2.0772641281530408e-13,1.1772647483950743e-13,5.932887136591492e-14,3.187049148714578e-14,1.5638440188432425e-14,7.563499177222982e-15,6.816499592729818e-09,3.4344956295653896e-09,1.7900683796620624e-09,1.0423726464370864e-09,6.159249535404529e-10,4.1192934207016564e-10,2.779529013498124e-10,2.087757235632488e-10,1.371899163688209e-10,9.582394858794622e-11,6.940254146296235e-11,4.928134465340312e-11,3.242925779014531e-11,2.190167707695648e-11,1.4078651457246687e-11,9.222320442731373e-12,6.089139064191726e-12,3.865142190570106e-12,2.3153215778953846e-12,1.3887299271633278e-12,7.662829908512363e-13
0.0,20,20.0,0.0,30.0,0.0,0.0,0.0,0.0,-13.0,0.0,2.0,0.0,0.0,0.0,3.362834068503718e-10,3.129981711674951e-10,2.753628880225481e-10,2.231403246122468e-10,2.0962592174258037e-10,1.8340214357428212e-10,1.4510558663320394e-10,1.2811811890508027e-10,1.0059931863109135e-10,8.209107830843538e-11,6.435744500072342e-11,4.4030143395480687e-11,3.615119677885373e-11,2.6021111464881972e-11,1.946402679054885e-11,1.3783714037024937e-11,9.245166341382202e-12,6.286179615095205e-12,4.225021534421181e-12,2.876514213988036e-12,1.767164219565038e-12,1.0847782082519228e-12,6.499550935826799e-13,3.8441126974287043e-13,2.0759968532573109e-13,1.2013363239881873e-13,6.088615717784114e-14,3.512249495827157e-14,1.608129382186368e-14,8.980143254733106e-15,6.768856930920352e-09,3.3761808871361848e-09,1.7803376631762648e-09,1.043762852508413e-09,6.290767528356872e-10,4.088884341609526e-10,2.817188135201848e-10,2.0128798779269718e-10,1.3888415473133602e-10,1.0621846498511403e-10,6.743664287800836e-11,4.9733645071740014e-11,3.356130132161165e-11,2.2274256621111645e-11,1.4142757103272483e-11,9.688821931646395e-12,5.735524628287933e-12,3.822490505034841e-12,2.2791726371253443e-12,1.3272475651212718e-12,7.388103645618482e-13
0.0,21,21.0,0.0,30.0,0.0,0.0,0.0,0.0,-13.0,0.0,2.0,0.0,0.0,0.0,3.2581934189580116e-10,2.9027164487384814e-10,2.836156587605432e-10,2.4445286963600474e-10,2.1637305843943796e-10,1.7408471547545853e-10,1.4779607010778594e-10,1.2516019136777432e-10,1.0003883264624288e-10,8.205609568898971e-11,6.260762646444519e-11,4.7978838557639693e-11,3.563638705777738e-11,2.7145611394329565e-11,1.8648162698383144e-11,1.3190062743822745e-11,9.4378625845921e-12,6.485781998321693e-12,4.337457587316219e-12,2.9535023560206196e-12,1.8546140250911282e-12,1.112867607496195e-12,7.158462866450211e-13,3.8107444378822974e-13,2.2122226025367362e-13,1.1594211571313133e-13,6.300369577783922e-14,3.358466403538287e-14,1.9827341435116485e-14,9.550536199596042e-15,6.749836320302003e-09,3.3040345124362622e-09,1.822702238890069e-09,1.0023553537365121e-09,6.270801208865221e-10,4.247191065371409e-10,2.8418182529229363e-10,2.1176357754511072e-10,1.4984762917088779e-10,1.030307718284454e-10,7.254620128641444e-11,5.0032656955639606e-11,3.4458208052353944e-11,2.3090952292635758e-11,1.4787722706107315e-11,9.237217826546704e-12,6.103440261701453e-12,3.784815215182178e-12,2.2383905716849825e-12,1.3479915340816552e-12,7.52403126935824e-13
0.0,22,22.0,0.0,30.0,0.0,0.0,0.0,0.0,-13.0,0.0,2.0,0.0,0.0,0.0,3.4233229008585055e-10,3.1693674138228834e-10,2.83019996757871e-10,2.515559558679142e-10,2.2974677661834523e-10,1.8298077184826892e-10,1.5500224358023777e-10,1.2851912944137051e-10,1.0025720790563287e-10,8.253150060695652e-11,6.488205086313448e-11,4.80346690591018e-11,3.890373428451396e-11,2.4900842097453635e-11,1.8612705681238964e-11,1.3046379860447917e-11,9.792047741215055e-12,6.56369633897891e-12,4.2839474528285856e-12,2.9603937802099214e-12,1.830677520240615e-12,1.2320549150132605e-12,6.71327909280008e-13,4.072899006320348e-13,2.1491529823663044e-13,1.2382439953038816e-13,6.476999542822261e-14,3.3082035892310284e-14,1.5872363661902433e-14,9.386976585252865e-15,6.871457129070482e-09,3.4333647161426684e-09,1.723944284606523e-09,1.0765466653802664e-09,6.505303203761261e-10,4.3235509467585574e-10,2.95217316195746e-10,2.205955033445794e-10,1.4686340558573964e-10,1.0128193854898966e-10,7.568927144540888e-11,4.76078494114434e-11,3.484801194996454e-11,2.277274226124969e-11,1.5629864979498853e-11,9.654999908115158e-12,5.943266585199778e-12,3.785055290007157e-12,2.1939548334097077e-12,1.4275314414952267e-12,7.686286263885467e-13
0.0,23,23.0,0.0,30.0,0.0,0.0,0.0,0.0,-13.0,0.0,2.0,0.0,0.0,0.0,3.4660268780652067e-10,3.126743364481847e-10,2.882908439859183e-10,2.4840435615515504e-10,2.3070974826864384e-10,1.7681325012153988e-10,1.5226094200665305e-10,1.240653397741032e-10,9.799851606980931e-11,8.100423147185993e-11,6.486905734204872e-11,4.748588976558722e-11,3.62037287213941e-11,2.688248541906529e-11,1.9516734496225578e-11,1.3384529619990791e-11,8.814548970206545e-12,6.439356417922436e-12,4.667359011334996e-12,2.8211229724394835e-12,1.8000809029780853e-12,1.1597452637366323e-12,6.904391625776975e-13,3.9230792553312683e-13,2.2572492029803606e-13,1.237279786192017e-13,6.815083888726564e-14,3.647990109697268e-14,1.7448337950298128e-14,1.064922137913476e-14,6.5929396015058985e-09,3.3402408606782655e-09,1.8469475235207154e-09,1.0308000704095482e-09,6.378829645207245e-10,4.2252684059406444e-10,2.9911903211915656e-10,2.086124483354762e-10,1.5092555892135243e-10,9.934911477934545e-11,7.677034477623964e-11,5.1459667967872484e-11,3.5560081708955144e-11,2.4283891473469015e-11,1.5833732995655067e-11,9.319574418750961e-12,6.298543623676811e-12,3.807141087166982e-12,2.3564743876106674e-12,1.2846156416177141e-12,7.503152682583024e-13
0.0,24,24.0,0.0,30.0,0.0,0.0,0.0,0.0,-13.0,0.0,2.0,0.0,0.0,0.0,3.4566298889290447e-10,3.133337234767889e-10,2.84359771949136e-10,2.625764598122028e-10,2.3545446435580656e-10,1.861773620073715e-10,1.6052738584990398e-10,1.2819409302368658e-10,1.0589962885559332e-10,8.359741188648072e-11,6.160405506655642e-11,5.0983132211622366e-11,3.565429308820817e-11,2.5728495386500993e-11,2.0051010310041035e-11,1.3542552845473601e-11,9.784704767271797e-12,6.652966250431352e-12,4.278966260540236e-12,2.773491756476678e-12,1.967839398683333e-12,1.1865971496142624e-12,7.289713764378298e-13,4.0423445330763736e-13,2.38432465911109e-13,1.3358476010151988e-13,6.824258890329844e-14,3.6279385060172595e-14,1.9272940194719198e-14,1.0118440292687192e-14,6.07121639636414e-09,3.285046868358393e-09,1.7964530828938624e-09,1.039856331936869e-09,6.525617739609721e-10,4.255888054039575e-10,2.7951535966673735e-10,2.1078289391963165e-10,1.5076647580991598e-10,1.0356487879591007e-10,7.599932744642069e-11,5.2645604446555324e-11,3.4837832027833964e-11,2.3497540631407416e-11,1.576029873246498e-11,9.892697861439224e-12,5.976864327412132e-12,3.966955354754073e-12,2.3672219792289064e-12,1.3165063150672323e-12,7.578348340226253e-13
0.0,25,25.0,0.0,30.0,0.0,0.0,0.0,0.0,-13.0,0.0,2.0,0.0,0.0,0.0,3.3998069538790463e-10,3.3117305486286914e-10,2.9685857492929126e-10,2.5938683955422405e-10,2.2810602535193658e-10,1.8224414670886443e-10,1.5534101353230146e-10,1.2172070145653238e-10,1.0687676330660237e-10,8.580297013579162e-11,6.685301873268743e-11,4.903646423304665e-11,3.735471210919472e-11,2.7347288352414193e-11,2.0407023332562173e-11,1.2982751183533492e-11,9.803618187069265e-12,6.50117896252482e-12,4.371554358766314e-12,2.9781828024334835e-12,1.9028706305086674e-12,1.1412473249807342e-12,7.165918011460476e-13,4.1690734290010314e-13,2.45181142133287e-13,1.302263948541573e-13,7.210011855634714e-14,3.5276996254424297e-14,1.910700269519646e-14,9.369303034280895e-15,6.547710381191658e-09,3.529489232093497e-09,1.680667963114533e-09,1.0206676504904859e-09,6.496474488759019e-10,4.266290885578251e-10,3.1351142169276154e-10,2.1974470223468282e-10,1.5633343919544605e-10,1.0685876733450202e-10,7.592781963883826e-11,5.373690845627847e-11,3.600562357932326e-11,2.328193121756671e-11,1.5893640762886084e-11,9.27204791053525e-12,6.390691974796608e-12,4.000927185690283e-12,2.314733308307729e-12,1.3875254896130606e-12,7.757384438158297e-13
0.0,26,26.0,0.0,30.0,0.0,0.0,0.0,0.0,-13.0,0.0,2.0,0.0,0.0,0.0,3.3932059229960275e-10,3.423016898734854e-10,2.8649888441551634e-10,2.750502558649992e-10,2.2363611467484732e-10,1.9227164047383732e-10,1.599999418835771e-10,1.3234535016239645e-10,1.0370973518174968e-10,8.34343477335003e-11,6.786403529516389e-11,4.803358734520887e-11,3.661317000934829e-11,2.6575818860246372e-11,1.9626942698800272e-11,1.3899895247224054e-11,9.581236896310753e-12,6.6494477186429025e-12,4.557053720805502e-12,3.001843029494487e-12,1.8772009193741773e-12,1.1870163181380015e-12,6.935864415674842e-13,4.335735246734451e-13,2.3834139831212637e-13,1.215818717147069e-13,7.085645668338795e-14,3.693790403783251e-14,2.124970841164074e-14,9.990086304328548e-15,6.3843196539142795e-09,3.2829290776843228e-09,1.6707879247666825e-09,9.847768430187036e-10,6.641681888026669e-10,4.2658951772087547e-10,3.150575583435898e-10,2.0849544155729464e-10,1.5397356648733701e-10,1.0814255481489402e-10,7.449192674779969e-11,5.3805512111363326e-11,3.5590335707032586e-11,2.4160781353189842e-11,1.5927799764430248e-11,9.730869783566848e-12,6.700304344513141e-12,3.7529510784204725e-12,2.349198792001158e-12,1.348430378024971e-12,7.790724942795313e-13
0.0,27,27.0,0.0,30.0,0.0,0.0,0.0,0.0,-13.0,0.0,2.0,0.0,0.0,0.0,3.5583500479578065e-10,3.25474896187464e-10,2.972886707949829e-10,2.612023749584788e-10,2.2994137399055733e-10,1.9208272614994084e-10,1.6181770376251625e-10,1.272873605640794e-10,1.059152242263052e-10,8.375773022058879e-11,6.633624941749285e-11,5.1325126382591554e-11,3.779363044799757e-11,2.9035067467168284e-11,1.9062042123292837e-11,1.4475001604422314e-11,9.840124928784667e-12,6.6186998925616555e-12,4.191189885102209e-12,2.98000620770719e-12,1.873071264513829e-12,1.194159433709455e-12,6.877903242974832e-13,4.143030306245357e-13,2.3960142583356205e-13,1.3938108216483205e-13,7.201858117712481e-14,3.617090199722296e-14,2.0881011368247963e-14,1.2409127835346669e-14,6.417171146571369e-09,3.2353881715635565e-09,1.7723236886734319e-09,9.865928588573721e-10,6.600448798094607e-10,4.390565877691634e-10,3.0550246616396373e-10,2.1658637108030133e-10,1.5252190941782706e-10,1.0895419561630615e-10,7.640118979082929e-11,5.468765208140397e-11,3.682231504221235e-11,2.408992062994654e-11,1.6152767734942017e-11,1.0243466998509679e-11,6.622710721834487e-12,3.945325071285439e-12,2.2993873078261674e-12,1.308971630013172e-12,7.835575563679431e-13
0.0,28,28.0,0.0,30.0,0.0,0.0,0.0,0.0,-13.0,0.0,2.0,0.0,0.0,0.0,3.451200801317899e-10,3.4298852622457314e-10,2.9834038143031994e-10,2.7383909631631733e-10,2.2405460268196538e-10,1.964580636990165e-10,1.6503642136637293e-10,1.3152870847875344e-10,1.126897531191182e-10,9.362819169238298e-11,6.910965277443969e-11,5.008317285085591e-11,3.69390968121185e-11,2.7596546291329567e-11,1.9952121194447055e-11,1.3892580932259831e-11,9.366872129415155e-12,6.75067425375385e-12,4.3917737680387534e-12,2.974946665991119e-12,2.0408493123794608e-12,1.1251716191060747e-12,7.223541933235923e-13,4.2684410285511225e-13,2.435562808926396e-13,1.3550130959875657e-13,7.49280267691651e-14,3.8107307569434095e-14,2.0980576861849462e-14,1.0508140998733355e-14,6.222071568402476e-09,3.2513812262171404e-09,1.6506279713078019e-09,9.502365757741554e-10,6.647794936746555e-10,4.3881637623438185e-10,3.1340553663648267e-10,2.2570593706357368e-10,1.6413544370682847e-10,1.1445913303607927e-10,8.077216953954157e-11,5.49239556441638e-11,3.8700888307542916e-11,2.412333602027302e-11,1.5889147975791004e-11,9.798880627237585e-12,6.412173341309685e-12,3.802533773234642e-12,2.336095230913934e-12,1.3666928152396098e-12,8.293059421619586e-13
0.0,29,29.0,0.0,30.0,0.0,0.0,0.0,0.0,-13.0,0.0,2.0,0.0,0.0,0.0,3.5187716092687546e-10,3.413347558491981e-10,3.035034423977415e-10,2.783906671126652e-10,2.3264939599524788e-10,1.9157587397225477e-10,1.5786207049278616e-10,1.3590173142782455e-10,1.136972198084696e-10,8.698531765461155e-11,6.944241864828562e-11,5.179910599678593e-11,3.774268164286288e-11,2.917615951366798e-11,1.8899335419983402e-11,1.3976183579621034e-11,9.871337561778508e-12,6.4857849475582936e-12,4.5139871377710945e-12,3.0396506139548784e-12,1.8977529335431853e-12,1.1863239552830594e-12,7.200527363417339e-13,4.2158612474777944e-13,2.456176463560051e-13,1.359899654090648e-13,7.509932180656297e-14,4.4753350984770025e-14,2.045594236489933e-14,1.1517167379010776e-14,6.414596021067956e-09,3.4588319826640992e-09,1.6884554773823957e-09,1.0302006360923144e-09,6.506259693084218e-10,4.530147566965536e-10,3.2470378288089457e-10,2.185205094133623e-10,1.5868518029538556e-10,1.1646421545363765e-10,8.017112774507892e-11,5.573552934839892e-11,3.676589720087823e-11,2.617321309906984e-11,1.606279261435367e-11,1.0229098119078806e-11,6.3460709567702055e-12,4.005468394241908e-12,2.400006139938367e-12,1.3494610608798622e-12,7.781718450872888e-13
0.0,30,30.0,0.0,30.0,0.0,0.0,0.0,0.0,-13.0,0.0,2.0,0.0,0.0,0.0,3.715311210799504e-10,3.461185814924239e-10,3.157009351584796e-10,2.796856357180252e-10,2.3288569792660493e-10,2.0045151283755678e-10,1.6797153911217694e-10,1.3545807192424578e-10,1.0342633426857375e-10,8.630971981928958e-11,6.696361293910878e-11,5.2881962388746264e-11,3.953563271685599e-11,2.8689277830614064e-11,2.0600468990835186e-11,1.3929739789887172e-11,9.455655677405696e-12,6.876055369317753e-12,4.2899052054321394e-12,3.138972662716218e-12,1.929629452847495e-12,1.2071077502251513e-12,7.420484965288874e-13,4.279161476766257e-13,2.5471468513891115e-13,1.3907485098554786e-13,7.473227268472713e-14,4.207352772411346e-14,2.5108293733954553e-14,1.0309893688721272e-14,6.300893672596133e-09,3.367258101211918e-09,1.7070687868570147e-09,1.074760381489274e-09,6.907492675108275e-10,4.543193962501922e-10,3.1727495472976876e-10,2.3280140849847131e-10,1.5810849066339433e-10,1.177220720647113e-10,8.463576988084e-11,5.84291843006615e-11,3.92700856090557e-11,2.4594537358635827e-11,1.6795864227808675e-11,1.0406786454608898e-11,6.259564705760649e-12,3.9040762514037674e-12,2.2280232645622936e-12,1.352893117583654e-12,7.756167585418153e-13
0.0,31,31.0,0.0,30.0,0.0,0.0,0.0,0.0,-13.0,0.0,2.0,0.0,0.0,0.0,3.7617705109249934e-10,3.5926425752009263e-10,2.9907721454106295e-10,2.63235743001438e-10,2.2567562898778623e-10,2.095670777386628e-10,1.668888322665265e-10,1.3690084627163781e-10,1.1214900177290395e-10,8.950059605203255e-11,7.087430860376042e-11,4.966265776435426e-11,3.921667148232379e-11,2.7664160515541634e-11,2.1674243522516094e-11,1.4675239155027246e-11,1.0066714193775928e-11,7.191976708418603e-12,4.486978561760868e-12,3.0532638247865745e-12,1.8342664433253867e-12,1.2148916668630246e-12,7.880333717353983e-13,4.439750011671956e-13,2.461451427026058e-13,1.371904295100652e-13,7.399996981750626e-14,4.278942138355332e-14,2.3301042656040484e-14,1.1838181050705825e-14,6.145692314363942e-09,3.237657768369631e-09,1.690405033479106e-09,1.0721504759362293e-09,6.651327239981303e-10,4.466067947197615e-10,3.175294348023009e-10,2.320243930073316e-10,1.5798063878089288e-10,1.1895701406040165e-10,8.160990812794642e-11,5.7204774305625914e-11,3.844542064347052e-11,2.7383207535126554e-11,1.6567050570495002e-11,1.081042562027099e-11,7.009827714112641e-12,4.002450574391523e-12,2.4729761818682e-12,1.3685049899359053e-12,8.000052053243322e-13
0.0,32,32.0,0.0,30.0,0.0,0.0,0.0,0.0,-13.0,0.0,2.0,0.0,0.0,0.0,3.679361482437217e-10,3.405287166259929e-10,3.068761547921158e-10,2.774294591227118e-10,2.455923736895511e-10,2.0014487996647666e-10,1.654719394799313e-10,1.3310541894322953e-10,1.20978168346835e-10,9.090947699843088e-11,6.575766280706806e-11,5.369980858033931e-11,3.9692994130984596e-11,2.7826448943757636e-11,2.155186640484682e-11,1.4371804505458333e-11,1.0048736658779808e-11,6.733843730838728e-12,4.532347297076655e-12,3.073550742082852e-12,1.9586892780835952e-12,1.1954013027980865e-12,7.765186482604065e-13,4.610400959455383e-13,2.4305870277960124e-13,1.3823108695982595e-13,7.754999369835111e-14,4.524330699024395e-14,2.2447727014120352e-14,1.1307268379893826e-14,6.246641227591891e-09,3.1695419682996253e-09,1.7117126278134593e-09,1.0030386610501828e-09,6.620188335189958e-10,4.598524389047203e-10,3.403383931804375e-10,2.4136323350374563e-10,1.7079659739230303e-10,1.19467517445079e-10,7.682475354327277e-11,6.087972314582756e-11,4.0383429406393824e-11,2.566051001220217e-11,1.651673214718744e-11,1.0718732052221467e-11,6.603408462276335e-12,3.901847381119436e-12,2.4626081810500163e-12,1.3414623028937461e-12,7.873890171562675e-13
0.0,33,33.0,0.0,30.0,0.0,0.0,0.0,0.0,-13.0,0.0,2.0,0.0,0.0,0.0,3.6533251719272827e-10,3.5380819194372084e-10,3.3040682606953463e-10,2.815448740279587e-10,2.422973425555248e-10,1.9753540329606892e-10,1.7307260323948237e-10,1.4135776180125035e-10,1.1770592744701115e-10,9.537838106321855e-11,6.852605035359517e-11,5.564083490164215e-11,3.915134987518115e-11,3.034065461548351e-11,2.075556296030642e-11,1.494738111922419e-11,1.0583902161271418e-11,6.484602683028811e-12,4.566853405079477e-12,3.1338743696549584e-12,1.97414196228045e-12,1.294792571525255e-12,7.337948301217114e-13,4.580510804658574e-13,2.6217681827046903e-13,1.4498258061613578e-13,7.75576175077451e-14,4.3795880873122525e-14,2.5412219317975717e-14,1.3453496158163242e-14,6.297236864894744e-09,3.1209860888787225e-09,1.6416883911654307e-09,1.0325242510208802e-09,6.645198665511138e-10,4.6354195443159277e-10,3.4182180258243225e-10,2.4411057075816987e-10,1.739624458111881e-10,1.2171898997492507e-10,8.310887543769987e-11,5.930296407779392e-11,3.750696185894534e-11,2.7127693279613876e-11,1.6476973823533378e-11,1.1208551945870083e-11,6.535338938800726e-12,4.2900532229617e-12,2.3524602297199338e-12,1.3697761542161107e-12,8.020882719897608e-13
0.0,34,34.0,0.0,30.0,0.0,0.0,0.0,0.0,-13.0,0.0,2.0,0.0,0.0,0.0,3.6818259243080607e-10,3.6327325615689646e-10,3.142943568036854e-10,2.906052309823852e-10,2.5358808807070314e-10,2.1399646580902364e-10,1.8372707822059995e-10,1.453664000775092e-10,1.0896700667642147e-10,9.078212051623535e-11,6.991307198430634e-11,5.605707740315856e-11,4.052181911551726e-11,2.906574078661521e-11,2.0719793016466055e-11,1.4682251860483145e-11,1.0323234403838846e-11,7.061737459165382e-12,4.574197154383034e-12,2.962793949811823e-12,1.936695031229062e-12,1.1751251898219928e-12,7.377659904386901e-13,4.654591252513612e-13,2.671204075119473e-13,1.563474185284811e-13,7.928749372450003e-14,4.8382790570090655e-14,2.2822095365274563e-14,1.1633534932610417e-14,6.213777511127611e-09,3.1915279820652873e-09,1.718865248154998e-09,1.0391627130767016e-09,7.310015224833635e-10,4.5666588102286966e-10,3.240424059476685e-10,2.401271519154496e-10,1.7025160849449741e-10,1.215629067260691e-10,9.151444757226236e-11,6.225572766849507e-11,4.081867819317892e-11,2.596074042730505e-11,1.7367420468104485e-11,1.0326535848561107e-11,6.5595250187057565e-12,4.1477683283867675e-12,2.3201578210114034e-12,1.354810658884757e-12,7.903172980374934e-13
0.0,35,35.0,0.0,30.0,0.0,0.0,0.0,0.0,-13.0,0.0,2.0,0.0,0.0,0.0,3.54130303184333e-10,3.6771844528048025e-10,3.3130450354354266e-10,2.9345549621466435e-10,2.658902570554203e-10,2.1205531438684545e-10,1.7838907030949269e-10,1.431857948401116e-10,1.1594830617040258e-10,9.200406845112785e-11,7.128613117227696e-11,5.233125749380336e-11,3.981003528533291e-11,3.066504107770619e-11,2.1229257388853678e-11,1.4748559413422087e-11,1.0142769416764827e-11,6.98971800250829e-12,4.4098638651991915e-12,3.096173232102949e-12,1.8188831400505781e-12,1.2603054252087142e-12,7.605706150228894e-13,4.209716381391912e-13,2.613962302377135e-13,1.4953750363034123e-13,7.901778180272155e-14,4.458427477528247e-14,2.194744400633359e-14,1.3460855750368994e-14,6.2399461179227326e-09,3.121455095234714e-09,1.5738637838071795e-09,1.0430320631839577e-09,6.90260110295931e-10,4.693462574492148e-10,3.2451911574968565e-10,2.3571604901194033e-10,1.7052116428527549e-10,1.2263181498191464e-10,8.841026555886196e-11,6.11757117646224e-11,4.0788937130081896e-11,2.6058486658237674e-11,1.7538391490718927e-11,1.1233891752223296e-11,6.942464197466618e-12,4.212109181201269e-12,2.236754964525753e-12,1.326216239181885e-12,7.768124255612977e-13
0.0,36,36.0,0.0,30.0,0.0,0.0,0.0,0.0,-13.0,0.0,2.0,0.0,0.0,0.0,4.0245749962136294e-10,3.7934277840314606e-10,3.2620877021375697e-10,3.1058695893133234e-10,2.421258811077495e-10,2.1614538344322553e-10,1.8565886297992012e-10,1.4650868758489558e-10,1.163063867731412e-10,9.868594588212889e-11,7.345686076835372e-11,5.6609176998634656e-11,4.318331500131753e-11,2.954092388739459e-11,2.1793100976831295e-11,1.491907187580149e-11,9.98917179562982e-12,7.196205070290311e-12,4.6924628168918565e-12,3.0515718489181414e-12,1.950450937043995e-12,1.2780849949902774e-12,6.952251142896124e-13,4.471511835328674e-13,2.5101439420838985e-13,1.5018843934786282e-13,8.641449480271394e-14,4.385752945552594e-14,2.605548959176983e-14,1.312987243208008e-14,6.204455290202139e-09,3.1759374515950393e-09,1.7204686378487132e-09,1.0191770758445155e-09,6.845946865239229e-10,4.840170577821378e-10,3.3890075698686177e-10,2.492552051005388e-10,1.6351536834823627e-10,1.259769997496211e-10,8.759086360868512e-11,6.038082070250384e-11,4.0927356698071846e-11,2.5417717048179776e-11,1.8001498212914782e-11,1.1147904189858099e-11,7.379096001513598e-12,4.2222054320361415e-12,2.4405044166018926e-12,1.3489509928998136e-12,7.667460041517803e-13
0.0,37,37.0,0.0,30.0,0.0,0.0,0.0,0.0,-13.0,0.0,2.0,0.0,0.0,0.0,3.869683138550946e-10,3.9630607852470007e-10,3.2846633551351865e-10,2.8270238979061325e-10,2.6705469853263197e-10,2.270106878766678e-10,1.8376052034929153e-10,1.5479837549654142e-10,1.2223306795036023e-10,9.273977328885382e-11,7.936591789349568e-11,5.312818122459554e-11,4.171436294421712e-11,3.1934133131521744e-11,2.317053835805054e-11,1.4824149960035093e-11,1.0446595786550233e-11,6.814535367860274e-12,4.851627739905868e-12,3.0639779388344867e-12,1.9311729900835587e-12,1.2501000002859386e-12,7.210860616671064e-13,4.3602269440185233e-13,2.6644688569605597e-13,1.5631653617711455e-13,8.33440710187863e-14,4.6453836246809394e-14,2.3237850781341606e-14,1.482491882803171e-14,6.166071378878521e-09,3.202613088402798e-09,1.7821779459547962e-09,1.0453566955260696e-09,6.984059525087936e-10,4.6027181986682883e-10,3.436534633501595e-10,2.5347618791461297e-10,1.8366203151054973e-10,1.2744909857316732e-10,8.871258397108076e-11,6.343255218312649e-11,4.2069549066291386e-11,2.7015855922108553e-11,1.7758299601700243e-11,1.1353097906342863e-11,6.715742912248856e-12,3.826380830338742e-12,2.5006056637086128e-12,1.3616381331066796e-12,8.160895368271559e-13
0.0,38,38.0,0.0,30.0,0.0,0.0,0.0,0.0,-13.0,0.0,2.0,0.0,0.0,0.0,4.113168897843847e-10,3.780666052367114e-10,3.59992244209097e-10,3.0629573229327183e-10,2.6057154805278834e-10,2.3512746835512705e-10,1.8069841108025862e-10,1.409933938360092e-10,1.215008714985911e-10,1.0042230232589944e-10,7.655431398391477e-11,5.710950080739028e-11,4.3514186078941704e-11,3.019232751876305e-11,2.131004870408883e-11,1.5131691085942153e-11,1.0304487100169541e-11,6.856778722778982e-12,4.648909025277729e-12,3.166436667781736e-12,1.939248939416437e-12,1.1988669447395511e-12,7.461803992177773e-13,4.520338799529426e-13,2.7035230345389953e-13,1.5518309660100147e-13,8.968666535319187e-14,4.545842591028549e-14,2.5485853957557402e-14,1.2923859053806736e-14,5.7841628381559355e-09,3.0585346537021573e-09,1.5819038319280153e-09,1.045080870104444e-09,7.104560886289072e-10,4.918852274151933e-10,3.4509354957325157e-10,2.5552085472279166e-10,1.774955056014878e-10,1.2484583499766186e-10,9.01827841258848e-11,6.176686123820094e-11,4.323896455101707e-11,2.8242877656633526e-11,1.864204033727038e-11,1.109282207957016e-11,6.90541725437306e-12,4.1931840584755155e-12,2.4935272860239186e-12,1.4839223577724198e-12,7.337111346111642e-13
0.0,39,39.0,0.0,30.0,0.0,0.0,0.0,0.0,-13.0,0.0,2.0,0.0,0.0,0.0,3.9673834676271365e-10,3.9263310547415517e-10,3.480899038238197e-10,2.8735089412030567e-10,2.5640607908518597e-10,2.193388801888957e-10,1.8627350309400732e-10,1.5230951648309498e-10,1.2670811743728845e-10,1.0323431374676758e-10,7.714565506439912e-11,5.826437730593303e-11,4.250476816194189e-11,3.058080041149022e-11,2.221008471165478e-11,1.5360823003685202e-11,1.101616804149222e-11,7.4440557309986e-12,4.547493971354187e-12,2.8762025774229482e-12,1.9107337969751286e-12,1.1624612395170052e-12,7.810772838496046e-13,4.680426172261362e-13,2.73789358869191e-13,1.5626185823369237e-13,8.750222981773352e-14,4.922385709084728e-14,2.5400952397083095e-14,1.3744200118184242e-14,5.8742501806122866e-09,3.1055982090639047e-09,1.5699881221489093e-09,1.0863480186599208e-09,7.357872697763231e-10,5.292469962959078e-10,3.4279888444666217e-10,2.568601896315713e-10,1.8182208923182516e-10,1.239953117829174e-10,9.484070664291243e-11,6.405682432596229e-11,4.3557723280031767e-11,2.6642712662608842e-11,1.76473716627731e-11,1.1329860504190437e-11,6.99013446135911e-12,3.983106111450802e-12,2.427051902461012e-12,1.4154850451067685e-12,7.895971011817475e-13
0.0,40,40.0,0.0,30.0,0.0,0.0,0.0,0.0,-13.0,0.0,2.0,0.0,0.0,0.0,4.175869046288729e-10,3.854710469724934e-10,3.363288055974937e-10,3.075703697668165e-10,2.735493612724821e-10,2.2769721083360137e-10,1.9277573772040855e-10,1.7053476449695366e-10,1.3223025149411597e-10,9.911120569377786e-11,7.507530593573709e-11,5.918671353857002e-11,4.340261344242917e-11,3.133185758177788e-11,2.3096151144355222e-11,1.571473706446729e-11,1.0911796874994714e-11,7.214180373439877e-12,5.116859902693396e-12,2.9320106387422016e-12,2.0616146018159e-12,1.1509249949725357e-12,7.837352786941399e-13,4.435964857766372e-13,2.702176992459003e-13,1.6247098960905583e-13,8.75223050051956e-14,4.902498998731125e-14,2.7042417438602767e-14,1.3476162822200292e-14,5.731866547076595e-09,3.0317105766924734e-09,1.712969402550873e-09,1.080623127593453e-09,7.598677729352716e-10,4.971665897620782e-10,3.7312619991934075e-10,2.490268835517959e-10,1.971496099823095e-10,1.326114134213014e-10,8.952410714639728e-11,6.350288432630869e-11,4.217818963781927e-11,2.632104410319714e-11,1.7804860877869653e-11,1.1974693341899081e-11,6.899397942694976e-12,4.384477343048045e-12,2.5678987253366787e-12,1.4741627702321946e-12,8.098421551390267e-13
0.0,41,41.0,0.0,30.0,0.0,0.0,0.0,0.0,-13.0,0.0,2.0,0.0,0.0,0.0,4.0755058761801234e-10,3.822667028810382e-10,3.5540235002653607e-10,3.2479034693883196e-10,2.812033304047075e-10,2.2637610537973866e-10,1.8647084752659784e-10,1.585437218376398e-10,1.293111033280015e-10,1.0363768461481857e-10,7.802357267199353e-11,5.9447670447906e-11,4.228143308957021e-11,3.354268940778531e-11,2.27019679410952e-11,1.634389354443049e-11,1.0750232476057755e-11,7.34908905970663e-12,4.7908623026658235e-12,3.169639590244231e-12,1.943562798076819e-12,1.2503762078456468e-12,7.59127374341051e-13,4.560167308106127e-13,2.79000331007686e-13,1.5683693084328176e-13,8.383424787351611e-14,4.7728681232991633e-14,2.5320208334139395e-14,1.3808861088459426e-14,5.614763218215117e-09,3.0866958725092827e-09,1.6987233307705279e-09,1.0374191096997482e-09,7.211908052082482e-10,5.522048592327322e-10,3.8988772844233914e-10,2.651802696943758e-10,1.9394919847812541e-10,1.3914950435555857e-10,9.001529006736578e-11,6.619805150299915e-11,4.34035491618889e-11,2.8911569782582748e-11,1.8463474125496488e-11,1.1274610273250671e-11,7.248504336036777e-12,4.1134455130344934e-12,2.484329282911131e-12,1.4955729198469596e-12,8.28814009760438e-13
0.0,42,42.0,0.0,30.0,0.0,0.0,0.0,0.0,-13.0,0.0,2.0,0.0,0.0,0.0,4.18420705927155e-10,4.165719160895807e-10,3.536383296314321e-10,3.083860366170936e-10,2.971178395917466e-10,2.417533942139119e-10,2.0113529714634214e-10,1.6527317305430886e-10,1.3155558413570427e-10,1.0050670386978234e-10,7.774668966842824e-11,6.096972553034432e-11,4.52353171374139e-11,3.315493186482624e-11,2.292696549403152e-11,1.686441043787844e-11,1.0474093127306855e-11,7.71703212662834e-12,4.995844817629028e-12,3.1440706057790056e-12,2.0050390475655367e-12,1.2375846634116394e-12,7.479676655204494e-13,4.553069728160505e-13,2.7451921760780764e-13,1.6636974692417815e-13,9.03078477016696e-14,4.5892989018923415e-14,2.4821371846924666e-14,1.4878229892609353e-14,5.767267061474529e-09,2.8888698299578366e-09,1.6415847146112582e-09,1.0425167989962687e-09,7.801524052214234e-10,5.205265865132417e-10,3.7244333378606145e-10,2.636957891429281e-10,1.8730264938770368e-10,1.2930136105759169e-10,9.610567173394118e-11,6.829810896864877e-11,4.3771436595352295e-11,2.953805598916236e-11,1.9531690353073206e-11,1.2186484200940668e-11,7.142468221539225e-12,4.340002879619484e-12,2.565859412775927e-12,1.530619229362339e-12,8.457482175237075e-13
0.0,43,43.0,0.0,30.0,0.0,0.0,0.0,0.0,-13.0,0.0,2.0,0.0,0.0,0.0,4.2961860051379815e-10,3.826410898742449e-10,3.644877758989149e-10,3.1329004755229045e-10,2.8967953744993265e-10,2.338394919079138e-10,1.9589179230614002e-10,1.635373831150248e-10,1.3080216695156808e-10,1.0132620437032945e-10,8.402748000099225e-11,5.913238788868571e-11,4.093895316981005e-11,3.092606341590698e-11,2.3386252195222503e-11,1.6093907617993508e-11,1.045844588461344e-11,6.942606889617566e-12,4.827999613758207e-12,3.266373475887787e-12,2.0212455013515214e-12,1.2193927894045675e-12,7.790470734370442e-13,4.5135951572089644e-13,2.53487498063544e-13,1.580113947110985e-13,8.913232819162439e-14,5.053521575444571e-14,2.7312347126303866e-14,1.4002191795224047e-14,5.842950727812045e-09,2.889589078278682e-09,1.6195426487280214e-09,1.0296231898210905e-09,7.334085186347639e-10,5.376478840850641e-10,3.874883303050058e-10,2.6336933664638253e-10,1.9603049182224594e-10,1.399112623582127e-10,9.903434866181166e-11,6.736489883788986e-11,4.349205971468309e-11,2.9480637545249766e-11,1.849609007782628e-11,1.1581605363619402e-11,7.720109391857873e-12,4.51471226285323e-12,2.5797763158989732e-12,1.4248582506174936e-12,8.037240158148895e-13
0.0,44,44.0,0.0,30.0,0.0,0.0,0.0,0.0,-13.0,0.0,2.0,0.0,0.0,0.0,4.3656744581923876e-10,4.223274086842689e-10,3.772692101254268e-10,3.2596702160041305e-10,2.930832757020996e-10,2.387842129466097e-10,2.1386183902089128e-10,1.6830695903070284e-10,1.2369334255849647e-10,1.0357804347477586e-10,8.055661076427881e-11,6.501110313203942e-11,4.555182042344211e-11,3.296558303649711e-11,2.4166608201792512e-11,1.6856734316914867e-11,1.041710442020034e-11,7.54500074661353e-12,4.6705625803466064e-12,3.1389565587790316e-12,1.9836997549223087e-12,1.2884977418048213e-12,8.391673969199016e-13,4.4207967707160264e-13,2.77421849453899e-13,1.6346016436845829e-13,8.854416975813248e-14,4.817159291687637e-14,2.89019859859174e-14,1.3814967974620978e-14,5.595046336660906e-09,2.9542537980686534e-09,1.6676362528193464e-09,1.1171069597062239e-09,7.31195806623863e-10,5.234586288946463e-10,3.785888871941227e-10,2.8029896157692375e-10,2.0022013962097926e-10,1.4527942394467996e-10,9.693145805233599e-11,6.823162593757242e-11,4.707986993886877e-11,2.9989574609130734e-11,1.9800862820727006e-11,1.1744868720869601e-11,7.660661122738516e-12,4.501869268233154e-12,2.5651659627593403e-12,1.4262279709312485e-12,8.22754930433923e-13
0.0,45,45.0,0.0,30.0,0.0,0.0,0.0,0.0,-13.0,0.0,2.0,0.0,0.0,0.0,4.503601455135991e-10,4.201395565108098e-10,3.7455268335749437e-10,3.412611019611674e-10,2.9937670368041424e-10,2.408256612460753e-10,2.0446816264168327e-10,1.6574989434891486e-10,1.3531894831322395e-10,1.0662061920818566e-10,8.411245578304263e-11,6.060972431232973e-11,4.6541140444990865e-11,3.6275195628463073e-11,2.23445885065427e-11,1.6370289006398497e-11,1.0801760876339367e-11,7.513716795896137e-12,5.036663503219688e-12,3.1974656938479073e-12,2.1004881846564267e-12,1.2800096479756557e-12,8.0313875595816e-13,4.673104177049588e-13,2.662651595206263e-13,1.5985840604293552e-13,9.009663056936748e-14,5.009125778958577e-14,2.7998037841255018e-14,1.3576604110146468e-14,5.631032247043363e-09,2.865098811086328e-09,1.7398395796405518e-09,1.0821875469502339e-09,7.738088116638403e-10,5.228767474384008e-10,3.8847163216376766e-10,2.812047261198854e-10,2.055944912768592e-10,1.4313013764748162e-10,1.0116808887086803e-10,6.798840660818466e-11,4.586883665111299e-11,2.987674112344047e-11,1.9696542791803853e-11,1.2483667949744396e-11,7.675158862344882e-12,4.576987098234584e-12,2.728906818780659e-12,1.4799652473010608e-12,8.746859518563426e-13
0.0,46,46.0,0.0,30.0,0.0,0.0,0.0,0.0,-13.0,0.0,2.0,0.0,0.0,0.0,4.5284941493323445e-10,4.1346894500844544e-10,3.8473582961564504e-10,3.3483056368926165e-10,2.937992632668339e-10,2.5765992877860947e-10,2.0474217372422073e-10,1.6505742162846495e-10,1.3740903860713384e-10,1.0608410557724724e-10,8.379030798301359e-11,6.482368983204099e-11,4.4746489281691895e-11,3.4637198628857147e-11,2.430595662691307e-11,1.6720221016828405e-11,1.0815496818658225e-11,7.291695429067703e-12,4.819255390695007e-12,3.1410887049252967e-12,2.027118194999267e-12,1.3120280766728392e-12,7.871313205738874e-13,4.606805484209502e-13,2.7017732153376637e-13,1.6553059446306997e-13,9.137158455980973e-14,5.1963931223448675e-14,2.6095205036333326e-14,1.4799559302243086e-14,5.442549528678861e-09,2.9036222656402945e-09,1.6670304126639204e-09,1.1084616674376576e-09,7.704840867711727e-10,5.27063982823951e-10,3.8057527858742843e-10,2.8594711271422664e-10,2.0284960070735994e-10,1.3980385926027285e-10,9.896487752725758e-11,7.02592523759126e-11,4.834958409671518e-11,3.142607868870618e-11,1.964401737537103e-11,1.2452608105980128e-11,7.395156867601834e-12,4.615870215735225e-12,2.6850660563621863e-12,1.4938240123162099e-12,8.215901199993756e-13
0.0,47,47.0,0.0,30.0,0.0,0.0,0.0,0.0,-13.0,0.0,2.0,0.0,0.0,0.0,4.5668294223413567e-10,4.3646803960250937e-10,3.913241535201419e-10,3.549491019787062e-10,2.964182271935134e-10,2.5526619686295606e-10,2.1680810116700643e-10,1.7162248053414168e-10,1.4170934301716639e-10,1.114797983700365e-10,8.61004237888807e-11,6.284383270314893e-11,4.9476384497278877e-11,3.257006878278066e-11,2.4088574774357956e-11,1.7234321875006546e-11,1.1008230002168516e-11,7.865076120111711e-12,4.829917400866273e-12,3.0632609588222764e-12,2.1106965334711125e-12,1.2482914368189605e-12,7.552198614492413e-13,4.876644018339061e-13,2.651348721091331e-13,1.569220073706729e-13,9.111460675835734e-14,4.931909534446141e-14,2.6814535952731453e-14,1.6420510318088007e-14,5.8251141585385405e-09,3.016315210872333e-09,1.6684745828695552e-09,1.1213622871156479e-09,7.853094812626349e-10,5.582292944379527e-10,4.014672559299842e-10,2.8796919015383445e-10,2.0643736796685942e-10,1.4974830874858179e-10,1.05513983857505e-10,7.459473602257867e-11,4.491890599693995e-11,3.1571452760141914e-11,1.907358633954004e-11,1.2198481878452623e-11,8.063572968377748e-12,4.5816476428733824e-12,2.633530573418408e-12,1.508355535307926e-12,8.565511728357038e-13
