Line_number,Fiducial,Easting,Northing,Height,Elevation,tx_pitch,tx_roll,tx_yaw,txrx_dx,txrx_dy,txrx_dz,rx_pitch,rx_roll,rx_yaw,S0Z_time_1.431e-04,S0Z_time_1.801e-04,S0Z_time_2.266e-04,S0Z_time_2.846e-04,S0Z_time_3.581e-04,S0Z_time_4.506e-04,S0Z_time_5.671e-04,S0Z_time_7.136e-04,S0Z_time_8.981e-04,S0Z_time_1.131e-03,S0Z_time_1.423e-03,S0Z_time_1.791e-03,S0Z_time_2.255e-03,S0Z_time_2.838e-03,S0Z_time_3.573e-03,S0Z_time_4.498e-03,S0Z_time_5.662e-03,S1Z_time_1.409e-05,S1Z_time_1.610e-05,S1Z_time_1.909e-05,S1Z_time_2.360e-05,S1Z_time_2.960e-05,S1Z_time_3.709e-05,S1Z_time_4.609e-05,S1Z_time_5.759e-05,S1Z_time_7.209e-05,S1Z_time_9.060e-05,S1Z_time_1.141e-04,S1Z_time_1.431e-04,S1Z_time_1.801e-04,S1Z_time_2.266e-04,S1Z_time_2.846e-04,S1Z_time_3.581e-04,S1Z_time_4.506e-04,S1Z_time_5.671e-04,S1Z_time_7.136e-04,S1Z_time_8.981e-04,S1Z_time_1.131e-03
0.0,0,0.0,0.0,30.0,0.0,0.0,0.0,0.0,-13.0,0.0,2.0,0.0,0.0,0.0,5.496164611903706e-11,3.375462943015318e-11,2.247423430634817e-11,1.609404898847904e-11,1.2043431583276675e-11,9.209915665712725e-12,7.12089114625814e-12,5.5011575169556376e-12,4.2230645944242665e-12,3.212116404717064e-12,2.4210794934568036e-12,1.7956758492568623e-12,1.308076801278367e-12,9.347283747134957e-13,6.519350990459248e-13,4.4438052848657645e-13,2.945809104409094e-13,4.231390948713285e-09,3.100617514114056e-09,2.084673260031196e-09,1.2651972033734556e-09,7.648313720292887e-10,4.739159225057429e-10,3.1025359111815034e-10,2.036615619690509e-10,1.325287675972666e-10,8.435152527276106e-11,5.3147914572912843e-11,3.4037864030147917e-11,2.243588305004182e-11,1.5315191915244776e-11,1.086587810383621e-11,7.82674653739063e-12,5.666515647229548e-12,4.0816874200748805e-12,2.905830894510473e-12,2.046214349751127e-12,1.4126149247695413e-12
0.0,1,1.0,0.0,30.0,0.0,0.0,0.0,0.0,-13.0,0.0,2.0,0.0,0.0,0.0,6.178791469617115e-11,3.7122691384400885e-11,2.3607203208984746e-11,1.6121577215248358e-11,1.1648405439614311e-11,8.720349019354184e-12,6.6607447393037086e-12,5.111380755833347e-12,3.908353991973448e-12,2.9670147815778592e-12,2.2356710753944017e-12,1.6588498208095725e-12,1.210021640519414e-12,8.662028657730831e-13,6.054796289853112e-13,4.1380549188294764e-13,2.750917869161139e-13,4.213625189434281e-09,3.085474769792949e-09,2.073883178321243e-09,1.2599246596740278e-09,7.649474217965899e-10,4.792139045499213e-10,3.199107488134777e-10,2.1617584236202618e-10,1.4544532634501554e-10,9.530476077703588e-11,6.08777660054688e-11,3.862893974080831e-11,2.4653924517865186e-11,1.6094418276123755e-11,1.094702934468961e-11,7.63266225371469e-12,5.406094022281499e-12,3.843836993700127e-12,2.7100784430650494e-12,1.898530755334903e-12,1.3045882321850015e-12
0.0,2,2.0,0.0,30.0,0.0,0.0,0.0,0.0,-13.0,0.0,2.0,0.0,0.0,0.0,6.848756003975355e-11,4.1112071486141957e-11,2.5411958293745967e-11,1.6618134719919962e-11,1.1526000102930182e-11,8.383899599209464e-12,6.293802495961797e-12,4.7832855043299086e-12,3.63652843221299e-12,2.7524882051671605e-12,2.0717303132294847e-12,1.5369901447615084e-12,1.1221463637485047e-12,8.044110150338182e-13,5.633663070487762e-13,3.859304979079899e-13,2.5723240012866837e-13,4.1953223125417876e-09,3.070009996193296e-09,2.062987143285247e-09,1.2544554360125037e-09,7.639633374505506e-10,4.818334426806441e-10,3.2558608119880305e-10,2.2445245896727554e-10,1.5509797089567224e-10,1.0459678241877387e-10,6.835409426392884e-11,4.372717105213913e-11,2.756007070006361e-11,1.7432172779989398e-11,1.1385264142260564e-11,7.637487527296717e-12,5.253468281141195e-12,3.666149325511726e-12,2.553610967756178e-12,1.773873747620178e-12,1.2118786765496907e-12
0.0,3,3.0,0.0,30.0,0.0,0.0,0.0,0.0,-13.0,0.0,2.0,0.0,0.0,0.0,7.451430774901117e-11,4.527102341640761e-11,2.7674323995792647e-11,1.7526828126144298e-11,1.1675278533193112e-11,8.204988747306242e-12,6.018654803361003e-12,4.5122909867575954e-12,3.4031585751487376e-12,2.564958879041428e-12,1.9266633258780034e-12,1.4283345309592983e-12,1.0432692728702677e-12,7.48612697179199e-13,5.251387442220396e-13,3.60485906502549e-13,2.408497385645536e-13,4.176507414522002e-09,3.054231289801675e-09,2.051991810283301e-09,1.2490225335366138e-09,7.627696709721127e-10,4.834311753079789e-10,3.2918490572718624e-10,2.2991595867234339e-10,1.6201064772859406e-10,1.1197397951872661e-10,7.499035811950099e-11,4.880226338368639e-11,3.0842143483324427e-11,1.920790507751141e-11,1.2158891649539323e-11,7.849734284310528e-12,5.215584595683021e-12,3.549004088397196e-12,2.43367004238368e-12,1.6699991520824753e-12,1.13273942201966e-12
0.0,4,4.0,0.0,30.0,0.0,0.0,0.0,0.0,-13.0,0.0,2.0,0.0,0.0,0.0,7.962901135546654e-11,4.925967660947849e-11,3.016730301768546e-11,1.8751787766018905e-11,1.2073896373972294e-11,8.183753664470376e-12,5.835762534534116e-12,4.296058146342451e-12,3.2050677282517884e-12,2.4015314242032944e-12,1.798325365124261e-12,1.3313814948164515e-12,9.72369811964318e-13,6.981628565687416e-13,4.903938902857422e-13,3.372325318318062e-13,2.258065922187602e-13,4.157199851573425e-09,3.038163787288576e-09,2.0409046915967496e-09,1.2436508908937852e-09,7.616268472682903e-10,4.847436121809814e-10,3.318438108047236e-10,2.3372130282742927e-10,1.6692574954422434e-10,1.1760708785793754e-10,8.054915485601782e-11,5.349165207672367e-11,3.420995865982213e-11,2.1263001622329857e-11,1.3210180438791788e-11,8.261341789232394e-12,5.296764419274078e-12,3.4951377792125606e-12,2.348857969357324e-12,1.5859886313464506e-12,1.0658102156206774e-12
0.0,5,5.0,0.0,30.0,0.0,0.0,0.0,0.0,-13.0,0.0,2.0,0.0,0.0,0.0,8.380967876241775e-11,5.287100867635351e-11,3.269633868713078e-11,2.0182350897590315e-11,1.2681011279583391e-11,8.312085645698999e-12,5.7447634761221265e-12,4.133654093309151e-12,3.0401872402811075e-12,2.2599493455662092e-12,1.6849512202839979e-12,1.2448503060625215e-12,9.08570407736786e-13,6.524983185897996e-13,4.587752938939258e-13,3.1595804798095874e-13,2.1197990753790693e-13,4.137408310843252e-09,3.021828614538626e-09,2.029745616687038e-09,1.2383431229464468e-09,7.605885351611069e-10,4.860467482750434e-10,3.3415017147880513e-10,2.366483165572382e-10,1.7052532162344625e-10,1.2184695803803716e-10,8.503360667737548e-11,5.76037805226625e-11,3.744255354403076e-11,2.3439908660450916e-11,1.4460323004703133e-11,8.847132576840429e-12,5.4945874082310994e-12,3.507062649498405e-12,2.2990589037338556e-12,1.521642385981669e-12,1.010197261274053e-12
0.0,6,6.0,0.0,30.0,0.0,0.0,0.0,0.0,-13.0,0.0,2.0,0.0,0.0,0.0,8.715829138695119e-11,5.601201431421068e-11,3.511869370271079e-11,2.1713395624935897e-11,1.3445359423088832e-11,8.573439288071987e-12,5.742534793375912e-12,4.024451350421335e-12,2.907271378101801e-12,2.1385494162651966e-12,1.5851083987913308e-12,1.1676500604919026e-12,8.511182271521066e-13,6.11126847435231e-13,4.299678480401764e-13,2.964736895239106e-13,1.9925928853421254e-13,4.1171372123488764e-09,3.005240237011837e-09,2.0185349041013744e-09,1.2331097347426205e-09,7.596605439282867e-10,4.874239571162526e-10,3.3637008569973205e-10,2.391611359573473e-10,1.7332942558788091e-10,1.2507085264729684e-10,8.857895987393824e-11,6.108050800991105e-11,4.039874072235631e-11,2.560646045267977e-11,1.5825923113816825e-11,9.569947546124406e-12,5.7988588600298734e-12,3.584919549495138e-12,2.2847087291670144e-12,1.4771028666753433e-12,9.654080318650196e-13
0.0,7,7.0,0.0,30.0,0.0,0.0,0.0,0.0,-13.0,0.0,2.0,0.0,0.0,0.0,8.982984225145749e-11,5.867171426647831e-11,3.7344731149129e-11,2.3257323987150388e-11,1.431361748047721e-11,8.945135606265386e-12,5.822518247973599e-12,3.967175325291745e-12,2.8054973480898948e-12,2.0361680450754076e-12,1.4976638355860968e-12,1.0988589370598182e-12,7.993677273030585e-13,5.736176934603676e-13,4.036934888659522e-13,2.786113944360734e-13,1.8754558460554332e-13,4.096391549654734e-09,2.9884104815760637e-09,2.0072896501829532e-09,1.2279656539475399e-09,7.588459042248968e-10,4.888931920840423e-10,3.3860799828209865e-10,2.415082514232756e-10,1.7569013609043311e-10,1.276056585749499e-10,9.137205189257385e-11,6.395130193892704e-11,4.3007616659243815e-11,2.7665559673972858e-11,1.723103611468171e-11,1.0387427272506719e-11,6.1930292378482764e-12,3.725486557249569e-12,2.3058842081216767e-12,1.4525928890493152e-12,9.312249325819405e-13
0.0,8,8.0,0.0,30.0,0.0,0.0,0.0,0.0,-13.0,0.0,2.0,0.0,0.0,0.0,9.198688980368966e-11,6.088992762276165e-11,3.93299649363315e-11,2.4748649051348297e-11,1.5236608682686746e-11,9.401506500596467e-12,5.975110572683606e-12,3.959350059866134e-12,2.73406119668336e-12,1.9519959922575845e-12,1.42174714390333e-12,1.03771013549004e-12,7.52766038537191e-13,5.395934409819988e-13,3.797072707185625e-13,2.6222140407799943e-13,1.7674959048316025e-13,4.075178660625562e-09,2.9713518438123307e-09,1.9960250701732657e-09,1.2229259183413691e-09,7.581518590812601e-10,4.904569882377701e-10,3.4089822396672525e-10,2.43809917220791e-10,1.7782490770187064e-10,1.2970187636597903e-10,9.360114595128443e-11,6.629363921886761e-11,4.525159639716277e-11,2.9555181195826385e-11,1.8613695878429745e-11,1.125783592144353e-11,6.656733997119498e-12,3.922293496518345e-12,2.3616408051367133e-12,1.44816471254984e-12,9.075731796068861e-13
0.0,9,9.0,0.0,30.0,0.0,0.0,0.0,0.0,-13.0,0.0,2.0,0.0,0.0,0.0,9.377495644404151e-11,6.27322657739011e-11,4.106392409793014e-11,2.6143720452033204e-11,1.6172882879136115e-11,9.91675497368411e-12,6.188638975515381e-12,3.997169516335719e-12,2.691869519483577e-12,1.8854101162487436e-12,1.356700876762983e-12,9.835787238817681e-13,7.108418542143333e-13,5.087233138661447e-13,3.5779357747516787e-13,2.471702196714921e-13,1.6679090902223441e-13,4.053508404585452e-09,2.9540788584774542e-09,1.9847564791011518e-09,1.2180046272278401e-09,7.575881717391195e-10,4.921177839089178e-10,3.432499224671457e-10,2.461185999737932e-10,1.7985785992420954e-10,1.315355454723935e-10,9.543002761843476e-11,6.820392491069932e-11,4.7148891813021445e-11,3.1243409592020096e-11,1.9928095354102994e-11,1.214398583942477e-11,7.1683775194416605e-12,4.1664210214236714e-12,2.449754072454794e-12,1.4634737093290176e-12,8.944027100033414e-13
0.0,10,10.0,0.0,30.0,0.0,0.0,0.0,0.0,-13.0,0.0,2.0,0.0,0.0,0.0,9.531240178284991e-11,6.427248380065756e-11,4.255913686434628e-11,2.74178604201393e-11,1.7090139709090953e-11,1.0467044602331096e-11,6.450483561577662e-12,4.075684257952741e-12,2.6773715364214167e-12,1.835818107489858e-12,1.3020193841664845e-12,9.359649705841393e-13,6.731968630078082e-13,4.807179785036187e-13,3.3776254500021374e-13,2.333388004959081e-13,1.5759699906425768e-13,4.031392883812914e-09,2.9366082761939117e-09,1.9735004083253255e-09,1.2132154593154742e-09,7.57165274388886e-10,4.938805333985058e-10,3.456659711419286e-10,2.4845502653724703e-10,1.8185495590636793e-10,1.3322220195067806e-10,9.698859991453223e-11,6.977869925384618e-11,4.8738530382284586e-11,3.27216477396226e-11,2.1144008220921896e-11,1.3015322912000876e-11,7.707198080690548e-12,4.447546684508711e-12,2.5668067764576443e-12,1.4976334289303738e-12,8.915920829569333e-13
0.0,11,11.0,0.0,30.0,0.0,0.0,0.0,0.0,-13.0,0.0,2.0,0.0,0.0,0.0,9.668909833779545e-11,6.558142006879506e-11,4.3841754400502556e-11,2.8561462258416183e-11,1.796519094835182e-11,1.1031760844825055e-11,6.748072261206218e-12,4.189156274351995e-12,2.688524458698523e-12,1.8025417346731833e-12,1.2572846312411572e-12,8.944728066901945e-13,6.39498099700383e-13,4.553255682518061e-13,3.194468771068096e-13,2.2062093915134306e-13,1.4910239101311965e-13,4.008846158186201e-09,2.918958794324734e-09,1.9622748928172425e-09,1.2085723415958942e-09,7.568935252821872e-10,4.957519170167626e-10,3.481493175898752e-10,2.508271803013558e-10,1.8384914995867768e-10,1.3483346979772675e-10,9.837318443355544e-11,7.110418229122182e-11,5.0068925809446766e-11,3.39977645299465e-11,2.224473806037068e-11,1.3848614306335752e-11,8.254655099844798e-12,4.754939342048705e-12,2.7084820197628042e-12,1.5491842212940655e-12,8.988786678859864e-13
0.0,12,12.0,0.0,30.0,0.0,0.0,0.0,0.0,-13.0,0.0,2.0,0.0,0.0,0.0,9.796966459376313e-11,6.672107334910728e-11,4.4944324664907173e-11,2.9575974896599877e-11,1.8783068185297006e-11,1.1594086435469273e-11,7.069629971768721e-12,4.331458442787395e-12,2.722856544849391e-12,1.7847483738241766e-12,1.222108333901287e-12,8.587847782217421e-13,6.094699059183832e-13,4.3232843194028166e-13,3.0269917242680186e-13,2.0892180273273902e-13,1.4124803011608238e-13,3.9858840401336746e-09,2.9011507211736133e-09,1.9510993172195278e-09,1.2040897867839578e-09,7.567831229651955e-10,4.977392889738821e-10,3.507042454184862e-10,2.5323910025794337e-10,1.858563348018395e-10,1.3641170155432983e-10,9.965152290762972e-11,7.22517993986201e-11,5.118997077922912e-11,3.5090060316338346e-11,2.3224459286349133e-11,1.462771653372698e-11,8.795198726935024e-12,5.078254944552697e-12,2.869930522589738e-12,1.6161662135488866e-12,9.158168452372698e-13
0.0,13,13.0,0.0,30.0,0.0,0.0,0.0,0.0,-13.0,0.0,2.0,0.0,0.0,0.0,9.919845372665948e-11,6.77422851443255e-11,4.590069284065094e-11,3.047026860795711e-11,1.9535712853439562e-11,1.2141084282201306e-11,7.404666500963244e-12,4.496439309585533e-12,2.777585510418197e-12,1.7814277012891266e-12,1.1960870409605785e-12,8.286362243042949e-13,5.828849519717433e-13,4.1154009194363836e-13,2.873897532723852e-13,1.9815665354680779e-13,1.339807059757859e-13,3.962523951330117e-09,2.883205700298367e-09,1.9399941216756684e-09,1.1997829122384857e-09,7.568442011568896e-10,4.998500504483124e-10,3.5333602945940747e-10,2.556943087597344e-10,1.878844830397683e-10,1.3798110121094696e-10,1.0086926104569823e-10,7.327753355687312e-11,5.2148142021480493e-11,3.602240750846226e-11,2.4085477109551633e-11,1.5342808972448405e-11,9.316561377464455e-12,5.408094280724356e-12,3.046123185346414e-12,1.696260479521661e-12,9.41763562937139e-13
0.0,14,14.0,0.0,30.0,0.0,0.0,0.0,0.0,-13.0,0.0,2.0,0.0,0.0,0.0,1.004046697819533e-10,6.868469452290161e-11,4.674274300760784e-11,3.1257609907240626e-11,2.0220534629379847e-11,1.2663462580292325e-11,7.7442390830179e-12,4.6782146394519895e-12,2.8497562982010906e-12,1.791403209727258e-12,1.178772917826614e-12,8.037914905860677e-13,5.595544881840085e-13,3.928020426112774e-13,2.7340488657675175e-13,1.8824975851777092e-13,1.2725253798718857e-13,3.938784818194439e-09,2.865146513033661e-09,1.9289805203883567e-09,1.195667286708361e-09,7.570868865738567e-10,5.020913860448898e-10,3.560503461243837e-10,2.5819675889664e-10,1.8993838191161151e-10,1.3955535538652518e-10,1.020561330358065e-10,7.422340294720584e-11,5.2983933966984963e-11,3.682062728927592e-11,2.483570609856986e-11,1.5989366420654484e-11,9.809715699814167e-12,5.736341473851449e-12,3.232143752411707e-12,1.7869559489135209e-12,9.758883711970891e-13
0.0,15,15.0,0.0,30.0,0.0,0.0,0.0,0.0,-13.0,0.0,2.0,0.0,0.0,0.0,1.0160681439167136e-10,6.957793817996695e-11,4.749859286600154e-11,3.195331206760578e-11,2.0839013764414114e-11,1.3155156855865608e-11,8.081041758273544e-12,4.871375706564558e-12,2.936373398834419e-12,1.8133660801733058e-12,1.1696596693325194e-12,7.840242511244545e-13,5.393184272995345e-13,3.7598022959004946e-13,2.606452455730285e-13,1.791334770289549e-13,1.21020500211584e-13,3.9146869967682435e-09,2.846996945467877e-09,1.9180802853935183e-09,1.1917587291608744e-09,7.575212777975147e-10,5.044701867904479e-10,3.5885284278204486e-10,2.6075082431571087e-10,1.920218023863383e-10,1.4114245300629568e-10,1.0323105947245811e-10,7.511986532520486e-11,5.373093607932987e-11,3.750999932099594e-11,2.5486520248002482e-11,1.6567052657456665e-11,1.026861936173433e-11,6.056324990356148e-12,3.4234074876375576e-12,1.8857076494464727e-12,1.0172031314117737e-12
0.0,16,16.0,0.0,30.0,0.0,0.0,0.0,0.0,-13.0,0.0,2.0,0.0,0.0,0.0,1.0281618955440959e-10,7.044338001405944e-11,4.819184475794071e-11,3.2573032138394615e-11,2.1395447751626275e-11,1.3612824745152222e-11,8.409372300793014e-12,5.071120462646505e-12,3.034513781923147e-12,1.8459201017490443e-12,1.1681809553012516e-12,7.691029958209771e-13,5.22035981151681e-13,3.609612406784896e-13,2.4902447369102837e-13,1.7074749735350422e-13,1.1524597958490337e-13,3.890252224995815e-09,2.8287817028775653e-09,1.9073155989933152e-09,1.1880731283098923e-09,7.581573724766512e-10,5.06993038477523e-10,3.617489052020445e-10,2.6336103445364267e-10,1.94138321057721e-10,1.427475040456442e-10,1.0440597125691388e-10,7.598839582999035e-11,5.441596020031882e-11,3.8113719452981584e-11,2.6051032914710824e-11,1.7078650654578773e-11,1.0689837704490608e-11,6.362846204394188e-12,3.615809166609596e-12,1.990065563212117e-12,1.0646052653691845e-12
0.0,17,17.0,0.0,30.0,0.0,0.0,0.0,0.0,-13.0,0.0,2.0,0.0,0.0,0.0,1.0403946970870404e-10,7.129592089628682e-11,4.8841540524231684e-11,3.3131632647931444e-11,2.1895892349758776e-11,1.4035318501591329e-11,8.725018749101857e-12,5.2733207491959e-12,3.1414148023836372e-12,1.8876290006559865e-12,1.1737177889351342e-12,7.587818104442636e-13,5.075774698580156e-13,3.476483646500282e-13,2.3846775667380497e-13,1.6303818058762272e-13,1.0989436657715161e-13,3.865503601749886e-09,2.8105263586432084e-09,1.8967089611701476e-09,1.1846263078493515e-09,7.590049798003132e-10,5.09666220256401e-10,3.647435624755584e-10,2.6603182633666666e-10,1.962915165724471e-10,1.4437425974204082e-10,1.0558847898107552e-10,7.684382733023213e-11,5.505975415945929e-11,3.8652092507221635e-11,2.6542804083514073e-11,1.7529098671354664e-11,1.107210987132452e-11,6.652115274141003e-12,3.805811055791492e-12,2.0977663668998235e-12,1.1169279278804733e-12
0.0,18,18.0,0.0,30.0,0.0,0.0,0.0,0.0,-13.0,0.0,2.0,0.0,0.0,0.0,1.052804869119541e-10,7.214564152550633e-11,4.9462536256415915e-11,3.364250254189462e-11,2.2347313169090977e-11,1.4423177668662218e-11,9.0250978256221e-12,5.474540229191733e-12,3.2545367936225414e-12,1.9370604796723985e-12,1.1856114385750935e-12,7.527959079670367e-13,4.958177027015287e-13,3.3595772745390703e-13,2.289103619262378e-13,1.5595797012371177e-13,1.0493467845462476e-13,3.840465590966687e-09,2.7922573288982706e-09,1.8862831362293445e-09,1.181433938327136e-09,7.600736435582883e-10,5.124956983598437e-10,3.6784146626613275e-10,2.687673846702755e-10,1.9848492626586408e-10,1.460258560333219e-10,1.0678362573993797e-10,7.769627721509723e-11,5.567797119488714e-11,3.914225408135245e-11,2.697493493987825e-11,1.792466884668704e-11,1.1415904314132707e-11,6.921626432555249e-12,3.9904831203306615e-12,2.206789565032362e-12,1.1729908870290123e-12
0.0,19,19.0,0.0,30.0,0.0,0.0,0.0,0.0,-13.0,0.0,2.0,0.0,0.0,0.0,1.0654141013262507e-10,7.299917006017124e-11,5.0066086482242514e-11,3.411722795783911e-11,2.27569416653034e-11,1.477816818386016e-11,9.307869021999493e-12,5.672016474382783e-12,3.3716029479482524e-12,1.992823805044044e-12,1.2031788950809087e-12,7.508609966373109e-13,4.866310891239706e-13,3.258147088772078e-13,2.2029614950765813e-13,1.4946483198846556e-13,1.0033921406528824e-13,3.815164048001617e-09,2.774001866956228e-09,1.876061125999739e-09,1.1785114869090687e-09,7.613725872874372e-10,5.154871167362905e-10,3.7104690288148555e-10,2.7157156488144834e-10,2.0072194617284485e-10,1.4770512962464464e-10,1.0799497436919862e-10,7.855262802616412e-11,5.628218122362408e-11,3.959824233796121e-11,2.735948956862511e-11,1.82723018139482e-11,1.1722994786702536e-11,7.169997531415494e-12,4.167506653300911e-12,2.3153844876025518e-12,1.231647016477496e-12
0.0,20,20.0,0.0,30.0,0.0,0.0,0.0,0.0,-13.0,0.0,2.0,0.0,0.0,0.0,1.078234886449185e-10,7.386075220394696e-11,5.066049414540149e-11,3.456551196855383e-11,2.3131815446596282e-11,1.510288251037362e-11,9.572541435140619e-12,5.863618401295061e-12,3.490620269873687e-12,2.053599660312231e-12,1.2257287077025646e-12,7.526754457738727e-13,4.798884334175661e-13,3.17150799001273e-13,2.1257608934060036e-13,1.4352170301521152e-13,9.60832372889338e-14,3.78962626436442e-09,2.7557880729829646e-09,1.8660661606139725e-09,1.1758741944401211e-09,7.629106833348494e-10,5.186457902754894e-10,3.74363816723342e-10,2.744478733098924e-10,2.0300574743226004e-10,1.4941472158799142e-10,1.0922524435352601e-10,7.94176052056621e-11,5.688080109354072e-11,4.003127673044743e-11,2.7707176273330665e-11,1.85790948044292e-11,1.1996076748760637e-11,7.396792636624002e-12,4.3351507113834295e-12,2.4220761489666268e-12,1.2918208574567391e-12
0.0,21,21.0,0.0,30.0,0.0,0.0,0.0,0.0,-13.0,0.0,2.0,0.0,0.0,0.0,1.091274987249523e-10,7.473304827993752e-11,5.125173729271994e-11,3.499525776174493e-11,2.3478475259608194e-11,1.5400406910045897e-11,9.819085356744569e-12,6.047787918118569e-12,3.6098855568499807e-12,2.118162219888871e-12,1.2525757255785065e-12,7.579242591635782e-13,4.754552229612214e-13,3.099009936946817e-13,2.0570683310810807e-13,1.3809593621451444e-13,9.214468503217781e-14,3.763881026469289e-09,2.737644914975615e-09,1.8563217007057195e-09,1.1735370706425056e-09,7.646964426452167e-10,5.219767049295184e-10,3.7779583638383794e-10,2.773994802377098e-10,2.0533922855235402e-10,1.5115709023949043e-10,1.104766627617095e-10,8.029452639487241e-11,5.747988581260839e-11,4.045013765837283e-11,2.802722265144971e-11,1.8851930171215014e-11,1.2238435536354746e-11,7.602341646205514e-12,4.492229028680065e-12,2.525657330528157e-12,1.3525373755800369e-12
0.0,22,22.0,0.0,30.0,0.0,0.0,0.0,0.0,-13.0,0.0,2.0,0.0,0.0,0.0,1.1045399818339375e-10,7.56177024158895e-11,5.18440242339825e-11,3.541274760175948e-11,2.3802788286351728e-11,1.567405586921897e-11,1.004805675681819e-11,6.223472606092533e-12,3.727980019504639e-12,2.185394099815711e-12,1.2830539016893848e-12,7.662840137122999e-13,4.731911397137279e-13,3.040017678686376e-13,1.9964938981138763e-13,1.331587433126011e-13,8.850389530483215e-14,3.737958683986155e-09,2.7196022574088523e-09,1.8468514466887666e-09,1.1715149005547964e-09,7.667380203337089e-10,5.254845264930499e-10,3.813463010452966e-10,2.804292488402212e-10,2.0772500077282306e-10,1.5293449606976735e-10,1.1175114479334846e-10,8.118580150377257e-11,5.8083764829387843e-11,4.0861574322945896e-11,2.8327385780595662e-11,1.9097225172278704e-11,1.2453671094934226e-11,7.787567034345333e-12,4.638043710076332e-12,2.625172616259825e-12,1.4129405430083746e-12
0.0,23,23.0,0.0,30.0,0.0,0.0,0.0,0.0,-13.0,0.0,2.0,0.0,0.0,0.0,1.1180346233760101e-10,7.651573359420542e-11,5.244025716985546e-11,3.582286744008788e-11,2.4109868063353187e-11,1.5927169477329407e-11,1.0260439821046563e-11,6.390054602839364e-12,3.8437556186577894e-12,2.2542951706273244e-12,1.3165267830878237e-12,7.774281086648448e-13,4.729504980265445e-13,2.993896140199957e-13,1.943679454534657e-13,1.2868464194282934e-13,8.514335143177475e-14,3.7118912237478906e-09,2.7016908942378957e-09,1.8376793519320094e-09,1.1698222573844488e-09,7.6904323216546e-10,5.29173617765386e-10,3.850182872966173e-10,2.8353977015625746e-10,2.1016539709820734e-10,1.5474898708461559e-10,1.1305037986871687e-10,8.209325416490333e-11,5.869553186445576e-11,4.127069523496761e-11,2.8614048896911068e-11,1.9320781237940858e-11,1.2645479177394764e-11,7.953824672627934e-12,4.7723209444036075e-12,2.7198982941992013e-12,1.4723025345721643e-12
0.0,24,24.0,0.0,30.0,0.0,0.0,0.0,0.0,-13.0,0.0,2.0,0.0,0.0,0.0,1.1317635052688872e-10,7.742779440706871e-11,5.3042402165246196e-11,3.622934249288302e-11,2.4404064205680115e-11,1.616296689233749e-11,1.0457510374776308e-11,6.547279543781394e-12,3.956315642943849e-12,2.3239863046692225e-12,1.352395629811617e-12,7.910318583473083e-13,4.745833236784415e-13,2.960000961028678e-13,1.8982885415932297e-13,1.2465091912035871e-13,8.204743953757712e-14,3.6857123457839014e-09,2.683942583383449e-09,1.8288296374055327e-09,1.1684735185247724e-09,7.716195778870671e-10,5.330480626427658e-10,3.8881463695975444e-10,2.867333990868714e-10,2.1266249562177987e-10,1.566023944905224e-10,1.1437587003659375e-10,8.301832142213294e-11,5.93174087560899e-11,4.168131635391638e-11,2.8892366710587368e-11,1.952771090035768e-11,1.2817485454394468e-11,8.102763086423776e-12,4.895143109101692e-12,2.8093204921092934e-12,1.5300250605860764e-12
0.0,25,25.0,0.0,30.0,0.0,0.0,0.0,0.0,-13.0,0.0,2.0,0.0,0.0,0.0,1.1457313434026033e-10,7.835433574469666e-11,5.365177345835243e-11,3.663496170269785e-11,2.468899917221785e-11,1.638444761437802e-11,1.064072121678441e-11,6.6951883777096496e-12,4.064991556029161e-12,2.39370908282896e-12,1.3901053000816299e-12,8.067771261920999e-13,4.779368244099751e-13,2.9376734557247907e-13,1.8599981374459727e-13,1.2103712379787417e-13,7.920221774644695e-14,3.6594575387159265e-09,2.666390080310718e-09,1.8203268059168534e-09,1.1674828825880918e-09,7.744742683504537e-10,5.371116952402408e-10,3.927379862320968e-10,2.900122893114351e-10,2.1521815000690873e-10,1.584963398384837e-10,1.1572894758668406e-10,8.396217425766697e-11,5.995100770492663e-11,4.209625622914272e-11,2.91664316391484e-11,1.9722422239971648e-11,1.2973126770371798e-11,8.236203388408784e-12,5.006880860667315e-12,2.8931128115720346e-12,1.58563468785235e-12
0.0,26,26.0,0.0,30.0,0.0,0.0,0.0,0.0,-13.0,0.0,2.0,0.0,0.0,0.0,1.1599430636976798e-10,7.929570720871215e-11,5.4269244814864843e-11,3.7041778611109425e-11,2.496763377104705e-11,1.6594331852393046e-11,1.081160901377475e-11,6.834054035920864e-12,4.169317728017649e-12,2.462822375084807e-12,1.429148142512361e-12,8.24356329901531e-13,4.828570487378743e-13,2.926239158149484e-13,1.8284922569050967e-13,1.1782460022104516e-13,7.659519677386683e-14,3.6331641523239296e-09,2.6490671687660197e-09,1.8121956544601732e-09,1.1668643860336325e-09,7.776142542601456e-10,5.413681321555222e-10,3.9679079601213133e-10,2.933784264469107e-10,2.1783402243841107e-10,1.6043225123158717e-10,1.171107860411752e-10,8.492578908928431e-11,6.059751554818792e-11,4.251757682312457e-11,2.9439441978900256e-11,1.9908643382906453e-11,1.3115572598391096e-11,8.356040452453113e-12,5.108128063605085e-12,2.971114053924605e-12,1.6387740055049782e-12
0.0,27,27.0,0.0,30.0,0.0,0.0,0.0,0.0,-13.0,0.0,2.0,0.0,0.0,0.0,1.1744038022312375e-10,8.025221528771146e-11,5.4895401902076253e-11,3.745128304378538e-11,2.5242347437269824e-11,1.6795031544646693e-11,1.0971721416524e-11,6.96432425224197e-12,4.269005326755221e-12,2.5307965791857606e-12,1.4690661766213771e-12,8.434757456527828e-13,4.891905784471845e-13,2.9250091032428905e-13,1.8034572900656192e-13,1.1499607129146287e-13,7.421513255722867e-14,3.6068714655189915e-09,2.632008687104497e-09,1.8044612835046285e-09,1.1666319184332308e-09,7.810462550715541e-10,5.45820806236652e-10,4.009753829393413e-10,2.968336593535072e-10,2.2051161628924932e-10,1.6241138536339415e-10,1.185224110812739e-10,8.590999046875538e-11,6.125782060942154e-11,4.2946774122669964e-11,2.971386006818877e-11,2.008947269207158e-11,1.3247679380894891e-11,8.464164621792853e-12,5.199641692563422e-12,3.0433062992689668e-12,1.689190282109386e-12
0.0,28,28.0,0.0,30.0,0.0,0.0,0.0,0.0,-13.0,0.0,2.0,0.0,0.0,0.0,1.1891188750299322e-10,8.122415489204889e-11,5.553064892034568e-11,3.786454259804587e-11,2.5515023190507953e-11,1.6988644344228488e-11,1.112256240196715e-11,7.0865712731485716e-12,4.363916367109205e-12,2.597206175424438e-12,1.509451844892205e-12,8.638581067567788e-13,4.967861451475109e-13,2.9332830591112253e-13,1.7845789006680467e-13,1.1253527794202788e-13,7.205183219210192e-14,3.5806207482620015e-09,2.615250548932135e-09,1.7971491022852135e-09,1.1667992357182522e-09,7.847767870738536e-10,5.504730005488587e-10,4.0529395050615706e-10,3.00379729632937e-10,2.2325230705389146e-10,1.6443485247890933e-10,1.1996471372169437e-10,8.691547787975195e-11,6.193259875375808e-11,4.3384925310928994e-11,2.999155382051069e-11,2.0267443419774734e-11,1.3371970673833849e-11,8.562402352527784e-12,5.282288162471402e-12,3.1097934889221935e-12,1.7367229396723548e-12
0.0,29,29.0,0.0,30.0,0.0,0.0,0.0,0.0,-13.0,0.0,2.0,0.0,0.0,0.0,1.2040937449371582e-10,8.221182484956431e-11,5.617528099656185e-11,3.8282315729425126e-11,2.5787130431953292e-11,1.7176963902129513e-11,1.1265553471792218e-11,7.201448745229723e-12,4.4540386852760695e-12,2.661721142905086e-12,1.5499476005848095e-12,8.852445348465513e-13,5.054960995773131e-13,2.950354022057162e-13,1.7715402611349141e-13,1.1042667721481617e-13,7.009597469930547e-14,3.5544553161852403e-09,2.5988297570167698e-09,1.7902848293599084e-09,1.1673799709589946e-09,7.888121900474887e-10,5.553278815697728e-10,4.097486195694526e-10,3.040182993342688e-10,2.2605737088873765e-10,1.6650364205083962e-10,1.214384659064605e-10,8.794284440272119e-11,6.262237140001248e-11,4.38328001196537e-11,3.0273918800096356e-11,2.0444594463347833e-11,1.3490636638389605e-11,8.652473632971287e-12,5.356996924835406e-12,3.1707806678252183e-12,1.781290822254141e-12
0.0,30,30.0,0.0,30.0,0.0,0.0,0.0,0.0,-13.0,0.0,2.0,0.0,0.0,0.0,1.2193339965004807e-10,8.321553428671993e-11,5.6829531763965396e-11,3.87051397351251e-11,2.6059801327777908e-11,1.736150091278343e-11,1.1402008194084222e-11,7.309655710504263e-12,4.53946240942999e-12,2.7240976864048367e-12,1.5902445671276307e-12,9.073958656045221e-13,5.151776928371783e-13,2.975513405599119e-13,1.7640213832440959e-13,1.0865519870957894e-13,6.833894809495953e-14,3.5284205768473796e-09,2.5827844096233413e-09,1.7838944878822314e-09,1.1683876423924108e-09,7.931586521385334e-10,5.603885309374393e-10,4.1434145765611475e-10,3.077509768141338e-10,2.2892801053212142e-10,1.686186476748385e-10,1.229443377885953e-10,8.899259160584345e-11,6.33275448358295e-11,4.429094372876306e-11,3.0561980540981854e-11,2.0622541340384827e-11,1.360554727732019e-11,8.735963737260805e-12,5.4247216382285705e-12,3.226554090200447e-12,1.8228799170356065e-12
0.0,31,31.0,0.0,30.0,0.0,0.0,0.0,0.0,-13.0,0.0,2.0,0.0,0.0,0.0,1.2348453214176826e-10,8.423560422948927e-11,5.749360350615073e-11,3.9133397535714154e-11,2.6333898481509427e-11,1.754351051286593e-11,1.1533117606664988e-11,7.41190737011387e-12,4.620358330154755e-12,2.78416864159366e-12,1.630080474357739e-12,9.300934418134206e-13,5.256941515986941e-13,3.0080564755240576e-13,1.7616993056759463e-13,1.0720605657948693e-13,6.677270394863888e-14,3.5025640667018072e-09,2.567153698611097e-09,1.7780043952186026e-09,1.1698356585612912e-09,7.978222327780828e-10,5.656579753214325e-10,4.190745065778659e-10,3.1157934065155464e-10,2.318653785900116e-10,1.7078069026965752e-10,1.2448291571030992e-10,9.006514287441827e-11,6.404843741337566e-11,4.4759737745475976e-11,3.085647835563677e-11,2.0802543520105995e-11,1.3718274757545184e-11,8.814306809064611e-12,5.486408792527505e-12,3.277462432458482e-12,1.861531922994621e-12
0.0,32,32.0,0.0,30.0,0.0,0.0,0.0,0.0,-13.0,0.0,2.0,0.0,0.0,0.0,1.250633513320638e-10,8.527236700651316e-11,5.8167685427156804e-11,3.956736718458756e-11,2.6610073001131272e-11,1.7724022665741847e-11,1.1659944158366673e-11,7.508912085276678e-12,4.696958429917037e-12,2.8418338574082167e-12,1.6692370478728856e-12,9.531394486989525e-13,5.369155454599007e-13,3.047287696003452e-13,1.7642489162745376e-13,1.0606461239107694e-13,6.5389630176483e-14,3.4769354779883653e-09,2.5519778987978186e-09,1.7726411467144414e-09,1.1717373205672521e-09,8.028088836183541e-10,5.711392141844533e-10,4.239498080116161e-10,3.15504961508942e-10,2.348705982681027e-10,1.7299053909405141e-10,1.260547199761542e-10,9.116085611923922e-11,6.478529907649015e-11,4.5239444723471104e-11,3.115793270360595e-11,2.0985565817297335e-11,1.383012109922e-11,8.888778869848755e-12,5.542973344462927e-12,3.3238993698400268e-12,1.8973338656417206e-12
0.0,33,33.0,0.0,30.0,0.0,0.0,0.0,0.0,-13.0,0.0,2.0,0.0,0.0,0.0,1.2667044694229543e-10,8.632616489904668e-11,5.885196410234457e-11,4.0007257727891e-11,2.6888813014366867e-11,1.7903873076286342e-11,1.178342210263596e-11,7.60135396164044e-12,4.7695387082188055e-12,2.897050795113184e-12,1.707537001917349e-12,9.763568635898263e-13,5.487194552154384e-13,3.0925257506925703e-13,1.7713442123905894e-13,1.0521628294449173e-13,6.418244230904035e-14,3.4515866748679475e-09,2.537298348245531e-09,1.7678315935754435e-09,1.174105821570057e-09,8.081244675722107e-10,5.768352453560666e-10,4.289694268407117e-10,3.195294218550917e-10,2.3794478166838406e-10,1.7524893038092156e-10,1.2766022171387966e-10,9.228003610980174e-11,6.553832611210085e-11,4.5730240587021934e-11,3.146669851732478e-11,2.1172332718137007e-11,1.3942148379611509e-11,8.96049805272739e-12,5.5952807021211536e-12,3.366287752697153e-12,1.9304088213838497e-12
0.0,34,34.0,0.0,30.0,0.0,0.0,0.0,0.0,-13.0,0.0,2.0,0.0,0.0,0.0,1.2830641965269653e-10,8.739734877452143e-11,5.954662897388607e-11,4.0453234564726924e-11,2.7170483276821898e-11,1.808373294429508e-11,1.190436253915606e-11,7.689880298862255e-12,4.83840433693328e-12,2.9498255319195306e-12,1.7448407638583714e-12,9.995890862945164e-13,5.609914571446517e-13,3.143108084899221e-13,1.7826598326456623e-13,1.046464865051806e-13,6.31440929599336e-14,3.4265716982030963e-09,2.523157419249136e-09,1.7636028149756032e-09,1.1769542437826891e-09,8.137747761340323e-10,5.827490884570998e-10,4.341354721767429e-10,3.2365433351197843e-10,2.4108904578335635e-10,1.7755658357316643e-10,1.2929985834376542e-10,9.342294634465719e-11,6.63076729251944e-11,4.623223832442903e-11,3.1783006888130035e-11,2.1363375324653712e-11,1.4055209360521978e-11,9.030430132156089e-12,5.644134266855226e-12,3.405065569894039e-12,1.960907731218699e-12
0.0,35,35.0,0.0,30.0,0.0,0.0,0.0,0.0,-13.0,0.0,2.0,0.0,0.0,0.0,1.2997188193549424e-10,8.848627702254973e-11,6.025187485042529e-11,4.090543693002584e-11,2.7455356843027192e-11,1.826413647790348e-11,1.2023461594290566e-11,7.77509317034796e-12,4.903877097868282e-12,3.0002043115183145e-12,1.7810430390932579e-12,1.0226993098911369e-12,5.736254416534991e-13,3.198394880067002e-13,1.797872724458042e-13,1.0434062073779899e-13,6.226769875307256e-14,3.401946758446346e-09,2.509598479913943e-09,1.7599820846272356e-09,1.1802955533102786e-09,8.197655452302994e-10,5.888838062984828e-10,4.394501160842494e-10,3.2788135304230544e-10,2.4430452633022556e-10,1.7991421525658342e-10,1.309740473791599e-10,9.458982025036077e-11,6.709346190125868e-11,4.6745505463724376e-11,3.21069973329558e-11,2.155907114393836e-11,1.4169977084903517e-11,9.09939771567491e-12,5.6902676872951016e-12,3.440673820445537e-12,1.9890022377399803e-12
0.0,36,36.0,0.0,30.0,0.0,0.0,0.0,0.0,-13.0,0.0,2.0,0.0,0.0,0.0,1.3166745897594262e-10,8.959331488150743e-11,6.096790270721458e-11,4.136398960879385e-11,2.7743639907218343e-11,1.8445505561636302e-11,1.2141310518687524e-11,7.857544417711464e-12,4.9662849908225016e-12,3.0482657436805217e-12,1.81606930858862e-12,1.0455696848095145e-12,5.865237857132824e-13,3.2577724212577955e-13,1.8166638413056763e-13,1.0428406584452444e-13,6.154648357152183e-14,3.3777702161331417e-09,2.4966658462913164e-09,1.7569968321509132e-09,1.1841425932600126e-09,8.261024698984029e-10,5.9524252443632e-10,4.449156101097291e-10,3.322121950495676e-10,2.475923895767932e-10,1.8232255094791303e-10,1.3268319844196684e-10,9.578087149475701e-11,6.789579194796485e-11,4.727007715592102e-11,3.243874258516771e-11,2.1759677274102467e-11,1.4286972500705017e-11,9.16809175994135e-12,5.734340984909648e-12,3.473546340821297e-12,2.014878459742208e-12
0.0,37,37.0,0.0,30.0,0.0,0.0,0.0,0.0,-13.0,0.0,2.0,0.0,0.0,0.0,1.3339378959027254e-10,9.07188341290296e-11,6.169491961191668e-11,4.1829010527940274e-11,2.803549093119964e-11,1.8628171323872254e-11,1.22584067459714e-11,7.93773339047554e-12,5.025953853934377e-12,3.0941137197299493e-12,1.8498723366159655e-12,1.0681003226650962e-12,5.995973982892309e-13,3.320655854089404e-13,1.8387197904519242e-13,1.0446220688917933e-13,6.09737366895486e-14,3.3541025494941065e-09,2.484404725109285e-09,1.754674599667286e-09,1.1885080756083273e-09,8.32791218123989e-10,6.018284491005522e-10,4.5053429977267704e-10,3.3664864351024186e-10,2.5095384232105824e-10,1.8478233492840865e-10,1.3442772349501975e-10,9.699630324900815e-11,6.871474602101781e-11,4.7805966158183195e-11,3.2778267544076145e-11,2.196535770832829e-11,1.4406589566657672e-11,9.237084351255502e-12,5.77693975748651e-12,3.5041015635034005e-12,2.038731615143132e-12
0.0,38,38.0,0.0,30.0,0.0,0.0,0.0,0.0,-13.0,0.0,2.0,0.0,0.0,0.0,1.3515152709126152e-10,9.186321306292778e-11,6.243313827710235e-11,4.230061547715644e-11,2.833103510873846e-11,1.881239259544607e-11,1.2375165191599714e-11,8.016106824802948e-12,5.083200807207394e-12,3.1378710800279443e-12,1.8824287531406515e-12,1.0902081804943528e-12,6.127656569141868e-13,3.3864913520957443e-13,1.863734374925485e-13,1.0486046993561867e-13,6.054278414355042e-14,3.331006308707887e-09,2.4728611471923365e-09,1.7530429941025586e-09,1.1934045723530273e-09,8.398374441819953e-10,6.086448837312948e-10,4.563086372122394e-10,3.411925612950423e-10,2.5439014019638223e-10,1.8729433832711852e-10,1.3620804537416785e-10,9.823631629997309e-11,6.955039777715673e-11,4.835317061100105e-11,3.312556371582215e-11,2.217620553863709e-11,1.4529117589798592e-11,9.306841939636363e-12,5.818576741265644e-12,3.5327361191313987e-12,2.0607614080503622e-12
0.0,39,39.0,0.0,30.0,0.0,0.0,0.0,0.0,-13.0,0.0,2.0,0.0,0.0,0.0,1.3694134008133312e-10,9.302683668934788e-11,6.318277652476228e-11,4.277892088675397e-11,2.8630375104767506e-11,1.8998371414902802e-11,1.2491929271773025e-11,8.093060328014446e-12,5.1383293126674346e-12,3.1796740435191847e-12,1.9137357634178723e-12,1.111825860878141e-12,6.259562521369213e-13,3.454757731132615e-13,1.8914099926615808e-13,1.0546436736562818e-13,6.024697158516656e-14,3.308546056317514e-09,2.462081891717366e-09,1.7521296357591131e-09,1.1988445065045798e-09,8.472468018277122e-10,6.156952443593845e-10,4.622411922021268e-10,3.4584589806190816e-10,2.5790259448160916e-10,1.898593656603869e-10,1.3802460475374057e-10,9.95011159807835e-11,7.040281741567102e-11,4.89116802155016e-11,3.3480600205265335e-11,2.239226082969059e-11,1.465476075449349e-11,9.377738429771955e-12,5.8596951020622765e-12,3.5598201439632833e-12,2.0811681046040257e-12
0.0,40,40.0,0.0,30.0,0.0,0.0,0.0,0.0,-13.0,0.0,2.0,0.0,0.0,0.0,1.3876391317161133e-10,9.421009704344459e-11,6.394405680995906e-11,4.326404533373275e-11,2.8933598877814422e-11,1.9186265835230682e-11,1.2608981288246958e-11,8.168941012234239e-12,5.191625638430947e-12,3.2196673877756683e-12,1.943808026452389e-12,1.1329003588630132e-12,6.391049550178409e-13,3.5249675564042515e-13,1.9214588709625412e-13,1.0625954850083543e-13,6.007965682881713e-14,3.28678829333617e-09,2.452114401506396e-09,1.7519621037562388e-09,1.2048401434849532e-09,8.550249576735708e-10,6.229830740587024e-10,4.683346617517392e-10,3.5061069671774765e-10,2.6149257759950905e-10,1.9247826002961262e-10,1.3987786570730768e-10,1.0079091794344416e-10,7.127207673687817e-11,4.9481481215481127e-11,3.3843332084114427e-11,2.2613524878438784e-11,1.478365494415484e-11,9.450067710524488e-12,5.9006729209688866e-12,3.5856941181621157e-12,2.1001492315872335e-12
0.0,41,41.0,0.0,30.0,0.0,0.0,0.0,0.0,-13.0,0.0,2.0,0.0,0.0,0.0,1.4061994763575887e-10,9.541339358332743e-11,6.471720586620153e-11,4.375611024950263e-11,2.924078526184082e-11,1.9376200338126637e-11,1.2726551957773888e-11,8.24405089607608e-12,5.2433565167814315e-12,3.2580003506814133e-12,1.972674734001487e-12,1.1533917825090792e-12,6.521553213153665e-13,3.5966677918263965e-13,1.9536041261716215e-13,1.072318523906709e-13,6.003421034499573e-14,3.265801370577195e-09,2.4430066896149898e-09,1.7525678789964373e-09,1.2114035835067274e-09,8.63177605067547e-10,6.30512056680971e-10,4.745918785070546e-10,3.554890986507204e-10,2.651615274865585e-10,1.951519071703197e-10,1.4176832003754563e-10,1.0210595283973708e-10,7.215825344031734e-11,5.006256045222385e-11,3.421370676718611e-11,2.283997149820274e-11,1.4915882045113406e-11,9.524055348531472e-12,5.941828434105179e-12,3.610667038475488e-12,2.1178968400764894e-12
0.0,42,42.0,0.0,30.0,0.0,0.0,0.0,0.0,-13.0,0.0,2.0,0.0,0.0,0.0,1.4251016201219157e-10,9.663713361454244e-11,6.550245448654355e-11,4.4255240154056757e-11,2.9552007859036093e-11,1.956827417870048e-11,1.2844828967912847e-11,8.318650764574816e-12,5.293767795999815e-12,3.2948232116723316e-12,2.000376912721517e-12,1.1732720702078833e-12,6.650583445813169e-13,3.669440042270989e-13,1.987580647121553e-13,1.0836736030999436e-13,6.010402204339592e-14,3.245655384763497e-09,2.4348072375419223e-09,1.7539742853618283e-09,1.218546755501234e-09,8.717104787620083e-10,6.382860300612324e-10,4.810158181530881e-10,3.6048334793149324e-10,2.6891095101247496e-10,1.9788123853381498e-10,1.4369649054958225e-10,1.03446470005576e-10,7.306143469299886e-11,5.065490867089559e-11,3.4591668874175684e-11,2.3071555879991726e-11,1.5051481970624414e-11,9.599869283992076e-12,5.983425673646337e-12,3.6350157198454793e-12,2.134595282873091e-12
0.0,43,43.0,0.0,30.0,0.0,0.0,0.0,0.0,-13.0,0.0,2.0,0.0,0.0,0.0,1.44435292669395e-10,9.788173271697416e-11,6.63000374290568e-11,4.476156263249609e-11,2.9867337683591186e-11,1.9762567977047677e-11,1.2963964518011338e-11,8.392964242441406e-12,5.3430839002025414e-12,3.330284500953859e-12,2.026964963897486e-12,1.1925237245445894e-12,6.777720690962839e-13,3.74290043793306e-13,2.0231358070356127e-13,1.096524461169574e-13,6.028251282243936e-14,3.2264220590067606e-09,2.427564885463565e-09,1.7562084298956385e-09,1.2262814131543944e-09,8.806293706293449e-10,6.463089988562003e-10,4.876096060035358e-10,3.65595794672631e-10,2.727424266193656e-10,2.0066723356898783e-10,1.456629334352789e-10,1.048127402609933e-10,7.398172001030996e-11,5.125852320105775e-11,3.497716393406599e-11,2.3308221498596154e-11,1.5190462662974003e-11,9.677629452020412e-12,6.0256802361229684e-12,3.658985022245732e-12,2.150419459082989e-12
0.0,44,44.0,0.0,30.0,0.0,0.0,0.0,0.0,-13.0,0.0,2.0,0.0,0.0,0.0,1.4639609434813694e-10,9.914761515768944e-11,6.711019342431888e-11,4.5275208191980947e-11,3.0186844900431464e-11,1.9959148851900638e-11,1.3084081859456149e-11,8.467181892985469e-12,5.391507929076721e-12,3.3645287789566518e-12,2.0524964479798112e-12,1.2111385793655614e-12,6.902611724257174e-13,3.8166992075080034e-13,2.0600300126244732e-13,1.1107382314475625e-13,6.056314952062431e-14,3.2081746073025435e-09,2.421328714987739e-09,1.7592971427745156e-09,1.234619133592145e-09,8.899401466440147e-10,6.545851471499111e-10,4.943765229443523e-10,3.708288977218559e-10,2.7665760633875675e-10,2.0351092135690412e-10,1.4766823992422564e-10,1.0620505794525467e-10,7.491922350424963e-11,5.187341009989242e-11,3.5370141197889527e-11,2.3549905451764274e-11,1.533280833207943e-11,9.757416315329709e-12,6.068764972327938e-12,3.6827888091858476e-12,2.1655334821986014e-12
0.0,45,45.0,0.0,30.0,0.0,0.0,0.0,0.0,-13.0,0.0,2.0,0.0,0.0,0.0,1.4839334069239547e-10,1.0043521428181725e-10,6.79331652599159e-11,4.579631008301931e-11,3.0510599922629736e-11,2.0158074362008623e-11,1.3205280886858294e-11,8.54146520424352e-12,5.4392222487240275e-12,3.397694925016059e-12,2.0770341149094338e-12,1.2291166138188506e-12,7.024965263494487e-13,3.8905199836617373e-13,2.0980371016005455e-13,1.1261858673786237e-13,6.093946207780466e-14,3.1909875827659616e-09,2.416147925028632e-09,1.7632669179312554e-09,1.2435713192363036e-09,8.996487653109541e-10,6.63118850932778e-10,5.013200108783075e-10,3.7618522684893473e-10,2.8065821733072567e-10,2.0641338173519753e-10,1.497130373429259e-10,1.076237423066695e-10,7.587407556306541e-11,5.249958582709297e-11,3.5770555757379636e-11,2.379654255037083e-11,1.5478486176803115e-11,9.839278337757188e-12,6.112815450765265e-12,3.706611460397557e-12,2.1800897298494458e-12
0.0,46,46.0,0.0,30.0,0.0,0.0,0.0,0.0,-13.0,0.0,2.0,0.0,0.0,0.0,1.504278247785224e-10,1.0174497287940548e-10,6.87691999187627e-11,4.6325004132406285e-11,3.083867406585939e-11,2.035939548763903e-11,1.3327642855409964e-11,8.61595036505661e-12,5.48638944466566e-12,3.4299148734024483e-12,2.1006441759430063e-12,1.2464648244409696e-12,7.144547439890761e-13,3.9640788808573376e-13,2.1369446011284864e-13,1.1427425189732562e-13,6.140506189144236e-14,3.174936709440288e-09,2.412071701527994e-09,1.7681438552418667e-09,1.253149203325029e-09,9.097612976791059e-10,6.71914690532644e-10,5.084436777977641e-10,3.8166746456857704e-10,2.847460630740032e-10,2.093757460334852e-10,1.5179798970803916e-10,1.0906913836144094e-10,7.684642403218436e-11,5.3137078509493274e-11,3.617837011710494e-11,2.4048068416966728e-11,1.562745181560694e-11,9.923238457104801e-12,6.1579350938117915e-12,3.73060978103214e-12,2.1942282344427928e-12
0.0,47,47.0,0.0,30.0,0.0,0.0,0.0,0.0,-13.0,0.0,2.0,0.0,0.0,0.0,1.5250035964990174e-10,1.030773435298719e-10,6.961854875186828e-11,4.686142861125795e-11,3.117113990617762e-11,2.0563158850805568e-11,1.345123431250304e-11,8.690751767499685e-12,5.533153527525733e-12,3.4613127359266406e-12,2.123394808380684e-12,1.2631961638660952e-12,7.261177201078393e-13,4.0371233821994757e-13,2.1765538601844684e-13,1.1602878577908688e-13,6.195366052674883e-14,3.1600986976496505e-09,2.409149081889697e-09,1.7739536052476245e-09,1.2633638595610205e-09,9.202839490360944e-10,6.809774630502417e-10,5.157513025944969e-10,3.872784077243454e-10,2.8892302431975515e-10,2.1239919752535797e-10,1.5392379796370808e-10,1.105416173272959e-10,7.783643496854788e-11,5.378592884754468e-11,3.6593555331561316e-11,2.430442179937555e-11,1.577965362989608e-11,1.0009299633416558e-11,6.204199923526111e-12,3.75491517134115e-12,2.2080763746265533e-12
0.0,48,48.0,0.0,30.0,0.0,0.0,0.0,0.0,-13.0,0.0,2.0,0.0,0.0,0.0,1.5461177886241613e-10,1.0443278892770543e-10,7.048146767055213e-11,4.7405724146698544e-11,3.1508071446805745e-11,2.0769408340591466e-11,1.3576110336618181e-11,8.765965198866315e-12,5.5796413003505725e-12,3.4920042529555637e-12,2.145354881207147e-12,1.2793285524352665e-12,7.374721707659043e-13,4.1094310687338827e-13,2.2166800686791534e-13,1.1787063500093043e-13,6.257908810303471e-14,3.146551043042238e-09,2.407428815154841e-09,1.7807213174387876e-09,1.2742262163143483e-09,9.312230823377117e-10,6.903121948279275e-10,5.232468396984722e-10,3.9302096894144475e-10,2.931910599056209e-10,2.1548497168739019e-10,1.5609119995756136e-10,1.1204157672695649e-10,7.88442930394884e-11,5.444619071222721e-11,3.7016091792842217e-11,2.4565546264323723e-11,1.5935036199008045e-11,1.009744955795486e-11,6.251662883427584e-12,3.779635942786576e-12,2.2217488282172673e-12
0.0,49,49.0,0.0,30.0,0.0,0.0,0.0,0.0,-13.0,0.0,2.0,0.0,0.0,0.0,1.567629370444194e-10,1.058117821939974e-10,7.135821734728203e-11,4.7958033677037066e-11,3.1849544168469304e-11,2.0978186280460137e-11,1.3702317175780601e-11,8.841670707171234e-12,5.625963813496302e-12,3.522096518392996e-12,2.166592887121775e-12,1.2948839668928924e-12,7.48509177768071e-13,4.180808221645653e-13,2.2571521757202505e-13,1.1978874786963866e-13,6.327531082981165e-14,3.1343718096841884e-09,2.4069592191225785e-09,1.7884715931816083e-09,1.2857470757654801e-09,9.42585243383722e-10,6.9992415395964e-10,5.309344236228061e-10,3.9889817804046475e-10,2.975522075110169e-10,2.1863435634130737e-10,1.5830097023539747e-10,1.135694402448969e-10,7.987020163384721e-11,5.511793147843865e-11,3.7445969736043484e-11,2.483139140237336e-11,1.6093542981969026e-11,1.0187664611180553e-11,6.30035772480766e-12,3.8048596877012e-12,2.2353477481671395e-12
0.0,50,50.0,0.0,30.0,0.0,0.0,0.0,0.0,-13.0,0.0,2.0,0.0,0.0,0.0,1.5895471047370185e-10,1.0721480717852481e-10,7.224906341786164e-11,4.8518502445674954e-11,3.219563501453357e-11,2.118953424836793e-11,1.3829894373357795e-11,8.91793513969447e-12,5.672217848264633e-12,3.5516879286568215e-12,2.1871760646807717e-12,1.309887608482896e-12,7.592237426284006e-13,4.251088325049862e-13,2.297812718708375e-13,1.2177259174784815e-13,6.403644729992316e-14,3.1236393978208005e-09,2.4077880358175945e-09,1.797228444421914e-09,1.297937138326814e-09,9.543771877105194e-10,7.098188628326891e-10,5.388183734797759e-10,4.049131834895642e-10,3.020085844199966e-10,2.2184869174221134e-10,1.6055391972111975e-10,1.1512565740904613e-10,8.091438274775746e-11,5.5801232138424104e-11,3.788318951634008e-11,2.5101913648470576e-11,1.62551183788884e-11,1.0279913156825625e-11,6.3503024624294044e-12,3.830655629202804e-12,2.248963124460635e-12
0.0,51,51.0,0.0,30.0,0.0,0.0,0.0,0.0,-13.0,0.0,2.0,0.0,0.0,0.0,1.6118799767306336e-10,1.0864235875684498e-10,7.315427668054046e-11,4.90872780269919e-11,3.254642234497811e-11,2.1403493638001083e-11,1.3958876462095898e-11,8.994814365313512e-12,5.71848738386326e-12,3.580868310602431e-12,2.2071696932099147e-12,1.3243671511042674e-12,7.696143540962422e-13,4.320130494554e-13,2.338517574178909e-13,1.238121658512524e-13,6.485678326442555e-14,3.114432297221757e-09,2.4099622869152825e-09,1.8070152593438057e-09,1.310807032627739e-09,9.666059091318984e-10,7.200021106781942e-10,5.469031975228956e-10,4.1106925395974795e-10,3.065623883444974e-10,2.2512937066366876e-10,1.6285089533637105e-10,1.1671070315772285e-10,8.197707670111603e-11,5.649618723605847e-11,3.8327761702026446e-11,2.5377076801061104e-11,1.641970928471745e-11,1.0374158255119356e-11,6.401502415927563e-12,3.857076895590164e-12,2.262673296591364e-12
0.0,52,52.0,0.0,30.0,0.0,0.0,0.0,0.0,-13.0,0.0,2.0,0.0,0.0,0.0,1.6346372002550394e-10,1.1009494312630577e-10,7.407413328974335e-11,4.966451037708868e-11,3.290198588089022e-11,2.1620106030481394e-11,1.4089294299116194e-11,9.072355199034737e-12,5.76484501380134e-12,3.6097191884589233e-12,2.226636542682728e-12,1.3383520687571397e-12,7.796825726347651e-13,4.3878178544437883e-13,2.3791356405087573e-13,1.2589800980794177e-13,6.573078471346939e-14,3.106828827373506e-09,2.4135281309588957e-09,1.8178547761986204e-09,1.3243673512879405e-09,9.792786698221601e-10,7.304799660972102e-10,5.551935977625025e-10,4.173697800366295e-10,3.1121589834872206e-10,2.2847783851975847e-10,1.651927796035313e-10,1.1832507734143745e-10,8.305854173375895e-11,5.7202904659601565e-11,3.877970702062158e-11,2.565685230588437e-11,1.658726623029427e-11,1.0470359872490743e-11,6.453952860862051e-12,3.8841626786682e-12,2.2765455834845813e-12
0.0,53,53.0,0.0,30.0,0.0,0.0,0.0,0.0,-13.0,0.0,2.0,0.0,0.0,0.0,1.6578282240971733e-10,1.1157307810429694e-10,7.500891494363954e-11,5.0250351902764794e-11,3.3262406652440275e-11,2.183941343016977e-11,1.4221176105925257e-11,9.150597051962364e-12,5.811353287562712e-12,3.6383141549487995e-12,2.2456364607931876e-12,1.3518730403055633e-12,7.894326346225968e-13,4.4540558841908434e-13,2.4195484618315406e-13,1.2802120833079806e-13,6.665310916978171e-14,3.1009068661740383e-09,2.418530724434274e-09,1.8297690665433621e-09,1.338628692636159e-09,9.924030318012696e-10,7.412587895236289e-10,5.636944746970778e-10,4.238182761324835e-10,3.1597147590476664e-10,2.318955935547433e-10,1.6758049026638425e-10,1.1996930419956537e-10,8.41590535232152e-11,5.7921505326978914e-11,3.92390561895486e-11,2.5941219357316817e-11,1.67577441901069e-11,1.0568476658417036e-11,6.507641318044407e-12,3.911940248314226e-12,2.2906370003393213e-12
0.0,54,54.0,0.0,30.0,0.0,0.0,0.0,0.0,-13.0,0.0,2.0,0.0,0.0,0.0,1.6814627385637065e-10,1.1307729343140158e-10,7.595890906576087e-11,5.0844957543068145e-11,3.3627766957351034e-11,2.2061458405406198e-11,1.4354548268878486e-11,9.229573332562349e-12,5.8580659614545576e-12,3.666719316701538e-12,2.2642260798947598e-12,1.3649614285930756e-12,7.988710784598111e-13,4.5187707529419243e-13,2.4596498017862505e-13,1.3017339235736233e-13,6.761861516800059e-14,3.09674356922335e-09,2.4250140890026277e-09,1.8427795291354903e-09,1.3536017084562501e-09,1.0059868896508702e-09,7.523452455832615e-10,5.724109321991579e-10,4.3041838263424524e-10,3.208315661004454e-10,2.3538418712299466e-10,1.7001497995471157e-10,1.2164393184331217e-10,8.527890465894742e-11,5.865212279378553e-11,3.970584965837128e-11,2.623016485970973e-11,1.693110312293077e-11,1.0668467353071264e-11,6.56254951219241e-12,3.940426806193704e-12,2.304995034801478e-12
0.0,55,55.0,0.0,30.0,0.0,0.0,0.0,0.0,-13.0,0.0,2.0,0.0,0.0,0.0,1.705550682256268e-10,1.1460813108157667e-10,7.692440898150006e-11,5.144848485884462e-11,3.399815033293082e-11,2.2286284164773184e-11,1.4489435947348318e-11,9.309312626025253e-12,5.905029149056794e-12,3.694993788733131e-12,2.282458627238152e-12,1.377648830163251e-12,8.080063942090499e-13,4.581907658725477e-13,2.4993451750638576e-13,1.323467370034366e-13,6.862236994535465e-14,3.0944150822837007e-09,2.4330209874243502e-09,1.8569068957191412e-09,1.369297157759611e-09,1.0200385042626204e-09,7.637463153103986e-10,5.813482825930299e-10,4.3717386831633324e-10,3.257986990125617e-10,2.3894522407503404e-10,1.7249723591229746e-10,1.2334953176896254e-10,8.641840410147003e-11,5.939490281025221e-11,4.018013728574646e-11,2.652368328292406e-11,1.7107308300196394e-11,1.077029188244855e-11,6.6186550317508055e-12,3.969631170031885e-12,2.319658458034149e-12
0.0,56,56.0,0.0,30.0,0.0,0.0,0.0,0.0,-13.0,0.0,2.0,0.0,0.0,0.0,1.7301022490638345e-10,1.1616614558095929e-10,7.790571409063749e-11,5.206109412679926e-11,3.4373641542259635e-11,2.2513934591385684e-11,1.4625863529313687e-11,9.38983967825438e-12,5.952282366867849e-12,3.7231902170656086e-12,2.3003838229376264e-12,1.3899666912455605e-12,8.168486978922068e-13,4.643429187257524e-13,2.538551344116406e-13,1.3453395666197567e-13,6.965965540824396e-14,3.0939962500044286e-09,2.442592810929106e-09,1.8721712499010036e-09,1.3857259664919138e-09,1.03456653739784e-09,7.754693081893005e-10,5.905120519610024e-10,4.4408863304146165e-10,3.308754912524636e-10,2.4258036326005203e-10,1.7502827980226238e-10,1.2508669841905166e-10,8.757787664877824e-11,6.015000284944704e-11,4.066197797090301e-11,2.68217764397165e-11,1.7286330467428698e-11,1.0873912190960448e-11,6.67593272132837e-12,3.999555286474335e-12,2.334658149516266e-12
0.0,57,57.0,0.0,30.0,0.0,0.0,0.0,0.0,-13.0,0.0,2.0,0.0,0.0,0.0,1.7551278953782963e-10,1.1775190433649133e-10,7.890313003714896e-11,5.2682948435536805e-11,3.4754326573655635e-11,2.2744454251425308e-11,1.4763854967326632e-11,9.471176209874573e-12,5.999859474738508e-12,3.75135531246112e-12,2.3180478512585264e-12,1.4019459852484996e-12,8.254094310974787e-13,4.703313703451452e-13,2.5771957878524704e-13,1.367282975598029e-13,7.072597246785563e-14,3.095560324558737e-09,2.4537694809908586e-09,1.8885920602498227e-09,1.4028992929848675e-09,1.0495800868201903e-09,7.875218739974101e-10,5.999079857155366e-10,4.5116671076786947e-10,3.360646476856427e-10,2.462913181508421e-10,1.776091675990494e-10,1.2685604880377363e-10,8.875766242726035e-11,6.091759162520343e-11,4.1151439256472375e-11,2.7124453207359886e-11,1.7468145876092808e-11,1.097929285522322e-11,6.7343558370103196e-12,4.030195575578688e-12,2.35001791768598e-12
0.0,58,58.0,0.0,30.0,0.0,0.0,0.0,0.0,-13.0,0.0,2.0,0.0,0.0,0.0,1.780638347540026e-10,1.1936598797520284e-10,7.991696887755037e-11,5.3314213781873594e-11,3.514029265177733e-11,2.2977888388319128e-11,1.4903434021866397e-11,9.553341583960522e-12,6.047789513673248e-12,3.779530381717806e-12,2.3354933920837698e-12,1.413616946741151e-12,8.33701086132805e-13,4.761553787020246e-13,2.615216148643483e-13,1.3892352806369856e-13,7.181704385658527e-14,3.099178678418248e-09,2.4665893686414213e-09,1.906188228656166e-09,1.4208285988594791e-09,1.065088721752025e-09,7.999120144400996e-10,6.095420544754838e-10,4.584122728773344e-10,3.4136896332310945e-10,2.50079857593727e-10,1.802409895728523e-10,1.2865822219060115e-10,8.995811641967594e-11,6.1697848614684e-11,4.164859691676915e-11,2.74317292116234e-11,1.7652736216499204e-11,1.108640151703252e-11,6.793896993088247e-12,4.0615441136122365e-12,2.365755301736686e-12
0.0,59,59.0,0.0,30.0,0.0,0.0,0.0,0.0,-13.0,0.0,2.0,0.0,0.0,0.0,1.8066446095221278e-10,1.2100899069473843e-10,8.094754924891647e-11,5.395505916635292e-11,3.55316282584198e-11,2.3214282910352518e-11,1.5044624433962812e-11,9.636353349151274e-12,6.096097445726275e-12,3.807751846017208e-12,2.352759700730516e-12,1.425008856778846e-12,8.417369565921858e-13,4.818154721906061e-13,2.652559663507911e-13,1.4111392700647673e-13,7.292881554868588e-14,3.104920526080938e-09,2.4810892345905925e-09,1.924978154856672e-09,1.4395257249794168e-09,1.0811025184011835e-09,8.126480945827498e-10,6.194204602857736e-10,4.658296318347926e-10,3.4679132537935765e-10,2.539478066835428e-10,1.829248703694199e-10,1.3049387986653862e-10,9.117960803891813e-11,6.249096359727715e-11,4.215353454317053e-11,2.774362648773414e-11,1.7840088476827727e-11,1.1195209168314476e-11,6.8545289267280785e-12,4.093589663344731e-12,2.381882342912891e-12
0.0,60,60.0,0.0,30.0,0.0,0.0,0.0,0.0,-13.0,0.0,2.0,0.0,0.0,0.0,1.833157970863014e-10,1.2268152062547645e-10,8.199519653758249e-11,5.460565668740409e-11,3.592842316103246e-11,2.3453684376810865e-11,1.5187450044604318e-11,9.720227677627075e-12,6.144804802176834e-12,3.836051738439971e-12,2.3698827256100436e-12,1.436149874421519e-12,8.49530912879777e-13,4.873133047686641e-13,2.689182584905175e-13,1.432942702830116e-13,7.40574569134239e-14,3.1128526601565745e-09,2.497304193502494e-09,1.9449798178550814e-09,1.4590029719424794e-09,1.0976320953088343e-09,8.257388541043529e-10,6.295496432205277e-10,4.734232451873023e-10,3.523347154897284e-10,2.578970477620453e-10,1.8566196918611062e-10,1.3236370497469004e-10,9.24225207530639e-11,6.329713621861987e-11,4.2666343136000366e-11,2.8060173130055515e-11,1.8030194748678268e-11,1.130569031619517e-11,6.91622510492127e-12,4.126318562624375e-12,2.3984063164607286e-12
0.0,61,61.0,0.0,30.0,0.0,0.0,0.0,0.0,-13.0,0.0,2.0,0.0,0.0,0.0,1.860190014858432e-10,1.243842002044499e-10,8.306024304937756e-11,5.5266181633952617e-11,3.633076844714528e-11,2.3696139985809902e-11,1.5331934874786445e-11,9.804979715197822e-12,6.193930247068571e-12,3.864458174995174e-12,2.386895254514835e-12,1.4470669093823808e-12,8.570972019656562e-13,4.926515179597439e-13,2.725049596158969e-13,1.454598159472232e-13,7.519935972955248e-14,3.1230392077820306e-09,2.515267705793561e-09,1.966210874759978e-09,1.4792731844882627e-09,1.1146886482817056e-09,8.391934184177041e-10,6.399362884097959e-10,4.81197719907161e-10,3.580022120787785e-10,2.6192952153700986e-10,1.8845348004351606e-10,1.3426840242467307e-10,9.368725176460327e-11,6.41165755860595e-11,4.318712071033112e-11,2.8381402939805494e-11,1.8223051995663894e-11,1.1417823052202358e-11,6.978960195840471e-12,4.159715482915905e-12,2.415330417928502e-12
0.0,62,62.0,0.0,30.0,0.0,0.0,0.0,0.0,-13.0,0.0,2.0,0.0,0.0,0.0,1.8877526270248589e-10,1.2611766656114065e-10,8.414302818208805e-11,5.593681257654111e-11,3.673875656311571e-11,2.3941697565589598e-11,1.5478103177029942e-11,9.890623858586586e-12,6.243490063659289e-12,3.892995795374253e-12,2.403827081553909e-12,1.457785530913345e-12,8.644502704213687e-13,4.978336102377847e-13,2.76013322612925e-13,1.4760628802350048e-13,7.635113618701806e-14,3.1355414138636597e-09,2.53501160025176e-09,1.988688777304211e-09,1.5003498390942263e-09,1.1322839846941667e-09,8.530213097232142e-10,6.505873335290353e-10,4.891578170814095e-10,3.6379699287093655e-10,2.660472283187736e-10,1.913006321509057e-10,1.3620869887483294e-10,9.497421174471119e-11,6.494949989972433e-11,4.3715971921341696e-11,2.8707355078115892e-11,1.841866179833565e-11,1.1531589045969046e-11,7.042710424532973e-12,4.193764069822072e-12,2.4326543997559775e-12
0.0,63,63.0,0.0,30.0,0.0,0.0,0.0,0.0,-13.0,0.0,2.0,0.0,0.0,0.0,1.9158580038471425e-10,1.2788257191513681e-10,8.524389860070636e-11,5.661773145719132e-11,3.71524813558812e-11,2.419040557009959e-11,1.562597946671652e-11,9.977173972941737e-12,6.293498571452017e-12,3.921686171172371e-12,2.420705187921661e-12,1.468329908263915e-12,8.716046096045714e-13,5.028638141809957e-13,2.7944132673557813e-13,1.4972985923030522e-13,7.750961599564348e-14,3.1504174581006608e-09,2.5565661306158706e-09,2.012430906014517e-09,1.5222471339346374e-09,1.150430556977853e-09,8.672324580865165e-10,6.615099767883449e-10,4.973084569473148e-10,3.697223375349507e-10,2.702522293708186e-10,1.9420469036302974e-10,1.3818534278309088e-10,9.628382462183984e-11,6.579613612163701e-11,4.4253007713316325e-11,2.9038073730029697e-11,1.8617030086022997e-11,1.164697348061956e-11,7.107453830780674e-12,4.228447477544282e-12,2.4503751560123566e-12
