Line_number,Fiducial,Easting,Northing,Height,Elevation,tx_pitch,tx_roll,tx_yaw,txrx_dx,txrx_dy,txrx_dz,rx_pitch,rx_roll,rx_yaw,S0Z_time_3.834e-04,S0Z_time_3.924e-04,S0Z_time_4.039e-04,S0Z_time_4.184e-04,S0Z_time_4.364e-04,S0Z_time_4.589e-04,S0Z_time_4.869e-04,S0Z_time_5.224e-04,S0Z_time_5.679e-04,S0Z_time_6.249e-04,S0Z_time_6.969e-04,S0Z_time_7.879e-04,S0Z_time_9.019e-04,S0Z_time_1.046e-03,S0Z_time_1.227e-03,S0Z_time_1.456e-03,S0Z_time_1.744e-03,S0Z_time_2.109e-03,S0Z_time_2.567e-03,S0Z_time_3.145e-03,S0Z_time_3.864e-03,S0Z_time_4.745e-03,S0Z_time_5.821e-03,S0Z_time_7.140e-03,S0Z_time_8.754e-03,S0Z_time_1.073e-02,S1Z_time_2.057e-05,S1Z_time_2.607e-05,S1Z_time_3.307e-05,S1Z_time_4.206e-05,S1Z_time_5.356e-05,S1Z_time_6.807e-05,S1Z_time_8.607e-05,S1Z_time_1.086e-04,S1Z_time_1.366e-04,S1Z_time_1.721e-04,S1Z_time_2.176e-04,S1Z_time_2.746e-04,S1Z_time_3.466e-04,S1Z_time_4.376e-04,S1Z_time_5.516e-04,S1Z_time_6.956e-04,S1Z_time_8.771e-04,S1Z_time_1.106e-03,S1Z_time_1.394e-03
0.0,0,0.0,0.0,30.0,0.0,0.0,0.0,0.0,-13.0,0.0,2.0,0.0,0.0,0.0,5.7065851780802365e-11,5.216056609621612e-11,4.692358979078383e-11,4.151972318539448e-11,3.597451904686418e-11,3.056884989294665e-11,2.541016312943581e-11,2.0502799970050137e-11,1.6002938297998323e-11,1.212865140769376e-11,8.909615568994405e-12,6.331163986233165e-12,4.374787884354626e-12,2.933900429754459e-12,1.909612394084374e-12,1.2075682479623703e-12,7.459444371553826e-13,4.48588205264808e-13,2.635477561683831e-13,1.510563668981135e-13,8.522094492793979e-14,4.7507466308439716e-14,2.635488125738622e-14,1.4463960173851248e-14,7.968218012528525e-15,4.169763141726346e-15,3.5404501165181638e-09,1.626331294396058e-09,8.133589437777867e-10,4.4821074362515045e-10,2.7511382961134345e-10,1.856980787214145e-10,1.329107740065699e-10,9.658000043043866e-11,6.967440891803423e-11,4.893308542936247e-11,3.311637604919369e-11,2.1718844490487047e-11,1.3730856950625319e-11,8.369662759131215e-12,4.933040016731855e-12,2.81116696192906e-12,1.5457636811552696e-12,8.264776903848143e-13,4.301288824581765e-13
0.0,1,1.0,0.0,30.0,0.0,0.0,0.0,0.0,-13.0,0.0,2.0,0.0,0.0,0.0,5.706006383043443e-11,5.2274895354076224e-11,4.717727781497786e-11,4.192190068713829e-11,3.6515352060201816e-11,3.121630406804745e-11,2.611937598711354e-11,2.1223615009935963e-11,1.668550163337024e-11,1.2734021544879234e-11,9.41376342407475e-12,6.726469251264801e-12,4.668344105677365e-12,3.140568585385765e-12,2.047830218538991e-12,1.2957297814767558e-12,7.997874009652086e-13,4.801870696940146e-13,2.8136329632235425e-13,1.6079365213342666e-13,9.039761329056764e-14,5.020210228956568e-14,2.7737942712916886e-14,1.5181749341753633e-14,8.333275620368554e-15,4.341728156459261e-15,3.5261036991264873e-09,1.6180170678353704e-09,8.099951844121561e-10,4.4637082490809975e-10,2.7249421108765363e-10,1.82210624168883e-10,1.29584940222836e-10,9.422402904627178e-11,6.846907601118216e-11,4.8635448501974033e-11,3.335331871167843e-11,2.2168554098710828e-11,1.4193541775014699e-11,8.749505254259537e-12,5.2070911392377954e-12,2.9895486593407197e-12,1.6529927985556966e-12,8.871761127831311e-13,4.618054380439006e-13
0.0,2,2.0,0.0,30.0,0.0,0.0,0.0,0.0,-13.0,0.0,2.0,0.0,0.0,0.0,5.69454750409003e-11,5.223248017046298e-11,4.723164106583244e-11,4.209419009985306e-11,3.681363885510854e-11,3.162798042944209e-11,2.6615691049532132e-11,2.176599456250341e-11,1.722964530204771e-11,1.323960255802632e-11,9.851705146963025e-12,7.0816562748957456e-12,4.939923008171447e-12,3.336616273378861e-12,2.181771736429968e-12,1.3827340885879742e-12,8.536991908038513e-13,5.122149658418994e-13,2.9957162268673644e-13,1.7081710083093316e-13,9.574656257850609e-14,5.3001951962201866e-14,2.917181402906562e-14,1.592797345290538e-14,8.7072831781588e-15,4.520442544708427e-15,3.511492887164591e-09,1.6097916922156624e-09,8.072849559231115e-10,4.460168704027459e-10,2.7190968775942136e-10,1.805420751698006e-10,1.273414652478472e-10,9.221528653474922e-11,6.716153310396927e-11,4.8065696661964984e-11,3.3315941593618067e-11,2.2407157370393707e-11,1.4516340523684979e-11,9.047881022867462e-12,5.438495859339095e-12,3.14793463602422e-12,1.7520493750953782e-12,9.449761084077148e-13,4.926849566775836e-13
0.0,3,3.0,0.0,30.0,0.0,0.0,0.0,0.0,-13.0,0.0,2.0,0.0,0.0,0.0,5.6814317635275466e-11,5.213236072243957e-11,4.718597938641501e-11,4.212862091900622e-11,3.694763501809597e-11,3.186514270435591e-11,2.6943273682423823e-11,2.21586899175624e-11,1.7651600006744935e-11,1.3652761073176674e-11,1.0225180925088312e-11,7.395564275249158e-12,5.1873769889097415e-12,3.519986062259376e-12,2.3098979661139894e-12,1.4675788861530386e-12,9.071103409637487e-13,5.443703621356251e-13,3.1803390733426767e-13,1.8106274735002233e-13,1.0124197730312022e-13,5.589607787657217e-14,3.06536106290368e-14,1.670042912255128e-14,9.09014396298384e-15,4.705980628568179e-15,3.4966206794630746e-09,1.6015856375315759e-09,8.048312499685056e-10,4.463528415797564e-10,2.725302400040873e-10,1.8024145095056899e-10,1.261535772702875e-10,9.07441105858781e-11,6.596445655442604e-11,4.7378537511094283e-11,3.3096223614573376e-11,2.248274563382662e-11,1.4721217896934653e-11,9.272540340581122e-12,5.628520030126932e-12,3.2855937320494574e-12,1.8419227117378737e-12,9.9913244788198e-13,5.223972032761096e-13
0.0,4,4.0,0.0,30.0,0.0,0.0,0.0,0.0,-13.0,0.0,2.0,0.0,0.0,0.0,5.6720237431622915e-11,5.2038060890492584e-11,4.7110043568077167e-11,4.209551840952885e-11,3.698186399950717e-11,3.198171051015629e-11,2.7143339908821298e-11,2.243026591665371e-11,1.7969046384190513e-11,1.39830464553366e-11,1.0538161438714466e-11,7.668864479631808e-12,5.409812853731105e-12,3.689364898910442e-12,2.4310524375924136e-12,1.5494332619031355e-12,9.595140976437588e-13,5.763691751381397e-13,3.36612436753122e-13,1.9146504387787095e-13,1.0685643934028773e-13,5.887231622414271e-14,3.217983153799871e-14,1.749680123638353e-14,9.481863970580923e-15,4.89834348850907e-15,3.481488760380745e-09,1.5934013649122966e-09,8.025205230406951e-10,4.4700623966523664e-10,2.7380508259489455e-10,1.808629707954191e-10,1.2584987137942358e-10,8.986121214949999e-11,6.501130835557929e-11,4.6694868020470744e-11,3.2773341574436116e-11,2.243950932291339e-11,1.4830315573639757e-11,9.43278628000289e-12,5.779998995009443e-12,3.4027902868409407e-12,1.9221067165473187e-12,1.049129326633401e-12,5.506426285222563e-13
0.0,5,5.0,0.0,30.0,0.0,0.0,0.0,0.0,-13.0,0.0,2.0,0.0,0.0,0.0,5.6690742612565955e-11,5.198655390334075e-11,4.70491113858941e-11,4.2045214722549686e-11,3.696671175007031e-11,3.2023039655274315e-11,2.7252804692588206e-11,2.260777580947426e-11,1.8199796123379637e-11,1.4240983625392249e-11,1.0795929360573346e-11,7.90348723091346e-12,5.607309464138587e-12,3.84407280649215e-12,2.5444322252552187e-12,1.627640539782778e-12,1.010476228729319e-12,6.079526091278077e-13,3.5517482467625426e-13,2.0195873017668972e-13,1.1256161327368345e-13,6.19176663311236e-14,3.3746403170136426e-14,1.8314711726735124e-14,9.882432826245675e-15,5.097233788229025e-15,3.466098268785312e-09,1.585248930799708e-09,8.003338910746721e-10,4.4782938248599287e-10,2.754186252148381e-10,1.8205631348482198e-10,1.2621274145786008e-10,8.952414343869624e-11,6.436587511265958e-11,4.61013798842949e-11,3.241340097322138e-11,2.231720551328304e-11,1.4864714428773702e-11,9.538363205762827e-12,5.896680449415413e-12,3.5004915798889354e-12,1.992505204314567e-12,1.0946532706017874e-12,5.772004640495613e-13
0.0,6,6.0,0.0,30.0,0.0,0.0,0.0,0.0,-13.0,0.0,2.0,0.0,0.0,0.0,5.673712171802257e-11,5.199662773750864e-11,4.7029895098351984e-11,4.2011177089516936e-11,3.693925624192424e-11,3.202548320925321e-11,2.730344790800152e-11,2.2715957335946328e-11,1.8361044711578135e-11,1.4437355788194575e-11,1.1004452060816589e-11,8.102165535702349e-12,5.780657973786182e-12,3.983942729065937e-12,2.649545303244843e-12,1.7017099349850593e-12,1.059637969000185e-12,6.38891995805083e-13,3.735973653752795e-13,2.1248044072231544e-13,1.1832890197384755e-13,6.501863580775642e-14,3.534875911563188e-14,1.9151745680806384e-14,1.029175901015821e-14,5.302038533515297e-15,3.450452364753304e-09,1.5771366841637655e-09,7.982758436533472e-10,4.487751292682439e-10,2.772114969280994e-10,1.835833601286534e-10,1.2703957373577182e-10,8.964231229937944e-11,6.403789338129632e-11,4.565184850019893e-11,3.206869277027512e-11,2.2150861595917174e-11,1.4843989839945408e-11,9.598868939644307e-12,5.982743621308305e-12,3.5801174409543656e-12,2.053337793049875e-12,1.1355631799542792e-12,6.019261245841224e-13
0.0,7,7.0,0.0,30.0,0.0,0.0,0.0,0.0,-13.0,0.0,2.0,0.0,0.0,0.0,5.6861370788454905e-11,5.207554853791472e-11,4.706607656806592e-11,4.2013721661307843e-11,3.6925010680826717e-11,3.201667557079838e-11,2.7321490949935042e-11,2.2776677843336745e-11,1.84688894682265e-11,1.458277988479779e-11,1.1169984569847111e-11,8.26810367995706e-12,5.931142555623647e-12,4.1092045556092584e-12,2.746162516684728e-12,1.771301876031034e-12,1.1067142373560117e-12,6.689910826701856e-13,3.9176738534484954e-13,2.229700288902581e-13,1.2413005374919678e-13,6.816154197121148e-14,3.698193863239717e-14,2.000546557641894e-14,1.0709643557410635e-14,5.512025531561459e-15,3.434556362754306e-09,1.5690726563093835e-09,7.963535263985463e-10,4.498340406344661e-10,2.79112948493487e-10,1.852993259786236e-10,1.2816994142233368e-10,9.011156797176043e-11,6.40014250429654e-11,4.537132156999564e-11,3.177723214749544e-11,2.1970280064860382e-11,1.478602281114732e-11,9.623498327661196e-12,6.0424905816127855e-12,3.643345667366556e-12,2.1050534693557095e-12,1.171860763645791e-12,6.24739595759149e-13
0.0,8,8.0,0.0,30.0,0.0,0.0,0.0,0.0,-13.0,0.0,2.0,0.0,0.0,0.0,5.7060570950873047e-11,5.222379613905927e-11,4.716281007312059e-11,4.2063598421994924e-11,3.694012653022745e-11,3.2016399432280205e-11,2.7327581798956868e-11,2.2808575484743408e-11,1.8537969678697093e-11,1.4687425577835834e-11,1.1298823146234997e-11,8.40475469790169e-12,6.060369502634723e-12,4.220381703403575e-12,2.834269004302116e-12,1.836210018935479e-12,1.1514890239193083e-12,6.980863995314862e-13,4.095846260298623e-13,2.333715837216568e-13,1.299377002042039e-13,7.133277484367228e-14,3.864069230988244e-14,2.0873421988572854e-14,1.113577363612015e-14,5.726624285818473e-15,3.4184170933856336e-09,1.5610658794176548e-09,7.94573130707543e-10,4.5100777999972203e-10,2.810963107512077e-10,1.8712444183622285e-10,1.294901553485039e-10,9.083556741006123e-11,6.42118455111214e-11,4.5262551328341143e-11,3.156328187934557e-11,2.1799505862263785e-11,1.4706797563734133e-11,9.620932751847038e-12,6.080174122469062e-12,3.6919761670185456e-12,2.1482565394224513e-12,1.203661758325493e-12,6.456098318183099e-13
0.0,9,9.0,0.0,30.0,0.0,0.0,0.0,0.0,-13.0,0.0,2.0,0.0,0.0,0.0,5.7329449485875574e-11,5.2438153870753956e-11,4.732003559859521e-11,4.2165028351478685e-11,3.699364201320045e-11,3.203781057357022e-11,2.7337144681941616e-11,2.2826910288259596e-11,1.8581193966063287e-11,1.4760796716546265e-11,1.1397140189916937e-11,8.515676871200226e-12,6.170143302957905e-12,4.318205348729196e-12,2.9140183999584907e-12,1.8963417933785975e-12,1.1938092285962767e-12,7.26046301176496e-13,4.2696182846264956e-13,2.4363413594676146e-13,1.3572580241149782e-13,7.451902543220032e-14,4.031958796496221e-14,2.175316555003949e-14,1.1569724238257741e-14,5.9456325182019405e-15,3.402042426034784e-09,1.5531265980087971e-09,7.929403660853553e-10,4.5229991642636395e-10,2.8315410940228814e-10,1.890189644079542e-10,1.309264467320487e-10,9.173574971725598e-11,6.461887952471278e-11,4.53131903504662e-11,3.143899095718064e-11,2.1656549700946238e-11,1.462014514465363e-11,9.599254186061464e-12,6.099910818890835e-12,3.727846331276395e-12,2.183647948506439e-12,1.2311684131075706e-12,6.64540158466747e-13
0.0,10,10.0,0.0,30.0,0.0,0.0,0.0,0.0,-13.0,0.0,2.0,0.0,0.0,0.0,5.766179420365927e-11,5.271359769234611e-11,4.75347413696669e-11,4.231805141136343e-11,3.708950011290697e-11,3.208879015691454e-11,2.7360995600387546e-11,2.2843626576125414e-11,1.8609565003895505e-11,1.4811548688406412e-11,1.1470855902295386e-11,8.604438146855164e-12,6.262381250341982e-12,4.403547940807142e-12,2.9856922872292822e-12,1.9516988274828173e-12,1.2335776991917874e-12,7.52769137914815e-13,4.4382474117845873e-13,2.5371207960576146e-13,1.4146999104103835e-13,7.770747949062794e-14,4.2013112228824596e-14,2.2642261643707402e-14,1.2010963868133521e-14,6.1692558778776135e-15,3.3854410811237907e-09,1.5452660120886985e-09,7.914611498191646e-10,4.5371366926523696e-10,2.8528594679016953e-10,1.9096537985915959e-10,1.3243458107078446e-10,9.275355133648205e-11,6.517501304547278e-11,4.550240669877739e-11,3.140682391410724e-11,2.155353898589282e-11,1.4537505701473705e-11,9.565836529515812e-12,6.105632168458519e-12,3.752783328043582e-12,2.211982473656947e-12,1.2546444406578419e-12,6.815576090520593e-13
0.0,11,11.0,0.0,30.0,0.0,0.0,0.0,0.0,-13.0,0.0,2.0,0.0,0.0,0.0,5.8051205736464923e-11,5.304439615087891e-11,4.780242275571165e-11,4.252022173494359e-11,3.7228205654981256e-11,3.2173246320518364e-11,2.7406103573473337e-11,2.2867596320200765e-11,1.8632114752582838e-11,1.484734453047205e-11,1.1525526761219773e-11,8.674544498243555e-12,6.339055030874417e-12,4.477374451210323e-12,3.0496664129322263e-12,2.002358397766567e-12,1.2707459261501331e-12,7.781808570913978e-13,4.601117484177905e-13,2.635653565176468e-13,1.471478000428155e-13,8.088597509956169e-14,4.371576428304028e-14,2.3538307198525e-14,1.2458864109578665e-14,6.397981894601249e-15,3.368622613305064e-09,1.537495996233298e-09,7.901418608312327e-10,4.552518300058255e-10,2.874933958285811e-10,1.9295734768911142e-10,1.3399006728624775e-10,9.384836336300923e-11,6.583987219154972e-11,4.5806125180041573e-11,3.1462291203617944e-11,2.1497295983637495e-11,1.4467795358510726e-11,9.527219339014816e-12,6.101043151395864e-12,3.768577601046226e-12,2.2340398020171433e-12,1.2743937469059294e-12,6.967067887645048e-13
0.0,12,12.0,0.0,30.0,0.0,0.0,0.0,0.0,-13.0,0.0,2.0,0.0,0.0,0.0,5.84914914772125e-11,5.342472846659108e-11,4.8117981175501626e-11,4.276776729785349e-11,3.740809819250184e-11,3.229225657161712e-11,2.7476388539786755e-11,2.2904990544259812e-11,1.8655949102600198e-11,1.4874760979717665e-11,1.1566247854087824e-11,8.72937827908309e-12,6.402148347655383e-12,4.54070770411501e-12,3.1063840375902207e-12,2.048456825752415e-12,1.3053067454662735e-12,8.022322430846986e-13,4.757732580891854e-13,2.7315945697657634e-13,1.5273880615630837e-13,8.404312305069204e-14,4.542213886554806e-14,2.4438948166694284e-14,1.2912713314458532e-14,6.632354548309133e-15,3.3515974544971824e-09,1.5298289279392208e-09,7.889893061421113e-10,4.569170776897563e-10,2.8977823788487123e-10,1.9499354551420293e-10,1.3558056046421435e-10,9.499378982974626e-11,6.658168272750692e-11,4.620065451782435e-11,3.159654647102297e-11,2.149022492986257e-11,1.4417426177229754e-11,9.488991802960551e-12,6.089575698773305e-12,3.776964831122847e-12,2.250605939048694e-12,1.290743695781159e-12,7.100473205439695e-13
0.0,13,13.0,0.0,30.0,0.0,0.0,0.0,0.0,-13.0,0.0,2.0,0.0,0.0,0.0,5.897687223871706e-11,5.3849022569891574e-11,4.847625685241932e-11,4.305634795319062e-11,3.762627861123763e-11,3.2445003771351536e-11,2.7573475182088888e-11,2.2959719650542167e-11,1.8686385316043423e-11,1.4899251789064733e-11,1.1597574074282453e-11,8.772141387791222e-12,6.453622529965367e-12,4.594603414610759e-12,3.1563357898498148e-12,2.090175399569747e-12,1.3372873657284358e-12,8.248959606212632e-13,4.907709340296558e-13,2.824652846986976e-13,1.5822469347569642e-13,8.716839121860269e-14,4.712699655029663e-14,2.5341896354540737e-14,1.3371733344239228e-14,6.872735237951637e-15,3.3343769618688056e-09,1.5222776138319224e-09,7.880105966174568e-10,4.587121926393231e-10,2.921420656273014e-10,1.9707458627067104e-10,1.3720063668003504e-10,9.617373938121544e-11,6.737693771789863e-11,4.6664837716767825e-11,3.179856988220436e-11,2.1531346899006376e-11,1.4390480988201827e-11,9.455714934655934e-12,6.074337793216515e-12,3.779608569161381e-12,2.2624610530839384e-12,1.3040328725229066e-12,7.216533594393902e-13
0.0,14,14.0,0.0,30.0,0.0,0.0,0.0,0.0,-13.0,0.0,2.0,0.0,0.0,0.0,5.950209000717108e-11,5.4312134223129936e-11,4.887233208932959e-11,4.3381530028987246e-11,3.787925270763003e-11,3.2629501513904565e-11,2.7697353682022282e-11,2.303388998410195e-11,1.8727156064948767e-11,1.4925167622154368e-11,1.1623466338593853e-11,8.805803717396788e-12,6.4953855729189975e-12,4.6401309906189965e-12,3.200044737369429e-12,2.1277289983468772e-12,1.3667429894971052e-12,8.461635513279803e-13,5.050768215057796e-13,2.914589237182245e-13,1.635892630753959e-13,9.02521564612365e-14,4.8825320432478144e-14,2.624494474018323e-14,1.3835097108025775e-14,7.119119432075556e-15,3.3169734547848575e-09,1.514855270093153e-09,7.872130333515077e-10,4.606401235312911e-10,2.94586325855812e-10,1.9920165288872788e-10,1.3884851562999504e-10,9.737908675316167e-11,6.820917037371612e-11,4.718104642572709e-11,3.2056816603384146e-11,2.1617334303403484e-11,1.4389010746156236e-11,9.430898719394148e-12,6.05806543370712e-12,3.778080543204552e-12,2.2703704848508903e-12,1.314602669020872e-12,7.316137760143727e-13
0.0,15,15.0,0.0,30.0,0.0,0.0,0.0,0.0,-13.0,0.0,2.0,0.0,0.0,0.0,6.006245958079104e-11,5.4809435388122436e-11,4.930169411669355e-11,4.373906922808362e-11,3.8163358157032776e-11,3.284312955530133e-11,2.7846925544365437e-11,2.3128236918268386e-11,1.8780651264252902e-11,1.4955824576292984e-11,1.164726643570957e-11,8.833059852574886e-12,6.529263024088275e-12,4.6783572241039125e-12,3.238055157583317e-12,2.161357240442581e-12,1.3937512184754119e-12,8.660425217145946e-13,5.186723993037762e-13,3.0012133494049907e-13,1.6881840430871254e-13,9.328572917031602e-14,5.051235949359395e-14,2.7145980868119588e-14,1.4301944402884277e-14,7.371045472426863e-15,3.2994002412835773e-09,1.5075755231402768e-09,7.866040329358425e-10,4.627039692499423e-10,2.971124359220199e-10,2.0137599358795495e-10,1.4052416648350073e-10,9.860513465880559e-11,6.906743832207574e-11,4.7735379773943064e-11,3.236033127078513e-11,2.1743437921632235e-11,1.4413406151752363e-11,9.417037385153735e-12,6.043085689115909e-12,3.773839077399183e-12,2.2750767399783096e-12,1.3227916947217032e-12,7.400320338049638e-13
0.0,16,16.0,0.0,30.0,0.0,0.0,0.0,0.0,-13.0,0.0,2.0,0.0,0.0,0.0,6.065388444300558e-11,5.5336848794446306e-11,4.976031262667073e-11,4.412506767313999e-11,3.8475033446925266e-11,3.308301092560402e-11,2.8020432164605114e-11,2.3242509145597555e-11,1.8848171589449036e-11,1.4993608926155833e-11,1.167170043449208e-11,8.85629713226148e-12,6.556971077036313e-12,4.710331221043812e-12,3.2709236121699945e-12,2.1913177345284493e-12,1.4184073284409917e-12,8.845536392058356e-13,5.315475889654617e-13,3.0843800296681605e-13,1.7390003942001163e-13,9.626135610202768e-14,5.218365983297787e-14,2.8042998201390118e-14,1.477139424531963e-14,7.627599581689342e-15,3.2816716385326293e-09,1.5004524125835234e-09,7.861910868190082e-10,4.6490693190349936e-10,2.997218635966553e-10,2.0359879634772308e-10,1.4222830066464284e-10,9.984983868591254e-11,6.994487048820025e-11,4.831738571983874e-11,3.2699402121312194e-11,2.1904246343402052e-11,1.4462794561156314e-11,9.415695181440508e-12,6.031296809769651e-12,3.7682078501616756e-12,2.277291401641423e-12,1.3289319989072124e-12,7.470252572659481e-13
0.0,17,17.0,0.0,30.0,0.0,0.0,0.0,0.0,-13.0,0.0,2.0,0.0,0.0,0.0,6.127284740172763e-11,5.589084881436802e-11,5.0244665185817546e-11,4.453605004651111e-11,3.8810975720767834e-11,3.334626439874572e-11,2.8215775845803076e-11,2.3375791581878116e-11,1.8930173175848655e-11,1.5040104235872677e-11,1.169890734165978e-11,8.877577064337274e-12,6.580093136357723e-12,4.737069967110246e-12,3.2992112575067694e-12,2.217880905813402e-12,1.4408203983174873e-12,9.017285199197554e-13,5.436997535336814e-13,3.163985498488405e-13,1.7882404853937396e-13,9.917220673480105e-14,5.383508550616847e-14,2.8934105428863665e-14,1.5242553037137474e-14,7.887498289212339e-15,3.2638029909850126e-09,1.4935003897763665e-09,7.859817416326483e-10,4.672522714643402e-10,3.0241615899381443e-10,2.0587120046188747e-10,1.4396188632705098e-10,1.0111264804962677e-10,7.083744188218321e-11,4.891954728194318e-11,3.3065859457656256e-11,2.2094257954483838e-11,1.4535421800131807e-11,9.427628799975034e-12,6.024167929342833e-12,3.762357636902232e-12,2.2776867839611492e-12,1.3333462696054835e-12,7.527223711015309e-13
0.0,18,18.0,0.0,30.0,0.0,0.0,0.0,0.0,-13.0,0.0,2.0,0.0,0.0,0.0,6.191638273949983e-11,5.646844027259199e-11,5.0751730500050173e-11,4.496898860196282e-11,3.9168222953009615e-11,3.363016315045921e-11,2.8430748995819592e-11,2.352676398307705e-11,1.9026489496566422e-11,1.5096227867234593e-11,1.1730487589871346e-11,8.898630517282083e-12,6.6000612282128494e-12,4.759544646128077e-12,3.3234767204923152e-12,2.2413258792392778e-12,1.4611101985208742e-12,9.17607552913389e-13,5.551327188685816e-13,3.239963306112211e-13,1.835821789598478e-13,1.0201234750336528e-13,5.546283089868783e-14,2.981753373144304e-14,1.5714519043376022e-14,8.149218548470032e-15,3.2458106884044397e-09,1.4867343110761155e-09,7.85983589320693e-10,4.697432726894915e-10,3.051969548774205e-10,2.0819433837464221e-10,1.4572594460413088e-10,1.023937946031004e-10,7.174302397266979e-11,4.953669763927483e-11,3.345312537186205e-11,2.230827409357187e-11,1.4628990960519514e-11,9.452930572958563e-12,6.022757652283205e-12,3.757293215411646e-12,2.2768876984277957e-12,1.3363454368440446e-12,7.572614467790802e-13
0.0,19,19.0,0.0,30.0,0.0,0.0,0.0,0.0,-13.0,0.0,2.0,0.0,0.0,0.0,6.258203526062522e-11,5.706712272182642e-11,5.127896187787595e-11,4.542129650104796e-11,3.954418611940907e-11,3.3932225496508614e-11,2.8663189079640504e-11,2.3693898854021734e-11,1.9136522471982643e-11,1.5162366188647587e-11,1.1767565050119953e-11,8.920865677590645e-12,6.618143258667627e-12,4.778668206290404e-12,3.3442692334846935e-12,2.261936988607582e-12,1.4794046967051585e-12,9.322381677316173e-13,5.65855847708006e-13,3.3122802442481323e-13,1.8816794099785913e-13,1.0477670721750741e-13,5.70634264666885e-14,3.0691641982222313e-14,1.618638444581685e-14,8.411144833706518e-15,3.2277121846623005e-09,1.4801694270837694e-09,7.862042602575231e-10,4.723832247226718e-10,3.080659526830579e-10,2.1056936942548477e-10,1.4752148368353086e-10,1.0369388369742909e-10,7.266069416868222e-11,5.016546211175301e-11,3.3856107757517e-11,2.254163867592736e-11,1.474094275698791e-11,9.491177671191765e-12,6.027748469327758e-12,3.753846730163977e-12,2.2754639451484827e-12,1.3382263682210994e-12,7.607865242407702e-13
0.0,20,20.0,0.0,30.0,0.0,0.0,0.0,0.0,-13.0,0.0,2.0,0.0,0.0,0.0,6.326781097849608e-11,5.768484566752299e-11,5.1824248900095076e-11,4.5890802172085414e-11,3.993664944691377e-11,3.425025824375012e-11,2.8911076184845626e-11,2.3875605932277436e-11,1.9259399783754482e-11,1.5238500637812495e-11,1.1810856374243706e-11,8.945386724488596e-12,6.63543654664957e-12,4.795284767486102e-12,3.3621219986620965e-12,2.280000604308432e-12,1.4958380241190897e-12,9.456734210807562e-13,5.758831901947021e-13,3.380932342427662e-13,1.9257649237258935e-13,1.0746103604977337e-13,5.863373940488291e-14,3.1554919843741434e-14,1.6657236553269802e-14,8.67170787051916e-15,3.209526017374092e-09,1.473821369413154e-09,7.866514161595566e-10,4.7517541012256e-10,3.110249055761945e-10,2.1299749753356382e-10,1.493494914534e-10,1.0501367511146701e-10,7.359025990319645e-11,5.0803776314995363e-11,3.42710111498785e-11,2.2790356640754968e-11,1.486867243922572e-11,9.541575379569217e-12,6.039492648445364e-12,3.752677865528913e-12,2.2739241449105952e-12,1.3392695549501408e-12,7.634442140156561e-13
0.0,21,21.0,0.0,30.0,0.0,0.0,0.0,0.0,-13.0,0.0,2.0,0.0,0.0,0.0,6.397212359107728e-11,5.831995902039511e-11,5.2385872771026863e-11,4.6375713046594256e-11,4.034375123745174e-11,3.4582368268931353e-11,2.91725880072763e-11,2.407033213215059e-11,1.939409893712662e-11,1.5324319618310726e-11,1.18607422530648e-11,8.973020605315268e-12,6.6528674762072316e-12,4.810161373198915e-12,3.377545924494402e-12,2.295802099478939e-12,1.5105487563629014e-12,9.579708574195612e-13,5.852327259439093e-13,3.4459410603115524e-13,1.9680451339222012e-13,1.1006185979282675e-13,6.017097046332362e-14,3.2405988753835444e-14,1.712615964305317e-14,8.929497847165351e-15,3.1912718280007727e-09,1.4677061361183355e-09,7.873327418118341e-10,4.781230997375698e-10,3.1407560408121987e-10,2.1547997587288687e-10,1.5121094712880306e-10,1.0635397611705974e-10,7.453194628533282e-11,5.145049751934402e-11,3.4695115944897814e-11,2.3051123977208673e-11,1.500968578526843e-11,9.603086055798231e-12,6.058064886749128e-12,3.754280377284995e-12,2.272711387389668e-12,1.3397368292479134e-12,7.653803593791794e-13
0.0,22,22.0,0.0,30.0,0.0,0.0,0.0,0.0,-13.0,0.0,2.0,0.0,0.0,0.0,6.469374018014165e-11,5.897116215114314e-11,5.2962459234345516e-11,4.687457422662786e-11,4.076395376717238e-11,3.4926953814387406e-11,2.944612450481509e-11,2.4276626005273793e-11,1.9539540914060595e-11,1.5419313664382816e-11,1.1917336303698358e-11,9.004349146126172e-12,6.6711966383644184e-12,4.823982400488452e-12,3.3910239542908295e-12,2.309622883483315e-12,1.523678389177154e-12,9.691915877281239e-13,5.939257035960309e-13,3.5073497637335555e-13,2.0085007581932105e-13,1.1257643066202647e-13,6.167264780697149e-14,3.3243600857594186e-14,1.759223851109157e-14,9.183343340115272e-15,3.1729703819070224e-09,1.4618400763979133e-09,7.882559357096991e-10,4.812295507404016e-10,3.172198660492346e-10,2.1801810390583102e-10,1.531068345750473e-10,1.07715596152497e-10,7.548620077836449e-11,5.21051071869875e-11,3.512655930691767e-11,2.332129853208184e-11,1.5161701380296828e-11,9.67453882291774e-12,6.083317329544077e-12,3.7589939698180125e-12,2.2722009647502864e-12,1.3398692315021677e-12,7.667369787911944e-13
0.0,23,23.0,0.0,30.0,0.0,0.0,0.0,0.0,-13.0,0.0,2.0,0.0,0.0,0.0,6.543172877582662e-11,5.963745412286949e-11,5.355293182929453e-11,4.738622579003043e-11,4.119600796159775e-11,3.5282683716887385e-11,2.973031189903109e-11,2.4493175081544497e-11,1.9694657508293564e-11,1.5522853231587305e-11,1.1980548523565046e-11,9.039743898672698e-12,6.6910285139315576e-12,4.837346721297064e-12,3.4030062108600222e-12,2.321737512105756e-12,1.5353699240319478e-12,9.79399529309847e-13,6.019860756424692e-13,3.5652205441849046e-13,2.0471250875862489e-13,1.1500267570282144e-13,6.313661854215314e-14,3.4066636031851225e-14,1.805456427739848e-14,9.432354214083688e-15,3.1546435879209897e-09,1.4562398748292479e-09,7.894287001009595e-10,4.844980061934069e-10,3.204595308104396e-10,2.2061322124195588e-10,1.55038151476569e-10,1.0909933246137557e-10,7.645357722539949e-11,5.276749305267169e-11,3.556413683406314e-11,2.3598835410456517e-11,1.532270868170503e-11,9.754717973664098e-12,6.114933296714315e-12,3.767020195351691e-12,2.272700246736729e-12,1.3398851703845985e-12,7.676496376898858e-13
0.0,24,24.0,0.0,30.0,0.0,0.0,0.0,0.0,-13.0,0.0,2.0,0.0,0.0,0.0,6.618540963835998e-11,6.031808694381555e-11,5.415646742155408e-11,4.790976118239031e-11,4.1638916598193566e-11,3.5648470286931406e-11,3.002399339087519e-11,2.4718823321673162e-11,1.985843689741872e-11,1.5634249839908165e-11,1.2050141397598673e-11,9.07940149211608e-12,6.712824587740688e-12,4.8507675046178005e-12,3.413906137491678e-12,2.3324109337510574e-12,1.5457665126021524e-12,9.88660754846021e-13,6.094400200501847e-13,3.6196314121211997e-13,2.0839226508426203e-13,1.17339143780973e-13,6.456103833951121e-14,3.4874097239430507e-14,1.8512242465538786e-14,9.675931775414968e-15,3.1363145170518147e-09,1.4509225351855199e-09,7.90858730955013e-10,4.879316953444158e-10,3.237964566390264e-10,2.232667011705536e-10,1.5700591367665506e-10,1.1050596936640169e-10,7.7434671054659e-11,5.343779562202139e-11,3.6007133861038103e-11,2.388220498762496e-11,1.5490991907841685e-11,9.842430292593655e-12,6.1524769742548665e-12,3.7784409577156786e-12,2.274450569446089e-12,1.3399790066126524e-12,7.682453305611231e-13
0.0,25,25.0,0.0,30.0,0.0,0.0,0.0,0.0,-13.0,0.0,2.0,0.0,0.0,0.0,6.695431139733366e-11,6.101252303143658e-11,5.4772455272857193e-11,4.844448825708614e-11,4.209189843463173e-11,3.602343970013739e-11,3.032621200733257e-11,2.495257463020488e-11,2.00299519375344e-11,1.5752802165389447e-11,1.2125777721700193e-11,9.123377723976731e-12,6.736918758777214e-12,4.864674387973145e-12,3.4240977467808762e-12,2.3418959536042033e-12,1.5550101389936959e-12,9.97042908445356e-13,6.16315536210574e-13,3.670673867180045e-13,2.1189079175326844e-13,1.195849521136021e-13,6.594435946269633e-14,3.566510452718692e-14,1.8964402941546976e-14,9.913752437816279e-15,3.118007420105389e-09,1.4459053637983965e-09,7.925537082897614e-10,4.915338343792778e-10,3.2723252057563677e-10,2.259799453253946e-10,1.5901115589792622e-10,1.119362821668902e-10,7.84300858669368e-11,5.4116304026963725e-11,3.6455188583942955e-11,2.417030621331125e-11,1.5665129170464378e-11,9.936553016691911e-12,6.195437260664564e-12,3.793238272690311e-12,2.2776308732079463e-12,1.3403201563979474e-12,7.686408972363992e-13
0.0,26,26.0,0.0,30.0,0.0,0.0,0.0,0.0,-13.0,0.0,2.0,0.0,0.0,0.0,6.773813259955313e-11,6.172039753063056e-11,5.540046037708742e-11,4.89898938835832e-11,4.2554354721279965e-11,3.6406902414044385e-11,3.063618942923086e-11,2.5193587125665736e-11,2.020837527184574e-11,1.5877829138901937e-11,1.2207059969309733e-11,9.171619111660083e-12,6.763533985449597e-12,4.879417638146563e-12,3.433914013297797e-12,2.3504309991369314e-12,1.5632403413761889e-12,1.0046146577629345e-12,6.226421009323365e-13,3.718450825614102e-13,2.1521040688394314e-13,1.217397332826688e-13,6.728531744996812e-14,3.643888803122889e-14,1.9410211007446815e-14,1.0145732417058407e-14,3.0997477439678643e-09,1.4412059523919278e-09,7.945212871578e-10,4.953076276343253e-10,3.3076961983014735e-10,2.2875438000812946e-10,1.6105493038816026e-10,1.1339104150657842e-10,7.944041821747957e-11,5.4803388023531316e-11,3.690818521471207e-11,2.44623834264824e-11,1.5843975005506255e-11,1.0036065041007563e-11,6.243264795861589e-12,3.811314113105946e-12,2.2823627398410875e-12,1.34105276615807e-12,7.689419547835432e-13
0.0,27,27.0,0.0,30.0,0.0,0.0,0.0,0.0,-13.0,0.0,2.0,0.0,0.0,0.0,6.853670876449061e-11,6.244148569607166e-11,5.604019137178769e-11,4.954561257731442e-11,4.302583890501503e-11,3.679832516223797e-11,3.0953303436228224e-11,2.544116174113385e-11,2.039298478444533e-11,1.600869226784085e-11,1.2293561577713521e-11,9.223991080223793e-12,6.79279924528274e-12,4.895273864247262e-12,3.443646376142141e-12,2.3582382573054722e-12,1.5705929898051066e-12,1.0114451625653012e-12,6.28450370230196e-13,3.7630748683676327e-13,2.1835418580616053e-13,1.2380358362736483e-13,6.858291667644799e-14,3.719478037241988e-14,1.984887880673741e-14,1.037198095214676e-14,3.0815621463123462e-09,1.4368421602974098e-09,7.967690894755427e-10,4.992562693808357e-10,3.344096742219205e-10,2.3159145417268494e-10,1.63138304761676e-10,1.1487101668430451e-10,8.046625224759252e-11,5.549945541882788e-11,3.736617334357946e-11,2.475795143551817e-11,1.602663292175122e-11,1.0140064360657776e-11,6.295401887233516e-12,3.832509399397605e-12,2.288716441979016e-12,1.3422959650050074e-12,7.69242298023429e-13
0.0,28,28.0,0.0,30.0,0.0,0.0,0.0,0.0,-13.0,0.0,2.0,0.0,0.0,0.0,6.934998472636756e-11,6.317567522995003e-11,5.669147302132539e-11,5.0111399268713004e-11,4.350602988339585e-11,3.719730540479461e-11,3.12770656923972e-11,2.5694727777171424e-11,2.0583162315489265e-11,1.6144809342852307e-11,1.2384850888375841e-11,9.280302352759758e-12,6.8247660623147e-12,4.912452833705965e-12,3.453545260264859e-12,2.365522232481692e-12,1.5771991450223628e-12,1.0176035501473236e-12,6.337719140477928e-13,3.8046667626885966e-13,2.2132585752415348e-13,1.2577701382136278e-13,6.983641502639403e-14,3.793220881302639e-14,2.0279676196014364e-14,1.0592748708084574e-14,3.0634785084531462e-09,1.4328320959547404e-09,7.993046967897805e-10,5.03382946306468e-10,3.381546293158802e-10,2.344926388330783e-10,1.6526235988295237e-10,1.1637697765958005e-10,8.150815916472051e-11,5.6204926728454536e-11,3.782930894998533e-11,2.5056731103556555e-11,1.6212423038478466e-11,1.024777476096737e-11,6.351305564409534e-12,3.856621445784566e-12,2.296717618538374e-12,1.3441446618971815e-12,7.696237056437871e-13
0.0,29,29.0,0.0,30.0,0.0,0.0,0.0,0.0,-13.0,0.0,2.0,0.0,0.0,0.0,7.017799183656118e-11,6.392294325081487e-11,5.735422304881215e-11,5.068710609529364e-11,4.399470886563779e-11,3.760354865298075e-11,3.160710092879468e-11,2.5953827257807715e-11,2.0778387955653094e-11,1.628566150628938e-11,1.2480508674583412e-11,9.340325423076723e-12,6.859424038693984e-12,4.931104963554514e-12,3.4638214842538877e-12,2.372468749672143e-12,1.5831840251374843e-12,1.0231583960641835e-12,6.386389732816651e-13,3.8433542055339877e-13,2.2412971226792107e-13,1.2766090230904618e-13,7.104530791672664e-14,3.865068750942679e-14,2.0701940337386883e-14,1.080837673089312e-14,3.0455259460442195e-09,1.4291940976114403e-09,8.021356440183384e-10,5.076908407875725e-10,3.420064600553281e-10,2.374594275861415e-10,1.6742818825999354e-10,1.1790969602780044e-10,8.256669875829027e-11,5.692022107574991e-11,3.829781254807102e-11,2.5358595973559244e-11,1.6400848475011993e-11,1.0358544548052832e-11,6.410464347648183e-12,3.8834194107625456e-12,2.30635422044702e-12,1.3466708235045209e-12,7.701560823555081e-13
0.0,30,30.0,0.0,30.0,0.0,0.0,0.0,0.0,-13.0,0.0,2.0,0.0,0.0,0.0,7.102082948696955e-11,6.468333743982697e-11,5.802843295369532e-11,5.1272662947384773e-11,4.44917396994336e-11,3.801684877882878e-11,3.1943128105362574e-11,2.6218099337293107e-11,2.0978231697262635e-11,1.6430795403448738e-11,1.2580140266503557e-11,9.403813224751147e-12,6.896715001784524e-12,4.951329104703017e-12,3.4746483973250443e-12,2.3792444036265387e-12,1.588666104814448e-12,1.0281772144705399e-12,6.430842310938982e-13,3.879270737405696e-13,2.2677052012252038e-13,1.2945645210997627e-13,7.220931192085889e-14,3.9349810140048774e-14,2.1115083432839845e-14,1.1019249891323441e-14,3.0277348173018003e-09,1.425946713146903e-09,8.052694141725949e-10,5.121831350034213e-10,3.459671747803517e-10,2.4049333795572207e-10,1.6963689313894595e-10,1.1946994537304888e-10,8.364242149735982e-11,5.7645749133818014e-11,3.877194041931532e-11,2.5663529402881384e-11,1.659156296426808e-11,1.047183975540623e-11,6.472409525314502e-12,3.912657510720979e-12,2.3175834193316643e-12,1.3499251480200664e-12,7.708978677844891e-13
0.0,31,31.0,0.0,30.0,0.0,0.0,0.0,0.0,-13.0,0.0,2.0,0.0,0.0,0.0,7.18786503712981e-11,6.545696084880035e-11,5.87141523751215e-11,5.186806140739472e-11,4.499705240164069e-11,3.843707122331764e-11,3.228494380788141e-11,2.648726554903825e-11,2.1182343756339434e-11,1.6579821856208842e-11,1.2683383272905547e-11,9.470512272333851e-12,6.936545533322067e-12,4.973180296186158e-12,3.486164577930273e-12,2.3859964334467327e-12,1.5937563664280463e-12,1.0327259660222002e-12,6.471405931480639e-13,3.912554779417519e-13,2.2925346016277825e-13,1.3116515132109096e-13,7.332834824309436e-14,4.0029243122627246e-14,2.1518598220108995e-14,1.1225757367227672e-14,3.010136728425184e-09,1.4231086789729845e-09,8.08713434061593e-10,5.168630159047222e-10,3.5003881956825823e-10,2.43595913314723e-10,1.7188958831767332e-10,1.2105850136432066e-10,8.473587055174605e-11,5.838191027748149e-11,3.9251965530277654e-11,2.597159108774481e-11,1.678434121254387e-11,1.0587233845813552e-11,6.536721831342281e-12,3.9440859282966505e-12,2.330338230175109e-12,1.3539390390977658e-12,7.718966473959738e-13
0.0,32,32.0,0.0,30.0,0.0,0.0,0.0,0.0,-13.0,0.0,2.0,0.0,0.0,0.0,7.275164890627756e-11,6.624395984194075e-11,5.941147653249849e-11,5.24733416792148e-11,4.5510629564974046e-11,3.8864138898372803e-11,3.2632407919012984e-11,2.6761116353608426e-11,2.139044449905773e-11,1.6732412221373374e-11,1.278991183005934e-11,9.540172650049057e-12,6.978797776965348e-12,4.99667723147911e-12,3.498476928111022e-12,2.392852985615804e-12,1.5985577159320082e-12,1.0368685930539158e-12,6.508409738221285e-13,3.943348753125079e-13,2.3158405910867973e-13,1.3278873746590587e-13,7.44025262827811e-14,4.06887195651368e-14,2.191206105124441e-14,1.1428261497081304e-14,2.9927645358903573e-09,1.4206988979900602e-09,8.124750709830983e-10,5.217336810204986e-10,3.5422348285432224e-10,2.4676872519780336e-10,1.7418739860174684e-10,1.2267614185932255e-10,8.584758351142878e-11,5.912909210701869e-11,3.973816540912665e-11,2.6282891600498655e-11,1.6979052809323442e-11,1.0704395506830108e-11,6.6030344225896035e-12,3.97745947992758e-12,2.344533659915615e-12,1.3587267815757298e-12,7.731899078128789e-13
0.0,33,33.0,0.0,30.0,0.0,0.0,0.0,0.0,-13.0,0.0,2.0,0.0,0.0,0.0,7.364005227140498e-11,6.704451466444681e-11,6.012053628041338e-11,5.308858209563525e-11,4.603249528611253e-11,3.929802051421023e-11,3.298543146595361e-11,2.703949920546653e-11,2.1602314604020318e-11,1.6888293341112427e-11,1.2899438205705838e-11,9.612555272849607e-12,7.0233385230829655e-12,5.021809243852318e-12,3.5116640085274565e-12,2.3999237164603403e-12,1.6031645689693838e-12,1.040666591967125e-12,6.54218087482284e-13,3.9717982507715694e-13,2.337681382541176e-13,1.343291656731049e-13,7.543212750715607e-14,4.132803402873486e-14,2.2295132558094156e-14,1.1627075348058245e-14,2.9756523452946436e-09,1.418736416606453e-09,8.165616304191662e-10,5.267983450694106e-10,3.585233002984911e-10,2.5001337586792845e-10,1.7653146078640224e-10,1.2432364717516866e-10,8.697809379101523e-11,5.988767120024212e-11,4.023081487836527e-11,2.6597573521725445e-11,1.7175639975922168e-11,1.0823075746877843e-11,6.6710330051383884e-12,4.012544201696355e-12,2.3600722524278237e-12,1.3642878249328657e-12,7.748058870311178e-13
0.0,34,34.0,0.0,30.0,0.0,0.0,0.0,0.0,-13.0,0.0,2.0,0.0,0.0,0.0,7.454411358046387e-11,6.785883217327717e-11,6.084149034354438e-11,5.37138908067377e-11,4.6562706260857297e-11,3.9738721037396036e-11,3.3343966467840203e-11,2.7322308196427378e-11,2.1817785859787817e-11,1.7047241770040807e-11,1.3011712467689844e-11,9.687436856265032e-12,7.0700266457200686e-12,5.0485426780682004e-12,3.5257794760938596e-12,2.407300677830562e-12,1.6076626058458784e-12,1.0441786318402393e-12,6.573042454673675e-13,3.998051232155223e-13,2.3581176729921077e-13,1.3578858052464433e-13,7.641758982174541e-14,4.1947038120759677e-14,2.2667556061420796e-14,1.18224485981688e-14,2.958835506435721e-09,1.4172404008580004e-09,8.209803547682101e-10,5.320602473319317e-10,3.6294045986416554e-10,2.533315010397942e-10,1.7892292504103363e-10,1.260018006002204e-10,8.812793179138565e-11,6.065801441593706e-11,4.073018207475785e-11,2.6915797838164785e-11,1.7374099094792883e-11,1.0943095157198872e-11,6.740453870426435e-12,4.049122073270963e-12,2.3768489528602917e-12,1.3706090896341509e-12,7.767644783208065e-13
0.0,35,35.0,0.0,30.0,0.0,0.0,0.0,0.0,-13.0,0.0,2.0,0.0,0.0,0.0,7.546410676095098e-11,6.868714031858006e-11,6.157451933915132e-11,5.434939928248163e-11,4.7101344709880616e-11,4.018627398375975e-11,3.3707997566359256e-11,2.7609475228875993e-11,2.2036732824642395e-11,1.7209077776234754e-11,1.3126520805831175e-11,9.764613016034238e-12,7.1187190190282124e-12,5.076826568855942e-12,3.5408555067720886e-12,2.415059426737928e-12,1.6121286879060869e-12,1.0474602265921716e-12,6.601311605234066e-13,4.0222572325577113e-13,2.377212237098553e-13,1.3716929130051982e-13,7.735949259209512e-14,4.254563688625937e-14,2.30291539942905e-14,1.2014560822029567e-14,2.9423506043159754e-09,1.4162301116928721e-09,8.257384231592218e-10,5.375226597355982e-10,3.674772070733122e-10,2.567247726925514e-10,1.8136295658337583e-10,1.2771138916158778e-10,8.929762590926327e-11,6.144048037245608e-11,4.123652662021814e-11,2.7237734434123125e-11,1.7574465745807915e-11,1.106433192052696e-11,6.811080494582727e-12,4.08699413221675e-12,2.3947552589720944e-12,1.3776672238409072e-12,7.790781544505083e-13
0.0,36,36.0,0.0,30.0,0.0,0.0,0.0,0.0,-13.0,0.0,2.0,0.0,0.0,0.0,7.640032278172403e-11,6.952968402138425e-11,6.231982124308601e-11,5.499525730140664e-11,4.764851282718191e-11,4.0640735264841285e-11,3.4077535210032705e-11,2.790096260851709e-11,2.225906545174983e-11,1.7373659461451315e-11,1.3243682980495328e-11,9.843899885352479e-12,7.169275072571922e-12,5.1065975911842405e-12,3.5569061081849205e-12,2.423260300128329e-12,1.6166309229061622e-12,1.050563465917697e-12,6.627297610722453e-13,4.044566573552224e-13,2.395029563134057e-13,1.3847375026762212e-13,7.825854243224116e-14,4.312378592749153e-14,2.3379822686215893e-14,1.220352096532312e-14,2.9262354457736772e-09,1.4157248795158158e-09,8.308429524062747e-10,5.431888956049633e-10,3.7213585040034445e-10,2.601949019249057e-10,1.8385273754867946e-10,1.294532046259903e-10,9.048770347324504e-11,6.223542091077328e-11,4.175009914416057e-11,2.7563555686887627e-11,1.7776802858366696e-11,1.1186710920833862e-11,6.882739240859171e-12,4.125982241179813e-12,2.4136826631305634e-12,1.38543075182248e-12,7.817528859641431e-13
0.0,37,37.0,0.0,30.0,0.0,0.0,0.0,0.0,-13.0,0.0,2.0,0.0,0.0,0.0,7.735306693028072e-11,7.038672214934905e-11,6.3077608005028e-11,5.565162913956461e-11,4.820432847746358e-11,4.1102178330311374e-11,3.44526101669195e-11,2.8196756912746587e-11,2.24847226975228e-11,1.7540877226157953e-11,1.3363049267274477e-11,9.925134594145102e-12,7.221560160695762e-12,5.137784283018774e-12,3.5739302486592505e-12,2.431949799111782e-12,1.6212288632925451e-12,1.0535368079465985e-12,6.651300179598618e-13,4.0651295747275106e-13,2.411635519882527e-13,1.397045336117598e-13,7.911555983706895e-14,4.368148915343664e-14,2.371952589342914e-14,1.2389371659441899e-14,2.910529041458332e-09,1.4157440781164433e-09,8.363009991718979e-10,5.490623190290759e-10,3.769187667666538e-10,2.6374364181997694e-10,1.8639346897900912e-10,1.3122804469265145e-10,9.169869166203772e-11,6.304318245969895e-11,4.227114161088718e-11,2.7893432359487716e-11,1.798119154028736e-11,1.1310194135582684e-11,6.955294594937986e-12,4.1659297641779965e-12,2.4335254160764263e-12,1.3938620695333468e-12,7.847890334262068e-13
0.0,38,38.0,0.0,30.0,0.0,0.0,0.0,0.0,-13.0,0.0,2.0,0.0,0.0,0.0,7.832265689648504e-11,7.125852534462385e-11,6.384810306645065e-11,5.6318690715973746e-11,4.8768921904576523e-11,4.157069037717677e-11,3.483326915518418e-11,2.8496863977434217e-11,2.2713667075160573e-11,1.771064871366852e-11,1.3484497176801784e-11,1.0008174906824244e-11,7.275447924322213e-12,5.170310568346751e-12,3.591914749906973e-12,2.4411620320445827e-12,1.6259738188644504e-12,1.0564249343600558e-12,6.67360786279227e-13,4.084095769256961e-13,2.4270970449395404e-13,1.408643245933724e-13,7.993146669969868e-14,4.4218797044691995e-14,2.4048287469213925e-14,1.2572097023951907e-14,2.8952715828884097e-09,1.4163070981384666e-09,8.421195634169589e-10,5.551463548015953e-10,3.8182840709867105e-10,2.67372790297106e-10,1.889863728762084e-10,1.3303671433020897e-10,9.293111843756241e-11,6.386410727990671e-11,4.279988808999162e-11,2.8227531152055622e-11,1.8187724143137923e-11,1.1434772365712593e-11,7.02864426210152e-12,4.206701390608072e-12,2.45418266307512e-12,1.402919256275508e-12,7.881821988043333e-13
0.0,39,39.0,0.0,30.0,0.0,0.0,0.0,0.0,-13.0,0.0,2.0,0.0,0.0,0.0,7.930942146805028e-11,7.214537450453376e-11,6.463153957863189e-11,5.699662749076273e-11,4.9342433248450744e-11,4.204636942639575e-11,3.521957140137362e-11,2.8801304845030327e-11,2.294588008151404e-11,1.788291430021361e-11,1.3607928152761675e-11,1.0092898266615475e-11,7.330821817569672e-12,5.204098627563838e-12,3.6108369090224614e-12,2.450920172172676e-12,1.6309092640266955e-12,1.0592686666785855e-12,6.694496645804204e-13,4.101613129798602e-13,2.4414818469428014e-13,1.419558985128413e-13,8.070727472305947e-14,4.4735805311909144e-14,2.4366183551283034e-14,1.2751632697601108e-14,2.8805044143566947e-09,1.417433320280794e-09,8.483055932218691e-10,5.6144449889111e-10,3.868673019148898e-10,2.7108419293493045e-10,1.9163269427779316e-10,1.3488002721069632e-10,9.418551350671201e-11,6.469853459210525e-11,4.333656573829078e-11,2.8566013418820663e-11,1.8396499151319243e-11,1.156045827120866e-11,7.102714367056874e-12,4.248182320876734e-12,2.4755600156417802e-12,1.4125576835051131e-12,7.91924025519989e-13
0.0,40,40.0,0.0,30.0,0.0,0.0,0.0,0.0,-13.0,0.0,2.0,0.0,0.0,0.0,8.031369968435387e-11,7.304755975620071e-11,6.542815915678327e-11,5.7685632948386795e-11,4.99250107009183e-11,4.252932209671706e-11,3.561158595906899e-11,2.9110112525406795e-11,2.3181358407533005e-11,1.8057633149738006e-11,1.3733264389189697e-11,1.0179200448561004e-11,7.387575959372864e-12,5.239071174889452e-12,3.630666831381376e-12,2.4612378924926818e-12,1.636071319572396e-12,1.0621049407053516e-12,6.714228733366222e-13,4.1178273135080683e-13,2.454858116326113e-13,1.429821090975363e-13,8.144407470776731e-14,4.5232653826539877e-14,2.4673334608582592e-14,1.2927876991990891e-14,2.8662699994815867e-09,1.4191420884567803e-09,8.548659910692926e-10,5.679603294015706e-10,3.9203806691101287e-10,2.748797457553862e-10,1.9433370332776532e-10,1.3675880719907266e-10,9.54624093121568e-11,6.55468016058703e-11,4.388139585151518e-11,2.8909034679201835e-11,1.8607617525849884e-11,1.1687280623766806e-11,7.177454922943177e-12,4.2902769992260155e-12,2.4975706287908155e-12,1.422731412302212e-12,7.960029402430898e-13
0.0,41,41.0,0.0,30.0,0.0,0.0,0.0,0.0,-13.0,0.0,2.0,0.0,0.0,0.0,8.133584032945568e-11,7.39653798002944e-11,6.6238211039718e-11,5.838590753018291e-11,5.0516809160637024e-11,4.301966193281401e-11,3.600938964367585e-11,2.942332943405429e-11,2.3420110835759765e-11,1.8234779819540847e-11,1.386044585900297e-11,1.0266993981457684e-11,7.445615454279462e-12,5.275153209453977e-12,3.651369469200553e-12,2.472120747586988e-12,1.6414892894943727e-12,1.0649668347184322e-12,6.733051539987662e-13,4.132880936127965e-13,2.467294241126229e-13,1.4394587596235545e-13,8.214302667742051e-14,4.570952570999324e-14,2.4969897642941823e-14,1.3100702251264781e-14,2.8526118822415187e-09,1.421452683174113e-09,8.61807621681739e-10,5.746975179844186e-10,3.9734340851700923e-10,2.787613979627764e-10,1.97090697324239e-10,1.3867388986406913e-10,9.676234204431743e-11,6.640924446755327e-11,4.443459490384892e-11,2.925674464936476e-11,1.8821180184333195e-11,1.1815279655514228e-11,7.252835675658815e-12,4.332907549945747e-12,2.5201358558947635e-12,1.4333943796339513e-12,8.004048323412751e-13
0.0,42,42.0,0.0,30.0,0.0,0.0,0.0,0.0,-13.0,0.0,2.0,0.0,0.0,0.0,8.237620167314385e-11,7.489914152726742e-11,6.70619515525141e-11,5.909765790790642e-11,5.111798927350256e-11,4.351750816940458e-11,3.6413065461154147e-11,2.974100538770718e-11,2.366215572898595e-11,1.8414341382016104e-11,1.3989427607804117e-11,1.0356206462189139e-11,7.504856308681384e-12,5.3122733092173336e-12,3.672906370993021e-12,2.4835674790701626e-12,1.6471862345224123e-12,1.0678836459688415e-12,6.751196893946272e-13,4.1469128853533903e-13,2.478858526094712e-13,1.44850172845236e-13,8.280535078645106e-14,4.616664647828583e-14,2.5256058787316446e-14,1.3269965702254621e-14,2.839574642374882e-09,1.4243842954337164e-09,8.691373215080285e-10,5.816598416650023e-10,4.027861294048707e-10,2.8273115463581217e-10,1.9990500273331154e-10,1.406261239838786e-10,9.80858526625338e-11,6.72861991432578e-11,4.499637553198592e-11,2.9609287597349737e-11,1.9037286349957347e-11,1.194450336776464e-11,7.328842382187408e-12,4.3760120446146814e-12,2.5431855518464695e-12,1.4445013803151176e-12,8.051136691143024e-13
0.0,43,43.0,0.0,30.0,0.0,0.0,0.0,0.0,-13.0,0.0,2.0,0.0,0.0,0.0,8.343515139120978e-11,7.584915983226655e-11,6.789964379274179e-11,5.98210965129101e-11,5.1728716767431684e-11,4.402298483470875e-11,3.68227014286832e-11,3.006319605344759e-11,2.3907519019517867e-11,1.8596315015719364e-11,1.4120177338659279e-11,1.0446778854490384e-11,7.565225050352808e-12,5.3503645359986725e-12,3.695237155099119e-12,2.4955712276778207e-12,1.6531795657391508e-12,1.0708810093462755e-12,6.768880456571308e-13,4.1600576831638075e-13,2.4896189148167297e-13,1.4569801637365221e-13,8.343231894584016e-14,4.660428315427885e-14,2.5532026487112184e-14,1.3435519276104388e-14,2.827203845079837e-09,1.4279560014815444e-09,8.768619099504724e-10,5.888511950459363e-10,4.0836913393105024e-10,2.8679107937397265e-10,2.0277797716421175e-10,1.4261637302744062e-10,9.943348791231389e-11,6.817800224898241e-11,4.55669474442722e-11,2.9966802883599684e-11,1.9256032550866752e-11,1.207500466117447e-11,7.405473545633446e-12,4.419542701524081e-12,2.5666580912967792e-12,1.4560088566164335e-12,8.101120466576173e-13
0.0,44,44.0,0.0,30.0,0.0,0.0,0.0,0.0,-13.0,0.0,2.0,0.0,0.0,0.0,8.451306661377848e-11,7.681575757311949e-11,6.875155747954223e-11,6.055644125462273e-11,5.23491620093487e-11,4.4536220115246665e-11,3.7238389703225717e-11,3.038996176279672e-11,2.415623261650975e-11,1.878070601334432e-11,1.4252673293082973e-11,1.0538663838049175e-11,7.62665814132333e-12,5.389365016557093e-12,3.7183207261516296e-12,2.508120640766601e-12,1.659481643581817e-12,1.0739810516953105e-12,6.786301353329293e-13,4.172444905735648e-13,2.499642715692598e-13,1.4649245517378498e-13,8.402524709651165e-14,4.702274327549087e-14,2.5798025396848905e-14,1.3597218063862837e-14,2.815545985006901e-09,1.4321867387814062e-09,8.849882024195938e-10,5.962756028492198e-10,4.140954335026002e-10,2.909432969025323e-10,2.0571101130476294e-10,1.4464551659840705e-10,1.0080580132643129e-10,6.908499183618512e-11,4.6146518249548245e-11,3.032942559261261e-11,1.9477512094770938e-11,1.2206839154300118e-11,7.48273760352364e-12,4.4634640947556785e-12,2.5905001631339407e-12,1.4678755109719636e-12,8.153816774964968e-13
0.0,45,45.0,0.0,30.0,0.0,0.0,0.0,0.0,-13.0,0.0,2.0,0.0,0.0,0.0,8.561033406420394e-11,7.779926563010315e-11,6.961796891977379e-11,6.13039153774125e-11,5.297949972791009e-11,4.505734591976146e-11,3.766022594958169e-11,3.072136661659867e-11,2.440833315811648e-11,1.8967526153014862e-11,1.4386902419323694e-11,1.0631824252655107e-11,7.68910125750289e-12,5.429218259671025e-12,3.742116257046345e-12,2.521200868970633e-12,1.6661003696440915e-12,1.0772025751585953e-12,6.803642008483861e-13,4.1841986680903243e-13,2.508996333492645e-13,1.4723655918768627e-13,8.458548805899463e-14,4.742237374206448e-14,2.6054291074132636e-14,1.3754927225294075e-14,2.804648424604245e-09,1.4370952836091677e-09,8.935230252949578e-10,6.03937232757447e-10,4.1996815186089936e-10,2.951899956433226e-10,2.087055308190986e-10,1.4671445183407834e-10,1.0220335419958616e-10,7.000750813786976e-11,4.6735294207981164e-11,3.06972871935523e-11,1.9701814881310647e-11,1.2340063568244091e-11,7.560650547874522e-12,4.507751429860908e-12,2.6146663957816803e-12,1.480062759415065e-12,8.209038170917976e-13
0.0,46,46.0,0.0,30.0,0.0,0.0,0.0,0.0,-13.0,0.0,2.0,0.0,0.0,0.0,8.672735026149525e-11,7.880002303726472e-11,7.049916105716755e-11,6.206374741725946e-11,5.3619908858313355e-11,4.558649759318739e-11,3.808830889285795e-11,3.105747781930891e-11,2.466386104482469e-11,1.9156792381080293e-11,1.4522858809846362e-11,1.0726231665336231e-11,7.752508493495874e-12,5.46987326317349e-12,3.7665839610627056e-12,2.53479444994786e-12,1.6730397608418286e-12,1.0805612630485247e-12,6.821068171112666e-13,4.195437178938424e-13,2.5177450087753697e-13,1.4793340911394569e-13,8.511442489041668e-14,4.7803559466084984e-14,2.6301065508908218e-14,1.3908527300681225e-14,2.7945593269503075e-09,1.442700230699154e-09,9.024732328598102e-10,6.11840408512432e-10,4.259905302813517e-10,2.9953343026052816e-10,2.1176299821144832e-10,1.4882409475575518e-10,1.0362671652887093e-10,7.09458942780494e-11,4.733348090987352e-11,3.107051619059716e-11,1.9929027446352255e-11,1.2474734568468165e-11,7.639233943953773e-12,4.5523889257948155e-12,2.6391188608585024e-12,1.492535044456477e-12,8.266596320199178e-13
0.0,47,47.0,0.0,30.0,0.0,0.0,0.0,0.0,-13.0,0.0,2.0,0.0,0.0,0.0,8.786452176712699e-11,7.981837716351841e-11,7.139542357952361e-11,6.283617122939952e-11,5.427057247585101e-11,4.612381374237375e-11,3.852274001148107e-11,3.13983651925003e-11,2.4922859699632072e-11,1.9348525758229374e-11,1.466054238448283e-11,1.0821865075504153e-11,7.816841537903302e-12,5.511284458435363e-12,3.7916856795261775e-12,2.548882080551599e-12,1.6803004976023464e-12,1.0840699020564443e-12,6.838729117083638e-13,4.2062723693874994e-13,2.52595256777413e-13,1.4858608593071654e-13,8.561346468430696e-14,4.8166721798270705e-14,2.6538593487712738e-14,1.4057917976778658e-14,2.7853275832925816e-09,1.4490199754005999e-09,9.118457262630211e-10,6.199896232273172e-10,4.3216593269182033e-10,3.039759241927775e-10,2.148849146610496e-10,1.5097538157006242e-10,1.0507646791484013e-10,7.190049694604491e-11,4.794128388979389e-11,3.144923873984623e-11,2.0159233158317795e-11,1.2610907969252824e-11,7.718513308102459e-12,4.597368328573099e-12,2.6638264956889026e-12,1.5052600263272616e-12,8.326305131199549e-13
0.0,48,48.0,0.0,30.0,0.0,0.0,0.0,0.0,-13.0,0.0,2.0,0.0,0.0,0.0,8.90222654629407e-11,8.085468392809508e-11,7.230705306592326e-11,6.362142606567804e-11,5.493167779305586e-11,4.666943614401408e-11,3.896362333615658e-11,3.174410082700218e-11,2.518537500937893e-11,1.954275062537974e-11,1.4799957793083702e-11,1.091870976346487e-11,7.882068853160555e-12,5.553411533245709e-12,3.8173853101197614e-12,2.5634432814269503e-12,1.6878804397140932e-12,1.0877386150552138e-12,6.856758009230865e-13,4.216809597388406e-13,2.5336811854665825e-13,1.4919766049805237e-13,8.608403275554527e-14,4.851231672195429e-14,2.6767119762263378e-14,1.4203020432294655e-14,2.7770027356044532e-09,1.4560726988259875e-09,9.216474745453692e-10,6.283895528660703e-10,4.3849785071645243e-10,3.085198721842159e-10,2.1807282183394154e-10,1.5316926992315464e-10,1.0655319842043322e-10,7.287166703635745e-11,4.855890918341625e-11,3.183357922047846e-11,2.039251250748399e-11,1.2748638220562033e-11,7.798516802197513e-12,4.642687570795318e-12,2.6887644783778075e-12,1.5182086710577413e-12,8.387983372367138e-13
0.0,49,49.0,0.0,30.0,0.0,0.0,0.0,0.0,-13.0,0.0,2.0,0.0,0.0,0.0,9.020100885113399e-11,8.19093080396435e-11,7.323435316117569e-11,6.441975668617774e-11,5.5603416201712647e-11,4.722350971223366e-11,3.941106532776813e-11,3.209475884119145e-11,2.5451454909303025e-11,1.9739493950875243e-11,1.494111351086179e-11,1.1016756280672755e-11,7.948164884532084e-12,5.596219167704563e-12,3.8436490999016515e-12,2.578456960021871e-12,1.6957751052818395e-12,1.091575099293648e-12,6.875272396405696e-13,4.227147428097395e-13,2.540991164456956e-13,1.4977118326634393e-13,8.652756716057323e-14,4.884083281633031e-14,2.6986886967678216e-14,1.4343778437466867e-14,2.7696348945751547e-09,1.463876356492545e-09,9.318855377477046e-10,6.37045069842438e-10,4.4498990865564543e-10,3.1316774282847894e-10,2.2132830367763678e-10,1.5540674011124518e-10,1.0805750938708575e-10,7.385976025466344e-11,4.918656383388794e-11,3.222366075503944e-11,2.062894344556801e-11,1.2887978110495988e-11,7.879274202244668e-12,4.688349582394146e-12,2.713913582856336e-12,1.5313552529187207e-12,8.451456813970751e-13
0.0,50,50.0,0.0,30.0,0.0,0.0,0.0,0.0,-13.0,0.0,2.0,0.0,0.0,0.0,9.14011903704092e-11,8.29826232517252e-11,7.41776347686106e-11,6.523141349409961e-11,5.628598334598576e-11,4.778618250882597e-11,3.986517481334207e-11,3.245041521969149e-11,2.5721149079701735e-11,1.993878482562913e-11,1.508402110034448e-11,1.1115999575299562e-11,8.015109315164513e-12,5.6396767118204265e-12,3.870445825495834e-12,2.5939018793968777e-12,1.7039781098446074e-12,1.0955848653858028e-12,6.894374831237034e-13,4.237377488775475e-13,2.547940732085807e-13,1.503096741412477e-13,8.694551351105516e-14,4.9152789000485364e-14,2.7198134218427177e-14,1.448015841009072e-14,2.763274653559921e-09,1.4724486709724485e-09,9.425670920971188e-10,6.459612566893593e-10,4.5164586841642945e-10,3.17922081140133e-10,2.2465298820472765e-10,1.5768879625204444e-10,1.0959001420912128e-10,7.486513769059113e-11,4.9824456353720805e-11,3.261960567826032e-11,2.0868601745579705e-11,1.3028978628665168e-11,7.960816100365383e-12,4.734361251382983e-12,2.7392595356052753e-12,1.5446772874785174e-12,8.516559933756338e-13
0.0,51,51.0,0.0,30.0,0.0,0.0,0.0,0.0,-13.0,0.0,2.0,0.0,0.0,0.0,9.26232597245466e-11,8.40750126299405e-11,7.513721625519846e-11,6.605665268618854e-11,5.6979579216726473e-11,4.8357605783467486e-11,4.032606296411334e-11,3.281114771227576e-11,2.5994508729455805e-11,2.0140654077730912e-11,1.5228694615460023e-11,1.1216438243585636e-11,8.082886377902595e-12,5.683757828108091e-12,3.897746880983036e-12,2.609757041100396e-12,1.7124815641116969e-12,1.0997714731299118e-12,6.914153586229718e-13,4.2475843954782425e-13,2.5545858578513266e-13,1.5081611257208582e-13,8.733932004794629e-14,4.9448732078314205e-14,2.7401096298812544e-14,1.4612148639640713e-14,2.757972999139126e-09,1.4818071290756055e-09,9.536994572434704e-10,6.551434197495131e-10,4.584696344113829e-10,3.2278551116864515e-10,2.2804854927119673e-10,1.6001646742226515e-10,1.111513390688766e-10,7.588816635825737e-11,5.0472797147363163e-11,3.302153595651517e-11,2.111156136152091e-11,1.3171688946508943e-11,8.043173302406206e-12,4.78073252863134e-12,2.7647923907212543e-12,1.5581554100447146e-12,8.583137226469502e-13
0.0,52,52.0,0.0,30.0,0.0,0.0,0.0,0.0,-13.0,0.0,2.0,0.0,0.0,0.0,9.386767822116807e-11,8.51868688276745e-11,7.611342366504351e-11,6.689573641343629e-11,5.768440825990586e-11,4.893793403459644e-11,4.079384330361161e-11,3.317703577726999e-11,2.627158644614005e-11,2.03451339825334e-11,1.5375150125412757e-11,1.1318073895656737e-11,8.151484229725232e-12,5.728440117689787e-12,3.925526291892906e-12,2.6260019908330712e-12,1.721276429955144e-12,1.1041367608273464e-12,6.93468344819368e-13,4.257845747642401e-13,2.5609800928316114e-13,1.5129342794073533e-13,8.771043295057297e-14,4.9729234109845396e-14,2.7596003358383467e-14,1.4739757887491968e-14,2.753781219064917e-09,1.4919689840898529e-09,9.652901254933093e-10,6.645971028386523e-10,4.654652584475857e-10,3.277607386699947e-10,2.315167083549209e-10,1.6239080876674586e-10,1.1274212363600717e-10,7.692921970591637e-11,5.11317988988492e-11,3.342957356151032e-11,2.1357894774668535e-11,1.3316156479752829e-11,8.126376387034067e-12,4.8274756674705225e-12,2.7905059356288073e-12,1.5717732126713572e-12,8.651044157029347e-13
0.0,53,53.0,0.0,30.0,0.0,0.0,0.0,0.0,-13.0,0.0,2.0,0.0,0.0,0.0,9.513491911949043e-11,8.631859436868622e-11,7.710659093877514e-11,6.774893294857838e-11,5.840067949427186e-11,4.952732508421047e-11,4.126863173673105e-11,3.354816055736489e-11,2.6552436096598842e-11,2.0552258048269e-11,1.5523405338381355e-11,1.1420910623685231e-11,8.2208943909555e-12,5.773704744222777e-12,3.953760671498583e-12,2.6426170557338724e-12,1.7303528352690656e-12,1.108681065389257e-12,6.956026571790428e-13,4.268232185737129e-13,2.567174432357923e-13,1.5174449033342013e-13,8.806029186314526e-14,4.9994889639469494e-14,2.778308102116224e-14,1.486301355633067e-14,2.7507508085110227e-09,1.5029512635961233e-09,9.773467929615164e-10,6.743281008356799e-10,4.726369446306483e-10,3.328505538508422e-10,2.350592363393597e-10,1.6481290258483562e-10,1.143630217351427e-10,7.798867809646736e-11,5.1801676928300285e-11,3.384384080246158e-11,2.160767331839649e-11,1.346242700592635e-11,8.210455396120896e-12,4.8746045869194526e-12,2.816397136040226e-12,1.5855170512917982e-12,8.720147796527791e-13
0.0,54,54.0,0.0,30.0,0.0,0.0,0.0,0.0,-13.0,0.0,2.0,0.0,0.0,0.0,9.642546798654293e-11,8.747060193560308e-11,7.811706013739737e-11,6.86165168581788e-11,5.912860663491604e-11,5.0125940161782965e-11,4.17505465931097e-11,3.3924604878631265e-11,2.683711276529238e-11,2.0762060860785618e-11,1.5673479307516233e-11,1.1524954560185168e-11,8.291111248662342e-12,5.819536066408657e-12,3.98242913344397e-12,2.659583521959348e-12,1.7397003490809306e-12,1.1134034311025646e-12,6.978233374145817e-13,4.278807506441312e-13,2.5732172027342994e-13,1.5217210177771781e-13,8.839032562755247e-14,5.024631281379291e-14,2.7962550819089023e-14,1.4981959600405276e-14,2.7489333756843523e-09,1.5147707833598318e-09,9.898773925336454e-10,6.843424731572014e-10,4.799890543119806e-10,3.3805783419965105e-10,2.386779553070208e-10,1.6728385939968693e-10,1.160147019864731e-10,7.906692926088793e-11,5.248264952054198e-11,3.4264460621201753e-11,2.1860967477218204e-11,1.3610544816238983e-11,8.295439630183162e-12,4.922134346253565e-12,2.8424656256908138e-12,1.5993758329510755e-12,8.790327179123058e-13
