Line_number,Fiducial,Easting,Northing,Height,Elevation,tx_pitch,tx_roll,tx_yaw,txrx_dx,txrx_dy,txrx_dz,rx_pitch,rx_roll,rx_yaw,S0Z_time_7.292e-05,S0Z_time_7.642e-05,S0Z_time_8.092e-05,S0Z_time_8.642e-05,S0Z_time_9.341e-05,S0Z_time_1.024e-04,S0Z_time_1.139e-04,S0Z_time_1.284e-04,S0Z_time_1.464e-04,S0Z_time_1.689e-04,S0Z_time_1.969e-04,S0Z_time_2.324e-04,S0Z_time_2.779e-04,S0Z_time_3.349e-04,S0Z_time_4.069e-04,S0Z_time_4.979e-04,S0Z_time_6.119e-04,S0Z_time_7.559e-04,S0Z_time_9.373e-04,S0Z_time_1.166e-03,S0Z_time_1.454e-03,S0Z_time_1.818e-03,S0Z_time_2.276e-03,S0Z_time_2.855e-03,S0Z_time_3.574e-03,S0Z_time_4.454e-03,S0Z_time_5.530e-03,S0Z_time_6.849e-03,S0Z_time_8.463e-03,S0Z_time_1.044e-02,S1Z_time_1.273e-05,S1Z_time_1.623e-05,S1Z_time_2.073e-05,S1Z_time_2.623e-05,S1Z_time_3.323e-05,S1Z_time_4.222e-05,S1Z_time_5.373e-05,S1Z_time_6.822e-05,S1Z_time_8.622e-05,S1Z_time_1.087e-04,S1Z_time_1.367e-04,S1Z_time_1.722e-04,S1Z_time_2.177e-04,S1Z_time_2.747e-04,S1Z_time_3.467e-04,S1Z_time_4.377e-04,S1Z_time_5.517e-04,S1Z_time_6.957e-04,S1Z_time_8.772e-04,S1Z_time_1.106e-03,S1Z_time_1.394e-03
0.0,0,0.0,0.0,30.0,0.0,0.0,0.0,0.0,-13.0,0.0,2.0,0.0,0.0,0.0,3.619233521057948e-11,3.4260464302432744e-11,3.4052697841431675e-11,3.077520269525023e-11,2.7204374465223972e-11,2.5558740052118363e-11,2.3001350314297593e-11,2.032877504666868e-11,1.8681897565459184e-11,1.6741563187279797e-11,1.4311201809945618e-11,1.2216633261245218e-11,1.0329735488215233e-11,9.322697189820224e-12,7.695707194743015e-12,6.285166885704862e-12,4.9538370239854255e-12,4.181150203544829e-12,2.955464044335951e-12,2.512493510545881e-12,1.8868033287919384e-12,1.4355044460455434e-12,1.0377807731229045e-12,7.395833352525758e-13,5.379949607507125e-13,3.747582689551318e-13,2.332851651171012e-13,1.5287253679298462e-13,1.0667514636510063e-13,6.45411039304357e-14,3.0423886580009617e-10,1.4100110916442277e-10,8.176999966371578e-11,5.331610900975578e-11,4.10802515450834e-11,3.4659395291479493e-11,2.8031280496477214e-11,2.066571542394953e-11,1.831755628179661e-11,1.3557826136521678e-11,1.1132987667855177e-11,9.112546513429442e-12,6.776819867759193e-12,5.422771615348234e-12,3.9574043019993135e-12,2.9936680968369448e-12,2.254033340498718e-12,1.5543858958620361e-12,1.1051158208584295e-12,7.807846770839098e-13,5.119284138511435e-13
0.0,1,1.0,0.0,30.0,0.0,0.0,0.0,0.0,-13.0,0.0,2.0,0.0,0.0,0.0,3.260292907879524e-11,3.151428488336157e-11,3.005022833483615e-11,2.7212861959604686e-11,2.6276976802141963e-11,2.5108739734352243e-11,2.1031195372662413e-11,1.8163526717797646e-11,1.5899014717735742e-11,1.463835278910648e-11,1.2811354281057616e-11,1.129978548630033e-11,9.955788213119103e-12,8.07728429890684e-12,6.874978741041989e-12,5.5772731256941575e-12,4.88887405803062e-12,3.6864506845515025e-12,2.873096951242153e-12,2.2745355038755124e-12,1.7005304853085109e-12,1.327306469588419e-12,9.782349560837736e-13,7.046514888064301e-13,4.55811905582896e-13,3.2541939150612354e-13,2.0705442834225206e-13,1.4727082135371956e-13,9.450046023759595e-14,5.913968551304208e-14,4.220344043828426e-10,1.950724338641233e-10,9.265142642082821e-11,5.911615823453577e-11,4.1892653227210026e-11,3.084235150126712e-11,2.517656991011939e-11,1.9505363519081685e-11,1.5533747647302128e-11,1.2460412528884744e-11,9.452553772769054e-12,7.890850092125642e-12,5.916660137412516e-12,4.893431621820862e-12,3.732366883380061e-12,2.780975291207815e-12,1.9525145951187543e-12,1.4296108450297258e-12,1.0119571131694985e-12,7.196209589735635e-13,4.988442769029492e-13
0.0,2,2.0,0.0,30.0,0.0,0.0,0.0,0.0,-13.0,0.0,2.0,0.0,0.0,0.0,3.103263771993509e-11,2.941837629731192e-11,2.7712464039788807e-11,2.5843960540619576e-11,2.2436359753573798e-11,2.209664674388418e-11,1.9038465558256313e-11,1.6807536349522425e-11,1.4300460980446647e-11,1.3207017408558475e-11,1.1677769961438537e-11,1.008849297247888e-11,9.087170034522e-12,7.245558023021458e-12,6.080159201022832e-12,5.06977452451001e-12,4.230038429503348e-12,3.2323522191461714e-12,2.750016432070869e-12,2.1196127879124837e-12,1.5211222349495867e-12,1.2024704462981635e-12,9.014530938196035e-13,6.161325317799552e-13,4.567082419254974e-13,2.901533185212251e-13,2.0798787871712025e-13,1.38983208119183e-13,9.033514208225359e-14,5.6683631398127705e-14,5.631448012398716e-10,2.8120174325551196e-10,1.2482936280155223e-10,6.90256706274056e-11,4.166074230708123e-11,3.066738757438803e-11,2.1402472739535324e-11,1.7301763866441565e-11,1.3739799727388278e-11,1.1157874310998345e-11,8.804766361918724e-12,7.183645259159181e-12,5.265091183811784e-12,4.253388417024524e-12,3.079688783055643e-12,2.4205788265577765e-12,1.7650965773234797e-12,1.2489566302830923e-12,9.369453408531694e-13,6.701332900603505e-13,4.4452621832451257e-13
0.0,3,3.0,0.0,30.0,0.0,0.0,0.0,0.0,-13.0,0.0,2.0,0.0,0.0,0.0,2.8307307340421302e-11,2.775788723976416e-11,2.4626309649624638e-11,2.2621098799828153e-11,2.011220593213075e-11,1.962492231953977e-11,1.682548685548456e-11,1.5244757496700435e-11,1.2481028244333158e-11,1.2029916442421647e-11,1.0635858757984263e-11,9.137996671381025e-12,7.66547540099298e-12,6.6503336789226444e-12,5.498693618031071e-12,4.601963192821945e-12,3.662328706148631e-12,3.06362245471378e-12,2.3926645050254766e-12,1.9687238968511402e-12,1.4584682119920682e-12,1.0894308919426146e-12,7.868507515051383e-13,5.76046950918618e-13,3.976142582294732e-13,2.8786428106490314e-13,1.92816318461169e-13,1.316472165032607e-13,8.368901224062183e-14,4.927291008323428e-14,6.75073119151192e-10,3.374011539842981e-10,1.5710030880058213e-10,8.114890584437286e-11,4.587804804405646e-11,2.8053365973178886e-11,2.048306943474581e-11,1.6560228207382165e-11,1.2584304798945772e-11,1.0078621911483992e-11,8.347352373429828e-12,6.251177526097145e-12,4.535671341882831e-12,3.771646167211339e-12,2.9420183437211946e-12,2.093030338628305e-12,1.5564533066203535e-12,1.1728981272684428e-12,8.008980167910132e-13,5.76356826385214e-13,3.7163585016777196e-13
0.0,4,4.0,0.0,30.0,0.0,0.0,0.0,0.0,-13.0,0.0,2.0,0.0,0.0,0.0,2.7953351835225564e-11,2.6278699874746568e-11,2.3802625600714023e-11,2.1359733816731572e-11,1.8720216689129655e-11,1.7174532475948544e-11,1.579219907355159e-11,1.4176715841121004e-11,1.2460347726482892e-11,1.042157209314276e-11,9.823565292396152e-12,8.07376356296617e-12,7.0310259185646155e-12,5.910080843703077e-12,4.850411366998082e-12,4.322889127051413e-12,3.382105268201959e-12,2.7567213287360436e-12,2.201491275720419e-12,1.6946824272246035e-12,1.3596708847228765e-12,9.820412833160539e-13,7.629161590202679e-13,5.104562727071597e-13,3.777060756471109e-13,2.731989409095392e-13,1.82632507880731e-13,1.174089168953113e-13,7.856100575459579e-14,4.870964833410739e-14,7.28500420800493e-10,4.010284523396558e-10,2.1017064749294477e-10,1.0118312065775019e-10,5.5522152575561176e-11,3.11189653985981e-11,2.0802431572474363e-11,1.626780244447878e-11,1.1646302620238511e-11,9.104842899372606e-12,7.658437420043104e-12,5.920268913674512e-12,4.3731181577576605e-12,3.4491606533828353e-12,2.64176060849277e-12,1.9332452106350415e-12,1.453867201638544e-12,1.1102846904154567e-12,7.739377766489073e-13,5.216965654673365e-13,3.537889225059391e-13
0.0,5,5.0,0.0,30.0,0.0,0.0,0.0,0.0,-13.0,0.0,2.0,0.0,0.0,0.0,2.8453281383116462e-11,2.8185409204071074e-11,2.3680985754732573e-11,2.075396079220816e-11,1.8001590684507162e-11,1.6508328229107995e-11,1.4578187315693688e-11,1.2274843962897565e-11,1.133090829951079e-11,9.712037505750222e-12,8.273699193663692e-12,7.488407261847963e-12,6.370127057392757e-12,5.6730758571707034e-12,4.410997903662489e-12,3.6518642088340056e-12,3.1842037735452456e-12,2.485051067469385e-12,1.8868760898137666e-12,1.5813849388750792e-12,1.159076053881916e-12,9.077470419957175e-13,6.824017831942947e-13,4.726343710161968e-13,3.4856650281961056e-13,2.3868972122675804e-13,1.6724110986908672e-13,1.0729138213471612e-13,7.553875617792819e-14,4.7851000031002545e-14,8.3802148956627e-10,4.773298015059321e-10,2.546400228391802e-10,1.2633848222196713e-10,6.503086896126552e-11,3.448333782250267e-11,2.1554151538467144e-11,1.361153461171012e-11,1.0957486526452142e-11,8.790104001686489e-12,6.6402946855542394e-12,5.448149327246309e-12,3.958727191646784e-12,3.0998713543729503e-12,2.4059184151595955e-12,1.5635905166493715e-12,1.2677152960645516e-12,9.563356078865302e-13,6.87385419493463e-13,4.677555828684336e-13,3.038729403155619e-13
0.0,6,6.0,0.0,30.0,0.0,0.0,0.0,0.0,-13.0,0.0,2.0,0.0,0.0,0.0,2.96074182022524e-11,2.788939886119899e-11,2.3674391614228653e-11,2.088362196866116e-11,1.8390368326003185e-11,1.6013830708206248e-11,1.4117314134229213e-11,1.134600750220901e-11,9.94001014923948e-12,8.687598969852971e-12,7.873222989672754e-12,6.9287939235304416e-12,5.472813306603453e-12,4.962144582729432e-12,3.932034423470477e-12,3.3867449501005463e-12,2.7760980868701048e-12,2.2630562323151856e-12,1.7787767121494305e-12,1.4638552140298882e-12,1.1688551288652883e-12,8.52565963951929e-13,6.021063122912341e-13,4.4274025769243677e-13,3.12282047980237e-13,2.2539980072927347e-13,1.5032202271259162e-13,1.0122491481702732e-13,6.593515826858101e-14,4.2835217893655334e-14,8.877318121835583e-10,5.332565154885533e-10,2.876773658733664e-10,1.56983494072024e-10,7.978809166835349e-11,3.993508415390466e-11,2.211145427688596e-11,1.445170114426567e-11,1.0193536708862084e-11,8.107745461878652e-12,6.090917114037337e-12,4.851185314367036e-12,3.649069717508901e-12,2.752791089615008e-12,2.2343123059549824e-12,1.6438595352935235e-12,1.1030365722095476e-12,8.334031370374425e-13,5.98773163894045e-13,4.1402509714441864e-13,2.762380562276463e-13
0.0,7,7.0,0.0,30.0,0.0,0.0,0.0,0.0,-13.0,0.0,2.0,0.0,0.0,0.0,3.382650610008527e-11,3.079778959904327e-11,2.5547532683426834e-11,2.0601306140344694e-11,1.6859301068957496e-11,1.514269975979537e-11,1.2667170408169399e-11,1.1443465651936616e-11,9.134580510030754e-12,8.183972541999563e-12,7.096694836132851e-12,6.0543458430838726e-12,5.3655669009716965e-12,4.423518218425978e-12,3.701112376930034e-12,3.1811767385214345e-12,2.447843570936218e-12,2.115316608188397e-12,1.6966041123843817e-12,1.2547095957734225e-12,9.863888215012982e-13,7.886438628566451e-13,5.518567375253176e-13,4.0206823924813517e-13,3.000175410250817e-13,2.0845600477869714e-13,1.419387326659661e-13,9.050602608041548e-14,6.172046376205332e-14,4.2714069823832764e-14,9.393924607018863e-10,5.757095257277091e-10,3.23599821224643e-10,1.818134590583939e-10,9.586777949936218e-11,4.782748809910783e-11,2.5273037899506302e-11,1.4302731863229286e-11,9.97699722063927e-12,7.264693304237853e-12,5.835997105985586e-12,4.429496841451731e-12,3.3610961842314004e-12,2.531120686392503e-12,1.985379403818994e-12,1.4101340150560704e-12,1.0796904061461903e-12,7.515615544606997e-13,5.597275095278078e-13,3.6653930160459586e-13,2.7083648585483816e-13
0.0,8,8.0,0.0,30.0,0.0,0.0,0.0,0.0,-13.0,0.0,2.0,0.0,0.0,0.0,3.8557041534059965e-11,3.2181812116666275e-11,2.743027626101107e-11,2.1742076536070148e-11,1.7618244146120612e-11,1.4392620923520865e-11,1.1700668881371556e-11,1.0774410585387677e-11,8.83248090730543e-12,7.453868951694592e-12,6.556173172878603e-12,5.868243357868937e-12,4.6218226187428445e-12,4.049063475709721e-12,3.3188209638587677e-12,2.8772436827282552e-12,2.3276640558429366e-12,1.9256308810874752e-12,1.542555403437766e-12,1.2106062520127684e-12,9.503715921060525e-13,6.86840900186016e-13,5.093371629721148e-13,3.7331009878440443e-13,2.802230432976696e-13,1.882284903675091e-13,1.3492914582277913e-13,8.923885394781152e-14,5.738526946727687e-14,3.829430258799149e-14,1.0085846710542003e-09,6.181000930175418e-10,3.6474527153023867e-10,2.1481910448671373e-10,1.0892211273901947e-10,5.708965358153836e-11,2.861989460856702e-11,1.5710498553912534e-11,1.0151932812340402e-11,7.139142433629307e-12,5.237487330067346e-12,3.994133288646273e-12,2.9657338621288196e-12,2.33406426594176e-12,1.7854116844747726e-12,1.3039402167106067e-12,9.77235288067404e-13,7.35620664474041e-13,5.198811696305441e-13,3.5509830781448445e-13,2.319724114739326e-13
0.0,9,9.0,0.0,30.0,0.0,0.0,0.0,0.0,-13.0,0.0,2.0,0.0,0.0,0.0,4.527329420509825e-11,3.8864680886645434e-11,3.0877637078924715e-11,2.3692118740171486e-11,1.8772267662750587e-11,1.6015293580482687e-11,1.2348554112475288e-11,9.92073897327133e-12,8.214475297670338e-12,7.112470870473355e-12,6.035411738338134e-12,5.166181886395505e-12,4.722359941153984e-12,3.696169127541195e-12,3.000945508588898e-12,2.568441975553032e-12,2.0665899003178994e-12,1.7540892133064421e-12,1.414132821327568e-12,1.1232635988851737e-12,8.252851487123493e-13,6.44661113162406e-13,4.945522467668743e-13,3.645618003656751e-13,2.467686941210883e-13,1.7471098645636475e-13,1.218046131768703e-13,8.444816066058339e-14,5.702224380396614e-14,3.5625497232183674e-14,1.010532547690304e-09,6.188724532078878e-10,3.73357826268536e-10,2.453972750139207e-10,1.2867893173711894e-10,6.77958906946633e-11,3.102486022796183e-11,1.7469601222914956e-11,1.0515889852678114e-11,6.7556547581791265e-12,4.815467668971779e-12,3.778339420833227e-12,2.8124750443498024e-12,2.158598306684058e-12,1.5559784735867138e-12,1.1825858648456287e-12,9.135282454832035e-13,6.294119047743363e-13,4.1684959906697905e-13,3.0819336449088817e-13,2.290627623887036e-13
0.0,10,10.0,0.0,30.0,0.0,0.0,0.0,0.0,-13.0,0.0,2.0,0.0,0.0,0.0,4.969616988076115e-11,4.1565111424452125e-11,3.3772511158731377e-11,2.4847649918955077e-11,1.9851370343524312e-11,1.5588797262608087e-11,1.204825059838497e-11,9.469315274129349e-12,7.592108838258652e-12,6.502377951968834e-12,5.78046538117469e-12,4.925391046699699e-12,4.023601693499008e-12,3.3895898309781237e-12,2.741223675560307e-12,2.408256523420496e-12,2.029546400991837e-12,1.6022821667167514e-12,1.2993290550246967e-12,9.815272033567599e-13,7.701527479028375e-13,5.766807241658155e-13,4.160716563230626e-13,3.1033900296872764e-13,2.3377518218944795e-13,1.6387079491987486e-13,1.126115716586017e-13,7.474854645412009e-14,5.004057699662298e-14,3.4982925997632657e-14,1.041456203108287e-09,6.669046853865242e-10,4.1156823756561467e-10,2.5782822354615013e-10,1.4517753603372109e-10,7.501222702013577e-11,3.8595019141013604e-11,1.8896540997741045e-11,1.0239700009311136e-11,6.440619496908052e-12,4.496328280656607e-12,3.6185681501799483e-12,2.7191195372793027e-12,2.024611486656866e-12,1.459649992802376e-12,1.0643034468221288e-12,8.518496547813351e-13,5.794048427523145e-13,4.1518016672131284e-13,2.663418026894981e-13,2.1894903176994131e-13
0.0,11,11.0,0.0,30.0,0.0,0.0,0.0,0.0,-13.0,0.0,2.0,0.0,0.0,0.0,5.535196163828822e-11,4.5659593720058944e-11,3.6793256429527545e-11,2.948522479789478e-11,2.305661136694361e-11,1.6760733083036935e-11,1.2011892581999842e-11,9.753917534530737e-12,7.689978376118068e-12,6.411628124305432e-12,5.340061903829207e-12,4.404562225454158e-12,3.708219102282515e-12,3.015122074136184e-12,2.6458760140816014e-12,2.097896585603007e-12,1.848769958980478e-12,1.4384338905914912e-12,1.2048702550703106e-12,9.579164063376137e-13,7.2961173306814e-13,5.393544415851415e-13,4.393656091802924e-13,2.972436269521695e-13,2.2040656750979303e-13,1.536311178899947e-13,1.0734398410177668e-13,7.374362762194704e-14,4.882775275819374e-14,3.32680061624357e-14,1.0140240785523288e-09,6.579334547863191e-10,4.321389602177072e-10,2.709307595504992e-10,1.6360840835902898e-10,8.57936505997081e-11,4.3835995615861714e-11,2.0114254048675478e-11,1.15015237320036e-11,6.504421296872716e-12,4.5327917689230824e-12,3.1654414395764692e-12,2.5113948878754526e-12,1.7692220076539325e-12,1.366152922502479e-12,9.63162278678765e-13,7.887943178382275e-13,5.470924555045451e-13,3.74884207250816e-13,2.8145469008624184e-13,1.9994918505005825e-13
0.0,12,12.0,0.0,30.0,0.0,0.0,0.0,0.0,-13.0,0.0,2.0,0.0,0.0,0.0,5.960791912785341e-11,5.226074726190144e-11,4.5120456666762407e-11,3.013070281119791e-11,2.341953189591371e-11,1.8215435297524346e-11,1.2765933282830758e-11,9.461444809456068e-12,7.302814845836278e-12,6.1475167654130185e-12,4.8394580468134314e-12,4.2715612317402206e-12,3.4019384205679827e-12,2.9481528412414318e-12,2.3582474118967362e-12,2.0261381537676084e-12,1.6701988940605161e-12,1.3607680953941186e-12,1.1108188004237116e-12,9.102668554729393e-13,6.495716456416552e-13,4.952119113512659e-13,3.725268592660912e-13,2.758687894828129e-13,2.109623624907138e-13,1.43074658933285e-13,9.80596552226405e-14,7.21454125705807e-14,4.592573756870333e-14,2.7860397092190575e-14,1.0675580816418403e-09,6.606991207390972e-10,4.508020545996874e-10,2.9863824910992453e-10,1.783573733687845e-10,9.804497017725138e-11,4.8937505690926985e-11,2.3835664791343426e-11,1.268899221675466e-11,7.27676315095896e-12,4.734931265490568e-12,3.183621575050755e-12,2.3019819462540615e-12,1.7555549421556237e-12,1.3185511928235413e-12,8.828109344538957e-13,7.258371999675064e-13,5.275447188595155e-13,3.543421488939598e-13,2.4181726913100463e-13,2.0277679297111102e-13
0.0,13,13.0,0.0,30.0,0.0,0.0,0.0,0.0,-13.0,0.0,2.0,0.0,0.0,0.0,6.722859132314036e-11,5.822200741234914e-11,4.830067281342099e-11,3.632253892424383e-11,2.7605443153420877e-11,1.9233459710064835e-11,1.2991943961676841e-11,9.690448052797558e-12,7.300969063753788e-12,5.6074715951134255e-12,4.5482379897374865e-12,3.885340851882774e-12,3.1209946987320225e-12,2.7327622140655805e-12,2.3683072306740665e-12,1.826351418270126e-12,1.4652411301986274e-12,1.311166905429915e-12,1.0623539263533796e-12,7.823062613914909e-13,6.187428350925083e-13,4.790902154303077e-13,3.5733751782260573e-13,2.5904982799188536e-13,1.9688585779096139e-13,1.334488462691365e-13,9.355434697467679e-14,6.404809199707533e-14,4.243781538919733e-14,2.8386591074391187e-14,1.0339624155162677e-09,7.20025629815281e-10,4.698702443985679e-10,3.066622320843069e-10,1.8368149001870307e-10,9.788529646728059e-11,5.5259583562884985e-11,2.712344514293234e-11,1.3896564167852983e-11,7.627130078462073e-12,4.3371995783265726e-12,2.9019921553706303e-12,2.0851717612935364e-12,1.614633057049051e-12,1.2758373491127682e-12,8.449622773862197e-13,6.243412810577778e-13,4.468718154974588e-13,3.1397011086350807e-13,2.5299725569353475e-13,1.5226277325527834e-13
0.0,14,14.0,0.0,30.0,0.0,0.0,0.0,0.0,-13.0,0.0,2.0,0.0,0.0,0.0,7.23441735109738e-11,6.392092873166066e-11,5.10434289059602e-11,3.9184119411984575e-11,2.85267256809147e-11,2.0805701508357636e-11,1.4935550328955217e-11,1.0267400991893914e-11,7.723624689132233e-12,5.608918255891947e-12,4.555480933842527e-12,3.7623057086617595e-12,2.94027697561584e-12,2.4640826660809215e-12,2.0090186640955243e-12,1.6817462806055488e-12,1.391030947802645e-12,1.2068105101000488e-12,9.499362900997543e-13,7.545752061984532e-13,5.869316998531449e-13,4.5407467136658576e-13,3.2921602942866816e-13,2.4157284049581646e-13,1.7240487804697685e-13,1.2083444558851874e-13,8.808715531420678e-14,6.31339222963582e-14,4.0369481313389896e-14,2.5189327434753888e-14,1.0900311768453243e-09,7.248425336328028e-10,4.846587705456393e-10,3.0461491313533004e-10,1.9679466309676833e-10,1.1494390476492163e-10,5.926909875075428e-11,2.985964405118485e-11,1.5483019280503488e-11,7.96035577049077e-12,4.474759944865922e-12,2.989783457782359e-12,2.036246823529735e-12,1.516876391364256e-12,1.1461804866278107e-12,8.065606628761508e-13,6.074261468363717e-13,4.3266867658839676e-13,3.165752468659215e-13,1.9770814248848483e-13,1.3516490905478837e-13
0.0,15,15.0,0.0,30.0,0.0,0.0,0.0,0.0,-13.0,0.0,2.0,0.0,0.0,0.0,7.567454275950523e-11,7.051992133964538e-11,5.578616710950515e-11,4.030966491962252e-11,3.130974847518027e-11,2.393204572365325e-11,1.6058862501489636e-11,9.991223190973533e-12,7.936121021715375e-12,5.577190307788508e-12,4.423326830166464e-12,3.3270873450743683e-12,2.8926969703610547e-12,2.3761742413944168e-12,1.881756287529857e-12,1.569560597975693e-12,1.3024540584873251e-12,1.1011180342274176e-12,8.768142936773789e-13,6.939738036603993e-13,5.292110565252846e-13,4.05049654963274e-13,3.292042938856271e-13,2.2138975105763804e-13,1.63110517297792e-13,1.1816531828134217e-13,8.194229151777166e-14,5.469532759404972e-14,3.5626195810373356e-14,2.641890051500014e-14,1.0488790539867453e-09,7.603408928040461e-10,4.78063323513887e-10,3.1956470318179353e-10,1.9424966870934027e-10,1.270562249324368e-10,6.608890637931878e-11,3.588222764833201e-11,1.6650325193482443e-11,8.323553238675842e-12,4.4808704386247685e-12,2.793686760936901e-12,2.1225570715010762e-12,1.4208580025550784e-12,1.0790304058630464e-12,7.170520694993579e-13,5.530474029067532e-13,4.052982585264635e-13,2.804399922390775e-13,1.872630978533512e-13,1.540009504149275e-13
0.0,16,16.0,0.0,30.0,0.0,0.0,0.0,0.0,-13.0,0.0,2.0,0.0,0.0,0.0,8.107351482913768e-11,7.124833648683747e-11,5.845193300063882e-11,4.817564405143589e-11,3.440789992210596e-11,2.5280583811662206e-11,1.6978648651673137e-11,1.1692485776540533e-11,7.617199308154184e-12,5.778180382845369e-12,4.036092119931564e-12,3.2188247662487463e-12,2.6872273802623164e-12,2.082514878466089e-12,1.92959079268567e-12,1.4650243596214798e-12,1.25826367684785e-12,1.0048529577828955e-12,8.000022337926681e-13,6.37475386761934e-13,4.817062706565153e-13,3.623404186729451e-13,2.9042128088358925e-13,2.1175313150495143e-13,1.4868766998261547e-13,1.1266187111402324e-13,7.599446859571276e-14,5.08058532287929e-14,3.5929031432433475e-14,2.512540463141674e-14,1.1341258458102522e-09,7.549126171706291e-10,4.935154659194848e-10,3.263073827057876e-10,2.1426917138796256e-10,1.293628800480621e-10,7.437657446766193e-11,3.8266252379954715e-11,2.0035089676211257e-11,9.644749731553125e-12,4.932758663256368e-12,2.879911029191051e-12,1.950221666127828e-12,1.2974700689906619e-12,9.905642582632247e-13,7.072969406862088e-13,4.657299720887443e-13,3.501048674939919e-13,2.572012204701853e-13,1.9342712611305226e-13,1.2638463469752346e-13
0.0,17,17.0,0.0,30.0,0.0,0.0,0.0,0.0,-13.0,0.0,2.0,0.0,0.0,0.0,8.706680128415126e-11,7.547117367266493e-11,6.38226106360896e-11,4.958655176466123e-11,3.822357497758565e-11,2.769501939297864e-11,1.8416744471327336e-11,1.2367188420203231e-11,8.159193900600547e-12,5.7738110465852646e-12,4.117082350497901e-12,2.999076242709673e-12,2.4065515550177896e-12,2.0653048940218596e-12,1.78483575008898e-12,1.2953317384883874e-12,1.1288629140829407e-12,9.33711841459984e-13,7.603923102436194e-13,5.796237496252207e-13,4.5307776576044835e-13,3.4335246953595987e-13,2.538730975600896e-13,1.9784041976427808e-13,1.3292795038642244e-13,1.0226625076832371e-13,7.036874874906119e-14,4.772223139006e-14,3.3887669140732197e-14,2.317165861208488e-14,1.0582919466350258e-09,7.880213408183714e-10,5.25934187571268e-10,3.348729130452365e-10,2.1248277550072285e-10,1.3957039238819204e-10,7.521625735830549e-11,4.03908836192891e-11,2.1455280998538836e-11,9.986769030436843e-12,5.498913913135433e-12,2.9035905521991114e-12,1.861252407366312e-12,1.2987421336729503e-12,8.751993362702899e-13,6.327930550334079e-13,4.788750803590435e-13,3.436456168888806e-13,2.2991040867763066e-13,1.617764377794605e-13,1.288351192992682e-13
0.0,18,18.0,0.0,30.0,0.0,0.0,0.0,0.0,-13.0,0.0,2.0,0.0,0.0,0.0,9.496285510858722e-11,8.53682968629669e-11,6.370404200687924e-11,5.39839620134009e-11,4.1557053897046964e-11,2.944448742564942e-11,2.0565266324940996e-11,1.3208658775630035e-11,9.099845386361539e-12,5.540218648353938e-12,3.946634414919681e-12,2.916508273105711e-12,2.2432642193176584e-12,1.862905604113513e-12,1.6103939327806414e-12,1.3332407442228871e-12,1.0134967953150375e-12,8.753904012916375e-13,6.796040310514944e-13,5.324296511902276e-13,4.2692879836697684e-13,3.218452216171079e-13,2.483649769461832e-13,1.7619372606280916e-13,1.3832223805279693e-13,1.0270845004536429e-13,7.245273744329855e-14,4.641707368344739e-14,3.0720795979835885e-14,2.129594377745725e-14,1.1298122917697663e-09,7.934619676886091e-10,5.039430951727307e-10,3.5093949544601083e-10,2.313951395546312e-10,1.3873669972385926e-10,7.794057383986673e-11,4.592582800247585e-11,2.2690987543300074e-11,1.0793146457199825e-11,5.5928841591660985e-12,3.006660953759568e-12,1.7465676628045949e-12,1.1833744256062377e-12,8.463240361654638e-13,6.086032349541739e-13,4.638083590065964e-13,3.017451371269586e-13,2.1698078248889774e-13,1.5536496986926018e-13,1.118472680537127e-13
0.0,19,19.0,0.0,30.0,0.0,0.0,0.0,0.0,-13.0,0.0,2.0,0.0,0.0,0.0,9.821093142254463e-11,8.697371273951119e-11,7.398929771727727e-11,5.789993087512056e-11,4.400536206154724e-11,3.1865975483840195e-11,2.0619551211586615e-11,1.5002360961034312e-11,8.80313654323513e-12,6.371839102063258e-12,4.026855787662282e-12,2.922680445385165e-12,2.3465897789708905e-12,1.7533706370001684e-12,1.5176547791795092e-12,1.2061563849133298e-12,1.0042194679341996e-12,7.56053116505739e-13,6.302252775312058e-13,4.8797537051108e-13,3.9319377342624443e-13,3.0493686770629867e-13,2.3190907936924685e-13,1.8066567146216985e-13,1.2125357757250258e-13,8.953416322658148e-14,6.451208721558347e-14,4.5344348291438015e-14,2.923059491106284e-14,1.942265618795922e-14,1.1397364554187352e-09,7.554221857776086e-10,5.467165990660472e-10,3.6096936149708466e-10,2.2655413594135844e-10,1.415197189887558e-10,8.440665585282935e-11,4.8640381290371395e-11,2.4504791246433318e-11,1.1867695684961934e-11,6.220745916144267e-12,2.9784640515242654e-12,1.7982583784404852e-12,1.192901093632932e-12,8.192810210755572e-13,5.764860896474206e-13,4.0578194667019316e-13,2.9047543618140305e-13,2.0080447416321954e-13,1.6542323770045475e-13,8.717918433549413e-14
0.0,20,20.0,0.0,30.0,0.0,0.0,0.0,0.0,-13.0,0.0,2.0,0.0,0.0,0.0,9.728493131039138e-11,8.851844360110226e-11,7.614643120712889e-11,5.866969540592658e-11,4.204155238787967e-11,3.5052371522611674e-11,2.2084482980543183e-11,1.562194686184808e-11,9.857208637334937e-12,6.935847974190147e-12,4.262910527403085e-12,3.1916278862814662e-12,2.322223377640315e-12,1.698615089970906e-12,1.3371907583128817e-12,1.1219479678784072e-12,9.247266114176801e-13,7.456176157286241e-13,5.855912290275239e-13,4.760523658187079e-13,3.550495456866955e-13,2.9217574363759365e-13,2.1747212880438826e-13,1.6448289561986694e-13,1.16041776322017e-13,8.575218509162208e-14,5.548464562842024e-14,3.969169564646905e-14,2.6639654323397734e-14,1.8242052709881473e-14,1.1532410568045227e-09,8.2473342654036e-10,5.330423575346045e-10,3.5250884276060095e-10,2.3301787686562924e-10,1.5315824331077557e-10,8.89891388278348e-11,4.9601057941521134e-11,2.7829364655965845e-11,1.3193368208081652e-11,6.207022627322857e-12,3.2416702933966467e-12,1.7932553020070097e-12,1.0973189504379316e-12,7.413626752700902e-13,5.387976558135406e-13,3.9677770600186196e-13,2.8607229961171486e-13,2.0926024865317932e-13,1.4495469064755818e-13,8.059132562023444e-14
0.0,21,21.0,0.0,30.0,0.0,0.0,0.0,0.0,-13.0,0.0,2.0,0.0,0.0,0.0,1.0237341180420412e-10,9.374498588278865e-11,8.274478060102946e-11,6.388712174735494e-11,4.876105989871627e-11,3.692919215212921e-11,2.584902357101806e-11,1.6194535787603046e-11,1.0332936429191592e-11,7.051447052124101e-12,4.584159388835307e-12,3.017967580848468e-12,2.0742671543120842e-12,1.7074485412745816e-12,1.3275136852146538e-12,1.0942651076178687e-12,8.613236451294058e-13,7.35662901994937e-13,5.503078789439261e-13,4.4644479626267244e-13,3.564493817249705e-13,2.73756775970839e-13,2.0268648359279626e-13,1.5019921363253673e-13,1.1489730107055453e-13,8.31710260524017e-14,5.6784627024173266e-14,3.8063843499309743e-14,2.5756941603348497e-14,1.853241803991298e-14,1.158990651061918e-09,8.336022331183662e-10,5.516134253370795e-10,3.780542357845183e-10,2.473073557237565e-10,1.5148601517018757e-10,9.573371420691127e-11,5.379024848183837e-11,2.995514393374695e-11,1.3640839712920211e-11,6.926187537686683e-12,3.575168398129765e-12,1.818905983909974e-12,1.118854346280243e-12,7.675308050415015e-13,5.130281331364485e-13,3.6752284496315236e-13,2.5663551564646615e-13,1.6480462986657272e-13,1.2687719940340465e-13,1.0158018628261103e-13
0.0,22,22.0,0.0,30.0,0.0,0.0,0.0,0.0,-13.0,0.0,2.0,0.0,0.0,0.0,1.1256578558391264e-10,9.86099003952628e-11,8.262902362964461e-11,6.607360501321747e-11,5.315794672281346e-11,3.948302652195643e-11,2.6488170164452308e-11,1.79546627304757e-11,1.1561551143548649e-11,7.260486464566099e-12,4.7456036421028824e-12,3.0361616430228143e-12,2.191699445190362e-12,1.6232002991880113e-12,1.2208361079362073e-12,1.05391867776893e-12,8.391241503430662e-13,6.470567214053352e-13,5.063536799170664e-13,4.314987551363946e-13,3.4764287086044734e-13,2.4897207698349453e-13,1.9252574870812974e-13,1.3773489960545768e-13,1.0702421202236286e-13,7.33255743085265e-14,5.213874781962064e-14,3.621998328307878e-14,2.539367644899874e-14,1.945681276683293e-14,1.1901820457455003e-09,8.062082469941769e-10,5.234681793088818e-10,3.4754368677099296e-10,2.3517225600103453e-10,1.5416537075842158e-10,1.0127443150148076e-10,5.541055982909442e-11,3.018047752375631e-11,1.5979563347254146e-11,7.941393224716512e-12,3.945885570996172e-12,2.0445757142984358e-12,1.1301233487732259e-12,6.903136220648312e-13,4.302566594956117e-13,3.488182840522541e-13,2.44431610683049e-13,1.5583919175804837e-13,1.1137912002329377e-13,7.589826757197919e-14
0.0,23,23.0,0.0,30.0,0.0,0.0,0.0,0.0,-13.0,0.0,2.0,0.0,0.0,0.0,1.1037640682346776e-10,1.0666194214779092e-10,8.417185702166332e-11,6.46260858200541e-11,5.2253503676033415e-11,3.973913849865042e-11,2.860633997321321e-11,1.877550786965143e-11,1.2671974958749825e-11,8.167322017784405e-12,5.134543199060201e-12,3.1691446083286415e-12,2.1361872670302845e-12,1.5075039928934776e-12,1.1571738856095664e-12,9.846933620674763e-13,7.499922362439613e-13,5.962676736186777e-13,4.859075210249482e-13,3.7684958585503056e-13,2.889245680972283e-13,2.3826134934300166e-13,1.7889828481599982e-13,1.2889836378849953e-13,9.750766835429679e-14,6.936601128382713e-14,4.834219710498056e-14,3.3131231441629786e-14,2.3561164244415063e-14,1.4222906524421946e-14,1.2298420813937583e-09,8.319914897482546e-10,5.446880410022695e-10,3.683724864182234e-10,2.346541686741459e-10,1.7113768991280556e-10,1.0320901163283828e-10,6.020324507675282e-11,3.280681775705003e-11,1.6755298576067557e-11,8.72582571299369e-12,4.2271295668696984e-12,2.0447096024119075e-12,1.1565590341737962e-12,6.956474440333207e-13,4.825507629400435e-13,3.213798717127734e-13,2.2989031177128404e-13,1.574832393676379e-13,1.275973124767465e-13,7.74239026737253e-14
0.0,24,24.0,0.0,30.0,0.0,0.0,0.0,0.0,-13.0,0.0,2.0,0.0,0.0,0.0,1.2137646865118266e-10,1.0133237564242979e-10,8.564451304496727e-11,7.380654009135157e-11,5.8093751379002786e-11,4.588484537002662e-11,3.082972586568243e-11,2.1100704271622964e-11,1.3262865444028865e-11,8.652617400402894e-12,5.203195781433328e-12,3.005785722848667e-12,2.1315629346927105e-12,1.5427441927360264e-12,1.1261136288462614e-12,8.766040830580594e-13,7.544192982216152e-13,5.551383907118019e-13,4.595503115776231e-13,3.7073652739519e-13,2.919356080028457e-13,2.2166365430219706e-13,1.7396823260221554e-13,1.3465368650803629e-13,8.798866904519855e-14,6.86763814151593e-14,4.9711122806430444e-14,3.187773689001848e-14,1.8931363376739296e-14,1.5036173653942595e-14,1.242054604105703e-09,8.581876794726682e-10,5.522197908322941e-10,3.6261239892538526e-10,2.554148238389277e-10,1.616048158642974e-10,1.0435453927197282e-10,5.946697958184618e-11,3.355004762668999e-11,1.8441571232846055e-11,9.52662671203116e-12,4.504067531485241e-12,2.2512871136697587e-12,1.1282205790891037e-12,6.880726388796876e-13,4.612828356070258e-13,3.0640069458451026e-13,2.1751152783612976e-13,1.4682124001875164e-13,1.1269687275836348e-13,6.738528731529884e-14
0.0,25,25.0,0.0,30.0,0.0,0.0,0.0,0.0,-13.0,0.0,2.0,0.0,0.0,0.0,1.1614755646455115e-10,1.0141085598045411e-10,8.718707814490923e-11,7.61972746896914e-11,5.683942254410816e-11,4.3765181309669517e-11,3.190392091612502e-11,2.083337714807138e-11,1.4391813931717733e-11,8.92847717114884e-12,5.46539871790539e-12,3.443250247159616e-12,2.1449207103656023e-12,1.4458912864601582e-12,1.1102174088499181e-12,8.340314618403791e-13,6.855344097987112e-13,5.306593470754204e-13,4.4096141697016807e-13,3.2388438971332346e-13,2.7715131388222823e-13,2.1048560751348785e-13,1.6652488507243447e-13,1.1459378107452026e-13,8.47988420263211e-14,6.458619135835886e-14,4.5160899497047646e-14,3.20859265694052e-14,2.04625713245605e-14,1.3833673439923489e-14,1.2626490008116746e-09,8.461949168609637e-10,5.267487641309799e-10,3.827507399204018e-10,2.521733428796185e-10,1.565112421038608e-10,1.080371137735664e-10,6.397609465294745e-11,3.529199856972882e-11,1.9664796379109414e-11,9.846706154868579e-12,4.568856619299249e-12,2.3189999015395536e-12,1.2420632041644116e-12,6.590131930146109e-13,4.1332654676772945e-13,3.182182828024286e-13,1.9485775227418527e-13,1.252279545620733e-13,9.144070946764293e-14,5.6110475574236506e-14
0.0,26,26.0,0.0,30.0,0.0,0.0,0.0,0.0,-13.0,0.0,2.0,0.0,0.0,0.0,1.2522837402831235e-10,1.0777244296707264e-10,8.817401318416605e-11,7.216410715236747e-11,6.018765808994359e-11,4.705142439297788e-11,3.439613432195903e-11,2.2388612063768807e-11,1.5459548167278672e-11,9.602033867457943e-12,5.776391235185149e-12,3.3294078962771e-12,2.140917443873116e-12,1.47590073450171e-12,1.0222426193148791e-12,8.44445971739234e-13,6.175365494676555e-13,5.235614377625422e-13,4.0294608077443504e-13,3.129370518452662e-13,2.5741016307755685e-13,1.996203488041764e-13,1.484748639345082e-13,1.1135092100006226e-13,8.091908328506715e-14,6.037857719040642e-14,4.421332620994483e-14,2.939146963995703e-14,2.032993588805612e-14,1.3845221672140668e-14,1.3173194098659097e-09,8.48757563844594e-10,5.676156276865798e-10,3.8043173231247176e-10,2.545463228457036e-10,1.6611119497285675e-10,1.0292644471977117e-10,6.394143881655208e-11,3.840137669353855e-11,2.0276975226415304e-11,1.004383224678083e-11,5.428779482884532e-12,2.38694062858523e-12,1.2490940296545015e-12,6.98093561995046e-13,4.1965368428191173e-13,2.758834918422703e-13,1.9364666392795997e-13,1.244359586178139e-13,1.0149288107485242e-13,6.201029879231291e-14
0.0,27,27.0,0.0,30.0,0.0,0.0,0.0,0.0,-13.0,0.0,2.0,0.0,0.0,0.0,1.2711584454030613e-10,1.0877207401797701e-10,9.815854376197998e-11,7.437935760835858e-11,6.167510200698504e-11,4.933077433255029e-11,3.3951663814224166e-11,2.3959622638817217e-11,1.5415451740615894e-11,9.953896682534536e-12,6.16102752313769e-12,3.65666574993493e-12,2.1173975545410552e-12,1.3556746852810114e-12,1.0395392121756184e-12,8.032279517856155e-13,6.170304465213819e-13,4.54804600482662e-13,4.020039533574113e-13,3.023987689885917e-13,2.4581921720326647e-13,1.8493166400752786e-13,1.329028293409703e-13,1.0589762446628563e-13,7.984063800413344e-14,5.735226046246576e-14,3.730960018170495e-14,2.811023694680402e-14,1.8873850039369972e-14,1.2172328061215692e-14,1.287808525102552e-09,8.91072512582763e-10,5.736103843108982e-10,3.950949359352876e-10,2.6738909481510073e-10,1.693169393013082e-10,1.0874346537868128e-10,6.560072778798791e-11,4.141819309438655e-11,2.1935406637755336e-11,1.1811421888436615e-11,5.74359768489128e-12,2.530426613418568e-12,1.3408610847101856e-12,6.713666329296778e-13,4.2262272810524307e-13,2.6334067405475006e-13,1.8537308605411084e-13,1.2139877872795395e-13,8.191783004832403e-14,5.213110148649912e-14
0.0,28,28.0,0.0,30.0,0.0,0.0,0.0,0.0,-13.0,0.0,2.0,0.0,0.0,0.0,1.2403129957768603e-10,1.117004853722024e-10,9.773391877084202e-11,8.136589448656428e-11,6.561883195320112e-11,4.7961554148252945e-11,3.6973666081436965e-11,2.467959174439511e-11,1.6416126528037293e-11,1.0475523722050092e-11,6.5556605447074895e-12,3.888613609697118e-12,2.2629568617706037e-12,1.3977374539387358e-12,1.0234020050682731e-12,7.648655596294448e-13,5.469594567654412e-13,4.672769193361554e-13,3.5779826333637967e-13,2.9585961433667356e-13,2.321600496933002e-13,1.7299941969018325e-13,1.3499180570631484e-13,9.986644239007698e-14,7.15978466837849e-14,5.351523380504834e-14,3.55092413265081e-14,2.6039220330160096e-14,1.839303785422259e-14,1.3790105333486076e-14,1.2880414278628217e-09,8.642836540919182e-10,6.02904742016228e-10,3.92121429275334e-10,2.6512801515281354e-10,1.7126960046161804e-10,1.0432841375873627e-10,6.914387787054144e-11,3.870753002198351e-11,2.2241980683817182e-11,1.2314821879247036e-11,6.010008402758535e-12,2.91453528544645e-12,1.337766607641558e-12,7.174829282767785e-13,4.010415502676472e-13,2.7714565686998257e-13,2.003130290968306e-13,1.0862808607671552e-13,9.04382117498896e-14,4.6470650699442814e-14
0.0,29,29.0,0.0,30.0,0.0,0.0,0.0,0.0,-13.0,0.0,2.0,0.0,0.0,0.0,1.2640450219355719e-10,1.1520870482873425e-10,9.506558039267248e-11,7.996924074369922e-11,6.518049992029385e-11,5.029198314759576e-11,3.8155477472263274e-11,2.5727102807804048e-11,1.758069954646109e-11,1.1030119999041192e-11,6.807922729791798e-12,3.895142212054409e-12,2.399961020293472e-12,1.442101286103084e-12,9.60051975468172e-13,7.323509231074021e-13,5.507759539644662e-13,4.3611824004510944e-13,3.426418742692356e-13,2.696984654883141e-13,2.1544259279499703e-13,1.5586397307746494e-13,1.24454467206935e-13,1.0069942136265883e-13,6.710948983478229e-14,5.063366185736518e-14,3.6367428453741695e-14,2.258841494127085e-14,1.669694898298211e-14,1.270537177562328e-14,1.389028610054301e-09,9.166724747220861e-10,5.862034096604601e-10,4.1397021541718487e-10,2.769882266929754e-10,1.662445981522542e-10,1.0785813173582267e-10,6.948834734867849e-11,4.361184135401294e-11,2.3802295943644872e-11,1.2247295074613143e-11,6.221957727512445e-12,3.044840744870769e-12,1.432788894118203e-12,7.614158766469993e-13,4.0072328257222166e-13,2.491293683015937e-13,1.6662169025051742e-13,1.1864081298595713e-13,8.54376820954372e-14,6.332225683979922e-14
0.0,30,30.0,0.0,30.0,0.0,0.0,0.0,0.0,-13.0,0.0,2.0,0.0,0.0,0.0,1.3183148773197014e-10,1.1474050405514419e-10,1.0253804124434126e-10,8.311795616337475e-11,6.533205632895667e-11,4.863365329767883e-11,3.718219224766859e-11,2.7494161075443914e-11,1.7575901837488544e-11,1.1299887957921906e-11,7.1336597711349865e-12,4.37040098208778e-12,2.3818722871271406e-12,1.4842378029619283e-12,9.944228721025981e-13,6.96219818166886e-13,5.407892997982626e-13,4.198533290022188e-13,3.3787674868919945e-13,2.552189870872582e-13,1.9261623884632964e-13,1.5498558703573035e-13,1.151193271773682e-13,9.182757963151634e-14,6.148576487051134e-14,4.905599665492149e-14,3.406817858145545e-14,2.3165321620082386e-14,1.849810966477447e-14,1.1842273535075406e-14,1.4123155692187813e-09,9.38356476684974e-10,5.786687686323019e-10,3.783744436601229e-10,2.665265084226717e-10,1.70238080619769e-10,1.1601820722761973e-10,7.272590220937749e-11,4.363847046399991e-11,2.461281861156691e-11,1.293296833204193e-11,6.889922591951761e-12,3.2386887664748713e-12,1.4915377792865697e-12,7.746115246790766e-13,4.2945857457589127e-13,2.6571681089545473e-13,1.7170275071856407e-13,1.077960403565277e-13,9.728007569391431e-14,4.523650886477719e-14
0.0,31,31.0,0.0,30.0,0.0,0.0,0.0,0.0,-13.0,0.0,2.0,0.0,0.0,0.0,1.2674579070274692e-10,1.2154848218740128e-10,1.0478276427436136e-10,7.966899387881805e-11,7.109266478225798e-11,5.2568431598644185e-11,4.145227045441915e-11,2.746331346641309e-11,1.990007751069365e-11,1.2504547475234484e-11,7.606761664793747e-12,4.48532060219928e-12,2.6252341434375094e-12,1.4453496223460341e-12,1.0333479667832352e-12,6.685649888827403e-13,5.330977392112299e-13,3.994350154100978e-13,3.0998075663829444e-13,2.4660119365721225e-13,1.900272382758113e-13,1.436493129142695e-13,1.131505460735645e-13,8.562577050961792e-14,6.347046677023607e-14,4.3258697191276276e-14,3.276805665509165e-14,2.3142052744999686e-14,1.5122421491482428e-14,1.0678743417959337e-14,1.3961132421792855e-09,9.90209702886596e-10,5.85178228510029e-10,4.2641299475229635e-10,2.732101948139525e-10,1.7782884241990985e-10,1.1815852005278124e-10,7.090439575312565e-11,4.413170581895531e-11,2.6409630112565422e-11,1.3722990384538013e-11,6.888448040593078e-12,3.3946395104604318e-12,1.6200506775360945e-12,7.807461839237135e-13,3.9917189420107974e-13,2.4349927357013017e-13,1.4059665974877794e-13,1.0168318196064366e-13,6.503486187821937e-14,3.9158833164343496e-14
0.0,32,32.0,0.0,30.0,0.0,0.0,0.0,0.0,-13.0,0.0,2.0,0.0,0.0,0.0,1.326255884899985e-10,1.2351368717758566e-10,1.0287583413494653e-10,8.737026365408014e-11,6.81049320977827e-11,5.350801881007041e-11,4.0471076962136265e-11,2.87570677611529e-11,2.0636062002661396e-11,1.336154521029789e-11,7.844200705716061e-12,4.828682104324944e-12,2.639450838232704e-12,1.5309259354455575e-12,9.316195631778783e-13,6.715653545372824e-13,4.868694185950329e-13,3.850129319894363e-13,3.0046902109562276e-13,2.350659366700419e-13,1.7965017157042398e-13,1.3926576238144516e-13,1.0800227549236605e-13,8.483635594469739e-14,5.909791733252265e-14,4.176474800848886e-14,2.9534984621333046e-14,2.0310165837076336e-14,1.439683441310308e-14,8.713996315937985e-15,1.431570150834738e-09,9.45132998742789e-10,5.940821248475711e-10,4.222383392825521e-10,2.782918345807931e-10,1.74190168013414e-10,1.1437701769958154e-10,7.307674652733144e-11,4.1863652505175136e-11,2.6436639560778953e-11,1.4583158228140872e-11,7.492435639522538e-12,3.551426279020105e-12,1.8173436162849798e-12,8.5887122018365e-13,4.158754766386821e-13,2.430676694359652e-13,1.398822257069074e-13,1.0136765210946315e-13,6.41170127300793e-14,5.4827086169427455e-14
0.0,33,33.0,0.0,30.0,0.0,0.0,0.0,0.0,-13.0,0.0,2.0,0.0,0.0,0.0,1.2213151767495078e-10,1.1705541091102654e-10,1.077807960032864e-10,8.333456364113111e-11,6.914918553345639e-11,5.655571666496789e-11,4.237183301626454e-11,2.9726142541089806e-11,2.083248332939488e-11,1.3485471277415316e-11,7.728783907598056e-12,5.010379907743343e-12,2.7591998710801746e-12,1.5382367771049475e-12,9.71783629232303e-13,6.515148032875016e-13,4.886308020856034e-13,3.4843088629023747e-13,2.8546025483986584e-13,2.24069090023929e-13,1.68687480827345e-13,1.3118077186901972e-13,1.0048049846556803e-13,7.630222833779241e-14,5.25524828074272e-14,4.0010439060785464e-14,3.0757238795609874e-14,2.2883004481746236e-14,1.3316170118761285e-14,1.0074539367307966e-14,1.4360599872582444e-09,9.583728308487182e-10,6.43666021829785e-10,4.1100224778938155e-10,2.729399314195719e-10,1.8837521910287985e-10,1.2002821188706115e-10,7.537012896109185e-11,4.605632417569652e-11,2.784391794713255e-11,1.4881761874650055e-11,7.836879026282391e-12,3.666250380733184e-12,1.7863580697682882e-12,8.739054053709324e-13,3.9550243495616963e-13,2.2303658859181931e-13,1.3220093087289747e-13,1.0794450197534965e-13,6.17589144652514e-14,3.5413173434934996e-14
0.0,34,34.0,0.0,30.0,0.0,0.0,0.0,0.0,-13.0,0.0,2.0,0.0,0.0,0.0,1.3677393885953244e-10,1.2465467595945767e-10,1.026629330984126e-10,8.90366177043049e-11,6.916540025242069e-11,5.547813873627054e-11,4.09759068175614e-11,3.029728924799628e-11,2.119454354529212e-11,1.3961187178766209e-11,8.400818750445937e-12,5.2763262425290144e-12,2.891654586722425e-12,1.6314271374841784e-12,9.765485059435135e-13,6.419440422031896e-13,4.706909782356393e-13,3.4099686329161156e-13,2.871349896960437e-13,2.1524588939317498e-13,1.662541970650158e-13,1.2573579774776728e-13,9.567876054929271e-14,7.055022107654046e-14,5.402092668548006e-14,3.9568205428697046e-14,2.9971251986761115e-14,1.818264738006486e-14,1.4745216281562977e-14,1.18867361608326e-14,1.39886826278532e-09,1.0275155352343198e-09,6.071258783412478e-10,4.3057017636407454e-10,2.8591619309545426e-10,1.8188814617389754e-10,1.2627974486272243e-10,7.215944237422233e-11,4.5063035394606845e-11,2.8121239607324756e-11,1.5241757940071376e-11,8.463512511640736e-12,4.0884568882587625e-12,1.9405316635857385e-12,8.808869076854841e-13,4.2851582417762635e-13,2.2017435798004659e-13,1.4779042330757677e-13,8.800876208338997e-14,6.819959368725855e-14,3.9740261792524306e-14
0.0,35,35.0,0.0,30.0,0.0,0.0,0.0,0.0,-13.0,0.0,2.0,0.0,0.0,0.0,1.4427563479311035e-10,1.2078095602953702e-10,1.0720051057432616e-10,8.891889471928813e-11,7.052830349591936e-11,5.517039935975716e-11,4.2647490921653984e-11,2.966360424566034e-11,2.2218363078544364e-11,1.400405464841063e-11,8.932483027361429e-12,5.471197803675682e-12,3.061726151197806e-12,1.7098677648539535e-12,1.0103855622781253e-12,6.080764937333016e-13,4.4886500971818734e-13,3.391053725501863e-13,2.596520926650655e-13,2.0152094663989562e-13,1.6506183550963972e-13,1.167168847326614e-13,8.639362443749239e-14,6.658627192371699e-14,4.90304886373586e-14,3.801352347724128e-14,2.730901969958482e-14,1.8685265814627022e-14,1.2198420111150541e-14,7.533692652488798e-15,1.5221545065304087e-09,9.624617071478785e-10,6.413496717252151e-10,4.2300485125610724e-10,2.894918502222188e-10,1.9305717870196453e-10,1.1851967737004745e-10,7.553252260844746e-11,4.546851492606137e-11,3.012561684950137e-11,1.6666708987216737e-11,9.027171488381776e-12,4.60651141374847e-12,2.0510632550385803e-12,9.736329935767217e-13,4.4264546262491214e-13,2.3203577029561915e-13,1.5154340032831366e-13,9.395545514757277e-14,5.790990644063294e-14,3.3332919404557615e-14
0.0,36,36.0,0.0,30.0,0.0,0.0,0.0,0.0,-13.0,0.0,2.0,0.0,0.0,0.0,1.4323032375202892e-10,1.2916006331696136e-10,1.0718611379224717e-10,9.135947155866208e-11,7.442239757744445e-11,6.088882047345986e-11,3.995817973961942e-11,3.225439712522287e-11,2.152154954475675e-11,1.472191176959777e-11,9.283113918851742e-12,5.454031454520615e-12,3.029161622206539e-12,1.7629973858337636e-12,1.0471918715646947e-12,6.624544570293807e-13,4.2626128359719605e-13,3.2287739252173963e-13,2.477883970492232e-13,1.7611939606632275e-13,1.4028744441191242e-13,1.1580397513378525e-13,8.382098721319844e-14,6.387572456982208e-14,4.576622998861907e-14,3.496145988440746e-14,2.4966186195458927e-14,1.7633501335947938e-14,1.1847246847823656e-14,1.0371354088991168e-14,1.4426215589367607e-09,1.0182431305102146e-09,6.59552091545759e-10,4.6339254510346396e-10,2.908984771265831e-10,1.8231116258556198e-10,1.274191384377617e-10,8.165635608152829e-11,4.983574309784709e-11,2.8877554698503057e-11,1.652232171547115e-11,8.581980679670328e-12,4.573124856601488e-12,2.1814910369813057e-12,9.902424634739499e-13,4.594425649616294e-13,2.2193775075359983e-13,1.4012199335897647e-13,7.503794718777046e-14,4.743449776440445e-14,5.352387424640705e-14
0.0,37,37.0,0.0,30.0,0.0,0.0,0.0,0.0,-13.0,0.0,2.0,0.0,0.0,0.0,1.3699540521289532e-10,1.3082535678443883e-10,1.130594453073455e-10,8.840434000960811e-11,7.40437722653425e-11,5.432518030874448e-11,4.4696867598013034e-11,3.23077502679943e-11,2.313918761283341e-11,1.5635023251746726e-11,9.73060085409544e-12,5.694261702898305e-12,3.1762669477439554e-12,1.857823028104284e-12,1.016778111003353e-12,6.363493812728951e-13,4.3734722794266743e-13,3.041283964427252e-13,2.388629744090521e-13,1.8354921124339755e-13,1.4680888763603412e-13,1.0801154693892098e-13,8.076313500507218e-14,6.183135950167354e-14,4.411115038415232e-14,3.296400210155899e-14,2.2152727456601998e-14,1.5106490238875718e-14,1.2544818152642095e-14,8.129594047650196e-15,1.5840920255404894e-09,9.816599967800623e-10,6.935208532498945e-10,4.516699997543745e-10,3.038662504183563e-10,1.8800197616261394e-10,1.2850961884775523e-10,7.902441058608224e-11,5.1956144106839143e-11,3.0219645837313325e-11,1.669889841227842e-11,8.86640780786732e-12,4.83992218993377e-12,2.261601846065352e-12,1.0087307893501867e-12,4.806876681565569e-13,2.3115528612607244e-13,1.268679058572949e-13,9.417168208492974e-14,7.052053971683554e-14,4.3928313275012654e-14
0.0,38,38.0,0.0,30.0,0.0,0.0,0.0,0.0,-13.0,0.0,2.0,0.0,0.0,0.0,1.3961484777284775e-10,1.305364865270682e-10,1.1278034840470987e-10,9.340801187656307e-11,7.542937763724946e-11,6.020816247970762e-11,4.5614769280098366e-11,3.4178752022021004e-11,2.3855038635082656e-11,1.6418065196757902e-11,9.700424102656323e-12,5.710282810421157e-12,3.553705362212136e-12,1.940882184340784e-12,1.1417706465411847e-12,6.648295133156758e-13,4.1889088282545373e-13,3.027207193428628e-13,2.1977171845686937e-13,1.6869712639946114e-13,1.3301966514374873e-13,1.0354201673361449e-13,7.62346746141202e-14,5.865542311764348e-14,3.99272043944745e-14,3.2656955383996255e-14,2.0177102092959353e-14,1.4751177614896114e-14,1.1493090958261493e-14,8.462409570132108e-15,1.5657595121971417e-09,1.0161042184023304e-09,6.616575373091465e-10,4.6135339939258604e-10,2.9123648511897e-10,1.9592181999389016e-10,1.2588082903826723e-10,8.227134848121922e-11,5.0181659744553395e-11,3.053721427661964e-11,1.716932386914497e-11,9.842643515900561e-12,4.9241690247672854e-12,2.3283119842464387e-12,1.1248865664301878e-12,5.245426728914641e-13,2.410371038226388e-13,1.1587266972300261e-13,7.252951950740823e-14,6.948218739501445e-14,5.0043891794517815e-14
0.0,39,39.0,0.0,30.0,0.0,0.0,0.0,0.0,-13.0,0.0,2.0,0.0,0.0,0.0,1.3996685436478364e-10,1.2798776085636064e-10,1.1827951272224296e-10,9.477188266997336e-11,7.651250149524095e-11,6.057909757179648e-11,4.548348107529403e-11,3.496183347952308e-11,2.3227592258088622e-11,1.6734065759936145e-11,1.078115685743629e-11,6.300370419423118e-12,3.733637599685675e-12,2.0336965537312273e-12,1.0974640787736478e-12,6.580977362813951e-13,4.2122176712668734e-13,2.861158465049732e-13,2.171567907149007e-13,1.6505505810061634e-13,1.263690391409134e-13,9.292947814923194e-14,7.682622919639133e-14,5.693176415344206e-14,4.0170676061410946e-14,2.8866096312763265e-14,2.1143643752849385e-14,1.3679287002704017e-14,1.1498176910120468e-14,6.492236344060446e-15,1.5453301399951081e-09,1.0851910822125134e-09,6.720990565417271e-10,4.493994896485496e-10,3.141567424250991e-10,1.971564927796455e-10,1.198514857009173e-10,8.16353319623657e-11,5.315497203296745e-11,3.0201110428067664e-11,1.793806476554353e-11,9.551890694505137e-12,4.935563618839739e-12,2.558291080409912e-12,1.2120355690485468e-12,4.822878015269743e-13,2.6669142564127673e-13,1.4278434213454217e-13,8.648489006331286e-14,6.922515975638541e-14,6.211643666161179e-14
0.0,40,40.0,0.0,30.0,0.0,0.0,0.0,0.0,-13.0,0.0,2.0,0.0,0.0,0.0,1.4932075772924568e-10,1.3098254368944674e-10,1.0924779518865447e-10,9.412373673997257e-11,7.770962844687903e-11,6.15026835130012e-11,4.7810817067517035e-11,3.358225925266699e-11,2.3789899702781142e-11,1.6335775074149426e-11,1.1120807423897722e-11,6.787802315552194e-12,3.8043620444650204e-12,1.998404082439655e-12,1.1819964888047346e-12,6.600077878631973e-13,4.1363911363100014e-13,2.6844310806762493e-13,2.1063916980367477e-13,1.5356179830604259e-13,1.201770355754801e-13,9.471381769670628e-14,7.305482935362357e-14,5.0162996947242965e-14,4.187128956000007e-14,2.6883830228693635e-14,2.154284190185315e-14,1.40661131656039e-14,1.0527990417534127e-14,5.853666562362443e-15,1.5846801630331469e-09,1.006266163690191e-09,6.834825124613657e-10,4.420147433751335e-10,2.9275307022091396e-10,2.0031762718145072e-10,1.2442050180385745e-10,8.159361584543799e-11,5.1486693030674215e-11,3.054711500988813e-11,1.798637713105316e-11,1.0057414435977257e-11,5.26863939442102e-12,2.679236447555069e-12,1.172370713555594e-12,5.449896924922199e-13,2.547157216244907e-13,1.277490577470189e-13,5.901074482667983e-14,3.577532718401404e-14,2.7018637452720572e-14
0.0,41,41.0,0.0,30.0,0.0,0.0,0.0,0.0,-13.0,0.0,2.0,0.0,0.0,0.0,1.446005189532729e-10,1.3508354398697996e-10,1.1596293246751378e-10,9.504056546268786e-11,7.544125841202906e-11,5.952058339553794e-11,4.6320419818645276e-11,3.393651682355923e-11,2.479391954957189e-11,1.7162945573495058e-11,1.1255142445354501e-11,6.833891196740813e-12,3.810559614241853e-12,2.1706121283581548e-12,1.1826300621229133e-12,6.636719784714786e-13,4.22388090912711e-13,2.764427505898843e-13,1.9770439366825108e-13,1.4974460880938967e-13,1.1541102450476438e-13,8.949072456507315e-14,6.813559300949167e-14,5.0703552571883393e-14,3.6988526066302865e-14,2.739421584757963e-14,2.0649398940345906e-14,1.3699696306085878e-14,1.1059193024986269e-14,6.782461726296415e-15,1.64837159299284e-09,1.125212694980043e-09,6.69136907401463e-10,4.798389767586723e-10,3.1248592274482644e-10,2.057240299155647e-10,1.19578536715421e-10,7.932738763062516e-11,5.11333184047627e-11,3.196491808424939e-11,1.8825899059014146e-11,1.1254775540327996e-11,5.766199408583421e-12,2.726396955895843e-12,1.3096038701279912e-12,5.660246588707994e-13,2.7278049371607616e-13,1.3399617740826236e-13,7.82334858471637e-14,3.9216902581011517e-14,4.116663366452163e-14
0.0,42,42.0,0.0,30.0,0.0,0.0,0.0,0.0,-13.0,0.0,2.0,0.0,0.0,0.0,1.457671922197126e-10,1.3486355522639996e-10,1.1777293402157419e-10,9.781984760542967e-11,7.843749343404197e-11,6.643306181143538e-11,4.7579392960635196e-11,3.505071726202909e-11,2.559254949336912e-11,1.7822091138754137e-11,1.1099716824680535e-11,7.149844215053357e-12,3.988043297070566e-12,2.2854141659829696e-12,1.2117658286234798e-12,6.877451148062521e-13,4.0336550724500135e-13,2.757027059572508e-13,1.9425377611768187e-13,1.5044904986616132e-13,1.1623752760691756e-13,8.67670335998533e-14,6.369101769654365e-14,4.934907135710245e-14,3.336903583614584e-14,2.5041574608896808e-14,1.748292485625273e-14,1.506018891568843e-14,9.768498261289765e-15,5.6966699649941154e-15,1.748266994725929e-09,1.044236015920764e-09,7.511302111398441e-10,4.742666248288306e-10,3.14923130943874e-10,1.9665941543725034e-10,1.3085322872235017e-10,7.489162924891053e-11,5.387533185274371e-11,3.2477698351983306e-11,1.9106966709906877e-11,1.1667875311333985e-11,5.776744622141215e-12,2.9305019113262254e-12,1.3458427563856774e-12,5.966746384014256e-13,2.485228173139175e-13,1.3072244435245577e-13,7.806733137994897e-14,5.106661832469048e-14,3.511563053482995e-14
0.0,43,43.0,0.0,30.0,0.0,0.0,0.0,0.0,-13.0,0.0,2.0,0.0,0.0,0.0,1.4683989272167204e-10,1.3320912731136096e-10,1.179092462572624e-10,1.0389806011869914e-10,7.680894006749427e-11,6.071436176719198e-11,4.924074245245587e-11,3.5946120142316035e-11,2.6401017898380035e-11,1.7773038453430523e-11,1.0898802011022523e-11,7.290228779339062e-12,4.1469690604959865e-12,2.236265219495857e-12,1.2677935787614005e-12,7.226239399064861e-13,4.16649337761451e-13,2.655997659940839e-13,1.9280988877305908e-13,1.4245830934862775e-13,1.0993088385925165e-13,7.621272440735709e-14,6.243224407206197e-14,4.2159713485334557e-14,3.441332478035909e-14,2.4979858604937024e-14,1.8190894553175308e-14,1.214014117502182e-14,8.002538961439347e-15,5.8645283740542214e-15,1.6572457146495793e-09,1.1017576583101286e-09,7.188346655629756e-10,4.945230125598468e-10,3.26506857024485e-10,2.0643649337895897e-10,1.3456636765978842e-10,8.719246814471042e-11,5.274187231339509e-11,3.2213306194578115e-11,1.9498441291971594e-11,1.0409761191555861e-11,5.648705687274964e-12,2.998750714972945e-12,1.35774925242418e-12,6.165744208731644e-13,3.079610192644878e-13,1.5352588669297846e-13,9.925438519298357e-14,1.9490877866288765e-14,1.6480123073317186e-14
0.0,44,44.0,0.0,30.0,0.0,0.0,0.0,0.0,-13.0,0.0,2.0,0.0,0.0,0.0,1.4122018238091816e-10,1.3446190168390598e-10,1.1887285846148632e-10,9.22510292810874e-11,8.064246326725066e-11,6.289289251039695e-11,4.95788415880654e-11,3.475151934727109e-11,2.6076114933968325e-11,1.7834151424360906e-11,1.1488299373316878e-11,7.346527258024902e-12,4.274555112248849e-12,2.3818209574922455e-12,1.3457054258347344e-12,7.735867116945424e-13,4.1831380567371935e-13,2.546039331135628e-13,1.796938699528915e-13,1.3337137311299489e-13,1.0035619653627114e-13,7.817739835689342e-14,6.073551969144482e-14,4.381636638400656e-14,3.074826290846078e-14,2.162051519211758e-14,1.7117438134969482e-14,1.1704240929425133e-14,9.059198979041146e-15,3.890510368811824e-15,1.6732475034930638e-09,1.1319773359462676e-09,7.476995478228459e-10,4.945429264807599e-10,2.987467679818612e-10,2.061209905695256e-10,1.2969672076804523e-10,8.462842797850852e-11,5.267353567854458e-11,3.3106108520573205e-11,2.001039337200792e-11,1.187146042527614e-11,6.223045457300359e-12,3.004250236081871e-12,1.530405912978373e-12,6.421783890130339e-13,3.0429830308556776e-13,1.32451824072951e-13,6.299247003899755e-14,3.685142590426288e-14,4.255670762636793e-14
0.0,45,45.0,0.0,30.0,0.0,0.0,0.0,0.0,-13.0,0.0,2.0,0.0,0.0,0.0,1.545438857331519e-10,1.4067775243498318e-10,1.1941105598958057e-10,9.436017142959646e-11,8.46023157243617e-11,6.653075297165838e-11,4.9796516611883307e-11,3.87671496349636e-11,2.6135522679022373e-11,1.8485746411036734e-11,1.2382357910062674e-11,8.098345607592159e-12,4.813492371968372e-12,2.4931683000057113e-12,1.3721871455018534e-12,7.180760074159568e-13,4.316714273998146e-13,2.599113716660352e-13,1.8724767536508435e-13,1.2726556565469236e-13,1.0221229489770409e-13,7.242001619292638e-14,5.670080771725612e-14,3.923062524773523e-14,3.1575763068877555e-14,2.2580578053287374e-14,1.4710169876517557e-14,1.250302226426311e-14,7.395407427729176e-15,5.537307028102552e-15,1.6986586214251913e-09,1.141309787733727e-09,7.178623430082793e-10,4.763982656229069e-10,3.3415437774142935e-10,2.2235208855796962e-10,1.3502648621352923e-10,8.395031826129428e-11,5.2850224164596835e-11,3.388069345019805e-11,1.9965173289228747e-11,1.0928089352549618e-11,6.198620002419409e-12,2.9974087766510444e-12,1.5047944279261838e-12,7.283551256580431e-13,3.120405219513021e-13,1.459260052945408e-13,5.669298464166802e-14,3.907609053635988e-14,2.2698913761540845e-14
0.0,46,46.0,0.0,30.0,0.0,0.0,0.0,0.0,-13.0,0.0,2.0,0.0,0.0,0.0,1.5864201252276388e-10,1.366013318902271e-10,1.2194989684491003e-10,1.0277379392025822e-10,8.547322748755704e-11,6.374323123374549e-11,5.147613423260343e-11,3.847891279624491e-11,2.7615929206847246e-11,1.849549937276576e-11,1.2293307385976492e-11,7.723997454467363e-12,4.68616243251632e-12,2.696490128960516e-12,1.416398633584951e-12,7.500961197171419e-13,4.26487818592348e-13,2.5187085615357657e-13,1.656847342053541e-13,1.2366317282200587e-13,9.22639150614519e-14,7.2153806214917e-14,5.529425604607461e-14,3.913216697674552e-14,2.950986078150913e-14,2.0561211827107134e-14,1.3614497140631432e-14,1.2399506104000345e-14,7.0215503621278e-15,4.88309784660487e-15,1.7575144261830267e-09,1.1262553826538368e-09,7.626462412762252e-10,5.054564003038989e-10,3.289826856093529e-10,2.1370189122464469e-10,1.332771687916846e-10,8.509253583795159e-11,5.355052407264367e-11,3.31521573530994e-11,2.078099407454337e-11,1.1935296542621879e-11,6.272152659522375e-12,3.2398377748996712e-12,1.5248682955500736e-12,7.090928688311074e-13,3.135505199934331e-13,1.6047955220083562e-13,8.386454384420535e-14,2.547918237288082e-14,2.4605014058562172e-14
0.0,47,47.0,0.0,30.0,0.0,0.0,0.0,0.0,-13.0,0.0,2.0,0.0,0.0,0.0,1.6333247045611234e-10,1.4355515591799878e-10,1.2594884400607636e-10,1.0368993639575541e-10,7.989776147341971e-11,6.420367444677747e-11,5.0591607198543426e-11,3.615397423973864e-11,2.6082924958820607e-11,1.8624634828324787e-11,1.3241420798578429e-11,8.057500871666341e-12,4.750458473261309e-12,2.6051165703516434e-12,1.4543058783820581e-12,7.643920463899414e-13,4.518062542465584e-13,2.5592196939548165e-13,1.6876341024573114e-13,1.259902733584048e-13,8.726919163715831e-14,6.461707311308383e-14,4.900499887495923e-14,3.6513746278183255e-14,2.809069173149501e-14,2.0061865312111335e-14,1.5777003767171203e-14,1.3566664851069561e-14,8.622833679435777e-15,4.83274484988979e-15,1.7872014682887725e-09,1.1782625719064657e-09,7.330974768495681e-10,4.876102384100778e-10,3.6457726490312993e-10,2.1096287759977655e-10,1.4143773739687522e-10,9.041706026349513e-11,5.458961908108034e-11,3.495404696807056e-11,1.975860835862401e-11,1.219243248010778e-11,6.4613898180355735e-12,3.326976892850887e-12,1.6316873206890706e-12,7.000631916257828e-13,3.3851311562380544e-13,1.5770172710666573e-13,7.566722038457959e-14,4.700343541513878e-14,5.1731638041409997e-14
