Line_number,Fiducial,Easting,Northing,Height,Elevation,tx_pitch,tx_roll,tx_yaw,txrx_dx,txrx_dy,txrx_dz,rx_pitch,rx_roll,rx_yaw,S0Z_time_1.431e-04,S0Z_time_1.801e-04,S0Z_time_2.266e-04,S0Z_time_2.846e-04,S0Z_time_3.581e-04,S0Z_time_4.506e-04,S0Z_time_5.671e-04,S0Z_time_7.136e-04,S0Z_time_8.981e-04,S0Z_time_1.131e-03,S0Z_time_1.423e-03,S0Z_time_1.791e-03,S0Z_time_2.255e-03,S0Z_time_2.838e-03,S0Z_time_3.573e-03,S0Z_time_4.498e-03,S0Z_time_5.662e-03,S1Z_time_1.409e-05,S1Z_time_1.610e-05,S1Z_time_1.909e-05,S1Z_time_2.360e-05,S1Z_time_2.960e-05,S1Z_time_3.709e-05,S1Z_time_4.609e-05,S1Z_time_5.759e-05,S1Z_time_7.209e-05,S1Z_time_9.060e-05,S1Z_time_1.141e-04,S1Z_time_1.431e-04,S1Z_time_1.801e-04,S1Z_time_2.266e-04,S1Z_time_2.846e-04,S1Z_time_3.581e-04,S1Z_time_4.506e-04,S1Z_time_5.671e-04,S1Z_time_7.136e-04,S1Z_time_8.981e-04,S1Z_time_1.131e-03
0.0,0,0.0,0.0,30.0,0.0,0.0,0.0,0.0,-13.0,0.0,2.0,0.0,0.0,0.0,5.7268118405528034e-11,3.3987981784471786e-11,2.2625339268641226e-11,1.7199540964625582e-11,1.2684570253348096e-11,8.906836126532438e-12,7.323369879552025e-12,5.4459828736918016e-12,4.206270368828141e-12,3.2397758615925996e-12,2.4431069065827036e-12,1.8701648490734197e-12,1.342810166657224e-12,9.37230755158881e-13,6.609262414154462e-13,4.504221036916794e-13,3.1510922201542887e-13,4.056418350432744e-09,3.0349771573266817e-09,1.9847545871476833e-09,1.1506073656596453e-09,7.680840065428104e-10,4.81641162233401e-10,3.0099316492524536e-10,2.163943505054422e-10,1.2607771578603582e-10,8.42364552900791e-11,5.265105375541316e-11,3.5544519674312025e-11,2.3407771494776722e-11,1.5378665683569076e-11,1.1002263025254065e-11,7.601600251388215e-12,5.280282109739435e-12,4.031436911427641e-12,2.9343616013052374e-12,2.193437419141663e-12,1.5482474262063045e-12
0.0,1,1.0,0.0,30.0,0.0,0.0,0.0,0.0,-13.0,0.0,2.0,0.0,0.0,0.0,6.047503861105569e-11,3.655412220021928e-11,2.2321521015931162e-11,1.5432892385136503e-11,1.1019006743391255e-11,9.194092848370677e-12,6.559487218562048e-12,5.014779795895757e-12,3.757432208707593e-12,3.0249861573960575e-12,2.1371559791182785e-12,1.643285691175003e-12,1.180085231015595e-12,8.758636286613289e-13,5.941500018814747e-13,3.954423121817427e-13,2.7529470145899405e-13,4.116242555709124e-09,2.9978689706456325e-09,2.044805249318541e-09,1.2173247272896448e-09,7.453875232736206e-10,4.652738940527741e-10,3.141368625461667e-10,2.0988716807144062e-10,1.3724652067840822e-10,9.556412971513297e-11,5.992393510762874e-11,3.666022818563382e-11,2.4960414441946297e-11,1.5633431017050243e-11,1.0971416998865666e-11,7.815207057640568e-12,5.436946533215023e-12,4.022371250066504e-12,2.5557433488267256e-12,1.9472881414757677e-12,1.236071821890052e-12
0.0,2,2.0,0.0,30.0,0.0,0.0,0.0,0.0,-13.0,0.0,2.0,0.0,0.0,0.0,6.609601675710337e-11,4.011147160637148e-11,2.454806453701786e-11,1.661315957711549e-11,1.1084154195291495e-11,8.573550975515002e-12,6.383552858810166e-12,4.53413561390854e-12,3.795980814837509e-12,2.898609007707879e-12,2.157829327725335e-12,1.5239209182068987e-12,1.0883237913779585e-12,8.308461714314484e-13,5.547063655588324e-13,4.0511035855088066e-13,2.604306835830117e-13,4.164536694919418e-09,3.008581823287948e-09,2.058511813943884e-09,1.2360122362933582e-09,7.930592176941187e-10,4.793571453700548e-10,3.2717907327758044e-10,2.3606247873114345e-10,1.4815952324873034e-10,1.0036634399449177e-10,7.010400754517894e-11,4.209997993722074e-11,2.9126672688838525e-11,1.7193101473274464e-11,1.112284179425709e-11,8.117134920137622e-12,5.537771590211604e-12,3.948947723542733e-12,2.669668949644136e-12,1.6791442242916039e-12,1.4201198982092692e-12
0.0,3,3.0,0.0,30.0,0.0,0.0,0.0,0.0,-13.0,0.0,2.0,0.0,0.0,0.0,7.329509656729939e-11,4.601528904796765e-11,2.7740701737314877e-11,1.7377536312068648e-11,1.1841567350366467e-11,8.393616428022053e-12,6.0886388035419546e-12,4.334332028578802e-12,3.430601605161133e-12,2.6568033891176495e-12,1.8971949687165926e-12,1.417350795612207e-12,1.0328167783179103e-12,7.929733743080075e-13,5.36912216034322e-13,3.669549680038362e-13,2.319051657277319e-13,4.092634328540604e-09,2.9014154076292215e-09,2.006973351898157e-09,1.2068686787060117e-09,7.668998346400149e-10,4.874762738129047e-10,3.248648832145682e-10,2.3164156391900212e-10,1.5603342016538462e-10,1.0672399647254718e-10,7.57391503285438e-11,4.8952285666591565e-11,3.13744424047791e-11,2.0575893671316756e-11,1.251574215979715e-11,7.61346338460834e-12,5.4315489833245656e-12,3.3625823511111222e-12,2.3760823032997077e-12,1.665774464118083e-12,1.318461079734103e-12
0.0,4,4.0,0.0,30.0,0.0,0.0,0.0,0.0,-13.0,0.0,2.0,0.0,0.0,0.0,7.723808778491721e-11,4.767749225064146e-11,2.932179914237545e-11,1.8276868709941876e-11,1.2423125210809338e-11,7.880470014771059e-12,5.635701456661232e-12,4.209726620823897e-12,3.154206987653345e-12,2.5307811561398476e-12,1.8622992209902184e-12,1.3307205174875918e-12,9.38316395413023e-13,7.167237998077325e-13,4.718462104051702e-13,3.1570748148783006e-13,2.4072431589126126e-13,4.0466151837090976e-09,3.026994492481535e-09,2.0133224369595094e-09,1.2566062379517665e-09,7.35945891271354e-10,4.656309107744412e-10,3.3632555117901583e-10,2.2713105113490032e-10,1.6280580664882e-10,1.1575688867795265e-10,8.035427120585881e-11,5.282541552176113e-11,3.273179554086225e-11,2.081943656187413e-11,1.2297122127472205e-11,8.423519171702386e-12,5.003602124594027e-12,3.3419640805848444e-12,2.353634077385186e-12,1.5076341790202847e-12,1.2323088750040985e-12
0.0,5,5.0,0.0,30.0,0.0,0.0,0.0,0.0,-13.0,0.0,2.0,0.0,0.0,0.0,7.995942008749458e-11,5.290069887628398e-11,3.1853824180048936e-11,1.9343008483894493e-11,1.2812634877412217e-11,8.228339579991368e-12,5.8776006288739965e-12,4.204598122748262e-12,3.2360996169257593e-12,2.3406840717916697e-12,1.677442053368398e-12,1.231499994093678e-12,9.44458628960923e-13,6.659105907380511e-13,4.688556827945936e-13,2.9413327551100713e-13,2.1224190413695052e-13,3.900744234997257e-09,2.9542698392963622e-09,1.9775470076080507e-09,1.2532692711030323e-09,7.568010976672889e-10,4.932479880439587e-10,3.2726043144126975e-10,2.2899976857913668e-10,1.6775814180567834e-10,1.215423340470893e-10,8.576422092319236e-11,6.140820814589134e-11,3.7329370758608684e-11,2.2729772836366356e-11,1.429808476132728e-11,8.708831959470212e-12,5.59424627616706e-12,3.2909335261366362e-12,2.305129602894794e-12,1.542086558343075e-12,1.0385932520847344e-12
0.0,6,6.0,0.0,30.0,0.0,0.0,0.0,0.0,-13.0,0.0,2.0,0.0,0.0,0.0,8.498608247566031e-11,5.521268609277639e-11,3.281514701228732e-11,2.122889175693148e-11,1.3152140047509167e-11,8.636674663941677e-12,5.540376303101783e-12,4.086798631203822e-12,3.036215387731372e-12,1.9943101013278885e-12,1.6177273167733529e-12,1.1881991251234472e-12,8.373877286019234e-13,6.01904954233147e-13,4.269748770444044e-13,2.9296462437280195e-13,1.961980986769685e-13,3.769608488230959e-09,3.01419970911628e-09,2.0363643499889153e-09,1.1852337701876903e-09,7.158931629356849e-10,4.90844927194255e-10,3.283608136077122e-10,2.392118265973834e-10,1.7099815299575208e-10,1.274207589146916e-10,9.018939018850695e-11,5.965113965316923e-11,3.865292809100195e-11,2.434726987248061e-11,1.611074088130206e-11,9.20000731636395e-12,5.702117999075999e-12,3.5053489192755555e-12,2.277586457611869e-12,1.2677177590197075e-12,9.888136943925134e-13
0.0,7,7.0,0.0,30.0,0.0,0.0,0.0,0.0,-13.0,0.0,2.0,0.0,0.0,0.0,9.061193497028294e-11,5.841837337099975e-11,3.614219866208292e-11,2.313558731859823e-11,1.440060927063665e-11,8.158763823986515e-12,6.1587680809373305e-12,3.980867986512649e-12,2.748202600621458e-12,2.0015300380043292e-12,1.5324603805849703e-12,1.0908980796819657e-12,7.501937908565552e-13,6.137596700427173e-13,4.010992373586026e-13,2.9240838946065367e-13,1.8012918000739569e-13,4.130855445127498e-09,2.921958962065865e-09,1.997372817094093e-09,1.1719506706568798e-09,7.75302678598704e-10,4.948224884148931e-10,3.4951326345475985e-10,2.3601553198948287e-10,1.7248579820554064e-10,1.3617142003830503e-10,8.824122411555268e-11,6.359067073963625e-11,4.441090669375193e-11,2.7711079136259895e-11,1.752470896480154e-11,1.0246396240915629e-11,6.274240177216791e-12,3.5372859313494847e-12,2.5081473429942165e-12,1.4411149140726478e-12,8.639236555217463e-13
0.0,8,8.0,0.0,30.0,0.0,0.0,0.0,0.0,-13.0,0.0,2.0,0.0,0.0,0.0,9.319378252587712e-11,5.96441084406822e-11,3.6913742644393944e-11,2.3549578537757452e-11,1.54617159554149e-11,9.308770661434425e-12,5.942290998224755e-12,4.053118219244103e-12,2.6389564317064713e-12,1.8981334253593874e-12,1.4167933282498678e-12,1.0368362447386366e-12,7.555202293947479e-13,5.332705566417283e-13,3.778784178495622e-13,2.613608678057393e-13,1.6911414245738074e-13,3.832274635052783e-09,2.9041764653774922e-09,1.8984655653674625e-09,1.163169595864117e-09,7.405199235568734e-10,4.840822998078609e-10,3.6159727961969576e-10,2.3771767366068247e-10,1.8215761658330328e-10,1.3236364546687516e-10,9.003885204576073e-11,6.77311133898727e-11,4.357769153138108e-11,2.714856647305126e-11,1.894330677700706e-11,1.0628259308803215e-11,6.758690985706079e-12,3.824005317052697e-12,2.5672773887187057e-12,1.564905398405662e-12,8.635350988756876e-13
0.0,9,9.0,0.0,30.0,0.0,0.0,0.0,0.0,-13.0,0.0,2.0,0.0,0.0,0.0,9.123221202475811e-11,6.005200089169976e-11,3.964690001492405e-11,2.5704638272305956e-11,1.5901203614757165e-11,9.912988758718669e-12,6.283792280338418e-12,4.004062170240733e-12,2.62750362922903e-12,1.7924453994212321e-12,1.4265512383331459e-12,9.582293281063949e-13,6.992224025396195e-13,4.983754661398175e-13,3.2986131601862137e-13,2.4173655174524766e-13,1.6192168900445442e-13,3.9795960367260914e-09,2.9236466248141293e-09,1.9398803127275194e-09,1.233800519171784e-09,7.546759575719307e-10,4.878428835886963e-10,3.426664293248636e-10,2.4375913358812767e-10,1.7705042118752035e-10,1.3023805735680779e-10,9.19766822096185e-11,6.867689748800253e-11,4.567893164903361e-11,3.1998760850341373e-11,1.976249318251054e-11,1.2150056898498508e-11,7.285059624861572e-12,4.276147103951992e-12,2.258422600950602e-12,1.4399415134170691e-12,9.88198402796416e-13
0.0,10,10.0,0.0,30.0,0.0,0.0,0.0,0.0,-13.0,0.0,2.0,0.0,0.0,0.0,8.986641828895352e-11,6.460389888647428e-11,3.884928069657111e-11,2.6353201792282765e-11,1.7009779384455066e-11,9.89688472462767e-12,6.24446730500069e-12,3.860620680332213e-12,2.8081190908914953e-12,1.833943213888839e-12,1.3373805362179553e-12,9.25390789666909e-13,6.690317272925443e-13,4.5154682768948796e-13,3.3264791101773415e-13,2.2457279698038103e-13,1.67570429067767e-13,4.018284580910491e-09,2.97189906057288e-09,1.978073801889057e-09,1.1741461320743482e-09,7.217316298708346e-10,5.011306365544613e-10,3.4710634229604967e-10,2.3436475817236244e-10,1.830980279286809e-10,1.3622799234470276e-10,9.692946912952761e-11,6.92895238435677e-11,4.749355412058038e-11,3.125884236191747e-11,2.1643131043891667e-11,1.28776590937289e-11,7.646592825694705e-12,4.742356275236246e-12,2.6582057063355203e-12,1.5362817457412756e-12,9.08691866688182e-13
0.0,11,11.0,0.0,30.0,0.0,0.0,0.0,0.0,-13.0,0.0,2.0,0.0,0.0,0.0,1.0044527461340153e-10,6.853204497334821e-11,4.4146798324464074e-11,2.8819078160346918e-11,1.6739307263657703e-11,1.101839320414733e-11,6.703113212393093e-12,4.1634994700600094e-12,2.762166805077455e-12,1.6415780398571724e-12,1.2472235295974214e-12,8.981819682951151e-13,6.332207576420592e-13,4.3053624715605527e-13,3.3046743519586643e-13,2.2449337195042673e-13,1.389171073064917e-13,3.899762240042646e-09,2.8992472348472095e-09,1.918169469611631e-09,1.219746301926984e-09,7.483064949892714e-10,4.859319042685369e-10,3.3388450653418796e-10,2.492235524832405e-10,1.842222571795712e-10,1.3812371590492886e-10,9.780297510980053e-11,7.197598006464674e-11,4.855616027771074e-11,3.3159514365370694e-11,2.215615287909107e-11,1.3384889863470638e-11,8.47080483675247e-12,4.840249066100753e-12,2.7503143683388025e-12,1.583716242505013e-12,1.1104039548359182e-12
0.0,12,12.0,0.0,30.0,0.0,0.0,0.0,0.0,-13.0,0.0,2.0,0.0,0.0,0.0,9.597339723694485e-11,6.19286784848131e-11,4.431337440218206e-11,2.928991057869452e-11,1.8387436518762858e-11,1.1199385262277977e-11,6.9550930854655034e-12,4.316172366800538e-12,2.6781519134391716e-12,1.9039282451782953e-12,1.1976528302482264e-12,8.329295219748166e-13,5.654513641891959e-13,4.356097995814184e-13,2.7447871527563774e-13,2.0311063151316015e-13,1.3869139879726315e-13,3.759110690788575e-09,2.958925106413697e-09,1.9639364598620855e-09,1.2337877336673978e-09,7.267746039818185e-10,5.104961211881862e-10,3.5365496870735144e-10,2.5811622273013355e-10,1.9087489960592645e-10,1.3244843237012702e-10,9.815313749811921e-11,7.401526773087894e-11,4.704561818527577e-11,3.665145456504298e-11,2.359982565737758e-11,1.4593657455261587e-11,8.85383265772701e-12,4.89396483150214e-12,2.830026640512435e-12,1.7350464912155446e-12,1.0523810061909472e-12
0.0,13,13.0,0.0,30.0,0.0,0.0,0.0,0.0,-13.0,0.0,2.0,0.0,0.0,0.0,1.0654139659049547e-10,6.717702050757893e-11,4.4115370588702705e-11,2.975939960106062e-11,1.8835015128535926e-11,1.2055779473462272e-11,7.465307837663039e-12,4.45185004597992e-12,2.8656013792286105e-12,1.7571480146298274e-12,1.1954004684641455e-12,8.090601460287508e-13,5.537859053866225e-13,3.858234991280931e-13,2.707973811746647e-13,2.138752145324903e-13,1.44053825819042e-13,3.97563671120857e-09,2.683122791580093e-09,1.7843120893117049e-09,1.1592595532141451e-09,7.50630147722813e-10,5.033343848857539e-10,3.6213691904557904e-10,2.569026818525421e-10,1.969648204509733e-10,1.368077704234231e-10,9.787786416699888e-11,6.947567772603045e-11,5.0693483974060795e-11,3.6247405087419554e-11,2.3424173622938016e-11,1.5770304016178088e-11,9.731670057478084e-12,4.958815478013963e-12,3.1696540554373072e-12,1.4415520769750614e-12,9.851420613870943e-13
0.0,14,14.0,0.0,30.0,0.0,0.0,0.0,0.0,-13.0,0.0,2.0,0.0,0.0,0.0,1.0343777234031778e-10,6.839777166560011e-11,4.40840406919674e-11,3.046608560577119e-11,1.9954267055663055e-11,1.253637991749312e-11,7.67072828535054e-12,4.621652423951782e-12,2.8637265485415493e-12,1.7139106320993284e-12,1.1821217507059843e-12,8.391423948389466e-13,5.560007858690082e-13,3.8510280039034993e-13,2.862624419296496e-13,1.5940682101294104e-13,1.4030638207120568e-13,3.7231080444482803e-09,2.7909868156629477e-09,1.8911148274921124e-09,1.2120571755404759e-09,7.4102884708169e-10,4.880486642855969e-10,3.6758498505604533e-10,2.389840066565031e-10,1.893404118869327e-10,1.3366388203161356e-10,9.949412444235854e-11,7.859006794703492e-11,5.284976156315184e-11,3.69987391739849e-11,2.3483977047697103e-11,1.5619304459485514e-11,9.866655543401229e-12,5.808572854666596e-12,3.3241866809606444e-12,1.7845743268237465e-12,1.0321165796844717e-12
0.0,15,15.0,0.0,30.0,0.0,0.0,0.0,0.0,-13.0,0.0,2.0,0.0,0.0,0.0,1.0234490665798499e-10,6.535748188121345e-11,4.6648189564203136e-11,3.2434803712474765e-11,2.1096706311951973e-11,1.2953176852401759e-11,7.857778890413337e-12,4.666578610514882e-12,2.9198924374478006e-12,1.863557046233037e-12,1.1099964055628422e-12,7.630788284286542e-13,5.215644796530378e-13,3.869373374931896e-13,2.5254126414314216e-13,1.7435457722161553e-13,1.1910027102854634e-13,3.822033953278827e-09,2.727278692615006e-09,1.703788608029183e-09,1.1941402411381455e-09,7.573966751866349e-10,4.972892542137916e-10,3.450088897145961e-10,2.625223105256432e-10,1.9347850802415104e-10,1.3889442791860566e-10,1.0232534463164655e-10,7.291290341187984e-11,5.337903301823637e-11,3.572149281769058e-11,2.5795113075952726e-11,1.607581085267912e-11,1.0341634782260267e-11,5.765627062042334e-12,3.34415396158812e-12,1.870105026032132e-12,8.444735874269572e-13
0.0,16,16.0,0.0,30.0,0.0,0.0,0.0,0.0,-13.0,0.0,2.0,0.0,0.0,0.0,1.0252917118918776e-10,6.921716119805912e-11,4.4813514185863164e-11,3.105816952488476e-11,2.1672060103309935e-11,1.3917440092596802e-11,8.346028201980705e-12,5.088827042484548e-12,3.0496116510343596e-12,1.8520351912264005e-12,1.2276208343630228e-12,7.271802881487927e-13,5.387547720167538e-13,3.544646571454052e-13,2.4514280323042944e-13,1.6791108843958835e-13,1.1165158183049396e-13,3.6100543132040795e-09,2.7572411538258702e-09,1.958251737256521e-09,1.1694986976507193e-09,7.482437856245898e-10,4.927591789811892e-10,3.582303271080093e-10,2.6605710654782133e-10,1.9126297169867475e-10,1.4054210152075192e-10,1.0542980660361498e-10,7.37828699233074e-11,5.476400798472954e-11,3.9014742890765405e-11,2.7108886250391637e-11,1.7018935867689656e-11,1.1145224244500557e-11,6.5862107054223225e-12,3.473274292882604e-12,1.8459868600975162e-12,1.0330804664391138e-12
0.0,17,17.0,0.0,30.0,0.0,0.0,0.0,0.0,-13.0,0.0,2.0,0.0,0.0,0.0,1.0658745364926509e-10,7.070636196230025e-11,4.706569213099711e-11,3.440918315839661e-11,2.197299207407898e-11,1.300199725469692e-11,8.776228200659512e-12,5.310614263514961e-12,3.156933504445448e-12,1.900769554817005e-12,1.1832123587372292e-12,7.219108611307756e-13,5.048939306662926e-13,3.3311694555305467e-13,2.2592642743752023e-13,1.4952057237210296e-13,1.1502667198630294e-13,3.734872863823968e-09,2.687901612160381e-09,1.8184380501207175e-09,1.1673728862305203e-09,7.73465592413186e-10,4.754156826430658e-10,3.665843314095763e-10,2.6071479468100315e-10,1.8450012588737033e-10,1.3569097081502742e-10,1.0246373728638836e-10,7.723357847560639e-11,5.56444039979452e-11,3.751993372800085e-11,2.7345243039898923e-11,1.827792956666359e-11,1.1205883575223707e-11,6.5202818291176736e-12,3.980136462290172e-12,2.1854571536695083e-12,1.2084859628331623e-12
0.0,18,18.0,0.0,30.0,0.0,0.0,0.0,0.0,-13.0,0.0,2.0,0.0,0.0,0.0,1.02572340612661e-10,6.560573233474778e-11,5.1626747582222005e-11,3.177253658657527e-11,2.2212411652105337e-11,1.538875437773029e-11,9.081602858596939e-12,5.584131338775813e-12,3.101116397882972e-12,1.8201161702064196e-12,1.177566957599439e-12,7.75318721792746e-13,4.93704105451887e-13,3.2379163991908764e-13,2.302179164081553e-13,1.6844972715489036e-13,9.013987683996809e-14,3.565336685826829e-09,2.6428685028589595e-09,1.905118654263348e-09,1.1733792860356456e-09,7.983594602005444e-10,5.229729875019693e-10,3.651916975102047e-10,2.779498922926475e-10,1.989997798182401e-10,1.4266872650088558e-10,1.0871820493148931e-10,7.595610784550421e-11,5.5127019069305004e-11,4.06640780161879e-11,2.6878681122371962e-11,1.7473411889711182e-11,1.1247013462491511e-11,7.157235820493753e-12,3.906856917457214e-12,2.1595697736732263e-12,1.118607503547023e-12
0.0,19,19.0,0.0,30.0,0.0,0.0,0.0,0.0,-13.0,0.0,2.0,0.0,0.0,0.0,1.0647419050156552e-10,7.17107215388642e-11,4.6778780449968087e-11,3.295624993183832e-11,2.201146343464648e-11,1.526641680130443e-11,9.500418933886425e-12,5.725246325632636e-12,3.3137105379400225e-12,1.9306527003055774e-12,1.195645016400199e-12,7.207290445717865e-13,5.352154695509082e-13,2.9354901634167004e-13,2.2595978309754284e-13,1.3590278819969882e-13,9.960145146189804e-14,3.566296942317825e-09,2.5943192512237918e-09,1.771977302340653e-09,1.2236196078851505e-09,7.487445414934302e-10,4.999405529483978e-10,3.7492312623988526e-10,2.7066984019024954e-10,2.0429567727733767e-10,1.3935609633358353e-10,1.0873550349799536e-10,8.025223152416062e-11,5.340889486417378e-11,4.008976195107389e-11,2.874712191874292e-11,1.8251773922793128e-11,1.2020280735640773e-11,7.32926905520503e-12,4.055890428221602e-12,2.3200181967848344e-12,1.0640309580699426e-12
0.0,20,20.0,0.0,30.0,0.0,0.0,0.0,0.0,-13.0,0.0,2.0,0.0,0.0,0.0,1.0571689220258089e-10,7.398907559569029e-11,5.080552432101534e-11,3.43272394575372e-11,2.3516590089827852e-11,1.4543935716292028e-11,9.508918299735684e-12,5.820283942142904e-12,3.677834432363337e-12,2.027041757630162e-12,1.2180127222305423e-12,7.488247477216643e-13,4.678246871302257e-13,3.188860348882432e-13,2.0717223360961922e-13,1.2451467591237738e-13,9.582103805394623e-14,3.6157925726221258e-09,2.5409628930746123e-09,1.8214850114076629e-09,1.211778828777421e-09,7.651440333814456e-10,5.24326232696189e-10,3.5710711184808286e-10,2.7737000119085925e-10,2.0315356012928472e-10,1.5149882782668027e-10,1.1036480564981432e-10,7.605775290607141e-11,5.674353082724731e-11,3.907589173492152e-11,2.7650638451623476e-11,1.805890926667207e-11,1.2483467826526894e-11,7.188127110574737e-12,4.18854907684127e-12,2.431554720882331e-12,1.1755625547488683e-12
0.0,21,21.0,0.0,30.0,0.0,0.0,0.0,0.0,-13.0,0.0,2.0,0.0,0.0,0.0,1.0708572734211675e-10,7.24194207501637e-11,5.243945485198849e-11,3.5546144369357547e-11,2.332482591469965e-11,1.5158920042555253e-11,1.0060237303111301e-11,6.073594482733352e-12,3.656674603460231e-12,2.1029797082046476e-12,1.1976595754096395e-12,7.507259745293026e-13,4.702599687911219e-13,3.177652840056982e-13,2.1650764715223345e-13,1.3145924216277535e-13,9.734988795947814e-14,3.814554212923972e-09,2.601207227314504e-09,1.9074658440804877e-09,1.1281705044358408e-09,7.557455984801472e-10,5.180510015647493e-10,3.7563389795525955e-10,2.694571487493852e-10,2.0095091073672087e-10,1.4784596787003758e-10,1.113140773612276e-10,8.09646019852153e-11,6.125324820008991e-11,4.207387450833097e-11,2.758062832142515e-11,1.9025894512090307e-11,1.2615219260101089e-11,7.610663205476676e-12,4.4808085004985905e-12,2.5326711709249733e-12,1.4453025721154352e-12
0.0,22,22.0,0.0,30.0,0.0,0.0,0.0,0.0,-13.0,0.0,2.0,0.0,0.0,0.0,1.0699559897529142e-10,7.441121615571862e-11,5.161114898585717e-11,3.5468674355645657e-11,2.3858718816455675e-11,1.5439106215495172e-11,1.0304567090382837e-11,6.571689750951662e-12,3.765991356656632e-12,2.158928547399808e-12,1.3244548870199908e-12,7.483728917519534e-13,4.64217966944848e-13,3.035060101346448e-13,1.6852276212071129e-13,1.2119679804884938e-13,8.524487033819477e-14,3.454573747830046e-09,2.555373658716358e-09,1.783130637154325e-09,1.0989563571879152e-09,7.4811577981134e-10,5.133717298050003e-10,3.7933302149779536e-10,2.8910389414005765e-10,2.0803019604364049e-10,1.5273778658236173e-10,1.118381856957659e-10,8.161273551668776e-11,5.624377072137259e-11,4.067607937448798e-11,2.8575849782827797e-11,1.8287827725572152e-11,1.27859152133583e-11,8.063425476715816e-12,4.529675470074917e-12,2.5950918008613723e-12,1.3167760938964111e-12
0.0,23,23.0,0.0,30.0,0.0,0.0,0.0,0.0,-13.0,0.0,2.0,0.0,0.0,0.0,1.1346646630927279e-10,7.361455810760345e-11,5.113616603723646e-11,3.462955262939756e-11,2.403111880183248e-11,1.501099954375999e-11,1.063121750979901e-11,6.15818705107516e-12,3.842916195031728e-12,2.225908060156651e-12,1.2961595328403692e-12,7.505043189580429e-13,4.933984999662538e-13,2.913882838237115e-13,1.964506930159759e-13,1.2054116662961886e-13,7.880259450719957e-14,3.626356376917193e-09,2.693037046472848e-09,1.788612557811319e-09,1.1051630213851118e-09,8.052562221425758e-10,5.119535369739152e-10,3.6500463994488343e-10,3.0452400293177457e-10,2.068545617333139e-10,1.4767619819624355e-10,1.104892983297231e-10,8.286913705247943e-11,5.896293002817051e-11,4.0168782723233824e-11,3.0172412062610406e-11,1.9001254241110785e-11,1.217828842219782e-11,8.203747501830688e-12,5.003937820945434e-12,2.6149527597437824e-12,1.3184464528336284e-12
0.0,24,24.0,0.0,30.0,0.0,0.0,0.0,0.0,-13.0,0.0,2.0,0.0,0.0,0.0,1.1598082741984363e-10,7.221338269930877e-11,5.0155990567402825e-11,3.6990107839177346e-11,2.4247123023979165e-11,1.597312040223511e-11,1.0531079148786806e-11,6.469043338124903e-12,3.793985642568076e-12,2.3991823090040827e-12,1.4189330041318976e-12,7.917434353615435e-13,4.794453685056566e-13,3.262935504752445e-13,1.8561076274743297e-13,1.2231266216057164e-13,8.614135117702979e-14,3.7072733220546907e-09,2.7273093465628424e-09,1.7757792840427629e-09,1.1638940925135356e-09,7.308462268718297e-10,5.24391787593166e-10,3.7674505319794796e-10,2.7708842202427693e-10,2.2257378374385817e-10,1.5258310452309458e-10,1.1230628639515339e-10,8.379801193214361e-11,6.155962190351138e-11,4.223857195653658e-11,3.128222725071903e-11,1.947019322932557e-11,1.291769042782352e-11,8.176838337663984e-12,5.149482817904842e-12,2.8760326566025966e-12,1.5167444825622538e-12
0.0,25,25.0,0.0,30.0,0.0,0.0,0.0,0.0,-13.0,0.0,2.0,0.0,0.0,0.0,1.1065764419172477e-10,7.842793830408843e-11,5.488597266672849e-11,3.589940683767216e-11,2.496107705173396e-11,1.6442323535609076e-11,1.0878287612632634e-11,6.48583674788505e-12,4.343437189215218e-12,2.287178779499916e-12,1.3849091185359655e-12,8.26628092188006e-13,4.871938190855465e-13,3.0385857099093816e-13,1.7929559988368084e-13,1.2065859087193412e-13,7.966667644078591e-14,3.6913385663461292e-09,2.63973827973777e-09,1.8241865209115498e-09,1.1296571139647955e-09,7.87529434178188e-10,5.370339912821805e-10,4.066683518878272e-10,3.064532818250448e-10,2.1245894326358152e-10,1.5625895652253377e-10,1.1248420629973423e-10,8.346788285564877e-11,5.919493473600213e-11,4.250510809628681e-11,2.902248540105925e-11,1.9492204420387073e-11,1.3398141787296057e-11,7.988020315604516e-12,5.084416535990978e-12,2.8394373681282992e-12,1.6655692741273371e-12
0.0,26,26.0,0.0,30.0,0.0,0.0,0.0,0.0,-13.0,0.0,2.0,0.0,0.0,0.0,1.2010359266995442e-10,7.80731739021591e-11,5.3983753115994334e-11,3.69451466965455e-11,2.4252463875810897e-11,1.6650732203847826e-11,1.0867373260434138e-11,6.869270601530491e-12,4.136210947484765e-12,2.4553062254792015e-12,1.3887162276214783e-12,8.10206674123513e-13,4.967026970590055e-13,3.035228236385423e-13,1.7701817880811913e-13,1.1933800333968372e-13,7.927387158003985e-14,3.5213478582720367e-09,2.6113454299961604e-09,1.6771707662679166e-09,1.1502456443084319e-09,7.739983459668063e-10,5.215567404573889e-10,4.1424572107190686e-10,2.937661222652704e-10,2.2722277386197882e-10,1.5631979747031568e-10,1.136771171969506e-10,8.536158699746262e-11,5.747548595020881e-11,4.2745798304471165e-11,2.950884681100942e-11,2.0509750564203236e-11,1.3397276419249047e-11,8.245391910928088e-12,4.906788437694167e-12,3.2002106335384577e-12,1.5504547904635913e-12
0.0,27,27.0,0.0,30.0,0.0,0.0,0.0,0.0,-13.0,0.0,2.0,0.0,0.0,0.0,1.1309062256272248e-10,7.714206438283879e-11,5.570099224777707e-11,3.6573282616133593e-11,2.455369682606107e-11,1.680073779501743e-11,1.0865602170366379e-11,6.7743433188189465e-12,4.3572892820268e-12,2.597264516189117e-12,1.5241931109460029e-12,8.595519306001268e-13,5.003461172418783e-13,2.6794481156677413e-13,1.9828961223823365e-13,1.1858042463104347e-13,8.078470393966711e-14,3.5912871155358195e-09,2.6632243659946207e-09,1.7888188317637964e-09,1.1669327815500984e-09,7.581005165921282e-10,5.426952816786172e-10,3.8839127617914196e-10,2.8940680823790733e-10,2.138221743957344e-10,1.6133247167701084e-10,1.2199308325832717e-10,9.39383974371799e-11,6.153654696358038e-11,4.115923020970474e-11,3.083074766689786e-11,1.989217652172172e-11,1.2973997125060128e-11,8.523627762370664e-12,4.969395314610041e-12,3.0727927491285727e-12,1.6794422935480125e-12
0.0,28,28.0,0.0,30.0,0.0,0.0,0.0,0.0,-13.0,0.0,2.0,0.0,0.0,0.0,1.1856810768732964e-10,8.16234332073779e-11,5.46293636943294e-11,3.757725470320128e-11,2.5609622299560277e-11,1.71357867091425e-11,1.0740718254500301e-11,6.734991810990256e-12,4.347345246797763e-12,2.4705039688158946e-12,1.5237086532506966e-12,8.85072236205896e-13,5.11666757836884e-13,2.7842004726899073e-13,1.6770942522797027e-13,1.1637821556708808e-13,6.828261195412276e-14,3.417216620207855e-09,2.5829507543915853e-09,1.707665129206729e-09,1.1383420252910804e-09,7.571434822647315e-10,5.297065185743397e-10,3.9254810075490836e-10,3.0541686808974945e-10,2.2279251368064454e-10,1.5977963286790146e-10,1.188798257295445e-10,8.250661718752792e-11,6.049952682456479e-11,4.614061659307518e-11,2.9892571684147434e-11,2.07042654396205e-11,1.334172880986598e-11,8.660662915819746e-12,5.406367275515488e-12,2.957766543005134e-12,1.7335788995357814e-12
0.0,29,29.0,0.0,30.0,0.0,0.0,0.0,0.0,-13.0,0.0,2.0,0.0,0.0,0.0,1.253818878944653e-10,7.972912167888804e-11,5.421541413821152e-11,3.761989318426256e-11,2.5870776122105147e-11,1.738227509313317e-11,1.1653370914279188e-11,7.259193550813456e-12,4.437147632809895e-12,2.7475930992313373e-12,1.5936968113587304e-12,8.38215734288727e-13,5.555169498682308e-13,3.176687560057502e-13,1.7425595496019596e-13,1.1477560308371143e-13,8.396871199446812e-14,3.407359584421917e-09,2.5772074330359654e-09,1.8114835384033765e-09,1.1178506007825265e-09,7.657585031358866e-10,5.669318319983132e-10,4.129771959210493e-10,3.113585166338402e-10,2.243489513868494e-10,1.6473047688548948e-10,1.1391351494230633e-10,8.47804105980412e-11,6.264009095739663e-11,4.487137746675723e-11,3.074151002952562e-11,2.035122247232134e-11,1.3374047615149763e-11,8.715211892928672e-12,5.371794464458174e-12,3.3633086600076456e-12,1.7983865257413556e-12
0.0,30,30.0,0.0,30.0,0.0,0.0,0.0,0.0,-13.0,0.0,2.0,0.0,0.0,0.0,1.1584327035802154e-10,7.951643195387395e-11,5.833798705061535e-11,3.7038099107515324e-11,2.6529632709139114e-11,1.715757435822193e-11,1.1304355385601777e-11,7.230672332582725e-12,4.697242350094097e-12,2.6933023148654094e-12,1.5985560618741102e-12,8.5837708392909e-13,5.228428990508376e-13,3.0368760079144667e-13,1.7811512550799307e-13,1.2372098069790105e-13,6.923824901627554e-14,3.430782927584898e-09,2.6307531296067318e-09,1.6661920536390242e-09,1.1383351498797442e-09,8.17798088334147e-10,5.723847433414746e-10,4.203038976637328e-10,3.1434534329821077e-10,2.3034697921521444e-10,1.7651869535960388e-10,1.240773311545733e-10,8.948849792917855e-11,6.355826972160918e-11,4.4499624274990925e-11,2.947787461468417e-11,2.1091527020855518e-11,1.3547312601383475e-11,9.249476572633835e-12,5.410454778933032e-12,3.283589280939987e-12,1.8515831556895557e-12
0.0,31,31.0,0.0,30.0,0.0,0.0,0.0,0.0,-13.0,0.0,2.0,0.0,0.0,0.0,1.2047218114240218e-10,8.617381132485817e-11,5.967461553918995e-11,3.879142270628593e-11,2.597103037811089e-11,1.7292250397070562e-11,1.0840059833242995e-11,7.322656233164035e-12,4.6464032527257576e-12,2.8573285546907388e-12,1.6881268072370989e-12,9.129265299289573e-13,5.242958741640143e-13,3.1494730741477667e-13,1.7322581713584374e-13,1.0219859269541937e-13,8.131232266099431e-14,3.4808088837391187e-09,2.4934437527437424e-09,1.7109869795467829e-09,1.0859651338222551e-09,8.029081305453982e-10,5.469091430117902e-10,3.921015194206553e-10,3.2526490440513513e-10,2.355304999920078e-10,1.6461059784294788e-10,1.1969590538262583e-10,9.227005240030432e-11,6.228904157576939e-11,4.6454722590182126e-11,3.141239913755081e-11,2.112787313659342e-11,1.3886116847289902e-11,8.870777365993402e-12,5.656351275713071e-12,3.2120829915908317e-12,1.8720330497652215e-12
0.0,32,32.0,0.0,30.0,0.0,0.0,0.0,0.0,-13.0,0.0,2.0,0.0,0.0,0.0,1.271548546547752e-10,8.614069310348547e-11,5.5063475458542426e-11,3.8646930280781743e-11,2.668270417452658e-11,1.7442337911332293e-11,1.22378757157929e-11,7.370704354763701e-12,4.665229774182094e-12,2.892362276016818e-12,1.6959717637867922e-12,9.43835553145476e-13,5.262562817752606e-13,3.078291154747696e-13,1.8718644314119974e-13,1.1144084702048901e-13,5.779177671975963e-14,3.526060859027486e-09,2.370237609111256e-09,1.6546340334584505e-09,1.1911377512006748e-09,7.993552319562308e-10,5.581513306875379e-10,4.075985097690648e-10,3.3630733348273793e-10,2.348591227311819e-10,1.7540574760980522e-10,1.2699321719306828e-10,9.220033019385359e-11,6.57624401726791e-11,4.6186279384123595e-11,3.078753296943102e-11,2.0786284738442057e-11,1.3083698358741198e-11,8.668832165825004e-12,5.5960927175042e-12,3.4696080747858373e-12,1.966947433708183e-12
0.0,33,33.0,0.0,30.0,0.0,0.0,0.0,0.0,-13.0,0.0,2.0,0.0,0.0,0.0,1.2466396865002177e-10,8.250403844032352e-11,5.296875129456974e-11,4.103981144692809e-11,2.6285876751298273e-11,1.7597903389017475e-11,1.1788258803491e-11,7.232279461721518e-12,4.710519347452944e-12,3.0579164043252974e-12,1.7437412697493444e-12,9.824594175004596e-13,5.21802846846501e-13,3.3882903106451654e-13,1.6006357134117196e-13,1.257244864778913e-13,4.29716567654899e-14,3.4677524990150886e-09,2.5836088775416514e-09,1.6899056030787342e-09,1.1750013320722637e-09,8.124540838230501e-10,5.592094084155008e-10,4.0794743497203196e-10,3.0583864916089484e-10,2.4095250060643563e-10,1.744431522304273e-10,1.2523922914250408e-10,9.480293217064163e-11,6.646384082630702e-11,4.464292324110038e-11,3.0309041834936735e-11,2.1495228150564848e-11,1.370743861421143e-11,8.991294201803293e-12,5.903930964496517e-12,3.435777951908823e-12,1.831430054469457e-12
0.0,34,34.0,0.0,30.0,0.0,0.0,0.0,0.0,-13.0,0.0,2.0,0.0,0.0,0.0,1.281965529329937e-10,8.433353953152525e-11,6.128739637248213e-11,3.9432479828932745e-11,2.7207041981545217e-11,1.8183714576568262e-11,1.1918891968960958e-11,7.1900057844663486e-12,4.619317166392025e-12,2.8944484692839554e-12,1.7715664964491906e-12,9.902476082728732e-13,5.45837739549096e-13,2.9481640441766857e-13,1.7274086408138381e-13,1.0007745296552533e-13,6.869505157500204e-14,3.2715105331192217e-09,2.4951011828516668e-09,1.6981425277205779e-09,1.1543530263195646e-09,7.965998701622254e-10,5.655238939168862e-10,4.3972841764844374e-10,3.1466605425609483e-10,2.364808299328768e-10,1.7680136958910814e-10,1.2401032533434756e-10,9.235987607057841e-11,6.481803461739283e-11,4.5643342701558386e-11,3.170737377326503e-11,2.0831614176370046e-11,1.395629881359252e-11,9.410785026550524e-12,5.639796319006619e-12,3.5668608377959502e-12,2.0017556335033537e-12
0.0,35,35.0,0.0,30.0,0.0,0.0,0.0,0.0,-13.0,0.0,2.0,0.0,0.0,0.0,1.322429476264108e-10,8.585105113844457e-11,5.934523019582682e-11,4.071635592037765e-11,2.6819849359884772e-11,1.7748028592027116e-11,1.1444803512861714e-11,8.071287035570068e-12,4.751636751503604e-12,3.106151229551158e-12,1.7650477295407994e-12,9.899481721929313e-13,5.897107223799507e-13,3.1011072940956024e-13,1.8526155148231318e-13,1.0119481292450339e-13,6.748422389868878e-14,3.1853770452316958e-09,2.4989748601857296e-09,1.7510824117888646e-09,1.1345778486730875e-09,8.753256795339876e-10,5.947316316214272e-10,4.66949624775189e-10,3.424395831256499e-10,2.4206952581787667e-10,1.7731921357916332e-10,1.2912358749618473e-10,8.924632783090003e-11,6.561727141181923e-11,4.704185686017504e-11,3.356543854443646e-11,2.1040564323280154e-11,1.4551555652531679e-11,8.73753867189861e-12,5.575071585572983e-12,3.37310140963931e-12,2.0329067556267655e-12
0.0,36,36.0,0.0,30.0,0.0,0.0,0.0,0.0,-13.0,0.0,2.0,0.0,0.0,0.0,1.3272730932291855e-10,9.155871705136334e-11,6.124695920539475e-11,4.130401454146645e-11,2.7931882039927186e-11,1.925418587231551e-11,1.1912310823961697e-11,7.988073724762704e-12,4.687572152217251e-12,3.0705183606238603e-12,1.7986571839422329e-12,1.0405768601202375e-12,6.112712989899101e-13,3.2707517042895475e-13,1.9075790543939886e-13,1.200744607985602e-13,6.58297666118571e-14,3.3724126350201784e-09,2.402409527532157e-09,1.7228557815714035e-09,1.1523973403130802e-09,8.429531268521664e-10,5.989514323394366e-10,4.3563647312614327e-10,3.326044381822346e-10,2.544393640220373e-10,1.817263374436471e-10,1.2864219860281865e-10,9.600125848317658e-11,6.378480742878081e-11,4.8311073117164574e-11,3.2008096046689506e-11,2.1436998508198373e-11,1.4668818647161527e-11,8.770901078403662e-12,6.122700538218918e-12,3.4024793918675115e-12,1.9542925908530186e-12
0.0,37,37.0,0.0,30.0,0.0,0.0,0.0,0.0,-13.0,0.0,2.0,0.0,0.0,0.0,1.3671535686057477e-10,9.201991645572342e-11,6.503164514278964e-11,4.1199937079654947e-11,2.7797786969420014e-11,1.773657575947554e-11,1.2092479181339043e-11,7.715567040874596e-12,4.948956465515773e-12,2.9166361350290073e-12,1.953415875870573e-12,1.0156479669449528e-12,5.452288904040048e-13,3.1430787015116134e-13,1.7600557865489084e-13,9.275793702675661e-14,7.246413330039866e-14,3.222403771975093e-09,2.4167090218740705e-09,1.7529225873389796e-09,1.1853359763449453e-09,8.482742316159072e-10,5.782704739980288e-10,4.4060475518642014e-10,3.4219222791328806e-10,2.3106573372870339e-10,1.7678400916349043e-10,1.3617188648595294e-10,9.543952392298198e-11,7.056694156388806e-11,4.8916752686255335e-11,3.1575717591618145e-11,2.2223439463872793e-11,1.4936143727757285e-11,9.283021629699768e-12,5.582257214909272e-12,3.6300597689618653e-12,2.113743297121244e-12
0.0,38,38.0,0.0,30.0,0.0,0.0,0.0,0.0,-13.0,0.0,2.0,0.0,0.0,0.0,1.3659079129593786e-10,9.319714223840623e-11,5.579486212274432e-11,4.303499579394468e-11,2.972162299257252e-11,1.898972736043659e-11,1.2401579678611775e-11,8.13106233627534e-12,5.125384762888883e-12,3.183786686381355e-12,1.891904358644506e-12,1.0589630463875057e-12,5.951868753426661e-13,3.234250893166535e-13,1.696810402770412e-13,9.40131845457657e-14,7.876694612776152e-14,3.286924539150656e-09,2.359202410392928e-09,1.7000590554750166e-09,1.1842623324673998e-09,8.147920735082484e-10,6.062134663195431e-10,4.6429724656121936e-10,3.396521978328093e-10,2.560671304053801e-10,1.9186746663437766e-10,1.3482255354454329e-10,9.891133029125434e-11,6.882603955662596e-11,4.8259845258120797e-11,3.2782051975456676e-11,2.18078983585615e-11,1.4603425255565256e-11,9.477476495621292e-12,5.848969835912571e-12,3.603934629088872e-12,1.9744927946850536e-12
0.0,39,39.0,0.0,30.0,0.0,0.0,0.0,0.0,-13.0,0.0,2.0,0.0,0.0,0.0,1.3126847386175037e-10,9.35457652216081e-11,6.331899693611656e-11,4.2461156090184106e-11,2.964193399941734e-11,1.9445203493469747e-11,1.3447550688486976e-11,7.992709312583092e-12,4.974804477783142e-12,3.0935027281853215e-12,1.8899699290796078e-12,1.1231704551488094e-12,5.833437156236246e-13,3.634116687636216e-13,1.854087229740482e-13,1.0322840420825137e-13,4.9594093054709e-14,3.182352904604703e-09,2.395419176293119e-09,1.713430786438684e-09,1.1979024746568687e-09,8.237186294283648e-10,5.955788486499096e-10,4.671807643494768e-10,3.456733125019099e-10,2.5853643217635855e-10,1.9547279113800615e-10,1.3351955039763912e-10,9.67850308372962e-11,7.297802636261031e-11,4.6680548872055206e-11,3.213991474509886e-11,2.2934790866176273e-11,1.475882969824953e-11,9.411828838719267e-12,5.8421416980137315e-12,3.5630942876931814e-12,2.0707905942540422e-12
0.0,40,40.0,0.0,30.0,0.0,0.0,0.0,0.0,-13.0,0.0,2.0,0.0,0.0,0.0,1.4361427079835547e-10,9.244402592145676e-11,6.248263521567323e-11,4.518345480385687e-11,2.8814753348196576e-11,2.0397334392829208e-11,1.2523024275287676e-11,8.450044493749628e-12,4.924133721488976e-12,3.2189501219329397e-12,1.8589286316923302e-12,1.1575085768358508e-12,6.162378899453162e-13,3.555865990840002e-13,1.8790454828748265e-13,9.445737292242695e-14,4.39365246939772e-14,3.124458143398673e-09,2.510032199829741e-09,1.704832688283752e-09,1.2247529415474653e-09,8.448813533788783e-10,6.355901552451189e-10,4.401635620581185e-10,3.451735948449372e-10,2.680208964560864e-10,1.9112222563214964e-10,1.3923461046812734e-10,9.932215802799719e-11,7.364806994401141e-11,4.987050453642674e-11,3.38680235248074e-11,2.304166591765632e-11,1.5047766994177055e-11,9.516755112141857e-12,6.216257569024797e-12,3.57570397521281e-12,2.1335088056640473e-12
0.0,41,41.0,0.0,30.0,0.0,0.0,0.0,0.0,-13.0,0.0,2.0,0.0,0.0,0.0,1.3715453387746488e-10,9.517982909327228e-11,6.65730294727257e-11,4.25228303153222e-11,2.8106642517589018e-11,1.9883888871896503e-11,1.2622804253523123e-11,8.215227825193102e-12,5.226529425278428e-12,3.250131030739013e-12,2.0332168776004687e-12,1.1180922180100556e-12,6.332768312379089e-13,3.598715250739231e-13,1.7577169235978786e-13,9.316656421057064e-14,7.931539093979202e-14,3.225371161872925e-09,2.3766066303425295e-09,1.7849130157080142e-09,1.161211405816724e-09,8.463864085791127e-10,6.385380814344657e-10,4.845278018285366e-10,3.597111226704749e-10,2.4411074766655035e-10,1.8907161235437544e-10,1.4350967883938348e-10,1.008455731682268e-10,7.757390862474185e-11,5.14019130199762e-11,3.476822852956079e-11,2.20543811701138e-11,1.489646254017437e-11,9.599958042292865e-12,6.1734018371849785e-12,3.7395715854876385e-12,2.2408103984363627e-12
0.0,42,42.0,0.0,30.0,0.0,0.0,0.0,0.0,-13.0,0.0,2.0,0.0,0.0,0.0,1.3780705157423858e-10,1.0003038215727393e-10,6.16538464211279e-11,4.314583783060723e-11,2.9785451704492e-11,1.9410356919585097e-11,1.2410555731086947e-11,8.062029822912316e-12,5.038012538394788e-12,3.3317788024132682e-12,2.0866325193818166e-12,1.1643952125627274e-12,6.595073676286678e-13,3.440286853412108e-13,2.0837849089487596e-13,1.3199516689276494e-13,4.214441395357708e-14,3.0351430914852535e-09,2.32176820985951e-09,1.6936374368950069e-09,1.2141049471440856e-09,9.047918875757738e-10,6.537709459716603e-10,4.858852134569385e-10,3.5143227865247374e-10,2.5899729903166e-10,1.9272777801989197e-10,1.5007118111390286e-10,1.0308111945145294e-10,7.199780942988564e-11,5.032086467704102e-11,3.542968373263412e-11,2.214135101015588e-11,1.5702474176721766e-11,9.650558112232921e-12,5.940026076198866e-12,3.699714762508836e-12,2.161099715145963e-12
0.0,43,43.0,0.0,30.0,0.0,0.0,0.0,0.0,-13.0,0.0,2.0,0.0,0.0,0.0,1.4217051942697774e-10,9.646031643502448e-11,6.340394784805461e-11,4.522253595846619e-11,2.924436381907488e-11,1.9126825488531405e-11,1.2979541246006881e-11,8.672749178390273e-12,5.3253783564149435e-12,3.2538220287722097e-12,2.0611446660382628e-12,1.258941419524675e-12,6.481376423952033e-13,3.7896496101055753e-13,2.0370613572133627e-13,1.2225737431494706e-13,7.065865665021214e-14,3.1000866800034956e-09,2.244352072882569e-09,1.7671794208877273e-09,1.1833049441236638e-09,8.471372611370436e-10,6.647094360471692e-10,4.716301365514618e-10,3.7965991848822343e-10,2.7456172695159076e-10,2.0214200161001176e-10,1.467126699657972e-10,9.949033669964068e-11,6.995380064018216e-11,5.153514060189107e-11,3.555380118288434e-11,2.3353933440879277e-11,1.4804002604894134e-11,9.68651501056085e-12,6.0098152951527326e-12,3.5162053644376045e-12,2.271734055068774e-12
0.0,44,44.0,0.0,30.0,0.0,0.0,0.0,0.0,-13.0,0.0,2.0,0.0,0.0,0.0,1.3804941348877781e-10,1.0018946179463594e-10,6.66563938461991e-11,4.621346639758883e-11,2.91301935610439e-11,1.9948382752860085e-11,1.3883847728118767e-11,8.581096313182547e-12,5.397705752502221e-12,3.4032305269541675e-12,2.0670342618682682e-12,1.2881257915075031e-12,7.163464721025731e-13,3.7929784072958465e-13,2.0795610927939218e-13,1.073315298919124e-13,7.316347202150866e-14,2.970123292087336e-09,2.244984141728412e-09,1.8045562646162904e-09,1.3010907288025662e-09,8.935705927854498e-10,6.53026395129076e-10,5.013122442632191e-10,3.6236469418551594e-10,2.771459724038051e-10,2.032962140257349e-10,1.5014499996822567e-10,1.0106762907628402e-10,7.3692340707466e-11,5.3133786863290474e-11,3.4628260637252207e-11,2.282880864149565e-11,1.6290592894744065e-11,9.772379898630156e-12,5.9496050858813074e-12,3.430090021006943e-12,2.2532411305847237e-12
0.0,45,45.0,0.0,30.0,0.0,0.0,0.0,0.0,-13.0,0.0,2.0,0.0,0.0,0.0,1.5069350409575037e-10,9.883161501980089e-11,6.44991433801571e-11,4.5334143126376144e-11,2.959646272535826e-11,1.9518484758326862e-11,1.3114195028603436e-11,8.219893429455735e-12,5.469281104502379e-12,3.4439030005615543e-12,2.032917041648209e-12,1.1717952026788979e-12,7.424145835726802e-13,3.7354127259140755e-13,2.0100120025868073e-13,1.1525112888183266e-13,6.733255536864321e-14,3.0616547968528863e-09,2.386843010930932e-09,1.7123824990184708e-09,1.195316191431676e-09,9.28992376607745e-10,7.085552023679408e-10,5.238979005545336e-10,3.7646735689433294e-10,2.95107771586538e-10,2.0815007233299207e-10,1.472753280360539e-10,1.0894567975041308e-10,7.557011746702316e-11,5.089311050474693e-11,3.4780122852950295e-11,2.4361664039276805e-11,1.4598226453913045e-11,1.0030873513037027e-11,5.77351630440524e-12,3.389017168982427e-12,1.9611693660792746e-12
0.0,46,46.0,0.0,30.0,0.0,0.0,0.0,0.0,-13.0,0.0,2.0,0.0,0.0,0.0,1.5845326913259922e-10,1.0042746002316797e-10,6.770136209851282e-11,4.784169351268232e-11,3.1543633720354326e-11,1.944002959478002e-11,1.3622694211440519e-11,8.609334218873381e-12,5.41984649852581e-12,3.4165931906248063e-12,2.1917038568072984e-12,1.2070419502044115e-12,7.273101365875563e-13,3.9516634861041946e-13,1.9135472436532908e-13,1.0617827467487404e-13,6.366667707789791e-14,3.1904927911646253e-09,2.4217902156120256e-09,1.7696078069224808e-09,1.2104962732992533e-09,9.496368063814555e-10,6.724149020130148e-10,4.903605268562634e-10,3.7824470525872514e-10,2.9143117416176806e-10,2.089524242167107e-10,1.5552811975659006e-10,1.1249133095589186e-10,7.76787227869908e-11,5.171123728019352e-11,3.6302441577599484e-11,2.4068104912333246e-11,1.6515166249427256e-11,9.415679419056613e-12,6.130765332174921e-12,3.6426779193912296e-12,2.2352907121743565e-12
0.0,47,47.0,0.0,30.0,0.0,0.0,0.0,0.0,-13.0,0.0,2.0,0.0,0.0,0.0,1.4059734890911407e-10,1.0576437387597126e-10,6.838825539194851e-11,4.384695997522771e-11,3.067792052407654e-11,2.0864617419053116e-11,1.2759282094489475e-11,8.637305797861046e-12,5.3472035576677576e-12,3.387708268199611e-12,2.134136466484899e-12,1.265086408654764e-12,7.181118679264519e-13,4.068891727990808e-13,2.2638238398210396e-13,1.1346657180202138e-13,7.681134526034823e-14,3.19190688620082e-09,2.3189544331495773e-09,1.7112228653254377e-09,1.188669665494565e-09,9.079762377174863e-10,6.697496756654568e-10,5.248908830979979e-10,3.684398826366847e-10,2.855711599287547e-10,2.1807783688821985e-10,1.5025161626642467e-10,1.0782912138611984e-10,7.436598767211258e-11,5.795989977850354e-11,3.574602070883314e-11,2.3334969292340987e-11,1.538729504248884e-11,9.767561826211187e-12,6.14844973506138e-12,3.879076275111135e-12,2.1733449660507682e-12
0.0,48,48.0,0.0,30.0,0.0,0.0,0.0,0.0,-13.0,0.0,2.0,0.0,0.0,0.0,1.4953603556811157e-10,9.916875753812441e-11,6.925282060875529e-11,4.7011237999663976e-11,3.2788477420587954e-11,2.075332306873264e-11,1.348303311959972e-11,8.436578465874907e-12,5.517885820233527e-12,3.4301544064860197e-12,2.1301115813276435e-12,1.236151942002739e-12,7.538948976041572e-13,4.0757610181744105e-13,2.1823030012218818e-13,1.0007918417327165e-13,6.78953030566695e-14,3.090365480843853e-09,2.289244046207052e-09,1.803724992786262e-09,1.2103882164501696e-09,9.217278237592812e-10,6.808486894382674e-10,4.998048043394945e-10,3.938653666962214e-10,3.071533127411821e-10,2.154302461644517e-10,1.536171729937102e-10,1.1335209642167172e-10,7.89998325984609e-11,5.4432753747547055e-11,3.651720753475008e-11,2.5609472125986465e-11,1.615425369617713e-11,9.932197375395713e-12,6.229899254261961e-12,3.667565570876843e-12,2.149815078114865e-12
0.0,49,49.0,0.0,30.0,0.0,0.0,0.0,0.0,-13.0,0.0,2.0,0.0,0.0,0.0,1.5293973592171673e-10,1.0147357598470359e-10,7.170224912336209e-11,4.708008106970864e-11,3.22146131795651e-11,2.0483813782402858e-11,1.3623813983848074e-11,8.599166371600521e-12,5.736742493232385e-12,3.4798862383615715e-12,2.1272534101147114e-12,1.2239981435421454e-12,7.585988682798437e-13,4.056185320519979e-13,2.2448320409022297e-13,1.1496063735249877e-13,7.328045432771024e-14,3.0848657667341697e-09,2.3803022919133682e-09,1.7272184997237784e-09,1.291455522567862e-09,9.816782342585035e-10,6.786328017208322e-10,5.307535298958283e-10,3.778208870345228e-10,3.090219281164072e-10,2.155289168982574e-10,1.6169699608176356e-10,1.0751283885160268e-10,8.407953863825328e-11,5.4467832281307734e-11,3.803558540847603e-11,2.4931488297989668e-11,1.5963863183824156e-11,1.0733424623078652e-11,5.949105967882572e-12,3.850216486193548e-12,2.3463166376605794e-12
0.0,50,50.0,0.0,30.0,0.0,0.0,0.0,0.0,-13.0,0.0,2.0,0.0,0.0,0.0,1.5797929690625966e-10,1.0605988845399178e-10,7.063938168349298e-11,4.6276703583035706e-11,3.20682239772834e-11,2.1439701864108444e-11,1.380357453351282e-11,8.790217780961869e-12,5.578105888928744e-12,3.5059201968647457e-12,2.2798562496389653e-12,1.220307908386677e-12,7.634982160482325e-13,4.186805088076108e-13,2.4638886659845837e-13,1.2276526280860015e-13,7.944990350887527e-14,2.8333843489246467e-09,2.3829058650788143e-09,1.7836456574083663e-09,1.339520114900974e-09,8.988330791009251e-10,7.025816590348954e-10,5.36937084051468e-10,3.974747386517546e-10,3.1201126323640786e-10,2.1908800917023845e-10,1.7001887671239063e-10,1.185663314458549e-10,8.312338553902648e-11,5.6677881981816816e-11,3.6644432804494785e-11,2.4761257136274515e-11,1.65362842140149e-11,1.0503161310685574e-11,6.632817665397387e-12,3.7595509538989475e-12,2.1466032469392084e-12
0.0,51,51.0,0.0,30.0,0.0,0.0,0.0,0.0,-13.0,0.0,2.0,0.0,0.0,0.0,1.6447868074168795e-10,1.0523079309915375e-10,7.371380483160453e-11,5.035532805980013e-11,3.282314295779508e-11,2.1099424433919782e-11,1.392042747193281e-11,9.098464181003621e-12,5.70931937515189e-12,3.8009286089502385e-12,2.1493880167083747e-12,1.2781476947030416e-12,7.482071599220849e-13,4.212451917701214e-13,2.0621973744006384e-13,1.1749628727611603e-13,5.848986440695018e-14,3.0257124099972174e-09,2.3830297922511657e-09,1.7126504991684174e-09,1.3338584461905085e-09,1.0093266617887101e-09,7.11531747051667e-10,5.696176228045146e-10,4.120499103525782e-10,3.237993083367222e-10,2.3213668499118965e-10,1.5490088944403277e-10,1.1657758164320866e-10,8.44687574351392e-11,5.648695671498412e-11,3.8258533074755684e-11,2.6338083100404754e-11,1.6058960414963392e-11,1.0383414165035397e-11,6.472808967432751e-12,3.806202637486176e-12,2.261773915396975e-12
0.0,52,52.0,0.0,30.0,0.0,0.0,0.0,0.0,-13.0,0.0,2.0,0.0,0.0,0.0,1.6639431911053004e-10,1.1070736114553878e-10,7.097025730905771e-11,4.754491509184012e-11,3.195824172423743e-11,2.1545065946118955e-11,1.3965427181532057e-11,8.791203876808578e-12,5.650383304263327e-12,3.4290330586328884e-12,2.263735006360766e-12,1.3314033548480832e-12,7.507693973825585e-13,4.3811529910232816e-13,2.5332284897013656e-13,1.1839020426628925e-13,7.942681456612901e-14,2.983351222111006e-09,2.3719246651071317e-09,1.7951659548180643e-09,1.3675615282019966e-09,9.747735146997884e-10,7.015525925565524e-10,5.304662833478732e-10,3.9675075957854266e-10,2.942772437609992e-10,2.2826072886685062e-10,1.6012382166810033e-10,1.1783763061445981e-10,8.120321204484425e-11,5.5817573044067927e-11,3.819127247766997e-11,2.6189056224269502e-11,1.7054567569866807e-11,1.0596286229798929e-11,6.239444183849556e-12,3.983235219996217e-12,2.361622561444317e-12
0.0,53,53.0,0.0,30.0,0.0,0.0,0.0,0.0,-13.0,0.0,2.0,0.0,0.0,0.0,1.6628289137502633e-10,1.0874578702615464e-10,7.521893719873037e-11,5.038119728793857e-11,2.999678817050213e-11,2.218376069471454e-11,1.3350321719713946e-11,9.275446462892021e-12,5.7733348664921445e-12,3.752405990072606e-12,2.247638120878181e-12,1.3096718264570605e-12,7.888649273529972e-13,4.619196739676511e-13,2.4121137611805236e-13,1.2720151121066352e-13,7.452629527213623e-14,3.027208515285945e-09,2.363320889939047e-09,1.875903887924475e-09,1.3885595811878998e-09,1.0013080561730129e-09,7.308450219483525e-10,5.85827815031388e-10,4.372847507000742e-10,3.217477802190705e-10,2.2291107905387778e-10,1.6795345909239823e-10,1.1709261619943838e-10,8.365346653164724e-11,5.827635301100213e-11,3.932927779238985e-11,2.555481810949541e-11,1.7405727119064432e-11,1.000795583406999e-11,6.6690480836579785e-12,3.625826530873579e-12,2.3387933371057276e-12
0.0,54,54.0,0.0,30.0,0.0,0.0,0.0,0.0,-13.0,0.0,2.0,0.0,0.0,0.0,1.628279278970327e-10,1.1519767777193581e-10,7.477867164933977e-11,5.070913206242487e-11,3.243201763622622e-11,2.155262265252132e-11,1.438503021216351e-11,9.333603537728403e-12,6.361382012809041e-12,3.675017689984444e-12,2.3401473978175667e-12,1.2942660883271023e-12,7.674374766163132e-13,4.4474849736446675e-13,2.30033392907855e-13,1.4654280407589157e-13,6.372168104335111e-14,3.1302225483014106e-09,2.4767586800380606e-09,1.817591368468545e-09,1.3618502188031228e-09,9.95048527273807e-10,7.602901501147668e-10,5.775870359119426e-10,4.2727418908379507e-10,3.2464841268935107e-10,2.469744203813032e-10,1.7330689681285156e-10,1.2262493841480392e-10,8.54915367142848e-11,5.680602789217572e-11,3.845003708121011e-11,2.647263182408571e-11,1.6217864234177676e-11,1.0414950366078697e-11,6.846776289361539e-12,4.237178189838601e-12,2.1041911863315933e-12
0.0,55,55.0,0.0,30.0,0.0,0.0,0.0,0.0,-13.0,0.0,2.0,0.0,0.0,0.0,1.7795886833680253e-10,1.1303385132797547e-10,7.549898314535274e-11,5.075549186667582e-11,3.4918328333158635e-11,2.113733290860141e-11,1.4627576674633972e-11,8.989848217396672e-12,5.994691658863626e-12,3.849697822631258e-12,2.291029112279831e-12,1.3881882637317295e-12,8.219898087176021e-13,4.4346678228649895e-13,2.6772032213467597e-13,1.511199505033914e-13,7.607873681772428e-14,3.011371874584795e-09,2.346782083929319e-09,1.7951785258819364e-09,1.427019491565548e-09,1.0535843571680611e-09,7.581000946135542e-10,5.508254631646772e-10,3.985802451794701e-10,3.1420252127178556e-10,2.3744575663055027e-10,1.793888625448082e-10,1.2073220836024405e-10,8.761790388152846e-11,6.165409676692473e-11,4.030611766069504e-11,2.6395468958039543e-11,1.6418499826605912e-11,1.036696112143079e-11,6.712363565053839e-12,3.938775362967846e-12,2.3364384822560013e-12
0.0,56,56.0,0.0,30.0,0.0,0.0,0.0,0.0,-13.0,0.0,2.0,0.0,0.0,0.0,1.7188053049072502e-10,1.1759469375552988e-10,7.469541893000536e-11,5.101257880000728e-11,3.6140097627244436e-11,2.1897224271262046e-11,1.4442420623936363e-11,9.167327349536875e-12,6.020128914887839e-12,3.821035766093404e-12,2.2740565177671413e-12,1.3662169726754582e-12,8.12634877672523e-13,4.722548807518987e-13,2.434919547243904e-13,1.3088184458367005e-13,4.5712010662674885e-14,2.881211211086089e-09,2.3819808903436643e-09,1.89467724567191e-09,1.3859379252319733e-09,9.913489379860788e-10,7.388186152691125e-10,5.904381458996041e-10,4.2053131447901747e-10,3.4037061624110674e-10,2.424679160635827e-10,1.6625436256970805e-10,1.2125489926949315e-10,8.556508341261978e-11,5.868934703837446e-11,3.880965159147735e-11,2.6098759523988202e-11,1.692012680082992e-11,1.0634631262092154e-11,6.92963347587138e-12,4.016357652410629e-12,2.215243232213047e-12
0.0,57,57.0,0.0,30.0,0.0,0.0,0.0,0.0,-13.0,0.0,2.0,0.0,0.0,0.0,1.7286496723923985e-10,1.1378316379255742e-10,7.677788477890106e-11,5.3512626939534366e-11,3.483455464035257e-11,2.4219763075911008e-11,1.4868336236524543e-11,9.15524698037738e-12,6.133872444702151e-12,3.856482398775911e-12,2.4036758422730585e-12,1.3494892512073167e-12,8.24635440016178e-13,4.887108035306401e-13,2.3536924359660006e-13,1.3173017015191375e-13,5.642841225766022e-14,2.924615640513394e-09,2.3289422178168363e-09,1.931368315297217e-09,1.3811485308107512e-09,1.013126119584353e-09,7.58874288951659e-10,5.992546527520206e-10,4.4936603644975075e-10,3.485079300719831e-10,2.493897000718323e-10,1.696387039991686e-10,1.242510238111503e-10,9.149227242650944e-11,5.97165106446715e-11,4.3267514994978177e-11,2.6210176389556742e-11,1.776854774726626e-11,1.0686212228847633e-11,6.62060447943785e-12,4.203040018622844e-12,2.3363624709827442e-12
0.0,58,58.0,0.0,30.0,0.0,0.0,0.0,0.0,-13.0,0.0,2.0,0.0,0.0,0.0,1.8148272994828698e-10,1.2014639218913325e-10,8.024492229569971e-11,5.135798740867871e-11,3.4723828140598904e-11,2.318971832256693e-11,1.4462915443695661e-11,9.959656820241e-12,5.895024649149014e-12,3.729119037113966e-12,2.2724203919123914e-12,1.3152364515284352e-12,8.854301460996107e-13,4.714329078511636e-13,2.5474475640939035e-13,1.3716971110551793e-13,8.663746322232432e-14,2.9265252778196494e-09,2.4645965038488024e-09,1.8553356102809041e-09,1.3836213885025843e-09,1.0734342062411004e-09,8.191184549054595e-10,5.96966500237796e-10,4.4619255215408923e-10,3.283547148818549e-10,2.577406790560339e-10,1.7677462276308939e-10,1.213134033417291e-10,9.364553873360536e-11,5.909501847527553e-11,4.259344176270393e-11,2.756927399962413e-11,1.780269616614758e-11,1.0886819180700466e-11,6.87801643470505e-12,3.799131244627229e-12,2.4397704433620215e-12
0.0,59,59.0,0.0,30.0,0.0,0.0,0.0,0.0,-13.0,0.0,2.0,0.0,0.0,0.0,1.8814646645034047e-10,1.232752550511213e-10,7.466610902500913e-11,5.1817671735407096e-11,3.514569890383032e-11,2.3471958141975878e-11,1.4933258640806368e-11,9.436023926389078e-12,6.192973274881891e-12,3.9242112172828885e-12,2.344496411588036e-12,1.4515669943502622e-12,7.746177057441065e-13,4.641965530414627e-13,2.600603175822262e-13,1.3620348449647138e-13,7.663086882200328e-14,3.112718314279541e-09,2.4673938235234827e-09,1.86266281100472e-09,1.3622891522411865e-09,1.0892948096080328e-09,7.63632091373813e-10,6.28224613859162e-10,4.6148569005767487e-10,3.3350351923188086e-10,2.55520685179892e-10,1.8254118574033743e-10,1.301307333934581e-10,9.083158094165123e-11,6.321061261335804e-11,4.3293202858275405e-11,2.8145149345581948e-11,1.8385674332200278e-11,1.1183137476146096e-11,7.225731004048086e-12,4.184567912859965e-12,2.3168970053642944e-12
0.0,60,60.0,0.0,30.0,0.0,0.0,0.0,0.0,-13.0,0.0,2.0,0.0,0.0,0.0,1.764060781778129e-10,1.2249717368253294e-10,7.735409012024628e-11,5.245619195259524e-11,3.5995235451024824e-11,2.294642492925966e-11,1.4699445128611813e-11,9.651315679988561e-12,6.146116549616815e-12,3.795865378619289e-12,2.3509722577566016e-12,1.4684806603441955e-12,8.620768351367906e-13,4.821923666780885e-13,2.9943027277973533e-13,1.4579919689744435e-13,8.595190283178528e-14,2.9790493627403857e-09,2.347155760947031e-09,1.872585379966261e-09,1.4352999585595709e-09,1.0716115954934182e-09,8.541444295498943e-10,6.239868314706487e-10,4.781969900053546e-10,3.5073763605587623e-10,2.539283728222858e-10,1.854986388184875e-10,1.3893788887259617e-10,9.017441441350591e-11,6.468612441534961e-11,4.131722869627425e-11,2.7656035645874814e-11,1.802668105521275e-11,1.1424501394740455e-11,7.258911395028814e-12,4.118897560646696e-12,2.2962513913784407e-12
0.0,61,61.0,0.0,30.0,0.0,0.0,0.0,0.0,-13.0,0.0,2.0,0.0,0.0,0.0,1.8869397027256346e-10,1.2208199474186314e-10,8.213884277014641e-11,5.449300285609652e-11,3.403134067977683e-11,2.397461282726169e-11,1.5533649424676378e-11,1.001674262230994e-11,6.5160971877808376e-12,3.709420900616115e-12,2.432588366907761e-12,1.4598947550286168e-12,8.486252530804513e-13,4.985544001825054e-13,2.778452707581182e-13,1.3254821574972778e-13,7.802165845548416e-14,2.9576737254435253e-09,2.4174699833675766e-09,1.8361437452780089e-09,1.4463131468997355e-09,1.0980189235238157e-09,8.483669465141656e-10,6.366044423975005e-10,4.5722250404068214e-10,3.6611058176646833e-10,2.6036601059633354e-10,1.9082792376431284e-10,1.379282202564029e-10,9.756024533161781e-11,6.782131559221544e-11,4.305976976499634e-11,2.8633157535755292e-11,1.7618279333034765e-11,1.1800082216739503e-11,6.705006272922184e-12,3.871577353744219e-12,2.519625655486888e-12
0.0,62,62.0,0.0,30.0,0.0,0.0,0.0,0.0,-13.0,0.0,2.0,0.0,0.0,0.0,1.8489065217762076e-10,1.2806530998161027e-10,8.362876086124283e-11,5.263682802609956e-11,3.356185358728854e-11,2.307434243000736e-11,1.541912674232764e-11,9.470375443546044e-12,6.108936822328697e-12,3.70609496880412e-12,2.424390966346437e-12,1.456498707185142e-12,8.541402169324293e-13,5.217299075498902e-13,2.943215997811716e-13,1.541781106613702e-13,5.818294234654648e-14,2.953826614035757e-09,2.5162529316906764e-09,1.924883584268197e-09,1.4664115864258373e-09,1.1525137097339963e-09,8.613506819651801e-10,6.727113868730814e-10,4.810514526216935e-10,3.7762130442187686e-10,2.609891522272275e-10,1.99501483720984e-10,1.3641203654410988e-10,9.239890802741869e-11,6.170075053976299e-11,4.328548932371196e-11,2.847034956330844e-11,1.8894329968644388e-11,1.1495068251771526e-11,6.942578466978024e-12,4.367469575823258e-12,2.4064372289624407e-12
0.0,63,63.0,0.0,30.0,0.0,0.0,0.0,0.0,-13.0,0.0,2.0,0.0,0.0,0.0,1.8733470523908816e-10,1.2907972149372722e-10,8.246754278314582e-11,5.711979861929461e-11,3.629262999635667e-11,2.3946085669348843e-11,1.562933038333684e-11,9.805693980196052e-12,6.278464075900547e-12,4.000903327064928e-12,2.4589893896954717e-12,1.4846275333782403e-12,8.568574697750332e-13,5.170998719683439e-13,2.8705695805911413e-13,1.6112869954382011e-13,7.035139474640863e-14,3.0551302550617995e-09,2.5555174172607136e-09,1.9493261342407592e-09,1.4997339192657443e-09,1.2061548035930152e-09,9.12978042712212e-10,6.825537438282428e-10,5.093889747301487e-10,3.5729693388542235e-10,2.73740369350235e-10,1.917204131111322e-10,1.3357162117388146e-10,9.468679449263432e-11,6.595409025923299e-11,4.348986333361695e-11,2.854024942595023e-11,1.906034563411832e-11,1.1702648429935432e-11,7.163361025227548e-12,4.247136435474278e-12,2.367992638833633e-12
