Line_number,Fiducial,Easting,Northing,Height,Elevation,tx_pitch,tx_roll,tx_yaw,txrx_dx,txrx_dy,txrx_dz,rx_pitch,rx_roll,rx_yaw,S0Z_time_1.431e-04,S0Z_time_1.801e-04,S0Z_time_2.266e-04,S0Z_time_2.846e-04,S0Z_time_3.581e-04,S0Z_time_4.506e-04,S0Z_time_5.671e-04,S0Z_time_7.136e-04,S0Z_time_8.981e-04,S0Z_time_1.131e-03,S0Z_time_1.423e-03,S0Z_time_1.791e-03,S0Z_time_2.255e-03,S0Z_time_2.838e-03,S0Z_time_3.573e-03,S0Z_time_4.498e-03,S0Z_time_5.662e-03,S1Z_time_1.409e-05,S1Z_time_1.610e-05,S1Z_time_1.909e-05,S1Z_time_2.360e-05,S1Z_time_2.960e-05,S1Z_time_3.709e-05,S1Z_time_4.609e-05,S1Z_time_5.759e-05,S1Z_time_7.209e-05,S1Z_time_9.060e-05,S1Z_time_1.141e-04,S1Z_time_1.431e-04,S1Z_time_1.801e-04,S1Z_time_2.266e-04,S1Z_time_2.846e-04,S1Z_time_3.581e-04,S1Z_time_4.506e-04,S1Z_time_5.671e-04,S1Z_time_7.136e-04,S1Z_time_8.981e-04,S1Z_time_1.131e-03
0.0,0,0.0,0.0,30.0,0.0,0.0,0.0,0.0,-13.0,0.0,2.0,0.0,0.0,0.0,5.387688522714734e-11,4.311357518259816e-11,3.4684920859132234e-11,2.6718620000462944e-11,2.2590356086352336e-11,1.8355853534208515e-11,1.4254772309837846e-11,1.1166458487756431e-11,8.108649938629546e-12,6.122887401108824e-12,4.659141236739783e-12,3.4672096230312244e-12,2.319140891249804e-12,1.687035827093076e-12,1.1968477366309844e-12,7.71035694582385e-13,4.947628371522788e-13,3.8899171067414557e-10,2.990734612772077e-10,2.2649641400194543e-10,1.8388798574839007e-10,1.3737092926629338e-10,1.1474983062226277e-10,9.973134899038038e-11,8.292046128801074e-11,6.519770178228214e-11,5.627293940919651e-11,4.4967902692166375e-11,3.76273414824351e-11,2.9023143393787995e-11,2.3057160969661056e-11,1.935750165321903e-11,1.4155003412094475e-11,1.063654019950072e-11,7.963287626765418e-12,5.579636767580758e-12,4.082152868315903e-12,2.6113182219118096e-12
0.0,1,1.0,0.0,30.0,0.0,0.0,0.0,0.0,-13.0,0.0,2.0,0.0,0.0,0.0,3.842709833240364e-11,3.1427971356112815e-11,2.428562261836765e-11,2.0352515302290212e-11,1.573753658277081e-11,1.2405117813191086e-11,1.0062315891209829e-11,8.094882053127727e-12,6.36440251767683e-12,4.729529012657227e-12,3.483920465977238e-12,2.680624717306185e-12,1.854752633824086e-12,1.3268105401051031e-12,9.422791035574911e-13,6.027200968021416e-13,4.2311973279429376e-13,4.4269528866428724e-10,2.9272382496617956e-10,2.236563752619118e-10,1.4604262859119036e-10,1.0678569095108583e-10,8.247779026509084e-11,6.83588989325571e-11,5.764079079651741e-11,4.949843505115752e-11,4.048599465727543e-11,3.2999341564208894e-11,2.6114419093717692e-11,2.1223119524118063e-11,1.703210823079833e-11,1.3594260774699502e-11,9.882119293969741e-12,7.685388661954387e-12,5.853949297094694e-12,4.199453397313667e-12,3.1879969182346045e-12,2.087495924230959e-12
0.0,2,2.0,0.0,30.0,0.0,0.0,0.0,0.0,-13.0,0.0,2.0,0.0,0.0,0.0,2.6856782547573088e-11,2.3818945321636092e-11,1.8193278775107334e-11,1.5835513213927762e-11,1.1177533230231092e-11,9.042123624358454e-12,7.850575565565449e-12,5.7516569087374074e-12,4.9308169307461386e-12,3.540688454710802e-12,2.879031456398198e-12,2.09017690976077e-12,1.51122905665269e-12,1.0940444985758365e-12,7.553553085200715e-13,5.335565686308879e-13,3.3599416440018063e-13,4.799881472240133e-10,3.2921760875868126e-10,2.05380248265959e-10,1.2418025792295088e-10,9.074821782139002e-11,6.759012880566693e-11,5.4085044831430214e-11,4.269718234809032e-11,3.3880788192010165e-11,2.9101839263466405e-11,2.4126659238619973e-11,1.991722641649287e-11,1.4941989873541094e-11,1.2796289725890431e-11,9.664427980547672e-12,8.030808531065196e-12,5.5690964021235836e-12,4.665103303704136e-12,3.3273197558688726e-12,2.5086771440780114e-12,1.529796887756496e-12
0.0,3,3.0,0.0,30.0,0.0,0.0,0.0,0.0,-13.0,0.0,2.0,0.0,0.0,0.0,2.1707766500177713e-11,1.7463227986574583e-11,1.3956445493466531e-11,1.1487644897454012e-11,9.499685551917208e-12,7.518344559560301e-12,6.420338559286551e-12,4.844024654406505e-12,3.7135773932991946e-12,3.063560940195901e-12,2.166870547680141e-12,1.6126268923780763e-12,1.1808673171545262e-12,8.334648952867155e-13,6.275110721935357e-13,4.1352210208748256e-13,3.0013582381027425e-13,5.275201901978938e-10,3.528697830154929e-10,2.2874504946288747e-10,1.398794838067534e-10,8.250623578388286e-11,5.3009476831582197e-11,3.94908516998333e-11,3.1987504037892205e-11,2.757936207947949e-11,2.2230199284707236e-11,1.8541460748848096e-11,1.4659254622917847e-11,1.2145785107111375e-11,9.870510259263077e-12,7.1020816014702914e-12,6.052675941308496e-12,4.0886760015820706e-12,3.2231481710288466e-12,2.4535361730916377e-12,2.00084833372386e-12,1.2246751585963142e-12
0.0,4,4.0,0.0,30.0,0.0,0.0,0.0,0.0,-13.0,0.0,2.0,0.0,0.0,0.0,1.604586923662674e-11,1.3288402433074735e-11,1.0902672319035452e-11,8.967393207517047e-12,7.093164254585843e-12,5.57425561034528e-12,4.57825024408498e-12,3.721236976618456e-12,2.9385477824689516e-12,2.3065099538625934e-12,1.7811488416735657e-12,1.2931763912887472e-12,9.818763422557533e-13,7.377188287435075e-13,4.829518015582438e-13,3.448232957288327e-13,2.1858066253895904e-13,5.684368389632935e-10,4.198764683679442e-10,2.541197583045799e-10,1.4264671419242022e-10,8.080216518642288e-11,5.0921184744136554e-11,3.417326850769425e-11,2.6222767349564167e-11,2.194094522247134e-11,1.6754520901419868e-11,1.393704370247289e-11,1.1600220653659215e-11,8.824013298467136e-12,7.237272407386143e-12,5.820307560535018e-12,4.286151746549027e-12,3.4716612797642224e-12,2.54749464523055e-12,1.7187336020653542e-12,1.1461214364118302e-12,9.441151114598295e-13
0.0,5,5.0,0.0,30.0,0.0,0.0,0.0,0.0,-13.0,0.0,2.0,0.0,0.0,0.0,1.2005049028517233e-11,1.0168136779274619e-11,8.143586123977351e-12,6.701599558333051e-12,5.740470453501291e-12,4.4785611829589195e-12,3.675804592766995e-12,2.9909371493064306e-12,2.3949839702354965e-12,1.907867075048617e-12,1.4322807214465297e-12,1.0844751591249412e-12,8.002272698512835e-13,5.856810988022543e-13,4.1499073162958805e-13,3.008922556817558e-13,2.0980921994813128e-13,5.377345573876214e-10,4.2394682866483734e-10,2.677213700516868e-10,1.574926620669367e-10,8.897629969149956e-11,4.987034126475955e-11,3.234494424742043e-11,2.2949167055539785e-11,1.7112290527044906e-11,1.3014418578316082e-11,1.1171776264139979e-11,8.753157918074954e-12,7.279251380304594e-12,5.251140565963494e-12,4.492644049358401e-12,3.444507122790861e-12,2.7056091438355994e-12,2.1645648088272124e-12,1.4930406305679795e-12,9.597297048144416e-13,6.11790786359091e-13
0.0,6,6.0,0.0,30.0,0.0,0.0,0.0,0.0,-13.0,0.0,2.0,0.0,0.0,0.0,1.0495611260214953e-11,8.536304412557647e-12,6.625742745410433e-12,5.523420192914895e-12,4.370762572197136e-12,3.846315107293065e-12,2.887447319523032e-12,2.3598295404754674e-12,1.8685152887958644e-12,1.5748797472670105e-12,1.183693692838882e-12,8.537465064399916e-13,6.461044324138101e-13,5.118596418692505e-13,3.606819766889612e-13,2.802095407227513e-13,2.0101522406764318e-13,5.406933897884187e-10,4.018426064792689e-10,2.749232724055713e-10,1.7441514076730733e-10,8.9223594139027e-11,4.883452384604247e-11,3.17388372429174e-11,1.895361307089769e-11,1.5054141732013126e-11,1.0548085954533414e-11,9.363595926245564e-12,7.078172073259901e-12,5.917079591463252e-12,4.881852746607443e-12,3.6371750393614755e-12,2.671499731268534e-12,2.115776871527204e-12,1.5766143238071348e-12,1.1821702140796176e-12,9.086305058824615e-13,5.370523684524037e-13
0.0,7,7.0,0.0,30.0,0.0,0.0,0.0,0.0,-13.0,0.0,2.0,0.0,0.0,0.0,8.367288920142559e-12,6.740631075997097e-12,5.469552960420856e-12,4.395088405602499e-12,3.694322362995946e-12,2.8588500687982377e-12,2.543205537718041e-12,2.0866700969458372e-12,1.5884704571572643e-12,1.2059692041436259e-12,9.807462880205356e-13,7.551525376686124e-13,5.680037308229982e-13,3.9124583266013033e-13,3.168141665716968e-13,2.0893530614745e-13,1.3211492341953159e-13,4.915997873303119e-10,3.898400433792896e-10,2.8597189890412903e-10,1.7178816105477624e-10,9.287779517628888e-11,5.52434675390911e-11,3.015726994589801e-11,1.9678279289446748e-11,1.2491377524630344e-11,9.255562380520733e-12,7.603840438605426e-12,5.766916005802424e-12,4.733726767069342e-12,3.725839544326718e-12,2.7552764808712063e-12,2.2100961878089506e-12,1.4720076932249667e-12,1.4122156963699572e-12,1.067333552679009e-12,6.102289925525714e-13,5.79435858300709e-13
0.0,8,8.0,0.0,30.0,0.0,0.0,0.0,0.0,-13.0,0.0,2.0,0.0,0.0,0.0,6.81259309902601e-12,5.81959484535668e-12,4.520265651282034e-12,3.672512383876907e-12,3.0683944315216044e-12,2.4352868665928602e-12,2.093593397253074e-12,1.605289680597067e-12,1.290530222572484e-12,1.0742813874797179e-12,8.318667715173246e-13,6.121638415277621e-13,4.606198316219085e-13,3.488362665967535e-13,2.6501744667172077e-13,1.7284824925674057e-13,1.2800913080203094e-13,4.647917999048679e-10,3.6648704188232066e-10,2.6697962467912e-10,1.6207305765933687e-10,1.0232971272141841e-10,5.8095148448300985e-11,3.186646172718758e-11,1.9085849486262185e-11,1.1181817864086023e-11,8.3238370341341e-12,5.89283442477332e-12,5.0507945190302055e-12,3.6143788299120557e-12,2.9085259450966515e-12,2.3140033504763595e-12,2.0445621522518885e-12,1.3397909744969674e-12,1.1218416404320862e-12,7.004423114911721e-13,8.114322565342932e-13,3.623477112824193e-13
0.0,9,9.0,0.0,30.0,0.0,0.0,0.0,0.0,-13.0,0.0,2.0,0.0,0.0,0.0,6.32571172498939e-12,4.956488876203058e-12,3.749965401952373e-12,3.3500451864819684e-12,2.4798551084497884e-12,1.9933342863948976e-12,1.6619786721522215e-12,1.347856528778473e-12,1.0636102778766382e-12,8.580863879880742e-13,6.6419447246249e-13,5.02105430572632e-13,3.7591177394548485e-13,2.796000441268191e-13,2.2512382884947452e-13,1.6859129176456128e-13,9.980975502773084e-14,4.131024817721491e-10,3.447728016766217e-10,2.4737499470632096e-10,1.7294153572543322e-10,1.0618932456356798e-10,5.809640288521459e-11,3.299464619655614e-11,1.9148681475438172e-11,1.0916792225309052e-11,6.753430774774208e-12,5.339276654681545e-12,3.638767663932107e-12,3.23001820628312e-12,2.174721384081728e-12,1.8565659552002265e-12,1.6838682342135213e-12,1.0947124240379993e-12,8.970133763172369e-13,5.854246682814479e-13,4.382404771495958e-13,3.1466180322826204e-13
0.0,10,10.0,0.0,30.0,0.0,0.0,0.0,0.0,-13.0,0.0,2.0,0.0,0.0,0.0,5.5498772548127386e-12,4.1240027302397366e-12,3.1746454730838355e-12,2.5466273447812425e-12,2.097748368359784e-12,1.7749280110731664e-12,1.444056463557628e-12,1.0880113859682807e-12,9.744570231204637e-13,7.47320138603683e-13,5.545226781223401e-13,4.509312513249418e-13,3.3706082939420834e-13,2.5079357825291803e-13,1.6463555859912913e-13,1.3982384425304264e-13,8.163017766858352e-14,3.6414015643836427e-10,3.080480343290897e-10,2.4889704838864677e-10,1.6717518894749923e-10,1.0781618016418167e-10,6.10119147997997e-11,3.624153062128275e-11,1.9594322220070695e-11,1.0488577468811768e-11,6.892651608993525e-12,4.706825728207106e-12,3.279480089997308e-12,2.8027863540316027e-12,2.013342275004563e-12,1.5890812921589355e-12,1.3870441641699172e-12,8.446433578218824e-13,7.731000710200942e-13,7.544445340654144e-13,4.637020569796092e-13,2.4527895159751224e-13
0.0,11,11.0,0.0,30.0,0.0,0.0,0.0,0.0,-13.0,0.0,2.0,0.0,0.0,0.0,4.745435283068936e-12,3.543867097887229e-12,2.6403630349431322e-12,2.0178300807508017e-12,1.8221084653553072e-12,1.3912323722822095e-12,1.0997378415819044e-12,9.548013816420238e-13,7.472920368522472e-13,6.390602747278798e-13,4.966896506665823e-13,3.58993899897285e-13,3.1146431495257975e-13,2.2432723796658847e-13,1.6611050464601738e-13,8.726635068036025e-14,8.148885435239615e-14,3.2614532882151623e-10,2.755727276554573e-10,2.2051614114620308e-10,1.505434402981413e-10,1.0317127181265528e-10,6.329865792246791e-11,3.700724917164677e-11,2.102979375875415e-11,1.0721278588296037e-11,6.957269228644024e-12,4.6329711228212116e-12,2.8993738139944356e-12,2.3184474693067306e-12,1.5748522527633622e-12,1.528640540383693e-12,9.796819937893717e-13,6.315310073543024e-13,6.344429593233965e-13,3.296103701755694e-13,2.934386293730773e-13,4.124161961330235e-14
0.0,12,12.0,0.0,30.0,0.0,0.0,0.0,0.0,-13.0,0.0,2.0,0.0,0.0,0.0,4.4552435275176865e-12,3.0319436049204097e-12,2.3128830038482484e-12,1.8348664152274453e-12,1.5258971031918397e-12,1.228791017161995e-12,1.0291776434179865e-12,8.305282784785775e-13,6.758572800335694e-13,4.934076042319849e-13,4.1010961073690747e-13,3.000127503477004e-13,2.543325032034312e-13,1.827892065221235e-13,1.2331959183913384e-13,8.908381606692404e-14,7.61187394485865e-14,3.270274319833426e-10,2.6160962966471004e-10,2.0504941870696208e-10,1.554263132720829e-10,9.328838508828721e-11,6.037753871638077e-11,3.769179259776725e-11,2.1572240394572978e-11,1.2126239108950806e-11,6.69184798321096e-12,4.01496075242632e-12,2.76364933648403e-12,2.016756402918523e-12,1.5030362545757518e-12,1.0988486385795886e-12,8.157710822239497e-13,7.978336824455311e-13,6.711218056804186e-13,2.894559924087604e-13,2.3353553105948893e-13,3.493132381291877e-13
0.0,13,13.0,0.0,30.0,0.0,0.0,0.0,0.0,-13.0,0.0,2.0,0.0,0.0,0.0,4.3039406223480475e-12,2.866312015277843e-12,1.9354439282051443e-12,1.6457429618776755e-12,1.2806107546721592e-12,1.0749346901518017e-12,8.92246683608811e-13,6.881558541307486e-13,5.368121884240135e-13,4.038455758207492e-13,3.5538778195671844e-13,2.7501492230363614e-13,2.0207081322308056e-13,1.5703700176595328e-13,1.2677504697959812e-13,6.529659450794768e-14,4.569432158367868e-14,2.6624825667103157e-10,2.409921541206614e-10,1.8795900082888883e-10,1.3603593989156602e-10,9.635165901223026e-11,6.096150392638704e-11,3.536209514775548e-11,2.179661012297692e-11,1.2194646237545838e-11,6.380328865432825e-12,3.551094346457261e-12,2.3384279570390887e-12,1.703843081606702e-12,1.1025279207679565e-12,1.066910749253752e-12,6.287575282799531e-13,5.233873729776742e-13,4.0621354977271135e-13,3.6999169471445553e-13,2.8549846144939754e-13,1.2523747134848004e-13
0.0,14,14.0,0.0,30.0,0.0,0.0,0.0,0.0,-13.0,0.0,2.0,0.0,0.0,0.0,4.1765679132747825e-12,2.57138516582931e-12,1.8253225907929596e-12,1.337748282363383e-12,1.1010586092191165e-12,9.113130404690487e-13,7.494558504386865e-13,5.878377407297081e-13,4.766140879162286e-13,3.7954910019778625e-13,3.0381532588936435e-13,2.1703756347648445e-13,1.8658635315289875e-13,1.394053047795823e-13,8.365367242454633e-14,8.787499142850209e-14,5.278559040396164e-14,2.471133820298223e-10,2.1200346602810947e-10,1.7303261073816868e-10,1.3348334597853804e-10,8.505793094843324e-11,5.917920098878448e-11,3.939834191432192e-11,2.1157229182880632e-11,1.2607263531283091e-11,6.958210557383155e-12,3.73279843472195e-12,2.2590362808880428e-12,1.4879491567807762e-12,1.2619461991934457e-12,9.406319542398545e-13,6.928558083059934e-13,5.212334032271619e-13,4.650014163285856e-13,4.0973720140108364e-13,1.6394782878231847e-13,1.1231516232973545e-14
0.0,15,15.0,0.0,30.0,0.0,0.0,0.0,0.0,-13.0,0.0,2.0,0.0,0.0,0.0,4.002938221565995e-12,2.485783639213143e-12,1.6410951756766561e-12,1.1597434815380368e-12,9.453207880254807e-13,8.117925452940926e-13,6.6352967205917e-13,4.792519548192583e-13,4.0548587659484457e-13,3.2760442486425303e-13,2.540380166564251e-13,1.9342041200837162e-13,1.4591327395316654e-13,1.2133126992576477e-13,9.03920522672794e-14,6.647503608851334e-14,5.034541612476874e-14,2.2351250931144462e-10,1.859563677347774e-10,1.541810079658287e-10,1.2007192451240882e-10,8.455209153328514e-11,5.715726887282772e-11,3.719256314779877e-11,2.180352972356012e-11,1.3197698936206949e-11,6.988095574745977e-12,3.829515039033655e-12,2.3234414786185655e-12,1.1768065160081115e-12,8.954416742111293e-13,5.624012968731795e-13,4.2897424182919985e-13,2.68524804836014e-13,1.5066757639618355e-13,2.950763779098157e-13,2.584976031464786e-13,8.113609432417972e-14
0.0,16,16.0,0.0,30.0,0.0,0.0,0.0,0.0,-13.0,0.0,2.0,0.0,0.0,0.0,3.98547906153735e-12,2.3373839248344554e-12,1.3976897450834276e-12,1.054254715289986e-12,8.810913565816646e-13,6.431815508960447e-13,5.885682863145849e-13,4.2534556260851426e-13,3.7487474522861484e-13,3.050039003121148e-13,2.337638025226841e-13,1.9262426806809513e-13,1.4576656835160208e-13,1.0609058242582492e-13,7.601352554427353e-14,5.828354923138024e-14,4.630276353317381e-14,2.0146052350985052e-10,1.7606299495677254e-10,1.474054538201347e-10,1.0963818214802612e-10,8.120777090900619e-11,5.419253892291881e-11,3.6431882892837917e-11,2.231237354864204e-11,1.3302438497069869e-11,7.268230783911958e-12,3.712066550721281e-12,2.3146383478541624e-12,1.4101985022198962e-12,9.970105318314942e-13,7.996191327446633e-13,2.8668777216953415e-13,4.562231163218576e-13,2.0609602360170444e-13,3.705505446227281e-14,1.2281327034300358e-13,1.8988987445070478e-13
0.0,17,17.0,0.0,30.0,0.0,0.0,0.0,0.0,-13.0,0.0,2.0,0.0,0.0,0.0,4.123275186202417e-12,2.197862555464356e-12,1.2562466646380516e-12,1.006053560920631e-12,7.883524966600959e-13,6.325631697599642e-13,4.842137591995506e-13,3.8261618885279105e-13,3.1415636727378096e-13,2.3304753860628787e-13,2.0231690985428826e-13,1.658082399018951e-13,1.310446386103792e-13,1.0166361730700778e-13,7.388083665310086e-14,5.585285201645361e-14,3.940207865525124e-14,1.7827788685997676e-10,1.6214669685486708e-10,1.3303864393333225e-10,9.90204460848257e-11,7.033053136239527e-11,5.0299620173568947e-11,3.592191517493643e-11,2.2267338441973683e-11,1.369693543211183e-11,7.826936425366359e-12,4.026565898951971e-12,2.175101962773448e-12,1.195664416031825e-12,9.750302179833935e-13,7.596420329468241e-13,4.848892190853766e-13,3.282454773202053e-13,3.0444105139026904e-13,2.3696369200445463e-13,-3.781844876257486e-14,1.6437790916539863e-13
0.0,18,18.0,0.0,30.0,0.0,0.0,0.0,0.0,-13.0,0.0,2.0,0.0,0.0,0.0,4.49561097585767e-12,2.1881265385001263e-12,1.2588647084528004e-12,8.707997421099522e-13,6.801669449952722e-13,5.359621887471737e-13,4.325638769379789e-13,3.470828338550561e-13,2.780420528678393e-13,2.1810845463910552e-13,1.9188621900477518e-13,1.440099442643873e-13,1.2002100060741308e-13,7.110078819414336e-14,4.93935234320141e-14,5.930585159679478e-14,2.6506106960026707e-14,1.7449391084467135e-10,1.390820378193696e-10,1.1729293724974658e-10,9.277162912167273e-11,7.017922552196166e-11,5.0470387119333087e-11,3.4886839087553694e-11,2.227997137650416e-11,1.351888883515808e-11,7.81504083955512e-12,4.04394045993104e-12,2.346825298852239e-12,1.1238970908841195e-12,6.897298472151302e-13,5.298146348834133e-13,4.579179805376572e-13,3.183070536876685e-13,3.459208758907321e-13,1.0229062971917375e-13,7.780869716419399e-14,1.9371798055951184e-13
0.0,19,19.0,0.0,30.0,0.0,0.0,0.0,0.0,-13.0,0.0,2.0,0.0,0.0,0.0,4.542731129817053e-12,1.9879432557713966e-12,1.1815240081700285e-12,8.262308305253151e-13,5.912430551381186e-13,4.730450139928405e-13,3.7698966729238044e-13,3.0747470842044937e-13,2.5558286476018383e-13,1.9103937872631553e-13,1.448849760564012e-13,1.4143187893029058e-13,1.0192369861375198e-13,6.060875613919326e-14,3.7091565500997e-14,4.5467576872451215e-14,5.0256350559272335e-14,1.556697207011254e-10,1.371817928607735e-10,1.0592810073154423e-10,8.415099802576048e-11,6.46583590509273e-11,4.5923706620770436e-11,3.236928002030728e-11,2.2999729145544746e-11,1.3349885226155914e-11,8.007329254709058e-12,4.138255717159056e-12,2.221182662306873e-12,1.2379214169778403e-12,7.883865368055019e-13,5.541322631772408e-13,4.003686186413361e-13,2.475606028467841e-13,1.425434535241109e-13,8.984498117894204e-14,8.491612415100828e-14,3.302126859743998e-14
0.0,20,20.0,0.0,30.0,0.0,0.0,0.0,0.0,-13.0,0.0,2.0,0.0,0.0,0.0,4.258946406585439e-12,2.265777263924041e-12,1.1788320719617177e-12,7.749642113981274e-13,5.430245054620485e-13,3.9348055435215765e-13,3.4739871795080437e-13,2.7434675245189736e-13,2.256200956257792e-13,1.7810636958068614e-13,1.5154885645538716e-13,1.024911925811688e-13,8.944566390970492e-14,6.433803392768128e-14,4.960413258695478e-14,4.1632023459617245e-14,4.297201891067631e-14,1.3098785586966586e-10,1.220709698333413e-10,9.906985989906712e-11,8.195958473130461e-11,5.7539275020079186e-11,4.3051439954915426e-11,3.1963396794582834e-11,2.041063736940078e-11,1.3423903110280469e-11,8.06718224670449e-12,4.204472569782914e-12,2.2965922125984414e-12,1.2272434203725744e-12,6.176561663928269e-13,5.065305486104686e-13,2.994324183750982e-13,2.511074733417413e-13,5.1948175472937085e-15,4.6989214443373895e-14,1.6503978690590751e-13,1.6344071041925394e-13
0.0,21,21.0,0.0,30.0,0.0,0.0,0.0,0.0,-13.0,0.0,2.0,0.0,0.0,0.0,4.5494399843027095e-12,2.184468745500401e-12,1.1558717525453064e-12,7.246779492523984e-13,4.715607380194652e-13,3.6344566171866894e-13,3.085911016978828e-13,2.4327820433091127e-13,1.8636323248118647e-13,1.689967483602809e-13,1.1061967967226644e-13,9.812329990577033e-14,8.009349580045148e-14,5.958033440381024e-14,5.295347359380417e-14,4.5466427275711784e-14,1.1979304114840719e-14,1.2979941068510036e-10,1.0612941311813625e-10,9.072437803943544e-11,7.041835839812345e-11,5.2380978229636854e-11,4.03232997763136e-11,3.0476970131519846e-11,2.0680677940444182e-11,1.3405189968890318e-11,7.702382624273042e-12,4.080505051805757e-12,2.437462516678791e-12,1.424845616898422e-12,8.365464930093237e-13,3.956084927689247e-13,3.712054218073719e-13,2.775579152645296e-13,1.720431707195335e-13,-2.3744442106246163e-14,1.1676226450339145e-13,-3.566735929951813e-15
0.0,22,22.0,0.0,30.0,0.0,0.0,0.0,0.0,-13.0,0.0,2.0,0.0,0.0,0.0,4.355531047950232e-12,2.2010330328749772e-12,1.0877133259209486e-12,6.675664164156033e-13,4.355488023821184e-13,3.392082376149263e-13,2.67412512828663e-13,2.0747065183441788e-13,1.857049058415687e-13,1.3448397919856227e-13,1.0765497658781011e-13,8.228951361003393e-14,6.478107758233055e-14,5.712340774608505e-14,4.408340457495428e-14,3.0634707893951096e-14,9.309055682849211e-15,1.2009126489141677e-10,9.717521187013092e-11,8.836719853092126e-11,6.726378551847981e-11,5.177682236411966e-11,3.825433103496765e-11,2.803458152268049e-11,1.990168317547205e-11,1.2864110545736353e-11,7.981976830454734e-12,4.2689040398390095e-12,2.5277353589432018e-12,1.1673138020025568e-12,6.04415125450035e-13,4.125975455987563e-13,2.0867243549036077e-13,1.7862028681109145e-14,1.6115683345875962e-13,1.3565761166365922e-13,1.1520201791720861e-13,-5.738648408321369e-14
0.0,23,23.0,0.0,30.0,0.0,0.0,0.0,0.0,-13.0,0.0,2.0,0.0,0.0,0.0,4.248712916375237e-12,2.1742261247958717e-12,1.1384153141616647e-12,6.498702988508049e-13,4.146503254132225e-13,2.977846571435758e-13,2.3281449694153454e-13,1.9507448270235122e-13,1.4455615885488815e-13,1.3566491976468506e-13,9.774414652967521e-14,8.674955235174803e-14,7.268611311171674e-14,4.4672531717068825e-14,2.835444141187514e-14,3.9884849577181883e-14,-7.794086791502548e-16,1.008399447240501e-10,9.361499279778362e-11,7.323655621726205e-11,5.954362335057867e-11,4.811511519411517e-11,3.659306809166356e-11,2.6178062462365977e-11,1.895222522214574e-11,1.2332248621534791e-11,7.89385012199414e-12,4.624584264163431e-12,2.5792341131084383e-12,1.2677696562940893e-12,7.354350615548821e-13,5.228692345884744e-13,2.840150771109536e-13,1.5861547302499138e-13,2.301018488085242e-13,2.827094043081168e-13,2.971834527139434e-15,-6.013425587714478e-14
0.0,24,24.0,0.0,30.0,0.0,0.0,0.0,0.0,-13.0,0.0,2.0,0.0,0.0,0.0,4.620972808680297e-12,2.2774911849906496e-12,1.171205388146003e-12,5.961629031603458e-13,3.920392287462226e-13,2.7825515460001914e-13,2.2476308200553508e-13,1.8389392222733785e-13,1.4423700017891599e-13,8.581482402715949e-14,9.454556623037788e-14,5.933272745403621e-14,5.847123820776189e-14,2.7916075527878886e-14,2.791948409800016e-14,3.6567732508472515e-14,3.0370598592438674e-14,9.557759647903849e-11,8.048401375924101e-11,7.305559334943055e-11,5.6415485459927506e-11,4.6110817165465716e-11,3.28379780301295e-11,2.4945976937701593e-11,1.8683108656048496e-11,1.1634560165121028e-11,8.20934231294207e-12,4.597820540616683e-12,2.750011561059097e-12,1.3229451595096764e-12,6.86560115484044e-13,4.304681812368809e-13,3.087328686781071e-13,-3.070632310001738e-14,1.6037545964176968e-13,8.682839808508104e-14,6.202975780570565e-14,5.4947207324032833e-14
0.0,25,25.0,0.0,30.0,0.0,0.0,0.0,0.0,-13.0,0.0,2.0,0.0,0.0,0.0,4.355647444938409e-12,2.285235783861982e-12,1.0866989187152354e-12,5.88284802583039e-13,3.794902817483489e-13,2.5921169277563756e-13,2.2766036507441116e-13,1.805465145911017e-13,1.1636763682158738e-13,9.647721023672982e-14,9.045711675165988e-14,6.087924924003175e-14,4.6385801412745654e-14,4.738425468627539e-14,1.4524510763233108e-14,3.1707828000918693e-15,1.7205495370331295e-14,9.10200331303647e-11,8.13835206227596e-11,6.337654094011527e-11,5.2242379424916123e-11,3.950654113141434e-11,3.105536761893377e-11,2.3417160124140798e-11,1.7910324348119625e-11,1.1789111894775479e-11,7.765405438829587e-12,4.748541078654971e-12,2.5805325502420476e-12,1.2130983506512218e-12,6.926488765444245e-13,5.937742606700879e-13,6.761399848261584e-14,1.664005417100678e-13,7.099391233245246e-14,7.056085504853837e-14,1.1349952175456972e-14,1.0488971147608675e-13
0.0,26,26.0,0.0,30.0,0.0,0.0,0.0,0.0,-13.0,0.0,2.0,0.0,0.0,0.0,4.397647506415449e-12,2.3027229412292895e-12,1.1021723650112625e-12,6.174732941548904e-13,3.6933070299167363e-13,2.516732461487795e-13,1.8695570313083513e-13,1.4102263870282143e-13,1.2498125849303766e-13,8.8239597969559e-14,6.407064147349157e-14,6.272195403990005e-14,4.0411017156827645e-14,4.04332311482932e-14,1.1413805987667124e-14,3.7635345452885793e-14,8.005605354549081e-15,8.249375730228715e-11,7.099072569134599e-11,5.977594004041925e-11,4.933053512145798e-11,3.908498874792324e-11,2.918964532630499e-11,2.3312089833176863e-11,1.579334513325831e-11,1.146324229349207e-11,7.838268411520706e-12,4.488710293553607e-12,2.621888057004607e-12,1.660343523812016e-12,5.339251867157356e-13,3.4208516047846256e-13,3.4872431908697146e-13,1.8663242601336276e-14,-2.0664912470598592e-14,9.162175577305129e-14,1.863800722185143e-14,-2.4022079424013437e-14
0.0,27,27.0,0.0,30.0,0.0,0.0,0.0,0.0,-13.0,0.0,2.0,0.0,0.0,0.0,4.420348871532917e-12,2.3321980323792683e-12,1.1867109382307133e-12,5.990633298465489e-13,3.5099703892771386e-13,2.2235946264329593e-13,1.735025048593317e-13,1.3871745287936733e-13,1.122831623633541e-13,1.0153466266031879e-13,6.70470937202842e-14,6.312151092327695e-14,3.72986404963573e-14,2.2679283922085114e-14,3.018299678047079e-14,1.4311611574157672e-14,2.0223111606290563e-14,7.734562056547822e-11,6.665642890228015e-11,5.785680712141528e-11,4.505533617282668e-11,3.4433658177154773e-11,2.8281221193389882e-11,2.0519548408605643e-11,1.582098590919821e-11,1.0965740179125656e-11,7.56117814175051e-12,4.592578479803446e-12,2.620809361068865e-12,1.2087708961736562e-12,7.541485918524843e-13,1.1354095831530498e-13,1.5942426595305267e-13,1.691682532186719e-13,1.2156312331130414e-13,-6.996419033337764e-14,1.2916261899494988e-14,6.878907013781555e-14
0.0,28,28.0,0.0,30.0,0.0,0.0,0.0,0.0,-13.0,0.0,2.0,0.0,0.0,0.0,4.471828436497006e-12,2.2652966880509715e-12,1.1931903874284948e-12,5.972372337332222e-13,3.302966093735599e-13,2.2175393516425548e-13,1.6363907203985463e-13,1.2051288468658298e-13,9.059273051520662e-14,7.931074298990038e-14,5.134930119248941e-14,5.12414165085904e-14,4.212560943570374e-14,3.49038347459435e-14,2.6484600910040924e-14,1.0061733524165656e-14,4.1626708058818496e-15,7.158184360377115e-11,6.280968442892613e-11,5.385007845420909e-11,4.231956908378767e-11,3.280585871150679e-11,2.635083642799232e-11,2.0262694320503007e-11,1.4976936617281934e-11,1.0120089524877019e-11,7.08169869574637e-12,4.404247542197858e-12,2.563713832596738e-12,1.440634128238505e-12,7.20651426983173e-13,3.7315760026215484e-13,4.2850656187002946e-14,5.825081700222672e-14,7.288878648184293e-14,7.170927691405648e-14,1.493377334453911e-13,-1.0552719705858636e-13
0.0,29,29.0,0.0,30.0,0.0,0.0,0.0,0.0,-13.0,0.0,2.0,0.0,0.0,0.0,4.389461894869975e-12,2.284159121540365e-12,1.2014237284631555e-12,6.664560928623842e-13,3.3281022972264135e-13,2.0033724938764773e-13,1.4665625251548278e-13,1.17037503960197e-13,8.98650509217101e-14,6.741085014467753e-14,5.986305930850873e-14,3.4574446262467105e-14,4.201206218708464e-14,3.450957315748904e-14,2.110582793574043e-14,2.092550007471304e-14,3.3139759921448415e-14,6.753491297406723e-11,5.682032073248726e-11,4.95163468238622e-11,3.7924540682170307e-11,3.054148056634648e-11,2.3736395331026514e-11,1.85227580209258e-11,1.384649071328124e-11,9.998021446435284e-12,6.9031158657785306e-12,4.425092165000424e-12,2.6225145576871297e-12,1.4032494494905969e-12,6.25208068344947e-13,2.2920808287252244e-13,3.4906411938174514e-13,1.3108253066846126e-13,1.3394553500483265e-13,2.4831756272690265e-13,4.606442245244612e-14,2.952158500228467e-14
0.0,30,30.0,0.0,30.0,0.0,0.0,0.0,0.0,-13.0,0.0,2.0,0.0,0.0,0.0,4.050671181657754e-12,2.297343062199374e-12,1.223147859937745e-12,6.160013995557525e-13,3.442878088922887e-13,2.290299005881631e-13,1.3077202960299494e-13,1.1173766127284905e-13,8.397572552147297e-14,5.689200802440447e-14,4.1550134946827605e-14,2.744633811113465e-14,3.645907232793156e-14,2.7533374707336986e-14,1.8926118425298425e-14,4.847545600813416e-16,-7.067518468373437e-15,5.952759257980305e-11,5.096498353630007e-11,4.4562634237926975e-11,3.5931750768538316e-11,2.947835154262186e-11,2.181942466029378e-11,1.6356125970514942e-11,1.3158558972479759e-11,9.40571920279669e-12,6.803745565126638e-12,4.256955412624564e-12,2.8061038188322806e-12,1.5898822775628416e-12,6.85773560578966e-13,3.8484392079129585e-13,6.004725546713412e-14,1.1690681186052992e-13,-1.1737600498555863e-13,-2.885442298014628e-14,-5.646797063036748e-14,1.9087058159038548e-13
0.0,31,31.0,0.0,30.0,0.0,0.0,0.0,0.0,-13.0,0.0,2.0,0.0,0.0,0.0,4.111438316238098e-12,2.334007478426493e-12,1.233952963918383e-12,6.547257050549448e-13,3.450924764747515e-13,1.959294430050921e-13,1.1699073699539583e-13,1.1214181488209691e-13,5.909153353586737e-14,4.11601845689977e-14,4.465620392436023e-14,3.426604984240198e-14,2.5919274460812214e-14,1.6456023352364192e-14,-8.454469263183023e-15,2.1301228291196152e-14,2.994451730626324e-16,6.204878156488489e-11,4.901800248461882e-11,4.209488677317476e-11,3.422558236299381e-11,2.7331058414684557e-11,2.2036451878050203e-11,1.6342650640895383e-11,1.2597904582372116e-11,9.363227825970551e-12,6.266319071893314e-12,3.915726213291998e-12,2.5947847074350207e-12,1.6222950125744045e-12,7.998135963457894e-13,6.193798618986271e-13,1.121653550348127e-13,1.1035156989737774e-13,-7.609128189327988e-14,1.0602740330556301e-13,1.2384220005940056e-13,-4.629087735942924e-13
0.0,32,32.0,0.0,30.0,0.0,0.0,0.0,0.0,-13.0,0.0,2.0,0.0,0.0,0.0,4.280185885865754e-12,2.321253483070867e-12,1.198920751121378e-12,6.162850136801479e-13,3.413634382532074e-13,1.9865854968982333e-13,1.1025437231794657e-13,8.777845793754906e-14,6.768233250692132e-14,7.589374924383742e-14,3.9088435403533237e-14,3.365310058056884e-14,2.117210029503132e-14,3.698994152274295e-14,3.1285045122716756e-14,2.0310254789184953e-14,-9.731988043731513e-15,5.391264974038553e-11,4.627625095160352e-11,3.947794941849116e-11,3.050610834741813e-11,2.5627034803811814e-11,2.0467672178426262e-11,1.5872825641752276e-11,1.2174419403516657e-11,9.196312236526918e-12,6.40627145581974e-12,4.0263291219078e-12,2.8033148076870953e-12,1.6406750898182805e-12,8.342715834786883e-13,5.453650922210272e-13,2.9749757571649427e-13,1.1434003118175845e-13,-2.4157108598950958e-14,1.3882459209983406e-13,2.7488601153849177e-14,1.3153833232654344e-13
0.0,33,33.0,0.0,30.0,0.0,0.0,0.0,0.0,-13.0,0.0,2.0,0.0,0.0,0.0,3.898216029998374e-12,2.184394342134332e-12,1.2720913697364669e-12,6.592536454513006e-13,3.3820022922509366e-13,1.9018341327583865e-13,1.0903342250229905e-13,9.550178915047384e-14,7.100279589908663e-14,6.057194674411191e-14,2.789383448916162e-14,3.654359843691744e-14,1.1189733843883753e-14,3.2136586015238254e-14,3.0382173092725957e-15,1.038944105724352e-14,1.367836484264304e-14,4.837553365797751e-11,4.39779662026683e-11,3.813334679941599e-11,3.0379029785775393e-11,2.2727615879431155e-11,1.851642820698279e-11,1.4613750860547258e-11,1.1303054814172074e-11,9.105549716616502e-12,6.111193484454061e-12,4.194592904116955e-12,2.6891402114028993e-12,1.5871112832771648e-12,6.461110664051307e-13,3.212145847544055e-13,1.72331012490407e-13,1.3737125791541739e-13,-2.3912930983568928e-14,1.1924741418950704e-14,2.2996694154226906e-13,1.657804891122686e-13
0.0,34,34.0,0.0,30.0,0.0,0.0,0.0,0.0,-13.0,0.0,2.0,0.0,0.0,0.0,3.5347092381844612e-12,2.232683772872042e-12,1.2709361935435727e-12,6.296308303220046e-13,3.6507248197746526e-13,2.0045936028600976e-13,1.0849601019326633e-13,9.032337109071881e-14,6.51640829896942e-14,5.600757868477173e-14,5.1563773523416385e-14,2.5041129212058403e-14,5.670377971895695e-15,2.4815260181378093e-14,4.312838890696829e-15,2.464272518508804e-15,1.106730757685637e-14,4.4668416552699567e-11,4.0199120550344604e-11,3.580598883009447e-11,2.7659886866960694e-11,2.262498242534639e-11,1.7598837707188646e-11,1.4370159719032828e-11,1.0697792911297954e-11,7.799274131973297e-12,5.821154172385332e-12,3.935098635282896e-12,2.825245411253484e-12,1.6510915731225566e-12,9.386197467513392e-13,3.6079270989037166e-13,2.3854394396760067e-13,1.1493577158140593e-13,-1.9157442470963488e-14,2.468244957349975e-14,4.543385970995753e-14,-4.1922073744749557e-14
0.0,35,35.0,0.0,30.0,0.0,0.0,0.0,0.0,-13.0,0.0,2.0,0.0,0.0,0.0,3.654919517482799e-12,2.2344589749479587e-12,1.2366409265223882e-12,6.639517009387631e-13,3.481769902359295e-13,1.8145083561519751e-13,1.3263811266179302e-13,6.993364721565706e-14,6.985487533561721e-14,4.3305152044033044e-14,4.4089690480279046e-14,2.6428587559152204e-14,2.5121719386049453e-14,2.826845026558226e-16,1.4478319379358342e-14,1.0483209362703615e-14,1.1955359794793092e-14,4.221263180843777e-11,3.662081630955556e-11,3.448990555741305e-11,2.5596181995450333e-11,2.2402321832021523e-11,1.7097675450478978e-11,1.3036924457023937e-11,9.417743032360426e-12,7.0456420310151466e-12,5.695801388884238e-12,3.794425128522612e-12,2.2501667957115504e-12,1.592946129572099e-12,8.320552227032929e-13,3.5226262997089005e-13,3.7089072587852106e-13,2.9116100072007866e-13,5.3748521351931505e-14,-5.430407155581773e-14,1.0217660375070567e-13,1.0818440083794165e-13
0.0,36,36.0,0.0,30.0,0.0,0.0,0.0,0.0,-13.0,0.0,2.0,0.0,0.0,0.0,3.782825787438871e-12,2.2351656493906934e-12,1.228798110059277e-12,6.89891492742506e-13,3.4439233668666845e-13,1.9423970532131628e-13,1.1408521221662277e-13,7.29081432963209e-14,5.5696611459953034e-14,5.006057872434856e-14,3.552264021312337e-14,2.0565012084233242e-14,2.631652634017774e-14,1.1173510427372783e-14,2.0210459994900537e-14,1.8159922995627164e-14,-2.402959527606533e-15,3.987658700423106e-11,3.5102925113257e-11,3.094738759391898e-11,2.4687359941264013e-11,1.9948190090183242e-11,1.545178657374615e-11,1.1403657375481753e-11,9.30107834551939e-12,7.07739409304052e-12,5.353781730395105e-12,3.3410990522741225e-12,2.286677718926378e-12,1.5570112094906831e-12,9.60706600311034e-13,6.208245008733876e-13,1.0590187775561807e-13,1.6565162646676428e-13,2.1644458102701758e-13,-1.1220100442334128e-14,2.8010538433620614e-14,-1.2116948224237637e-13
0.0,37,37.0,0.0,30.0,0.0,0.0,0.0,0.0,-13.0,0.0,2.0,0.0,0.0,0.0,3.5034076603038235e-12,2.1599179427758322e-12,1.1818757788343295e-12,6.832237984158225e-13,3.557668651772231e-13,1.9665563502088184e-13,1.0871633540425923e-13,7.148371158621561e-14,3.7806409097382955e-14,3.7599903515810363e-14,3.6639345405654385e-14,1.155684745995891e-15,2.670706103616866e-15,2.8061842903687532e-15,1.834141308673588e-15,3.5485379023324537e-15,1.8915559598092172e-14,3.677986376057321e-11,3.2467429310198004e-11,2.7858959157685855e-11,2.4579329470224524e-11,1.857629775066548e-11,1.494128306684898e-11,1.1666655002329993e-11,9.113737113279676e-12,7.091042379773306e-12,5.172304635073882e-12,3.6782290607612765e-12,2.634974222720783e-12,1.6443632157750622e-12,7.982131746185622e-13,5.820772296549594e-13,4.619710517486514e-13,5.654941523297691e-14,6.843646649615903e-14,-7.915422035405947e-14,1.199808251669658e-14,5.113299021989347e-14
0.0,38,38.0,0.0,30.0,0.0,0.0,0.0,0.0,-13.0,0.0,2.0,0.0,0.0,0.0,3.4104241360452703e-12,2.16247333088968e-12,1.1956956299092054e-12,6.545584479624882e-13,3.491691229389176e-13,1.966045837926822e-13,1.1223600616190002e-13,8.140105562021709e-14,3.910290836942096e-14,2.348077486031482e-14,2.967311364821232e-14,3.5572556227220504e-14,2.366041506046932e-14,1.53827701154554e-14,6.641353876811855e-15,-4.393397523070904e-15,2.12415079348286e-14,3.66484919416235e-11,3.093854857265839e-11,2.6207407331784317e-11,2.1781729898428426e-11,1.763738160662026e-11,1.4135211867601832e-11,1.0736323256693704e-11,8.587715934890012e-12,6.807649368145239e-12,4.869363491506961e-12,3.5232290533392526e-12,2.3502775906169593e-12,1.5252602583248326e-12,9.374594382560392e-13,4.705989357277656e-13,1.693159500578409e-13,2.984495422997106e-13,-9.534267720124477e-14,-2.314725995566506e-14,5.735458151806663e-14,-2.7798697836544076e-14
0.0,39,39.0,0.0,30.0,0.0,0.0,0.0,0.0,-13.0,0.0,2.0,0.0,0.0,0.0,3.1647761110717826e-12,2.0677537625720254e-12,1.2616620497796392e-12,7.39041799082232e-13,3.569718029963912e-13,2.02849178034496e-13,9.882202926383393e-14,5.834136875589528e-14,3.205607386527458e-14,3.7631763733403584e-14,3.915107520128236e-14,2.5313177269778323e-14,1.2399359775255165e-14,1.0583015350785899e-14,9.300561409458646e-16,1.4701489198103869e-16,1.4621376930979874e-14,3.250968252858842e-11,2.81241656419999e-11,2.5314085997232936e-11,1.9986626585285754e-11,1.7071898435614128e-11,1.3545137749732e-11,9.908997523112052e-12,8.158767285549244e-12,6.483938734568452e-12,4.4949023201036416e-12,3.421513724090797e-12,2.1011827873869236e-12,1.5129380555268578e-12,1.0367795085437937e-12,5.472049267070682e-13,2.507113720009424e-13,2.6927699292966364e-13,-3.6886109241648727e-14,1.7233224980693024e-13,4.5428981413541235e-14,-1.3422135241629731e-13
0.0,40,40.0,0.0,30.0,0.0,0.0,0.0,0.0,-13.0,0.0,2.0,0.0,0.0,0.0,3.0901567552137642e-12,2.026604269341143e-12,1.2091907869590993e-12,7.168116526941369e-13,3.869132455856986e-13,1.7796137986693632e-13,1.1597832509700982e-13,7.127330311685565e-14,4.0228715464745216e-14,2.4370895936782243e-14,1.3105170697602572e-14,2.3875537380545065e-14,5.282642842411645e-15,3.492406108364346e-15,1.320769142794403e-15,-1.481287837749411e-14,1.482115567140401e-14,3.142938044244138e-11,2.7546052773599552e-11,2.4057108604383447e-11,1.960402180536345e-11,1.5838197942437665e-11,1.2666789642845545e-11,9.912042397679729e-12,7.377258511330459e-12,5.804542330323776e-12,4.3862320007401674e-12,3.039000616551121e-12,2.2829384294972908e-12,1.4714133688144979e-12,9.256355598804129e-13,4.94559535150872e-13,3.8767732301622333e-13,2.6989038965238433e-13,-1.2315034306302302e-13,-1.295770911918775e-14,-2.7196087925363144e-14,1.4015083456441476e-13
0.0,41,41.0,0.0,30.0,0.0,0.0,0.0,0.0,-13.0,0.0,2.0,0.0,0.0,0.0,3.1341112128198755e-12,1.9268127013516364e-12,1.167274451801328e-12,6.283501687814524e-13,3.789686555691086e-13,1.9133546383144746e-13,1.1872577164748572e-13,5.505186628424173e-14,3.8866384698365455e-14,2.350446950234478e-14,1.4213028782729702e-14,2.702657202737556e-14,2.5608276977436027e-14,5.858697375719355e-15,4.053336380293472e-15,-3.3248087847568367e-15,3.974228898669479e-15,2.8073003240630525e-11,2.4534938581774128e-11,2.2114776124410487e-11,1.9429722908777032e-11,1.4819300022529925e-11,1.1349616567346468e-11,9.527105041319372e-12,7.1451375620826225e-12,5.39940510874232e-12,4.2653551131080774e-12,3.108461513222191e-12,2.1937377044844044e-12,1.2720621566752877e-12,8.167884723773058e-13,5.170305072254477e-13,2.087972745386728e-13,1.6949557056870978e-13,6.789303732219453e-14,6.193734305779598e-14,8.190425057675238e-14,-1.6752077088165698e-13
0.0,42,42.0,0.0,30.0,0.0,0.0,0.0,0.0,-13.0,0.0,2.0,0.0,0.0,0.0,2.7896810369581592e-12,1.857636825926165e-12,1.1790055908648263e-12,6.511783522083038e-13,3.447574601402078e-13,1.955333706986845e-13,1.0896482367885957e-13,5.09469100044969e-14,4.0192608597989156e-14,2.7999634294481738e-14,4.631332968752471e-14,1.158123727092372e-14,-5.582879502667444e-15,1.5767083082040733e-14,3.553655621151888e-15,2.740764719885925e-15,-6.7973062422174224e-15,2.686171562763569e-11,2.3777381837262126e-11,2.0544349405614082e-11,1.6363163357364943e-11,1.3055547124383901e-11,1.0932123237821497e-11,8.819395148329504e-12,6.686320612784795e-12,5.055669225646743e-12,3.992523771112169e-12,2.9006421131843337e-12,2.1219662872677315e-12,1.2890451950413413e-12,7.512625315454358e-13,5.432824955413013e-13,1.9227997905192694e-13,7.858658430099631e-14,1.3134866659019323e-13,2.2155550815201447e-14,-6.393269403908012e-14,-9.271766427249832e-14
0.0,43,43.0,0.0,30.0,0.0,0.0,0.0,0.0,-13.0,0.0,2.0,0.0,0.0,0.0,2.576150172736352e-12,1.960769907967483e-12,1.1283010434696629e-12,6.357624266323689e-13,3.827110348905116e-13,2.0462937290337023e-13,1.1084467829477049e-13,6.476350880956965e-14,4.8400745381479034e-14,2.7943710885487152e-14,3.524691436318962e-14,2.255809940335045e-15,8.924398468125535e-15,-2.8187954084547083e-15,-7.0635272372040075e-15,1.1681603534913561e-14,6.034065766395062e-15,2.5454741583298196e-11,2.2332154405118366e-11,2.033086105290382e-11,1.5757859764980547e-11,1.3714826691679267e-11,1.0516941996674451e-11,8.750324500299175e-12,6.559539280981463e-12,5.351226308351923e-12,3.797928465258828e-12,2.7311162829569444e-12,2.1340117265339094e-12,1.4746827714016158e-12,7.616369857554279e-13,5.643260308911279e-13,2.3922109142349595e-13,7.522125988248783e-14,1.5726953695659644e-13,-6.518751425876803e-14,-2.095380578025144e-14,-3.5027945895906466e-14
0.0,44,44.0,0.0,30.0,0.0,0.0,0.0,0.0,-13.0,0.0,2.0,0.0,0.0,0.0,2.687606568019852e-12,1.7919250645182425e-12,1.0726671462050396e-12,6.820578714917547e-13,3.942414731033835e-13,2.0201833538156408e-13,9.601465191952932e-14,4.999705919591254e-14,4.271764995253974e-14,1.0467006933154773e-14,-5.5596597588003715e-15,1.0194155787912608e-14,2.2446964770286442e-14,-6.081836490745993e-15,1.8371224983031736e-14,-1.633625886887373e-14,-6.104720225901506e-15,2.368512895702356e-11,2.0917819564984985e-11,1.8704627202708777e-11,1.5045683205586867e-11,1.2213094379998773e-11,1.0075926228855762e-11,7.769542195562693e-12,5.871382802487053e-12,4.671430260407439e-12,3.977733262919033e-12,2.61674086609979e-12,1.967609225433852e-12,1.2744751751601946e-12,9.560104250985556e-13,3.686772911328852e-13,1.3372064828720994e-13,1.083238000832568e-13,8.569159903457586e-14,1.4207567722008318e-13,1.72903849310357e-13,-4.781048494171443e-14
0.0,45,45.0,0.0,30.0,0.0,0.0,0.0,0.0,-13.0,0.0,2.0,0.0,0.0,0.0,2.498763157238402e-12,1.8283136193484367e-12,1.0986703637082748e-12,6.83091524931733e-13,3.652438022456283e-13,2.1004586847715627e-13,9.178497357082505e-14,5.908071845035787e-14,2.5931023996810586e-14,2.8366147828346302e-14,3.586739088215398e-15,1.0055863710221886e-14,4.759143134941839e-15,1.489934757083575e-14,5.386104150652882e-15,6.171685240732849e-17,-4.1856855762464306e-16,2.26295138489797e-11,1.907238694244222e-11,1.8515633356619754e-11,1.48919829016487e-11,1.1849812173392974e-11,9.756603445481133e-12,7.450429996436238e-12,5.973852126568923e-12,4.528977427152403e-12,3.488636965677247e-12,2.676709510208184e-12,2.1856717779673628e-12,1.2899744689379105e-12,8.328791333782656e-13,6.809831395924937e-13,3.1952504813224145e-13,4.662606074666063e-13,-2.4770439791845175e-13,1.3277197627076787e-14,-1.2670399375207808e-15,1.7480341332193137e-13
0.0,46,46.0,0.0,30.0,0.0,0.0,0.0,0.0,-13.0,0.0,2.0,0.0,0.0,0.0,2.435514145748731e-12,1.7688117416778585e-12,1.0747931901352316e-12,7.138040209558575e-13,3.835609188973402e-13,1.9042219609774418e-13,1.1908055010751927e-13,4.7565350971833226e-14,1.8828870738943742e-14,2.6975308688481212e-14,2.6983634229095807e-14,1.6322649644382302e-14,2.6242515219262906e-14,1.1979876377308138e-14,9.239011652926879e-15,-8.40695661661323e-15,4.663677316675992e-15,2.1231294355959015e-11,1.809862535237009e-11,1.7119874974967974e-11,1.4011667177676873e-11,1.1239885964534727e-11,8.277267959786029e-12,7.354919058841083e-12,5.672287114595486e-12,4.419661089103973e-12,3.3589905734207914e-12,2.565902682706452e-12,1.9165194869242856e-12,1.2973789326512828e-12,7.623703907789765e-13,4.3749750587146185e-13,3.155198275794402e-13,2.360318288231595e-13,6.293528849759096e-14,1.1000987529746042e-13,4.15164818322279e-14,1.0595962943796146e-13
0.0,47,47.0,0.0,30.0,0.0,0.0,0.0,0.0,-13.0,0.0,2.0,0.0,0.0,0.0,2.361916550472498e-12,1.5899884329477927e-12,1.0382274122738627e-12,6.349105307508472e-13,3.5318448197727404e-13,1.9860982808997453e-13,1.2142323686876502e-13,6.180966438982377e-14,2.2595019521147313e-14,2.4703552044132987e-14,1.701345153465533e-15,1.0900416109746457e-14,1.5776629475467348e-14,1.2435338390085907e-14,-8.851443674955279e-15,-6.4636113562331835e-15,4.5601401679846615e-16,2.1495926397637082e-11,1.698189413413857e-11,1.6253323846975776e-11,1.2734985834996729e-11,1.0334085669686956e-11,8.465279728673505e-12,6.828612163731036e-12,5.469045789773006e-12,4.198686384772577e-12,3.371348782318316e-12,2.5670463719800294e-12,1.7386439480246667e-12,1.2619380256648737e-12,8.974718384533392e-13,2.1515575218717493e-13,8.668114149732945e-14,1.1888740251986596e-13,5.08543578371274e-14,6.229219090793864e-14,1.1282506525677361e-13,4.8605166967557e-14
0.0,48,48.0,0.0,30.0,0.0,0.0,0.0,0.0,-13.0,0.0,2.0,0.0,0.0,0.0,2.291376542643007e-12,1.6182007856345613e-12,1.0113990293132884e-12,6.343828608934866e-13,3.5296026881383977e-13,1.9661840844539623e-13,1.1026496731482507e-13,3.938639553146959e-14,4.285044230308713e-14,1.7826612993425067e-15,3.237500002291366e-15,-1.5332996451454336e-15,3.5848807920787826e-14,2.7371383867723508e-15,2.554944878514162e-15,-1.3908146123065845e-14,-6.3011258227451546e-15,1.7949756562043624e-11,1.6466319199215268e-11,1.5297760340746126e-11,1.2420045330826969e-11,1.0246709061725851e-11,7.983364637495746e-12,6.956028969310127e-12,5.034266813226369e-12,4.092753898682022e-12,3.0717934687692626e-12,2.3707096120780307e-12,1.7450569599463346e-12,1.1202534715327446e-12,6.250874795962481e-13,5.373865896334159e-13,1.6836975424415422e-13,9.452605450881359e-14,1.0183181426166797e-13,-3.081523162088575e-14,-5.0151114974887895e-14,-1.9702055115126827e-13
0.0,49,49.0,0.0,30.0,0.0,0.0,0.0,0.0,-13.0,0.0,2.0,0.0,0.0,0.0,2.190779492590338e-12,1.4710883163101958e-12,1.0119616617386558e-12,6.462616045245816e-13,3.856667977615284e-13,2.0032163464182104e-13,1.266686319233685e-13,4.865939234422326e-14,3.196188442748703e-14,9.681859962398018e-15,2.7494599626174288e-14,-5.0598075238189554e-15,8.394500870364989e-15,1.5986375777964148e-14,1.1330998100445128e-14,7.916397253879345e-15,7.102776026628757e-15,1.8241651661162177e-11,1.566758410245964e-11,1.4465111990636905e-11,1.1917982106593643e-11,8.93591177214257e-12,7.738804608972026e-12,5.967031267936439e-12,4.639054492777367e-12,3.739459529297409e-12,2.9177740555384455e-12,2.495305037966737e-12,1.7465699630558156e-12,1.3024382450634463e-12,6.282057086083105e-13,6.694070723077513e-13,3.68841474945982e-13,4.3598288215424096e-14,1.7707275994682412e-13,9.612870778774868e-14,-8.69430869632729e-14,-7.388304211924981e-14
0.0,50,50.0,0.0,30.0,0.0,0.0,0.0,0.0,-13.0,0.0,2.0,0.0,0.0,0.0,2.1612674020615197e-12,1.4909157896157178e-12,1.0046741548267107e-12,6.371605972876769e-13,3.933513206089886e-13,2.0813144187776763e-13,1.147714056314172e-13,5.329986720197528e-14,4.47755312380421e-14,2.1799101094193356e-14,2.2931731854328113e-14,1.738746743938631e-14,1.761753414257002e-14,9.370038163149445e-16,5.021774708176562e-15,3.2199157915172135e-15,9.079227524845668e-15,1.6646253246880963e-11,1.5707654197006562e-11,1.435683185400736e-11,1.1343173002492141e-11,9.058286177901038e-12,7.168152113616813e-12,5.734042803296636e-12,4.501268938300307e-12,3.707993379326591e-12,2.8266071287626953e-12,2.3236255344084736e-12,1.5562241956139806e-12,1.1390663836538523e-12,6.946762424495765e-13,4.985753029671609e-13,2.8965378991306245e-13,6.009484475995063e-14,3.127882381175705e-14,3.5776576386769507e-14,-7.89109839142203e-14,1.7334214590829953e-13
0.0,51,51.0,0.0,30.0,0.0,0.0,0.0,0.0,-13.0,0.0,2.0,0.0,0.0,0.0,2.0244603507842175e-12,1.3968946838535e-12,8.944920535064232e-13,6.05785739629791e-13,3.680630074453596e-13,1.963932581154094e-13,1.1357000130938164e-13,6.748593889861494e-14,3.685644478109623e-14,2.595180727389064e-14,1.7039597585771965e-14,-5.999453118915575e-15,1.0968220959708192e-14,7.051520165763309e-15,7.934348904871197e-15,1.2054265979702423e-14,-1.1918457859610888e-14,1.7001795348868556e-11,1.450565803430555e-11,1.2791696992365193e-11,1.0892867741506439e-11,8.45084618339211e-12,6.808537317113545e-12,5.7738340017675e-12,4.332403927363762e-12,3.355046834978644e-12,2.7545614784984473e-12,2.0839158215557955e-12,1.5455088534308743e-12,1.1564590961728429e-12,7.807734146582417e-13,6.266316877482762e-13,2.5689315595042363e-13,2.1376271215498692e-13,7.541174459356838e-14,-1.1798730908964364e-13,-2.402165214961848e-14,-3.658739821347986e-14
0.0,52,52.0,0.0,30.0,0.0,0.0,0.0,0.0,-13.0,0.0,2.0,0.0,0.0,0.0,1.807493476680988e-12,1.3815824979952998e-12,9.125703268006902e-13,5.761280509375011e-13,3.5028916735125025e-13,2.1164765516816577e-13,1.0685817092958472e-13,7.189354545928623e-14,4.1167922201710873e-14,7.689075276017436e-15,7.660530058322097e-15,8.730019969557358e-15,2.1920044990766504e-14,-3.854710530055829e-15,7.558013080337761e-15,-8.814946665332611e-15,1.4235319667797598e-14,1.5869749259829163e-11,1.3666802162863333e-11,1.214409975966321e-11,1.0542650030591346e-11,8.337144112863495e-12,6.450713490104023e-12,5.118263767517201e-12,4.050646815725835e-12,3.4459370377384543e-12,2.631659643577763e-12,2.1264255803546613e-12,1.457966645920189e-12,1.3117058191191716e-12,7.794795686165873e-13,2.7845471890663394e-13,4.3261465575428266e-13,1.0187036797047236e-13,-1.4309888425381365e-14,3.3609480209298847e-14,-2.008212591358863e-14,6.436760352878468e-14
0.0,53,53.0,0.0,30.0,0.0,0.0,0.0,0.0,-13.0,0.0,2.0,0.0,0.0,0.0,1.9007654453383356e-12,1.3623715092793604e-12,9.35266010278541e-13,5.748244223918934e-13,3.6424393260691045e-13,2.2406189195680783e-13,1.0129524907676249e-13,6.443435291837812e-14,2.7654664641687648e-14,2.0363055639235783e-14,2.099209587373521e-14,4.870868220510004e-15,1.647690464474555e-14,-9.094664786813747e-15,5.7770606487580465e-15,1.8980131814343318e-14,-5.577456139335707e-15,1.529095207515853e-11,1.3138942570023567e-11,1.1454395756851349e-11,9.166691585265545e-12,7.451384430495267e-12,6.069343412815741e-12,5.1085355353379395e-12,3.853447840876973e-12,3.091501295793e-12,2.510676522452576e-12,1.847258995094791e-12,1.4045989831856237e-12,1.0215266315002196e-12,7.152462148515137e-13,5.945382144093514e-13,5.106210979488465e-13,1.2937793201084164e-13,1.7660358545276158e-13,-1.6267760092873007e-14,1.0635730632671054e-13,1.148236619059728e-13
0.0,54,54.0,0.0,30.0,0.0,0.0,0.0,0.0,-13.0,0.0,2.0,0.0,0.0,0.0,1.859697866395559e-12,1.2677524506553344e-12,8.603654589172656e-13,5.866724321772401e-13,3.4767131021558476e-13,1.8345895488763061e-13,1.2501293917503935e-13,6.767950244885283e-14,4.902032441778132e-14,2.3494619678596084e-14,1.2588652377977338e-14,3.537150582813854e-14,-1.1982036324646739e-14,1.6006495773280675e-14,1.4148490198532733e-14,-7.817873609493119e-15,2.5822845267533514e-14,1.4099852719318371e-11,1.2215198673186835e-11,1.0931102845045976e-11,8.970770478754345e-12,7.061612837814103e-12,6.164842097990817e-12,4.893309537819221e-12,4.0465414497408876e-12,2.9556188252768995e-12,2.378967813790425e-12,1.7650501150258577e-12,1.3641598256949963e-12,9.67528407480039e-13,7.707004102122928e-13,7.073551111061073e-13,2.0578132122084298e-13,2.0616841593807705e-13,1.75527684861824e-13,2.1299417253852203e-13,-6.77866350066489e-14,-2.4498802157074854e-14
0.0,55,55.0,0.0,30.0,0.0,0.0,0.0,0.0,-13.0,0.0,2.0,0.0,0.0,0.0,1.691540943890256e-12,1.2883368870537185e-12,7.703564583423335e-13,5.767218063373714e-13,3.5702637073832653e-13,2.313591831530806e-13,1.1631981440083966e-13,4.956433639736615e-14,5.265755783050476e-14,2.7148024165806362e-14,1.3254533510573915e-14,2.055690742436892e-14,-8.801114428624202e-16,6.328373706159693e-16,2.3979004188272262e-14,2.0168412536171683e-14,3.044265480441339e-14,1.3815556866693437e-11,1.1311136271389879e-11,1.0199610247813509e-11,8.235342187482702e-12,6.6768447318475376e-12,5.692951117205584e-12,4.594916516061598e-12,3.5721951475137743e-12,2.9223280016278807e-12,2.320682933840238e-12,1.718382049519736e-12,1.4274202734775379e-12,1.1953632023358689e-12,6.647393533860846e-13,5.891327843660961e-13,2.523185692882227e-13,2.260039235011061e-13,2.544407102540842e-13,8.164414141427703e-15,-7.59802932516059e-14,-1.3646584576673587e-14
0.0,56,56.0,0.0,30.0,0.0,0.0,0.0,0.0,-13.0,0.0,2.0,0.0,0.0,0.0,1.6002230837170722e-12,1.1592017788175728e-12,8.257177719997383e-13,5.124474337707717e-13,3.6892746676639507e-13,2.13438176302336e-13,1.1173637913336236e-13,7.248293082359761e-14,3.90775435352305e-14,2.1988309060762107e-14,2.224439168059592e-14,1.7784504790555515e-14,8.640146184424641e-15,3.634176061895137e-15,3.917275124271278e-15,8.103234421944526e-15,1.482918307836593e-16,1.2857284432538923e-11,1.0817688194371706e-11,9.803047303227962e-12,8.086203199438175e-12,6.8425437881778214e-12,5.145375027309827e-12,4.693421673217865e-12,3.611636179575826e-12,2.7710508642611484e-12,2.1940102617553093e-12,1.706982211663704e-12,1.4400999267074477e-12,1.0533253746023344e-12,7.123411360405309e-13,3.197121487757938e-13,4.067453338646677e-13,1.4125879869854198e-13,-3.713063501155197e-14,-2.028419313919544e-14,-3.091567556384739e-14,-3.0107001581689346e-14
0.0,57,57.0,0.0,30.0,0.0,0.0,0.0,0.0,-13.0,0.0,2.0,0.0,0.0,0.0,1.6268073976687085e-12,1.1292825139866284e-12,8.088004747562334e-13,5.898597322802096e-13,3.733658360107591e-13,1.9777310989657878e-13,1.0688157614975096e-13,6.370771776978705e-14,2.6733336630558867e-14,1.8383622841348177e-14,-2.9928287405257778e-15,1.0806201243731198e-14,-5.556098611840677e-15,3.5229603040211706e-15,-4.156793308138195e-15,-1.2021305015105586e-14,-9.023410871026655e-15,1.2606420404193422e-11,9.929781274513326e-12,9.707602031338254e-12,8.083917954550029e-12,6.276669394408172e-12,5.172594567485198e-12,4.164980022757905e-12,3.2048675631326034e-12,2.7544302136391765e-12,2.053975141225401e-12,1.6936626994273214e-12,1.2196639481918106e-12,8.281476134176471e-13,7.514400450201638e-13,6.421092079199097e-13,1.9072740370204317e-13,1.1289421570523721e-13,2.5643506962159986e-13,2.485054428280604e-13,-3.340868556193643e-14,1.1467908393424766e-14
0.0,58,58.0,0.0,30.0,0.0,0.0,0.0,0.0,-13.0,0.0,2.0,0.0,0.0,0.0,1.5669085866528392e-12,1.150880369691624e-12,8.082699748163738e-13,5.351678219924055e-13,3.3738245961264204e-13,2.128408644244825e-13,1.157585987577456e-13,5.815556179974347e-14,2.323322703406775e-14,2.363970529795901e-14,1.8197244997903313e-14,-5.42102655550403e-15,2.4234187985942762e-14,1.2538984262222164e-14,-2.944951675990702e-14,1.9213121963298177e-14,4.164414423071839e-15,1.2354410403752517e-11,1.0318797221485322e-11,8.873015964958261e-12,7.92939419691656e-12,6.183757085075727e-12,4.8183195981296245e-12,3.944495371906222e-12,3.154251212600534e-12,2.3978061723690657e-12,2.088397376191072e-12,1.6029715141530656e-12,1.111215337342859e-12,9.021203207533343e-13,5.210273395669997e-13,3.3683455920333735e-13,1.358275294904942e-13,1.1005914858647178e-13,-5.004058354531166e-14,-1.1154659800177715e-13,1.1245116963712145e-13,7.940980338153125e-14
0.0,59,59.0,0.0,30.0,0.0,0.0,0.0,0.0,-13.0,0.0,2.0,0.0,0.0,0.0,1.501654699285008e-12,1.0641670527104019e-12,7.473797174589387e-13,5.196755155728346e-13,3.2574517968015644e-13,2.031445539878311e-13,1.1939386878952104e-13,7.279058477937923e-14,4.049306076606269e-14,3.084972636512005e-14,1.9938171552439326e-14,5.812275066972905e-15,1.3360263167320404e-14,9.052439229563437e-15,5.126001743824841e-16,3.48202847315018e-15,7.922084486016863e-15,1.1713459377649597e-11,9.336774466068298e-12,9.112358816824154e-12,7.477829088965283e-12,5.9395999845955425e-12,4.358836016796974e-12,4.182744624065756e-12,3.3183003918152768e-12,2.44732782007068e-12,2.0758786775305267e-12,1.5220214944850823e-12,1.1164730494897198e-12,9.396739260084004e-13,5.431137539553685e-13,5.955009725458732e-13,2.761049019546485e-13,1.4616436369528048e-14,1.3766340685124198e-13,-6.02552397531388e-14,-2.9569336955981883e-15,-1.098102177971709e-13
0.0,60,60.0,0.0,30.0,0.0,0.0,0.0,0.0,-13.0,0.0,2.0,0.0,0.0,0.0,1.4827831082012838e-12,1.042005115693395e-12,6.875223721868801e-13,5.185177580541178e-13,3.109997433834982e-13,2.103931729515785e-13,1.4093890106452594e-13,4.491259051528963e-14,3.4700745683621084e-14,6.3697998377646525e-16,4.262362315622459e-15,2.8256315187807577e-15,6.149783327395314e-15,1.015633642515867e-14,2.2241594155612228e-14,-2.669074325539837e-15,1.9916707538855973e-14,1.158313990493239e-11,8.866639981461664e-12,8.36729237298749e-12,6.70953142084264e-12,5.5186646561602835e-12,4.5108120482537016e-12,3.4434968124588468e-12,3.000414093515007e-12,2.1363302611552016e-12,1.6265614547182408e-12,1.2983482406224008e-12,1.1723527194237088e-12,7.735071896762333e-13,6.088306825109981e-13,5.227191948733693e-13,4.5380621593794347e-13,2.95754418874092e-13,2.3496738280893585e-14,1.332492726915652e-13,9.236629283707216e-14,2.156157655035121e-13
0.0,61,61.0,0.0,30.0,0.0,0.0,0.0,0.0,-13.0,0.0,2.0,0.0,0.0,0.0,1.3246633487159027e-12,1.0103624419401696e-12,7.232875714293427e-13,5.028096804899602e-13,3.024771292010093e-13,1.9061826737491097e-13,1.1312190095883774e-13,6.317019685418205e-14,2.8045372744083543e-14,5.1020599079261114e-15,2.8195804323733875e-14,-8.438427573477426e-15,2.8478109831833624e-15,-5.121972458766727e-15,-6.479972218376619e-15,1.7014136442896038e-15,-8.756912863179003e-15,1.0938833602874055e-11,8.902061637254143e-12,7.950945471608824e-12,6.658077982122918e-12,5.491884577930932e-12,4.422010771038164e-12,3.3824042621271934e-12,2.792432854766764e-12,2.3459401544034807e-12,1.7266764770549316e-12,1.5043585334941325e-12,1.1344315501941162e-12,6.861050356121131e-13,4.554360673706619e-13,5.457251828844674e-13,2.523418801681118e-13,6.547138515541866e-14,1.121614443899196e-13,-1.1593415543142385e-13,-1.253206212033819e-13,6.727534320978909e-14
0.0,62,62.0,0.0,30.0,0.0,0.0,0.0,0.0,-13.0,0.0,2.0,0.0,0.0,0.0,1.3164495915635044e-12,9.739721238903735e-13,6.738855231142295e-13,4.86249362389525e-13,3.4606494436395867e-13,2.202897033088224e-13,1.1741422004789537e-13,8.14762585702881e-14,5.963161458890084e-14,2.069205549993269e-14,6.406556565809274e-15,3.0038096728882097e-15,1.2537562243971533e-14,1.2621260536921291e-14,1.1989906762846873e-14,2.1712356689981023e-14,1.8374613835439302e-14,1.104051606007055e-11,8.363846619734689e-12,7.582025171127777e-12,6.244578653320491e-12,5.1455232533551685e-12,4.185428240632794e-12,3.402403095586152e-12,2.803228141360455e-12,2.063506971166438e-12,1.6323690372466118e-12,1.4868564700094547e-12,9.30459163072299e-13,7.659546982533948e-13,7.240719694022737e-13,2.700823490932051e-13,2.468791406762708e-13,1.2996697941681489e-13,6.939920377332399e-15,9.893704112889755e-14,3.4579851752933413e-14,-8.237953148279566e-14
0.0,63,63.0,0.0,30.0,0.0,0.0,0.0,0.0,-13.0,0.0,2.0,0.0,0.0,0.0,1.3375673572172732e-12,9.009421140599714e-13,6.736056013733955e-13,4.79974699288329e-13,2.951696133911284e-13,1.7148805367015269e-13,1.0091630876732988e-13,7.215610366128736e-14,6.2223179332251995e-15,2.1592764193494416e-14,3.277605638896181e-15,2.562672003476923e-14,1.0825011856967078e-14,-7.773675329908316e-15,4.165228452772879e-15,2.3071584839983913e-15,3.289057162743037e-15,1.0306717708537544e-11,8.00018331330299e-12,7.617588850694556e-12,5.83116867432517e-12,4.920212583933707e-12,4.0174575591542006e-12,3.2778528619755665e-12,2.7893433588154542e-12,2.051144208624687e-12,1.6770493558967513e-12,1.0689090240845144e-12,1.11806635026698e-12,7.455258289306863e-13,6.949700627500307e-13,5.050460440310444e-13,4.5115535606516246e-13,6.064177424167144e-14,2.410784643541892e-13,1.5048264339945003e-14,2.2050371781898537e-13,1.8239424122854445e-13
