Line_number,Fiducial,Easting,Northing,Height,Elevation,tx_pitch,tx_roll,tx_yaw,txrx_dx,txrx_dy,txrx_dz,rx_pitch,rx_roll,rx_yaw,S0Z_time_7.292e-05,S0Z_time_7.642e-05,S0Z_time_8.092e-05,S0Z_time_8.642e-05,S0Z_time_9.341e-05,S0Z_time_1.024e-04,S0Z_time_1.139e-04,S0Z_time_1.284e-04,S0Z_time_1.464e-04,S0Z_time_1.689e-04,S0Z_time_1.969e-04,S0Z_time_2.324e-04,S0Z_time_2.779e-04,S0Z_time_3.349e-04,S0Z_time_4.069e-04,S0Z_time_4.979e-04,S0Z_time_6.119e-04,S0Z_time_7.559e-04,S0Z_time_9.373e-04,S0Z_time_1.166e-03,S0Z_time_1.454e-03,S0Z_time_1.818e-03,S0Z_time_2.276e-03,S0Z_time_2.855e-03,S0Z_time_3.574e-03,S0Z_time_4.454e-03,S0Z_time_5.530e-03,S0Z_time_6.849e-03,S0Z_time_8.463e-03,S0Z_time_1.044e-02,S1Z_time_1.273e-05,S1Z_time_1.623e-05,S1Z_time_2.073e-05,S1Z_time_2.623e-05,S1Z_time_3.323e-05,S1Z_time_4.222e-05,S1Z_time_5.373e-05,S1Z_time_6.822e-05,S1Z_time_8.622e-05,S1Z_time_1.087e-04,S1Z_time_1.367e-04,S1Z_time_1.722e-04,S1Z_time_2.177e-04,S1Z_time_2.747e-04,S1Z_time_3.467e-04,S1Z_time_4.377e-04,S1Z_time_5.517e-04,S1Z_time_6.957e-04,S1Z_time_8.772e-04,S1Z_time_1.106e-03,S1Z_time_1.394e-03
0.0,0,0.0,0.0,30.0,0.0,0.0,0.0,0.0,-13.0,0.0,2.0,0.0,0.0,0.0,3.589557206573506e-11,3.4766631540696644e-11,3.274181984960823e-11,3.04799691989529e-11,2.8335556267937067e-11,2.592642860096303e-11,2.345676263606068e-11,2.1031132678730642e-11,1.8721956114677198e-11,1.6564527271938038e-11,1.447972711855916e-11,1.255147658154254e-11,1.0728164762526744e-11,9.079211098290862e-12,7.6078691373722e-12,6.285404870727449e-12,5.128893034595174e-12,4.119324260687407e-12,3.2603984058291208e-12,2.5374587779312794e-12,1.936860037013149e-12,1.4467901756340942e-12,1.0566017635252013e-12,7.529312089857492e-13,5.247929569939917e-13,3.592733495880614e-13,2.4128037463835534e-13,1.5880429130427095e-13,1.0250262461182783e-13,6.482468418117485e-14,3.086837875689272e-10,1.433709539185621e-10,8.076455930760406e-11,5.630413378506515e-11,4.310345632321761e-11,3.394238368707923e-11,2.7079660790232764e-11,2.1662200079118255e-11,1.7407339760569273e-11,1.3949649570856374e-11,1.113557989706062e-11,8.807324419425567e-12,6.862815397105757e-12,5.291677889450783e-12,4.02469181536794e-12,3.0102154041208565e-12,2.2167432213037894e-12,1.6005151302737962e-12,1.1317304040261743e-12,7.845175431027943e-13,5.331669469382453e-13
0.0,1,1.0,0.0,30.0,0.0,0.0,0.0,0.0,-13.0,0.0,2.0,0.0,0.0,0.0,3.266617729084783e-11,3.160149270133044e-11,2.965940811289105e-11,2.752858515809071e-11,2.5545975048711805e-11,2.3303418204654176e-11,2.104397939362778e-11,1.8832905276205944e-11,1.6746145115901586e-11,1.48069669459841e-11,1.2935469665857873e-11,1.121271998285798e-11,9.585195785948092e-12,8.115684170007678e-12,6.806322874489045e-12,5.6295199260269625e-12,4.600220331070316e-12,3.7012912758886454e-12,2.935416380047235e-12,2.2899349772966486e-12,1.7524798034867928e-12,1.312862393746812e-12,9.618035705287843e-13,6.877090139753086e-13,4.810401624165727e-13,3.3051878102509416e-13,2.227930691374688e-13,1.471886344109572e-13,9.536485731111748e-14,6.054257584939675e-14,4.2980552957367833e-10,1.9683908607851099e-10,9.681132721122099e-11,5.840936144620742e-11,4.12753669867632e-11,3.1430602736089597e-11,2.469410052409313e-11,1.9581416619073188e-11,1.5654170185859208e-11,1.2492306800287441e-11,9.949355560957532e-12,7.854506952902841e-12,6.113048029778794e-12,4.711267381075412e-12,3.5824752565033586e-12,2.6805334893995077e-12,1.9752721492427258e-12,1.4278263590791636e-12,1.0111224360211522e-12,7.022693223218498e-13,4.784190378856353e-13
0.0,2,2.0,0.0,30.0,0.0,0.0,0.0,0.0,-13.0,0.0,2.0,0.0,0.0,0.0,3.01998420433374e-11,2.9096254196299243e-11,2.7149001301529024e-11,2.507717872768418e-11,2.3202179839597103e-11,2.108498011267674e-11,1.8990464942364812e-11,1.695413941809491e-11,1.5051906365855972e-11,1.329696592332502e-11,1.1605118287036408e-11,1.0057568610098269e-11,8.596420052642698e-12,7.28054211504637e-12,6.109820361552681e-12,5.058222195768592e-12,4.138409095213217e-12,3.3350455992216884e-12,2.6497428218991636e-12,2.0715843599314128e-12,1.5892004379071388e-12,1.1937741658340173e-12,8.771379253639577e-13,6.291901619788952e-13,4.415967739608293e-13,3.044724623631041e-13,2.0596600366781385e-13,1.3656553038225196e-13,8.880565427678566e-14,5.658926174649946e-14,5.530562417223814e-10,2.6584092746484196e-10,1.252990773299123e-10,6.678500676762474e-11,4.191550756000799e-11,2.985410351048973e-11,2.2810734021514926e-11,1.786501506829545e-11,1.4179240044171424e-11,1.1255608388319659e-11,8.939597258382306e-12,7.039638212754546e-12,5.4708683534957206e-12,4.212814818829533e-12,3.201876550569644e-12,2.39619462657882e-12,1.7664609587652237e-12,1.278117249336097e-12,9.062363618557721e-13,6.305143158003511e-13,4.304712574831083e-13
0.0,3,3.0,0.0,30.0,0.0,0.0,0.0,0.0,-13.0,0.0,2.0,0.0,0.0,0.0,2.8629022365964067e-11,2.7322349035267952e-11,2.5222272357967028e-11,2.3093439254674496e-11,2.125232496378712e-11,1.9212863308171768e-11,1.7241733552235033e-11,1.5344350167906222e-11,1.3593962228598776e-11,1.1994437497463282e-11,1.0454254874356455e-11,9.056747195112245e-12,7.737637041806075e-12,6.553863827381213e-12,5.502331372346162e-12,4.558834135290201e-12,3.733643752678451e-12,3.013160772764892e-12,2.397881431552741e-12,1.8784445724216773e-12,1.4442452505585688e-12,1.0876405564443108e-12,8.013664033120529e-13,5.765894174611569e-13,4.059804448387489e-13,2.8084536990239236e-13,1.906307277021278e-13,1.2683940357742832e-13,8.27722834463831e-14,5.293640624464223e-14,6.637236833823446e-10,3.402987601635466e-10,1.6345686848832972e-10,8.201509665194374e-11,4.592536251343936e-11,2.958636402960894e-11,2.1476796776987957e-11,1.647228141199177e-11,1.2940078951095835e-11,1.0205331003245344e-11,8.076441870005063e-12,6.339614856502576e-12,4.918584515917212e-12,3.782789812048159e-12,2.872947247480377e-12,2.149943719402814e-12,1.58518607571953e-12,1.147851899223466e-12,8.147038206707188e-13,5.677131455753461e-13,3.8834778324249093e-13
0.0,4,4.0,0.0,30.0,0.0,0.0,0.0,0.0,-13.0,0.0,2.0,0.0,0.0,0.0,2.8138204858538144e-11,2.6419225952327426e-11,2.3961856544172536e-11,2.1601319526457318e-11,1.9681787867017192e-11,1.7651486402508652e-11,1.5756328360730143e-11,1.3963639812086823e-11,1.2336420258329568e-11,1.0867141729430059e-11,9.45506499577548e-12,8.186190020831864e-12,6.9890249957141e-12,5.919227967141447e-12,4.97062497001665e-12,4.120824004934202e-12,3.377739158320611e-12,2.7294105162752843e-12,2.1752026180588615e-12,1.7071576628983497e-12,1.3152471658982929e-12,9.928443699312599e-13,7.334195500496068e-13,5.292238780039589e-13,3.737687038372079e-13,2.593826347349217e-13,1.7663766666868523e-13,1.179248165523457e-13,7.72173028258923e-14,4.955833030237265e-14,7.554065683023229e-10,4.12040491762422e-10,2.068860788135499e-10,1.0312585466257889e-10,5.3691702273268076e-11,3.104985504685288e-11,2.0840742929237127e-11,1.540261644046696e-11,1.1907368167362791e-11,9.314222720579692e-12,7.336368296440835e-12,5.736156977707306e-12,4.4417144355626414e-12,3.4102072516333048e-12,2.5875942840389446e-12,1.9358298931264217e-12,1.4272336095940376e-12,1.0341050515597554e-12,7.345576681402793e-13,5.125797810766446e-13,3.5123321895892596e-13
0.0,5,5.0,0.0,30.0,0.0,0.0,0.0,0.0,-13.0,0.0,2.0,0.0,0.0,0.0,2.8869516557445346e-11,2.652277843469119e-11,2.3478055738469406e-11,2.066655864625338e-11,1.8514125193836667e-11,1.6393021701381773e-11,1.4508239238120467e-11,1.2781437774139301e-11,1.1250391370476426e-11,9.889006177771572e-12,8.585023934667764e-12,7.426152107462995e-12,6.3342340238031356e-12,5.363007536215383e-12,4.5037277912752735e-12,3.735403998310771e-12,3.063842252036657e-12,2.4785528820710507e-12,1.9777919858846024e-12,1.554868412870179e-12,1.2001823024440095e-12,9.079943327501838e-13,6.723715465598637e-13,4.864984035492798e-13,3.4459087881452426e-13,2.398591420850861e-13,1.6385382278185197e-13,1.0974530455672746e-13,7.209798071298017e-14,4.643175451837616e-14,8.274975978301765e-10,4.761147748750237e-10,2.513754163254744e-10,1.2822584630778437e-10,6.494082845470439e-11,3.450093197918865e-11,2.1091238247926172e-11,1.470268757614924e-11,1.1069978344266521e-11,8.560875340033026e-12,6.700750947280963e-12,5.214762558920047e-12,4.028394478249685e-12,3.0861120324127536e-12,2.3391705493708265e-12,1.7489527399112027e-12,1.2891239743827649e-12,9.344444511828676e-13,6.641568660845099e-13,4.640355501175945e-13,3.1844075394422974e-13
0.0,6,6.0,0.0,30.0,0.0,0.0,0.0,0.0,-13.0,0.0,2.0,0.0,0.0,0.0,3.086411048350129e-11,2.7705675357213946e-11,2.3857348701580312e-11,2.036373983892573e-11,1.779636523143125e-11,1.5454522545341222e-11,1.3489164719759504e-11,1.1777622204111417e-11,1.0313200579507801e-11,9.038775945492151e-12,7.825677969768035e-12,6.760476470859561e-12,5.7597215167278914e-12,4.873851026166427e-12,4.092481626365488e-12,3.3952091456281097e-12,2.7861942325676116e-12,2.2561578467919653e-12,1.8023276905904285e-12,1.4191410825663751e-12,1.097315237474754e-12,8.31890381647358e-13,6.174190114081738e-13,4.478932711663817e-13,3.1812117753319906e-13,2.2207574351023265e-13,1.5216077723765767e-13,1.0223235357901072e-13,6.737578598540366e-14,4.3535555276843984e-14,8.82481168644955e-10,5.304115702926126e-10,2.937711326808576e-10,1.5523350000538758e-10,7.891775260104818e-11,3.9932888423517486e-11,2.2374971776746247e-11,1.4448570483274446e-11,1.0438005959343235e-11,7.931579932293098e-12,6.15490136174033e-12,4.763674085059811e-12,3.668961115840668e-12,2.8032020220338042e-12,2.122161767642652e-12,1.585258876942144e-12,1.1679720713015453e-12,8.468394451441738e-13,6.021269232532503e-13,4.2117183935411283e-13,2.8938738672571123e-13
0.0,7,7.0,0.0,30.0,0.0,0.0,0.0,0.0,-13.0,0.0,2.0,0.0,0.0,0.0,3.405201320026557e-11,2.995275221204061e-11,2.5129030663700737e-11,2.0744428933019168e-11,1.75766497810621e-11,1.4866516474741395e-11,1.2706229985011535e-11,1.0943311743178276e-11,9.508801123920891e-12,8.299444505471474e-12,7.161727612605194e-12,6.175884555423714e-12,5.254229944068316e-12,4.442295723878186e-12,3.729196603617298e-12,3.0940402489852034e-12,2.5399365169921907e-12,2.0584686786136094e-12,1.6459812339458104e-12,1.2978911120479554e-12,1.0051536571355414e-12,7.634947448843895e-13,5.678632259886038e-13,4.1295369834487353e-13,2.9407275062687e-13,2.0585599027390954e-13,1.414529520018229e-13,9.53245031425101e-14,6.301594047659794e-14,4.085054447394193e-14,9.240004075866883e-10,5.747913002349526e-10,3.3213403974286127e-10,1.8234163549942832e-10,9.465904774522707e-11,4.710228914186264e-11,2.4743922265742237e-11,1.471517972487992e-11,1.0038243989428106e-11,7.422211046944266e-12,5.68810848361042e-12,4.373183826560525e-12,3.3555354830469837e-12,2.5555202078222865e-12,1.931968747865379e-12,1.4413807194436108e-12,1.0613722369258252e-12,7.695887340657355e-13,5.473125978661882e-13,3.832202644150182e-13,2.6357711094177845e-13
0.0,8,8.0,0.0,30.0,0.0,0.0,0.0,0.0,-13.0,0.0,2.0,0.0,0.0,0.0,3.827472113549819e-11,3.316755228441756e-11,2.7256683155740557e-11,2.181889224728927e-11,1.7885136503660044e-11,1.4658780498692962e-11,1.2175371766293386e-11,1.0279390350139715e-11,8.828057815643871e-12,7.65826297075746e-12,6.580567824776243e-12,5.6613722427692364e-12,4.808347295684618e-12,4.0604503177330405e-12,3.4073870360718416e-12,2.8266603056588e-12,2.3209514419670768e-12,1.8822891617861928e-12,1.5063367116804958e-12,1.1893290784083899e-12,9.224107023398974e-13,7.019077584827771e-13,5.230951688555105e-13,3.8128094088142413e-13,2.721925966355651e-13,1.9104330921037594e-13,1.3163609436588734e-13,8.896655741466637e-14,5.898702425784753e-14,3.835927976017281e-14,9.557152417745162e-10,6.102596870078624e-10,3.655586575028467e-10,2.082077355668376e-10,1.1121331587790165e-10,5.561639820695237e-11,2.8145513612950672e-11,1.5550220633040284e-11,9.903865786625168e-12,7.0377429339262586e-12,5.2940951812613815e-12,4.035435919891512e-12,3.081648563076821e-12,2.338176003137934e-12,1.7647531510115392e-12,1.314511797379548e-12,9.673050614312524e-13,7.012620087015547e-13,4.987397457429222e-13,3.4952896874693254e-13,2.405879485921129e-13
0.0,9,9.0,0.0,30.0,0.0,0.0,0.0,0.0,-13.0,0.0,2.0,0.0,0.0,0.0,4.3320295145673674e-11,3.71957122619238e-11,3.014799170371715e-11,2.3552957434102592e-11,1.872383831702257e-11,1.4848959196862235e-11,1.1913300141177984e-11,9.792888108726504e-12,8.268000905109671e-12,7.106763717030556e-12,6.07217411378925e-12,5.207804624668529e-12,4.414150271165162e-12,3.721714486104922e-12,3.1215665342839537e-12,2.5886333263893467e-12,2.125733085807291e-12,1.7248911043990147e-12,1.381324357794056e-12,1.091914586370846e-12,8.479736861487176e-13,6.463475859408336e-13,4.825828623554614e-13,3.525247149357346e-13,2.5225718761934203e-13,1.7749855642796228e-13,1.2262595328520792e-13,8.310889072511308e-14,5.526062555064131e-14,3.604590084831627e-14,9.807483517890893e-10,6.38344765002467e-10,3.9389399899927535e-10,2.3196931158038525e-10,1.2776959573676537e-10,6.502582275567204e-11,3.244312795866661e-11,1.6961303563829058e-11,1.0063333592587373e-11,6.789233489363928e-12,4.971058394154755e-12,3.744548032457748e-12,2.8419930666501992e-12,2.147104493377217e-12,1.6173129777090228e-12,1.2023092358220606e-12,8.840649182390581e-13,6.406524513220547e-13,4.555840141214424e-13,3.1954351895456956e-13,2.2006046284989792e-13
0.0,10,10.0,0.0,30.0,0.0,0.0,0.0,0.0,-13.0,0.0,2.0,0.0,0.0,0.0,4.895707101469088e-11,4.185235179034188e-11,3.367314358591089e-11,2.5875409507367176e-11,2.0065428167063115e-11,1.543661070196462e-11,1.1930830653445153e-11,9.492542517988752e-12,7.830031556928403e-12,6.640382213286919e-12,5.62907891062784e-12,4.807702171837292e-12,4.0649457692561e-12,3.4205348273786783e-12,2.867081499792064e-12,2.376194040261883e-12,1.951284077934126e-12,1.5839383561599135e-12,1.2691653803053483e-12,1.004318113195048e-12,7.808780578104602e-13,5.961331798861433e-13,4.458606422708764e-13,3.2637673065949745e-13,2.340687079123683e-13,1.6509789540344427e-13,1.1434712165982067e-13,7.770683564428995e-14,5.18110289165124e-14,3.3895983091543165e-14,1.00150709242464e-09,6.606842702603134e-10,4.174758500637078e-10,2.531759143511398e-10,1.4370877832624615e-10,7.48947603786654e-11,3.7448748809687305e-11,1.8915883510679955e-11,1.0532414101385465e-11,6.689581899634825e-12,4.720918529373248e-12,3.4967423851899944e-12,2.63231554182895e-12,1.9788884487263626e-12,1.486972012639991e-12,1.1028137002231775e-12,8.102050726455759e-13,5.867382957050738e-13,4.171450049475933e-13,2.92791108693131e-13,2.016874750092292e-13
0.0,11,11.0,0.0,30.0,0.0,0.0,0.0,0.0,-13.0,0.0,2.0,0.0,0.0,0.0,5.4959607080976164e-11,4.694589674786209e-11,3.768420395453165e-11,2.869016302849018e-11,2.185813933012512e-11,1.6402456443392453e-11,1.2228972216405939e-11,9.384889028449146e-12,7.517613431106216e-12,6.257602585929404e-12,5.246225685023953e-12,4.455132419729225e-12,3.755105960301329e-12,3.1522078386514874e-12,2.6399716097995706e-12,2.1861393131610593e-12,1.795033441686339e-12,1.4574244717754973e-12,1.1683260624998716e-12,9.253892233803756e-13,7.202856457158531e-13,5.506699420483581e-13,4.125200423056723e-13,3.0256516029719776e-13,2.1745181294399428e-13,1.5373095418683294e-13,1.0673202269591837e-13,7.272014333156089e-14,4.8614937177220034e-14,3.189640249691886e-14,1.0197133711941116e-09,6.787860344322657e-10,4.3690913646897513e-10,2.716940183819228e-10,1.5860638511380272e-10,8.48432511131241e-11,4.2954554241471666e-11,2.1349400714768443e-11,1.131065413161351e-11,6.749546566637411e-12,4.547929796932988e-12,3.2902644096885164e-12,2.449388749642129e-12,1.830652075315145e-12,1.3714835782344046e-12,1.0143808112103196e-12,7.44495628712021e-13,5.386519003866892e-13,3.8282509097237965e-13,2.6886726375590213e-13,1.8520533370233895e-13
0.0,12,12.0,0.0,30.0,0.0,0.0,0.0,0.0,-13.0,0.0,2.0,0.0,0.0,0.0,6.112556607775937e-11,5.2295417953667986e-11,4.203130907382333e-11,3.1888857774244e-11,2.403346465903836e-11,1.771121317061511e-11,1.2797819162426967e-11,9.471654424476017e-12,7.334069213726465e-12,5.9588050999424186e-12,4.920619205184822e-12,4.145610323376104e-12,3.4799684153245593e-12,2.9127348249866094e-12,2.4368537185132648e-12,2.015735841545112e-12,1.654770356801406e-12,1.3436215241847404e-12,1.0774796786466796e-12,8.541299485489608e-13,6.654663783591893e-13,5.094376249064117e-13,3.822020407937526e-13,2.808498950441425e-13,2.0225082961875936e-13,1.4329922273825858e-13,9.972002151600201e-14,6.81125071237707e-14,4.565122363874974e-14,3.003521099039423e-14,1.0365254562989954e-09,6.939147634620982e-10,4.529077170552511e-10,2.8761279904755143e-10,1.722102943943817e-10,9.456634950868686e-11,4.875720816757775e-11,2.4176662525771907e-11,1.2381748819906489e-11,6.9749580828025416e-12,4.457058513882006e-12,3.125033746862383e-12,2.290984804222493e-12,1.7000121897820328e-12,1.2689540715724672e-12,9.356222861485292e-13,6.858898175465148e-13,4.95654759579896e-13,3.521122392279516e-13,2.4742464279440735e-13,1.7038688708238218e-13
0.0,13,13.0,0.0,30.0,0.0,0.0,0.0,0.0,-13.0,0.0,2.0,0.0,0.0,0.0,6.728472659811389e-11,5.774139173780464e-11,4.65742444164668e-11,3.536147108931767e-11,2.651416176128989e-11,1.9316180074658123e-11,1.361754928202094e-11,9.748609822034559e-12,7.280905258101213e-12,5.745074774948817e-12,4.650807042641855e-12,3.87594598952219e-12,3.2357639207903888e-12,2.698722554530746e-12,2.2548284919387327e-12,1.8626417887642624e-12,1.5285895754874626e-12,1.2410378283001306e-12,9.954750176110844e-13,7.896724265312422e-13,6.157828508056472e-13,4.71980091459483e-13,3.545904560808081e-13,2.6101847062974876e-13,1.8832733305438633e-13,1.3371465679724725e-13,9.325664563624944e-14,6.385114145097255e-14,4.2900711651209e-14,2.8301523245545232e-14,1.0526815045179401e-09,7.070619865572053e-10,4.661866725908801e-10,3.011626058834574e-10,1.8440854068321838e-10,1.0383773571042617e-10,5.467356374194499e-11,2.7302962953121836e-11,1.3716413094203302e-11,7.365397810251537e-12,4.452522352026908e-12,3.0021003794411583e-12,2.1557943856386366e-12,1.5850593595356167e-12,1.177788620486963e-12,8.653573787442543e-13,6.334956040395618e-13,4.571169889675384e-13,3.245661819866595e-13,2.2816372236953015e-13,1.5703597832461622e-13
0.0,14,14.0,0.0,30.0,0.0,0.0,0.0,0.0,-13.0,0.0,2.0,0.0,0.0,0.0,7.330212104359974e-11,6.315105285326647e-11,5.1189565919594976e-11,3.9004078589326704e-11,2.922113707948334e-11,2.1164157940162392e-11,1.4660631920485794e-11,1.0205638745324753e-11,7.356826942836238e-12,5.617185209194858e-12,4.436286308232385e-12,3.6440247445462245e-12,3.01954125025901e-12,2.5073158458474046e-12,2.0914082978559294e-12,1.724841570113735e-12,1.4148455468386684e-12,1.1483826804164398e-12,9.213104023433119e-13,7.312600956666789e-13,5.706772500702601e-13,4.3789661564741006e-13,3.2940630808947817e-13,2.428825616778205e-13,1.7555804557618179e-13,1.248984595150852e-13,8.729290005508249e-14,5.990640918854192e-14,4.034597863918092e-14,2.668541620985535e-14,1.0686289489984155e-09,7.189641830379445e-10,4.773976941291957e-10,3.1264993272693153e-10,1.9519556322536377e-10,1.1250427860003289e-10,6.054899570053701e-11,3.063313249744738e-11,1.5276355218598905e-11,7.914151227505116e-12,4.536733544022453e-12,2.923030817357714e-12,2.0432763994774154e-12,1.484342008245116e-12,1.0966558032991789e-12,8.02575280449017e-13,5.86551188332668e-13,4.225001424674823e-13,2.9980725779409906e-13,2.1082518174986954e-13,1.4498309509414981e-13
0.0,15,15.0,0.0,30.0,0.0,0.0,0.0,0.0,-13.0,0.0,2.0,0.0,0.0,0.0,7.907724373748698e-11,6.841982336304917e-11,5.577410959811509e-11,4.2723817393764114e-11,3.2078643435150187e-11,2.3199833972783263e-11,1.5894474812628596e-11,1.0827615334838344e-11,7.557404977731833e-12,5.574875694677697e-12,4.27693449124813e-12,3.448538408462322e-12,2.8290724126039274e-12,2.3361466852750873e-12,1.9444628948004756e-12,1.600593146113504e-12,1.3121135041495014e-12,1.0645366441719412e-12,8.54112175907251e-13,6.78231867972246e-13,5.296602626034819e-13,4.0683446501048907e-13,3.064029911878777e-13,2.2627496058150756e-13,1.6383301264212854e-13,1.1678001638544449e-13,8.178466459970593e-14,5.625149147509786e-14,3.797118177585485e-14,2.517784089375037e-14,1.0846262116276477e-09,7.301436857011336e-10,4.87097047579734e-10,3.2240896474213277e-10,2.0464107199374194e-10,1.2047611968134355e-10,6.626035386041999e-11,3.407797518883688e-11,1.7018316271944506e-11,8.609040401957943e-12,4.709722755348511e-12,2.889340243941755e-12,1.9534535612342375e-12,1.3968355972661655e-12,1.0244647775042146e-12,7.464079931695648e-13,5.444040317270825e-13,3.913426121527202e-13,2.775073001448802e-13,1.951837584210479e-13,1.340817837061675e-13
0.0,16,16.0,0.0,30.0,0.0,0.0,0.0,0.0,-13.0,0.0,2.0,0.0,0.0,0.0,8.454090063211893e-11,7.347016264849623e-11,6.024588139521318e-11,4.6441528540255814e-11,3.501776645092153e-11,2.5369239372207658e-11,1.7283980672571998e-11,1.1595694399241945e-11,7.875243211725822e-12,5.616447643522371e-12,4.172536837327937e-12,3.2887016330643894e-12,2.6627359524025523e-12,2.183287527514248e-12,1.8121780840365544e-12,1.4883866223557392e-12,1.2191565488548317e-12,9.885263315843558e-13,7.931167505736463e-13,6.300087903971127e-13,4.923016617290038e-13,3.7848255730466975e-13,2.8536212885034533e-13,2.1104696928406215e-13,1.5305401722901684e-13,1.0929596272849656e-13,7.669216288069388e-14,5.286209483150401e-14,3.576190261056061e-14,2.3770544451860614e-14,1.1008156508815849e-09,7.40955878363287e-10,4.957361659341173e-10,3.3076804711447766e-10,2.1286337147402525e-10,1.2771512289065911e-10,7.171541705778649e-11,3.755827179387374e-11,1.889757273813e-11,9.433723375470485e-12,4.968999121289973e-12,2.9020471218096917e-12,1.886684540096798e-12,1.321890288821119e-12,9.60347494530657e-13,6.961118822744867e-13,5.064934255820104e-13,3.63247197574163e-13,2.5738207023098287e-13,1.8104330518649304e-13,1.2420552868889721e-13
0.0,17,17.0,0.0,30.0,0.0,0.0,0.0,0.0,-13.0,0.0,2.0,0.0,0.0,0.0,8.965085030636809e-11,7.824889455425127e-11,6.454321108003527e-11,5.0092665770478414e-11,3.79784433680445e-11,2.762220451403812e-11,1.8793721291742666e-11,1.2488703306481989e-11,8.300467178818203e-12,5.738642981475989e-12,4.122446888722576e-12,3.163986736489138e-12,2.5193854567623526e-12,2.0472014961550525e-12,1.69302232411368e-12,1.3869123091769856e-12,1.1348981121908847e-12,9.195029601403235e-13,7.376554802793861e-13,5.86082771605439e-13,4.582223217731591e-13,3.525660229888704e-13,2.660900033154122e-13,1.9706614299564292e-13,1.4313319968687977e-13,1.0238936610150942e-13,7.197949369861275e-14,4.9716191102626026e-14,3.3705008219742316e-14,2.2455999865395058e-14,1.1172722741654344e-09,7.516333550647239e-10,5.036664283071774e-10,3.380286305897956e-10,2.2000774967525538e-10,1.3422332835618507e-10,7.685029856520084e-11,4.1006831586170324e-11,2.0870650692401275e-11,1.0369129478066022e-11,5.309739358019173e-12,2.9613824129675386e-12,1.8434443366014877e-12,1.2591595840673536e-12,9.036402423120728e-13,6.510553338530365e-13,4.723365470413246e-13,3.37870634015002e-13,2.3918487138524797e-13,1.6823277660122683e-13,1.1524492556508693e-13
0.0,18,18.0,0.0,30.0,0.0,0.0,0.0,0.0,-13.0,0.0,2.0,0.0,0.0,0.0,9.438702158266499e-11,8.272377390612885e-11,6.86228630423866e-11,5.362701160028237e-11,4.091034570417727e-11,2.991391085916086e-11,2.03896161731218e-11,1.3484433928419949e-11,8.821370024356563e-12,5.9367357569131405e-12,4.125385423366995e-12,3.0739014160244438e-12,2.3982146339338596e-12,1.9266870927003e-12,1.585717167075113e-12,1.2950360281071255e-12,1.0583992306167912e-12,8.567241841004441e-13,6.871417891150769e-13,5.460070150911545e-13,4.270874395749606e-13,3.288415363897064e-13,2.4841447283772454e-13,1.842143340759987e-13,1.3399185462170953e-13,9.600900857730646e-14,6.761421703102382e-14,4.679378632243857e-14,3.1788526790305956e-14,2.122734072430832e-14,1.134034314680585e-09,7.623227718865857e-10,5.111515945862969e-10,3.4445398899640567e-10,2.2622987602028917e-10,1.4003229598321355e-10,8.162580632143182e-11,4.4369126666511865e-11,2.2897229004497406e-11,1.1394809837737083e-11,5.7251835553735204e-12,3.066650358525005e-12,1.824137117865273e-12,1.2085176232855178e-12,8.538612935204793e-13,6.107098390477049e-13,4.415176808258497e-13,3.1491494404849633e-13,2.227011084908689e-13,1.5660290569893953e-13,1.071050857238211e-13
0.0,19,19.0,0.0,30.0,0.0,0.0,0.0,0.0,-13.0,0.0,2.0,0.0,0.0,0.0,9.874681217255723e-11,8.6879810447465e-11,7.245760713345314e-11,5.700763729194021e-11,4.377294723002192e-11,3.2205710427850993e-11,2.2040116350651498e-11,1.4560727696584367e-11,9.425091651327656e-12,6.204761610201057e-12,4.179361750771713e-12,3.01782206852535e-12,2.2986302681066048e-12,1.8208185676381874e-12,1.489208752648204e-12,1.2117794606906652e-12,9.888399979135361e-13,7.995388114204615e-13,6.410601416015329e-13,5.093878608109834e-13,3.9860077128884997e-13,3.0709330164352674e-13,2.3218230491926516e-13,1.7238599232686044e-13,1.255593802916156e-13,9.01087559423402e-14,6.356698781441356e-14,4.407671509119312e-14,3.000153589537412e-14,2.0078299401599843e-14,1.1511213285672444e-09,7.731132984328406e-10,5.183832785351884e-10,3.5026508732011195e-10,2.3168378075841314e-10,1.4519378064852155e-10,8.60234053093134e-11,4.760297477750658e-11,2.4941330128899156e-11,1.249008274955045e-11,6.207128873990062e-12,3.2162161383378047e-12,1.828955259341779e-12,1.1699743662053772e-12,8.106838934306417e-13,5.746422642733085e-13,4.136800384528813e-13,2.94120464919694e-13,2.0774364586864304e-13,1.4602338574414126e-13,9.970328231716564e-14
0.0,20,20.0,0.0,30.0,0.0,0.0,0.0,0.0,-13.0,0.0,2.0,0.0,0.0,0.0,1.0274076882156615e-10,9.071568330734978e-11,7.603359571668059e-11,6.020943296784477e-11,4.6535047119534215e-11,3.4465394119112647e-11,2.3716953723599963e-11,1.5696316071929368e-11,1.0098249732461456e-11,6.535818232662182e-12,4.281690458901961e-12,2.9948850222412355e-12,2.220141765051737e-12,1.7288850129616917e-12,1.4026390116098262e-12,1.1363036465327638e-12,9.25504477554238e-13,7.473740596501304e-13,5.989565587697681e-13,4.758777949125281e-13,3.7249971744481847e-13,2.8712959727037595e-13,2.1725686630434968e-13,1.6148668485951933e-13,1.1777235945643525e-13,8.464700261976945e-14,5.981123164902145e-14,4.154845747053277e-14,2.83340620351708e-14,1.900314789792405e-14,1.1685442699312848e-09,7.84057300454512e-10,5.254965068019327e-10,3.556412832922182e-10,2.3651378544247127e-10,1.497719192243712e-10,9.004118109222023e-11,5.067763110818234e-11,2.6971942781718716e-11,1.3634928574220494e-11,6.746438758178754e-12,3.407586468218804e-12,1.8577885431035613e-12,1.143596849774288e-12,7.73905614037503e-13,5.42506778963719e-13,3.8851947696145187e-13,2.752603552855612e-13,1.9414886937654238e-13,1.3638042881450368e-13,9.296687343888493e-14
0.0,21,21.0,0.0,30.0,0.0,0.0,0.0,0.0,-13.0,0.0,2.0,0.0,0.0,0.0,1.0638880687283583e-10,9.424044588909405e-11,7.934777409314588e-11,6.321743935961774e-11,4.9173956944778004e-11,3.666707031523377e-11,2.539553894934332e-11,1.6871422276472747e-11,1.0827478017917825e-11,6.9223852035384905e-12,4.4290739814943934e-12,3.003930504858108e-12,2.1622724616251802e-12,1.6503317454577068e-12,1.3253163732744843e-12,1.0678942139821245e-12,8.677683358476827e-13,6.997250104559743e-13,5.604304645860722e-13,4.451694374316923e-13,3.485511136649356e-13,2.6877979727111806e-13,2.0351612008297084e-13,1.5143180458625966e-13,1.1057375367147197e-13,7.958618260390617e-14,5.6322857322268123e-14,3.919397576276712e-14,2.677699026260435e-14,1.7996641485287742e-14,1.1863107186621002e-09,7.95184627046331e-10,5.325837098794348e-10,3.607239671802348e-10,2.408496640106953e-10,1.5383695010189466e-10,9.369004200106321e-11,5.357254835541476e-11,2.8963222310422002e-11,1.4810636873137188e-11,7.333513557886062e-12,3.6375487828536834e-12,1.910180148455326e-12,1.1294423890663722e-12,7.434160684765442e-13,5.140356634570344e-13,3.657794249520332e-13,2.5813633726401215e-13,1.8177338058384496e-13,1.275746214595205e-13,8.683153466994041e-14
0.0,22,22.0,0.0,30.0,0.0,0.0,0.0,0.0,-13.0,0.0,2.0,0.0,0.0,0.0,1.097170306301544e-10,9.747062793801648e-11,8.240546535829804e-11,6.602513901467285e-11,5.1674504586776617e-11,3.879078462050042e-11,2.7055091867821086e-11,1.806815317196149e-11,1.1599854633135433e-11,7.3566279796481e-12,4.617723836169577e-12,3.04348990009919e-12,2.1244944648390565e-12,1.5847071195980249e-12,1.2566865194075643e-12,1.0059474368656828e-12,8.150885035018211e-13,6.561459207933047e-13,5.251276957120487e-13,4.169903589280245e-13,3.265476080192057e-13,2.51891798289077e-13,1.9085088763663846e-13,1.4214544129749726e-13,1.0391219568660606e-13,7.489233796737339e-14,5.308000169877817e-14,3.699956885745263e-14,2.5321982892687347e-14,1.7053965816705587e-14,1.2044273565158158e-09,8.065120302964266e-10,5.397064109679164e-10,3.6562169810658564e-10,2.4480430706691494e-10,1.5746038474269076e-10,9.69902951400027e-11,5.6275983007639303e-11,3.089439499683972e-11,1.60002344033598e-11,7.958692790084026e-12,3.9023393804023616e-12,1.985321660791916e-12,1.1275069294090532e-12,7.191652265289932e-13,4.890288504549847e-13,3.4524643229138634e-13,2.425754049204305e-13,1.7049125447757526e-13,1.1951903221591146e-13,8.12398123245872e-14
0.0,23,23.0,0.0,30.0,0.0,0.0,0.0,0.0,-13.0,0.0,2.0,0.0,0.0,0.0,1.1275515292789211e-10,1.0042777796760927e-10,8.521820998090149e-11,6.863281041210654e-11,5.402796326129806e-11,4.0821980746941075e-11,2.8678578641502396e-11,1.9270719086679196e-11,1.2403220886551181e-11,7.830665198449435e-12,4.843498489351536e-12,3.1118052600180174e-12,2.1061860912506196e-12,1.531616993980176e-12,1.1963040866348155e-12,9.499566608592911e-13,7.669942759442757e-13,6.162430556561514e-13,4.927345333145963e-13,3.9109860843993495e-13,3.063045278167307e-13,2.363297924614781e-13,1.7916333901195527e-13,1.3355939333525527e-13,9.774136691464754e-14,7.053473761167646e-14,5.006280308340612e-14,3.4952742107766084e-14,2.396140641676957e-14,1.617068836044509e-14,1.2229009868739906e-09,8.180490980168604e-10,5.469044688759525e-10,3.7041581962193844e-10,2.484732142843136e-10,1.6071148693727318e-10,9.996866578765643e-11,5.87835664418954e-11,3.2749466383180354e-11,1.7188732999104674e-11,8.612577475972015e-12,4.197817803852323e-12,2.082077449781708e-12,1.137689393238176e-12,7.011343174583436e-13,4.673424918501069e-13,3.2674592271236256e-13,2.2842723433804116e-13,1.6019178780351702e-13,1.1213754629426386e-13,7.613998408874475e-14
0.0,24,24.0,0.0,30.0,0.0,0.0,0.0,0.0,-13.0,0.0,2.0,0.0,0.0,0.0,1.1553447350422094e-10,1.0313644701718568e-10,8.780189816661397e-11,7.104600935335992e-11,5.62309798645766e-11,4.275087605210287e-11,3.0252516266000344e-11,2.0465519782975586e-11,1.3226401216217898e-11,8.336789570904179e-12,5.102041671540038e-12,3.206870345983108e-12,2.1066091832415126e-12,1.4906880304116345e-12,1.1438062732094218e-12,8.994989849378678e-13,7.230793952745764e-13,5.796687289840807e-13,4.629726280677031e-13,3.672788577864029e-13,2.8765715777681515e-13,2.219723345212729e-13,1.6836568011789834e-13,1.2561230118430042e-13,9.20194488878147e-14,6.648553990463075e-14,4.72531996479745e-14,3.304209094685929e-14,2.2688265825191568e-14,1.5342714921900806e-14,1.2417388499632967e-09,8.298018142937357e-10,5.542030661924054e-10,3.7516589685866225e-10,2.5193522945974007e-10,1.6365487880180083e-10,1.0265578608313848e-10,6.109691827031512e-11,3.4516808651122076e-11,1.8363237263900794e-11,9.286273060156508e-12,4.519631830539853e-12,2.1990287417771763e-12,1.159771086502667e-12,6.893107808329944e-13,4.488770820059109e-13,3.101379014819029e-13,2.155620592663417e-13,1.5077766031207283e-13,1.0536341212103712e-13,7.148519334279558e-14
0.0,25,25.0,0.0,30.0,0.0,0.0,0.0,0.0,-13.0,0.0,2.0,0.0,0.0,0.0,1.180863541485899e-10,1.0562258791014726e-10,9.017520417646481e-11,7.327421420390859e-11,5.828455192284374e-11,4.457180426008331e-11,3.176669165896421e-11,2.1641130766061334e-11,1.4059339461996566e-11,8.867640365632625e-12,5.388910456593183e-12,3.326483892212759e-12,2.1249026315372543e-12,1.4615400568163373e-12,1.0988891588235228e-12,8.542223051237945e-13,6.829947940903762e-13,5.46116274869134e-13,4.3559469612013857e-13,3.4533908285225556e-13,2.7045836748105325e-13,2.087106596598915e-13,1.583790092609009e-13,1.1824888700810205e-13,8.670863925743244e-14,6.271949370065971e-14,4.463474993598339e-14,3.125719667378876e-14,2.149614560173569e-14,1.4566251735792406e-14,1.2609486409202763e-09,8.417745816867074e-10,5.616177901113471e-10,3.799145984597337e-10,2.552540401114408e-10,1.663490772750709e-10,1.0508414858930454e-10,6.322235140926747e-11,3.618868129571494e-11,1.951294793394882e-11,9.9715603921065e-12,4.863363640459426e-12,2.334528824071233e-12,1.1934080982079717e-12,6.836681160543137e-13,4.3356574105650657e-13,2.9531252233102054e-13,2.0386882126424566e-13,1.4216342993542917e-13,9.913798643918298e-14,6.723281090652768e-14
0.0,26,26.0,0.0,30.0,0.0,0.0,0.0,0.0,-13.0,0.0,2.0,0.0,0.0,0.0,1.204411189658703e-10,1.0791232846474206e-10,9.235831250455056e-11,7.53296518986849e-11,6.019308439620288e-11,4.628256204794418e-11,3.321383088574786e-11,2.278821846173021e-11,1.4893167634099748e-11,9.416330289346952e-12,5.699686966878473e-12,3.4683077018380257e-12,2.1600881608945936e-12,1.4437669886787127e-12,1.0612872955974567e-12,8.138329416007135e-13,6.464418050645335e-13,5.153157161325878e-13,4.1038086958639346e-13,3.251077130654674e-13,2.5457653867386313e-13,1.9644721565878944e-13,1.4913231916827873e-13,1.1141928638521821e-13,8.177472424961591e-14,5.92136729837285e-14,4.219247283114292e-14,2.9588533031520726e-14,2.0379156703304347e-14,1.3837773252675754e-14,1.2805384334659278e-09,8.539712927287195e-10,5.69158195428054e-10,3.846918499357163e-10,2.584800731644869e-10,1.6884576630583777e-10,1.0728649901179158e-10,6.516969918730872e-11,3.776072344328082e-11,2.0629090762718636e-11,1.0661005485481444e-11,5.224652584677105e-12,2.4867624819957924e-12,1.238134069809583e-12,6.841509128133945e-13,4.2136321568353956e-13,2.821855326450483e-13,1.932534547384771e-13,1.3427428654815005e-13,9.340966285912833e-14,6.334397353019231e-14
0.0,27,27.0,0.0,30.0,0.0,0.0,0.0,0.0,-13.0,0.0,2.0,0.0,0.0,0.0,1.2262730658478087e-10,1.1003106931583521e-10,9.437191357886919e-11,7.722630780844333e-11,6.19635445482744e-11,4.788378446895869e-11,3.458924471517035e-11,2.3899406994888256e-11,1.5720222304169673e-11,9.97653213339171e-12,6.030070999931364e-12,3.6299241680919077e-12,2.2110846329742705e-12,1.43692531142817e-12,1.030756849969654e-12,7.780841002296718e-13,6.13165739394585e-13,4.870299459654064e-13,3.8713559261370747e-13,3.0643118764318653e-13,2.3989375261834803e-13,1.8509437884684007e-13,1.4056162391599946e-13,1.0507846035785115e-13,7.718670061121754e-14,5.5947241017837864e-14,3.991270470256989e-14,2.8027382368557458e-14,1.933188888690773e-14,1.3153995393852987e-14,1.300516598219568e-09,8.663958440984832e-10,5.768302165937325e-10,3.8951822128555695e-10,2.616525194901941e-10,1.71189623541401e-10,1.0929462783702359e-10,6.695128129440676e-11,3.923144458104488e-11,2.1704794581565558e-11,1.1348019543162417e-11,5.599293431757327e-12,2.6538045632780046e-12,1.2933705960261213e-12,6.906648863431161e-13,4.122360386969686e-13,2.706936892164536e-13,1.8363721741955576e-13,1.2704499696149312e-13,8.813296576583211e-14,5.978325059475204e-14
0.0,28,28.0,0.0,30.0,0.0,0.0,0.0,0.0,-13.0,0.0,2.0,0.0,0.0,0.0,1.2467120483258075e-10,1.1200285476731863e-10,9.623643957754844e-11,7.897911303333692e-11,6.360472362868288e-11,4.9378365580699073e-11,3.589046948231707e-11,2.4969114143587647e-11,1.653402175018064e-11,1.0542531562616746e-11,6.375953250827782e-12,3.808889605893663e-12,2.2767275977143897e-12,1.4405288601773456e-12,1.007062318975779e-12,7.467653926345975e-13,5.829498084204555e-13,4.610512855748511e-13,3.6568496407663593e-13,2.891718628031017e-13,2.263042047962878e-13,1.7457332855191298e-13,1.3260919311519953e-13,9.918567747476313e-14,7.291644100940121e-14,5.2901240445954036e-14,3.778297172710716e-14,2.6565760323698325e-14,1.8349367797466538e-14,1.2511853762973151e-14,1.3208917462716434e-09,8.790523442553565e-10,5.846377422917162e-10,3.9440759447102004e-10,2.64801306687321e-10,1.7341854182481946e-10,1.1113851173060842e-10,6.858101549422229e-11,4.0601732213628976e-11,2.273493668444639e-11,1.2026880069029855e-11,5.983311203929949e-12,2.8336742258951726e-12,1.358442702277172e-12,7.030714179260311e-13,4.061541430794738e-13,2.60790272361744e-13,1.749550202425072e-13,1.2041898476661966e-13,8.326778897618598e-14,5.65183969001364e-14
0.0,29,29.0,0.0,30.0,0.0,0.0,0.0,0.0,-13.0,0.0,2.0,0.0,0.0,0.0,1.2659660515419084e-10,1.1384996660740943e-10,9.797150767349943e-11,8.060329637193416e-11,6.512660724274672e-11,5.077093429304316e-11,3.711691678969398e-11,2.5993369791405738e-11,1.7329214720271404e-11,1.1109252444517402e-11,6.733470299920749e-12,4.0027812580212394e-12,2.355791430945709e-12,1.454048550482273e-12,9.899666377593693e-13,7.196935798941313e-13,5.55609407099913e-13,4.3719832291289173e-13,3.4587444010568194e-13,2.7320621901584945e-13,2.137128193346524e-13,1.6481305894346467e-13,1.2522287833845714e-13,9.370405685894688e-14,6.893839762355323e-14,5.0058406253758933e-14,3.5791875640532344e-14,2.5196348101264986e-14,1.7427016284395106e-14,1.1908486110993311e-14,1.3416727017898716e-09,8.919451665411595e-10,5.925836031523649e-10,3.993691997740807e-10,2.679489090448089e-10,1.7556411134713954e-10,1.1284575131458604e-10,7.007367461471289e-11,4.187438907786737e-11,2.3715969178639324e-11,1.2692722517386243e-11,6.373014984097788e-12,3.0243828210077433e-12,1.432597200127837e-12,7.211859085369538e-13,4.030840802198848e-13,2.524408317989109e-13,1.67153744506919e-13,1.1434750094812913e-13,7.877875729412449e-14,5.352015791899524e-14
0.0,30,30.0,0.0,30.0,0.0,0.0,0.0,0.0,-13.0,0.0,2.0,0.0,0.0,0.0,1.2842472232152521e-10,1.1559269470770903e-10,9.959553747355355e-11,8.211388434728662e-11,6.65398513448611e-11,5.206739071674535e-11,3.826954148781371e-11,2.6969626850080997e-11,1.8101509522175423e-11,1.1672260587979825e-11,7.0990433551651035e-12,4.209236972110545e-12,2.447012023992302e-12,1.4769157634619665e-12,9.792243481902623e-13,6.967046329410299e-13,5.309867998971461e-13,4.1531297243536945e-13,3.275668230881689e-13,2.584233221035824e-13,2.020340391920133e-13,1.5574951058962364e-13,1.1835551908016964e-13,8.860016450162059e-14,6.52293393231169e-14,4.740299892037042e-14,3.392899138927474e-14,2.3912431515616205e-14,1.6560619471347726e-14,1.1341218256319638e-14,1.3628684973270035e-09,9.050789347068298e-10,6.00670163018273e-10,4.0440912664425466e-10,2.7111193627070523e-10,1.7765225478850818e-10,1.1444125155364404e-10,7.144428277664588e-11,4.3053708266465117e-11,2.4645736437314842e-11,1.3341510335943681e-11,6.7650336462511896e-12,3.2239744457366746e-12,1.515022152520684e-12,7.447791716219115e-13,4.0298386414258417e-13,2.456192825542872e-13,1.6019055787185214e-13,1.0878885340223703e-13,7.463468931788428e-14,5.076210275356794e-14
0.0,31,31.0,0.0,30.0,0.0,0.0,0.0,0.0,-13.0,0.0,2.0,0.0,0.0,0.0,1.301742336793272e-10,1.172492434550009e-10,1.0112551076647145e-10,8.352533068306378e-11,6.785535734792345e-11,5.327450474355702e-11,3.935053428271765e-11,2.7896572046891192e-11,1.884759026973504e-11,1.2227750982851302e-11,7.469403079438695e-12,4.425987351365441e-12,2.5491085724674684e-12,1.5085282227247715e-12,9.74577409804316e-13,6.776471317507291e-13,5.089462544479317e-13,3.952577226525507e-13,3.106404774481776e-13,2.447234968274399e-13,1.911907708245473e-13,1.4732480679051403e-13,1.1196441755145391e-13,8.384365600967223e-14,6.176811838582347e-14,4.492065542318174e-14,3.2184775344738236e-14,2.2707846079792067e-14,1.574629315972571e-14,1.0807552654318847e-14,1.3844883834507095e-09,9.18458487059732e-10,6.088996523689486e-10,4.095314143358065e-10,2.743024800810247e-10,1.7970393297017158e-10,1.1594709353419681e-10,7.270764078032172e-11,4.4145091393299205e-11,2.5523291138967577e-11,1.3969989716436644e-11,7.156336569144499e-12,3.430558981842758e-12,1.604866116441999e-12,7.73581093323467e-13,4.0579936280783057e-13,2.403044419389625e-13,1.5403125493337398e-13,1.0370767453798935e-13,7.080814131491106e-14,4.82204681197695e-14
0.0,32,32.0,0.0,30.0,0.0,0.0,0.0,0.0,-13.0,0.0,2.0,0.0,0.0,0.0,1.318614005964408e-10,1.1883573887176206e-10,1.0257684427358512e-10,8.485125605494298e-11,6.9083937579702e-11,5.439957593726407e-11,4.036304294748033e-11,2.8773942004585995e-11,1.9565025576379797e-11,1.277252279430005e-11,7.84160286231913e-12,4.650880712389624e-12,2.660803509793718e-12,1.5482573791863568e-12,9.757531958702485e-13,6.623769637294829e-13,4.893696616455489e-13,3.769130572499497e-13,2.9498772551453384e-13,2.320171765925242e-13,1.811134641434894e-13,1.394865819146287e-13,1.060108733165072e-13,7.940695993390622e-14,5.853546319753777e-14,4.2598256057824e-14,3.0550482908107166e-14,2.1576927497265867e-14,1.4980455200225368e-14,1.0305158868435387e-14,1.406541845577266e-09,9.320888412057452e-10,6.172743409760789e-10,4.147388178474645e-10,2.7752922266971205e-10,1.8173586099595412e-10,1.173825510327635e-10,7.387796784053545e-11,4.5154712434210064e-11,2.6348714395507355e-11,1.45756340149468e-11,7.544242221137955e-12,3.642337955980585e-12,1.7012562291520268e-12,8.072858482138597e-13,4.1146208651424294e-13,2.3647706636900033e-13,1.4864865441147768e-13,9.907421537835476e-14,6.727501434108144e-14,4.587400338210076e-14
0.0,33,33.0,0.0,30.0,0.0,0.0,0.0,0.0,-13.0,0.0,2.0,0.0,0.0,0.0,1.3350024250472837e-10,1.2036630713149363e-10,1.0396334938563801e-10,8.610427941705879e-11,7.023606100133202e-11,5.545015187186664e-11,4.131092427516301e-11,2.960234853334942e-11,2.0252173759625947e-11,1.3303945577284165e-11,8.213022740860427e-12,4.881901496711475e-12,2.780840032292152e-12,1.5954565129607428e-12,9.824642183194737e-13,6.507532336089298e-13,4.72152667403396e-13,3.601750477033486e-13,2.805133884404255e-13,2.2022389793420422e-13,1.7173931034105087e-13,1.321873906791148e-13,1.004597702078765e-13,7.52649965968952e-14,5.5513793802858605e-14,4.0423805284626463e-14,2.9018094475636875e-14,2.0514466987713475e-14,1.425979951579793e-14,9.831865298676341e-15,1.4290386230704222e-09,9.459751678540512e-10,6.257966152702389e-10,4.200333305303588e-10,2.8079832617460147e-10,1.8376119384867428e-10,1.187642111294703e-10,7.496864526931107e-11,4.608922789494207e-11,2.71229439784031e-11,1.5156581687973854e-11,7.926417187721444e-12,3.857623867354197e-12,1.803314542770069e-12,8.455580523833427e-13,4.1988818027661946e-13,2.3411741469021754e-13,1.4402108524909438e-13,9.486366173129909e-14,6.401420964534317e-14,4.370381177689625e-14
0.0,34,34.0,0.0,30.0,0.0,0.0,0.0,0.0,-13.0,0.0,2.0,0.0,0.0,0.0,1.3510274068539962e-10,1.2185320071285141e-10,1.0529725647271735e-10,8.729592340371383e-11,7.132166853794284e-11,5.643380068702614e-11,4.2198527473896765e-11,3.038311588091094e-11,2.0908087662510853e-11,1.381991948735841e-11,8.581365926806206e-12,5.11718293556335e-12,2.9079969681004494e-12,1.6494689484132324e-12,9.944091541689108e-13,6.426352637479464e-13,4.572013251523943e-13,3.449531218536691e-13,2.671334470360829e-13,2.0927141337645214e-13,1.6301154176878e-13,1.2538418868264006e-13,9.527920913668605e-14,7.139492803021743e-14,5.2687057554215384e-14,3.8386325028322744e-14,2.7580248858557095e-14,1.9515670942109798e-14,1.3581272503356383e-14,9.385651648794506e-15,1.451988727706788e-09,9.601227752481424e-10,6.344690029039619e-10,4.2541652950999285e-10,2.8411413008906234e-10,1.8579015571776158e-10,1.2010616453805508e-10,7.59920470845382e-11,4.6955532381893855e-11,2.78476135078495e-11,1.571157070421022e-11,8.300867843368852e-12,4.074853782117033e-12,1.9101722829555754e-12,8.880393448879196e-13,4.3097840755302826e-13,2.33203336078778e-13,1.4013099009737531e-13,9.105547307675252e-14,6.100732041160584e-14,4.1693186550959885e-14
0.0,35,35.0,0.0,30.0,0.0,0.0,0.0,0.0,-13.0,0.0,2.0,0.0,0.0,0.0,1.3667905472226945e-10,1.2330695344746928e-10,1.0658928498070035e-10,8.843657797046479e-11,7.235004738768289e-11,5.7357932742418896e-11,4.303050858748126e-11,3.1118131757652106e-11,2.1532421451680287e-11,1.4318831689570924e-11,8.944649619346083e-12,5.355014810051654e-12,3.0411009614757293e-12,1.7096359465598342e-12,1.0112747926360156e-12,6.378805441846361e-13,4.4442926191965493e-13,3.311680152095827e-13,2.547738053603471e-13,1.9909490091719529e-13,1.5487881959658305e-13,1.1903787561220132e-13,9.044018137516342e-14,6.777593523280425e-14,5.004058244427945e-14,3.6475759042739486e-14,2.623018335760854e-14,1.8576124457435096e-14,1.2942051578766142e-14,8.964641745297658e-15,1.4754024601470232e-09,9.74537102727711e-10,6.432941709003276e-10,4.3088979569573734e-10,2.874796863527275e-10,1.8783059912936e-10,1.214202377534391e-10,7.695944268991321e-11,4.776055742209089e-11,2.852490456891525e-11,1.6239871704475704e-11,8.665926502135637e-12,4.292598037906643e-12,2.020981912325918e-12,9.343549995112823e-13,4.446189116658385e-13,2.337088573649398e-13,1.3696366840519867e-13,8.763274801803992e-14,5.823835077946519e-14,3.98274430211879e-14
0.0,36,36.0,0.0,30.0,0.0,0.0,0.0,0.0,-13.0,0.0,2.0,0.0,0.0,0.0,1.3823773929721856e-10,1.2473655009127223e-10,1.078487439769177e-10,8.953550835433023e-11,7.332975412400882e-11,5.82296657589073e-11,4.381167467199525e-11,3.1809713205986306e-11,2.2125341166354788e-11,1.4799510702101015e-11,9.301191510089682e-12,5.5938471210821136e-12,3.179036091167874e-12,1.7753039818646233e-12,1.03273857785512e-12,6.363434840654405e-13,4.3375533642372503e-13,3.187499110941806e-13,2.433691460122277e-13,1.8963625265574178e-13,1.472946965007977e-13,1.1311289347662311e-13,8.59162776652204e-14,6.438901948167386e-14,4.7560946006887294e-14,3.468288711368612e-14,2.4961679784852374e-14,1.7691758350731948e-14,1.23395256613494e-14,8.567096445560975e-15,1.4992904240563522e-09,9.892237209557502e-10,6.522749129286599e-10,4.364544475956546e-10,2.9089716135865146e-10,1.8988848861227731e-10,1.2271624517217988e-10,7.788095754264692e-11,4.8511110460498746e-11,2.915741299082429e-11,1.6741221653711586e-11,9.020233547432847e-12,4.509564875150229e-12,2.1349270251873103e-12,9.8412027248812e-13,4.606825534776278e-13,2.3560322744854854e-13,1.3450617400395361e-13,8.458162178336836e-14,5.569345567381736e-14,3.8093748804093505e-14
0.0,37,37.0,0.0,30.0,0.0,0.0,0.0,0.0,-13.0,0.0,2.0,0.0,0.0,0.0,1.39785952827834e-10,1.2614959975489692e-10,1.0908365095277484e-10,9.06008954355353e-11,7.42685771567818e-11,5.905572766155732e-11,4.454685583134513e-11,3.246048777675492e-11,2.2687440325852706e-11,1.526118004055085e-11,9.649593140198139e-12,5.832290415470057e-12,3.3207511315146897e-12,1.8458312261887077e-12,1.058471480446232e-12,6.378748177327207e-13,4.2510175602302094e-13,3.0763677326146067e-13,2.32861870439919e-13,1.8084342884301908e-13,1.402171431286937e-13,1.0757687302316353e-13,8.168342913316518e-14,6.121682487287816e-14,4.5235857938698824e-14,3.299924801367027e-14,2.3769015805107622e-14,1.6858819295273936e-14,1.1771277419526157e-14,8.191406480956846e-15,1.523663538086732e-09,1.0041883363984623e-09,6.614141342205191e-10,4.421118177662157e-10,2.943681316810584e-10,1.9196830965300198e-10,1.2400224477028185e-10,7.876557892215325e-11,4.9213750326853715e-11,2.9748029926847333e-11,1.721575932087666e-11,9.362716753921807e-12,4.724601743963815e-12,2.2512301968724386e-12,1.0369462829966723e-12,4.790306446369928e-13,2.3885036519753074e-13,1.327463746825855e-13,8.189070167542956e-14,5.336069715187733e-14,3.648095494776327e-14
0.0,38,38.0,0.0,30.0,0.0,0.0,0.0,0.0,-13.0,0.0,2.0,0.0,0.0,0.0,1.4132965244578094e-10,1.2755250558399293e-10,1.1030085946250728e-10,9.163989855080251e-11,7.517353005926513e-11,5.984239141946532e-11,4.524080278132563e-11,3.307328998416317e-11,2.3219661524595004e-11,1.5703412234531572e-11,9.988721056870461e-12,6.069113428014039e-12,3.465264711896678e-12,1.9205931521660356e-12,1.0881409875385148e-12,6.423215272312948e-13,4.1839261095506213e-13,2.9777287117228477e-13,2.232011204858943e-13,1.72669866855349e-13,1.3360812854735507e-13,1.0240032220787828e-13,7.771967649515376e-14,5.824347965031056e-14,4.305405483041221e-14,3.141707024621341e-14,2.2646921039485816e-14,1.6073842760452216e-14,1.1235067120081894e-14,7.836085168694647e-15,1.5485330461939145e-09,1.0194367981147228e-09,6.707148382831453e-10,4.4786329248521025e-10,2.9789379692142873e-10,1.9407340758765035e-10,1.2528478559466122e-10,7.962119537395148e-11,4.98746950810305e-11,3.0299837876931944e-11,1.7663963602632484e-11,9.692568775791817e-12,4.936693947955867e-12,2.3691589687338595e-12,1.0924452994232279e-12,4.995149211148059e-13,2.4340865121078925e-13,1.3167217446979687e-13,7.95505459064386e-14,5.1229814717433875e-14,3.4979430671960713e-14
0.0,39,39.0,0.0,30.0,0.0,0.0,0.0,0.0,-13.0,0.0,2.0,0.0,0.0,0.0,1.4287377210479722e-10,1.2895062553527392e-10,1.1150618854897487e-10,9.265873265594328e-11,7.605086830904391e-11,6.059543644787805e-11,4.589810734512298e-11,3.3651072618378176e-11,2.372322463071683e-11,1.6126084053153955e-11,1.0317686538607268e-11,6.303238608113006e-12,3.6116686465556823e-12,1.998987234358382e-12,1.121414052248942e-12,6.495271559902016e-13,4.1355277907529545e-13,2.891074944123681e-13,2.1434187909068702e-13,1.6507393725483485e-13,1.2743324628130356e-13,9.75563512424264e-14,7.400496445052379e-14,5.545445420353633e-14,4.100520560507479e-14,2.9929209726709983e-14,2.1590537434160372e-14,1.5333628470749277e-14,1.0728817939917877e-14,7.499760993211353e-15,1.5739105268305842e-09,1.0349751054752807e-09,6.801801170117227e-10,4.537103289234833e-10,3.014751293443724e-10,1.9620626333792102e-10,1.2656913919779931e-10,8.045465999085462e-11,5.0499757982387925e-11,3.081602138851111e-11,1.80865954498543e-11,1.0009223582028957e-11,5.1449611935058525e-12,2.4880301783495733e-12,1.1502353652343276e-12,5.219796287843075e-13,2.492310021771397e-13,1.3127089358330596e-13,7.755319021768792e-14,4.929200835676982e-14,3.358090408531127e-14
0.0,40,40.0,0.0,30.0,0.0,0.0,0.0,0.0,-13.0,0.0,2.0,0.0,0.0,0.0,1.4442238230757765e-10,1.303484210175035e-10,1.127045488840299e-10,9.366275340973194e-11,7.690612305879247e-11,6.132013154325219e-11,4.6523143157109816e-11,3.419683218990694e-11,2.4199561943203395e-11,1.6529333585782132e-11,1.0635824512953253e-11,6.533736012410846e-12,3.759129702646413e-12,2.0804367727355112e-12,1.1579598884127179e-12,6.593324039743686e-13,4.105071519268642e-13,2.8159384922485847e-13,2.0624414886807506e-13,1.5801844122862897e-13,1.2166137884876847e-13,9.302042934255538e-14,7.05209584999144e-14,5.283643388789396e-14,3.907982644377979e-14,2.852909364414254e-14,2.059538345153559e-14,1.4635218129949506e-14,1.0250602612532352e-14,7.18117010365102e-15,1.599807901517704e-09,1.0508094159394263e-09,6.898131444124714e-10,4.596544594045245e-10,3.051129763413919e-10,1.9836871395409287e-10,1.2785951024352404e-10,8.127186929808253e-11,5.109430734804945e-11,3.12997918443059e-11,1.8484643944361692e-11,1.0312332463983812e-11,5.3486525240685014e-12,2.6072128521930398e-12,1.2099442446762422e-12,5.46263619283104e-13,2.562651682870834e-13,1.315287964627222e-13,7.589172533202505e-14,4.753973396641802e-14,3.2278310757443274e-14
0.0,41,41.0,0.0,30.0,0.0,0.0,0.0,0.0,-13.0,0.0,2.0,0.0,0.0,0.0,1.4597883116204442e-10,1.3174959163351802e-10,1.1390006215745967e-10,9.465654522310868e-11,7.774414659339759e-11,6.202123481313437e-11,4.712002384100984e-11,3.471354755315072e-11,2.465026044371397e-11,1.6913519667588707e-11,1.0942672171972645e-11,6.759815966553355e-12,3.906890057634212e-12,2.1643938931293337e-12,1.1974525339071147e-12,6.715759111253443e-13,4.091801329892314e-13,2.75188127109675e-13,1.9887220739642512e-13,1.5147014533955923e-13,1.1626439489950238e-13,8.877016886668134e-14,6.725088171324396e-14,5.037720505122554e-14,3.726920413812032e-14,2.7210669833788075e-14,1.965732168821097e-14,1.3975875183717788e-14,9.798631291980745e-15,6.879148802524208e-15,1.6262374432090382e-09,1.0669460524132656e-09,6.996171734818056e-10,4.656972889624524e-10,3.088081284562577e-10,2.005621261420959e-10,1.2915922390148347e-10,8.207785104793874e-11,5.1663246229761434e-11,3.175432549327191e-11,1.8859276894936882e-11,1.0601740116239335e-11,5.5471400386702095e-12,2.7261298718200036e-12,1.2712127021360763e-12,5.72202378885662e-13,2.6445419829942627e-13,1.3243075500522553e-13,7.455992682000748e-14,4.596651142089327e-14,3.1065651485880536e-14
0.0,42,42.0,0.0,30.0,0.0,0.0,0.0,0.0,-13.0,0.0,2.0,0.0,0.0,0.0,1.4754586731863555e-10,1.3315719534522297e-10,1.1509617152182886e-10,9.564400857804568e-11,7.856916510494913e-11,6.270300659930104e-11,4.769257600881983e-11,3.5204130599686374e-11,2.50770110972793e-11,1.7279184007824836e-11,1.1237947694360489e-11,6.980820831264298e-12,4.054266673589609e-12,2.250341796933849e-12,1.2395731362644144e-12,6.860951522647662e-13,4.0949536084903037e-13,2.69848733070431e-13,1.921939377690151e-13,1.4539935073090272e-13,1.1121687412111703e-13,8.478513305770502e-14,6.417936921978973e-14,4.8065552845062534e-14,3.556532694652161e-14,2.5968361068198493e-14,1.87725295665729e-14,1.3353066418193691e-14,9.371240526281421e-15,6.59262611306731e-15,1.65321178476386e-09,1.0833915099935249e-09,7.095955355436033e-10,4.718404900439732e-10,3.125613628431434e-10,2.0278753061235518e-10,1.3047088941805732e-10,8.287685564636629e-11,5.2211008111705184e-11,3.21827136965553e-11,1.9211796169251416e-11,1.0877461191535757e-11,5.7399117241230925e-12,2.844258609937827e-12,1.3336971518605946e-12,5.996299347556551e-13,2.737370225800186e-13,1.3396003199522772e-13,7.355193752569865e-14,4.4566745833893376e-14,2.993786008562039e-14
0.0,43,43.0,0.0,30.0,0.0,0.0,0.0,0.0,-13.0,0.0,2.0,0.0,0.0,0.0,1.491257458867994e-10,1.3457375415896554e-10,1.1629574188361438e-10,9.662844397305878e-11,7.938483530199079e-11,6.336923194172173e-11,4.824432457564997e-11,3.567138781643881e-11,2.5481565007173657e-11,1.762701626664096e-11,1.152152940406712e-11,7.196216150717735e-12,4.200649789663732e-12,2.337796340674497e-12,1.2840119379235343e-12,7.027273819980064e-13,4.113756132944478e-13,2.6553565941930295e-13,1.8618023239529242e-13,1.3977949477795447e-13,1.0649585601025257e-13,8.10466640902717e-14,6.129233841266224e-14,4.589116956364429e-14,3.3960822150131973e-14,2.479702374154741e-14,1.7937472784019796e-14,1.276444521355769e-14,8.96688323978662e-15,6.320616515118561e-15,1.680743927750335e-09,1.100152462080209e-09,7.197516413333385e-10,4.78085796595269e-10,3.1637346963905076e-10,2.0504572441613512e-10,1.317965405011266e-10,8.367244719371823e-11,5.274156517790968e-11,3.258792423821228e-11,1.9543597847441568e-11,1.1139657648476754e-11,5.926563671849542e-12,2.9611307135588214e-12,1.3970717289391924e-12,6.283806013517368e-13,2.8404911100040306e-13,1.3609816862198686e-13,7.286200139669639e-14,4.333556266243466e-14,2.8890681584186956e-14
0.0,44,44.0,0.0,30.0,0.0,0.0,0.0,0.0,-13.0,0.0,2.0,0.0,0.0,0.0,1.507203187525672e-10,1.3600134595727202e-10,1.175011495681561e-10,9.761263071077396e-11,8.019430215083174e-11,6.4023249667483e-11,4.877848808239836e-11,3.6117991461289254e-11,2.5865696110725738e-11,1.7957822230044038e-11,1.1793435629538957e-11,7.405581413665779e-12,4.345500707743216e-12,2.4263070278709394e-12,1.330469956220114e-12,7.213105820415148e-13,4.1474285249426897e-13,2.622099900586592e-13,1.8080446738352595e-13,1.3458678373250296e-13,1.0208060939523258e-13,7.753772857518159e-14,5.857687305719622e-14,4.384457239399113e-14,3.244889960547407e-14,2.3691910483216436e-14,1.71488812375723e-14,1.2207836291017696e-14,8.584119631184457e-15,6.062212932199287e-15,1.708847251724718e-09,1.117235765943386e-09,7.300889832138348e-10,4.844349987233928e-10,3.20245266797133e-10,2.0733734759292007e-10,1.3313775398346631e-10,8.446759120893925e-11,5.325844608736703e-11,3.297277248354974e-11,1.9856137171402776e-11,1.1388617142308665e-11,6.106791901780548e-12,3.0763311906273126e-12,1.4610298399659557e-12,6.582905448543325e-13,2.9532316944416393e-13,1.3882495973921447e-13,7.248424645866824e-14,4.226865724758143e-14,2.7920560842523136e-14
0.0,45,45.0,0.0,30.0,0.0,0.0,0.0,0.0,-13.0,0.0,2.0,0.0,0.0,0.0,1.523311108784749e-10,1.3744168343966967e-10,1.187143614197691e-10,9.859889942617907e-11,8.100025571999666e-11,6.466798569472701e-11,4.929798194507435e-11,3.65464591100486e-11,2.6231170012275505e-11,1.8272495149881897e-11,1.2053805472020205e-11,7.608600618636407e-12,4.488349021620595e-12,2.5154574930389828e-12,1.3786603659211733e-12,7.416843755195122e-13,4.1951837608176537e-13,2.598335197842071e-13,1.760420441718583e-13,1.2979985523195017e-13,9.795242025643247e-14,7.424277808355149e-14,5.6021119673522756e-14,4.191702958043134e-14,3.10233006774765e-14,2.2648636289922667e-14,1.6403727171660275e-14,1.1681221808944692e-14,8.221608900146388e-15,5.816580040523858e-15,1.7375355240728891e-09,1.134648467877119e-09,7.406111380423275e-10,4.908899384616445e-10,3.2417760740117994e-10,2.0966293955328775e-10,1.3449574872573177e-10,8.526473701755768e-11,5.3764760602085754e-11,3.3339901148512084e-11,2.0150898170125607e-11,1.1624732650840993e-11,6.2803839762255176e-12,3.1894969359267234e-12,1.5252852543636521e-12,6.891991554445743e-13,3.074898454013035e-13,1.421185009554944e-13,7.241251379058085e-14,4.136215922507614e-14,2.7024541352526342e-14
0.0,46,46.0,0.0,30.0,0.0,0.0,0.0,0.0,-13.0,0.0,2.0,0.0,0.0,0.0,1.5395938420927443e-10,1.388961813267468e-10,1.1993700376815725e-10,9.958919778407024e-11,8.180498566578349e-11,6.530598860480226e-11,4.980542779153298e-11,3.69591403654075e-11,2.6579718484443653e-11,1.857199024516006e-11,1.2302880643444498e-11,7.805052802218229e-12,4.6287894178266326e-12,2.6048655524256638e-12,1.428309600705602e-12,7.636908830600571e-13,4.2562304380033634e-13,2.583684733011021e-13,1.7186999447805223e-13,1.2539946969780537e-13,9.409439592532891e-14,7.114762262258049e-14,5.361419473118764e-14,4.010049411166887e-14,2.9678252010618754e-14,2.166314781328941e-14,1.5699205323616725e-14,1.1182728678988039e-14,7.878101722128722e-15,5.5829479557012375e-15,1.7668229104588801e-09,1.1523978080856444e-09,7.513217703437298e-10,4.974525067766484e-10,3.2817138230598347e-10,2.1202297974130652e-10,1.3587146696570806e-10,8.606589352676498e-11,5.4263228817780446e-11,3.369176746342124e-11,2.0429367764693755e-11,1.1848483477179455e-11,6.447210554370584e-12,3.300314812854746e-12,1.589572796443435e-12,7.209502263877521e-13,3.2047841943258714e-13,1.459552925809553e-13,7.264022870793827e-14,4.061251202179755e-14,2.6200173771060267e-14
0.0,47,47.0,0.0,30.0,0.0,0.0,0.0,0.0,-13.0,0.0,2.0,0.0,0.0,0.0,1.5560619076845015e-10,1.4036601306584595e-10,1.2117042193264134e-10,1.0058514917328113e-10,8.261043236360967e-11,6.593946594921745e-11,5.030316729126104e-11,3.735820958223618e-11,2.6913019126785412e-11,1.885730230165881e-11,1.254098849268375e-11,7.994802662613753e-12,4.766478156884322e-12,2.6941828893893247e-12,1.4791581953074927e-12,7.871755039977339e-13,4.329775541330903e-13,2.577773092107376e-13,1.6826664415088054e-13,1.2136822967960933e-13,9.049128416790436e-14,6.823931532466858e-14,5.1346101349253574e-14,3.8387544129485694e-14,2.840842365850921e-14,2.0731695481342844e-14,1.5032714865529152e-14,1.0710616986646956e-14,7.552433396737404e-15,5.3606063369777816e-15,1.7967239858976558e-09,1.1704912254384648e-09,7.622246355623565e-10,5.041246417409636e-10,3.322275200628278e-10,2.1441791630454568e-10,1.3726564038396884e-10,8.687269769934054e-11,5.475621313341853e-11,3.40306365654578e-11,2.069301409617149e-11,1.2060417726843423e-11,6.607217011684117e-12,3.408519390396148e-12,1.6536486950753006e-12,7.533929455347143e-13,3.3421746497707824e-13,1.5031038673645493e-13,7.31603099310079e-14,4.001636740788575e-14,2.544543363270117e-14
