Line_number,Fiducial,Easting,Northing,Height,Elevation,tx_pitch,tx_roll,tx_yaw,txrx_dx,txrx_dy,txrx_dz,rx_pitch,rx_roll,rx_yaw,S0Z_time_1.431e-04,S0Z_time_1.801e-04,S0Z_time_2.266e-04,S0Z_time_2.846e-04,S0Z_time_3.581e-04,S0Z_time_4.506e-04,S0Z_time_5.671e-04,S0Z_time_7.136e-04,S0Z_time_8.981e-04,S0Z_time_1.131e-03,S0Z_time_1.423e-03,S0Z_time_1.791e-03,S0Z_time_2.255e-03,S0Z_time_2.838e-03,S0Z_time_3.573e-03,S0Z_time_4.498e-03,S0Z_time_5.662e-03,S1Z_time_1.409e-05,S1Z_time_1.610e-05,S1Z_time_1.909e-05,S1Z_time_2.360e-05,S1Z_time_2.960e-05,S1Z_time_3.709e-05,S1Z_time_4.609e-05,S1Z_time_5.759e-05,S1Z_time_7.209e-05,S1Z_time_9.060e-05,S1Z_time_1.141e-04,S1Z_time_1.431e-04,S1Z_time_1.801e-04,S1Z_time_2.266e-04,S1Z_time_2.846e-04,S1Z_time_3.581e-04,S1Z_time_4.506e-04,S1Z_time_5.671e-04,S1Z_time_7.136e-04,S1Z_time_8.981e-04,S1Z_time_1.131e-03
0.0,0,0.0,0.0,30.0,0.0,0.0,0.0,0.0,-13.0,0.0,2.0,0.0,0.0,0.0,1.0919561018261948e-10,5.7352972181115865e-11,3.042426005143045e-11,1.7412163462288554e-11,9.85118563294178e-12,5.649514424673491e-12,3.31260224498858e-12,1.891716011673107e-12,1.1152937579807251e-12,6.310288391205321e-13,3.928939970997417e-13,2.115412594248707e-13,1.2961942809277308e-13,6.93320407914317e-14,3.754887407148376e-14,2.1870033733263156e-14,1.1737366030096643e-14,6.934169838944534e-09,5.541159042396167e-09,4.17424175797474e-09,2.9076303175085692e-09,1.9538002172297156e-09,1.2837281751977014e-09,8.388630725161041e-10,5.297889015470806e-10,3.2545989640301736e-10,1.9505184923939066e-10,1.1464861869977406e-10,6.755210988739434e-11,3.945591506958416e-11,2.298529398620882e-11,1.3449072216774467e-11,7.807681816633668e-12,4.5014989216206085e-12,2.5566763627289976e-12,1.4419798581301193e-12,7.959856556329653e-13,4.3048328297095404e-13
0.0,1,1.0,0.0,30.0,0.0,0.0,0.0,0.0,-13.0,0.0,2.0,0.0,0.0,0.0,1.0774472137633171e-10,5.60965585279167e-11,2.952350532294263e-11,1.6822534296864965e-11,9.487636588216302e-12,5.435667008947106e-12,3.190700551671631e-12,1.8235410120544803e-12,1.0777396086304002e-12,6.106290407577721e-13,3.8199189226837655e-13,2.057201853117275e-13,1.2658300753081486e-13,6.775254585619227e-14,3.674258818259205e-14,2.1465514826426246e-14,1.1536011889835236e-14,6.93999718873318e-09,5.549087602703013e-09,4.1843148110035625e-09,2.9188028171109146e-09,1.963874690055417e-09,1.2910924322814018e-09,8.431569382104516e-10,5.313821919146548e-10,3.2520669825972686e-10,1.9384247286062676e-10,1.131727911521094e-10,6.620802550001376e-11,3.8409445671853486e-11,2.225059579876995e-11,1.2967813924895739e-11,7.51219648372992e-12,4.327924915151454e-12,2.4585797605352345e-12,1.388431734492371e-12,7.676783767653794e-13,4.1608881074947147e-13
0.0,2,2.0,0.0,30.0,0.0,0.0,0.0,0.0,-13.0,0.0,2.0,0.0,0.0,0.0,1.0644196367934639e-10,5.494913723576581e-11,2.8690144730840055e-11,1.6271739189110537e-11,9.14557081058337e-12,5.233303382928542e-12,3.0748330246743096e-12,1.758490444745906e-12,1.0417721479664019e-12,5.910307628292106e-13,3.7148100697238613e-13,2.0009197913281238e-13,1.2363843701582714e-13,6.621638979387877e-14,3.595668766880281e-14,2.107010129959546e-14,1.1338890316774113e-14,6.945793567999615e-09,5.556777403875282e-09,4.193820419486446e-09,2.9290774451065327e-09,1.9729774091477775e-09,1.297695797852525e-09,8.470204647103605e-10,5.328518922720363e-10,3.250265898754859e-10,1.927869307831707e-10,1.1185270856988247e-10,6.49874167563045e-11,3.744741921767807e-11,2.1568433311788345e-11,1.2517544784826233e-11,7.234001194750912e-12,4.163741920329892e-12,2.365456725501349e-12,1.3373809971396212e-12,7.406339334060856e-13,4.0229447139747743e-13
0.0,3,3.0,0.0,30.0,0.0,0.0,0.0,0.0,-13.0,0.0,2.0,0.0,0.0,0.0,1.052632910924411e-10,5.3897661736008755e-11,2.791778618118582e-11,1.5756662927799458e-11,8.823441893099593e-12,5.041660378925618e-12,2.964624978210208e-12,1.6963803933909446e-12,1.007305890691923e-12,5.721934060737781e-13,3.6134315294061456e-13,1.9464853112392952e-13,1.2078206695452999e-13,6.472209831583267e-14,3.5190490962738155e-14,2.0683546451383868e-14,1.1145880945369013e-14,6.951655813654431e-09,5.56436282337173e-09,4.20293106962459e-09,2.9386388169040365e-09,1.981253712614892e-09,1.3036140909720415e-09,8.504663524288854e-10,5.341708158978729e-10,3.2487894322617624e-10,1.9184868168723884e-10,1.1066258950041153e-10,6.387444333799445e-11,3.656103556121868e-11,2.093420700852152e-11,1.2095864036861856e-11,6.971870428504082e-12,4.008326415933773e-12,2.2769886098988207e-12,1.288686911956588e-12,7.147824346259361e-13,3.8906351995465257e-13
0.0,4,4.0,0.0,30.0,0.0,0.0,0.0,0.0,-13.0,0.0,2.0,0.0,0.0,0.0,1.041878640087654e-10,5.29303925472976e-11,2.7200565685470874e-11,1.5274433581092102e-11,8.519828727098907e-12,4.8600381933018615e-12,2.8597317942230185e-12,1.6370414610382823e-12,9.742615570962837e-13,5.540791026327713e-13,3.51561320733169e-13,1.8938217733400727e-13,1.1801045117351683e-13,6.32682619597692e-14,3.4443348316525004e-14,2.0305611535131212e-14,1.0956868542973741e-14,6.957658685837138e-09,5.5719463169393045e-09,4.2117793329800375e-09,2.9476331729474608e-09,1.988824893315566e-09,1.3089168478255615e-09,8.535130409243145e-10,5.353221104177118e-10,3.2473252773384444e-10,1.9099750097766575e-10,1.095800944945508e-10,6.285493277930779e-11,3.574226495136641e-11,2.0343679155095808e-11,1.1700560979799828e-11,6.724680021039767e-12,3.861106417889303e-12,2.192883180704137e-12,1.242219224115917e-12,6.900583099555946e-13,3.7636347423724775e-13
0.0,5,5.0,0.0,30.0,0.0,0.0,0.0,0.0,-13.0,0.0,2.0,0.0,0.0,0.0,1.0319771636027742e-10,5.2036813181009915e-11,2.6533112895414174e-11,1.482239955563505e-11,8.23342083004033e-12,4.687792639945787e-12,2.7598355943882476e-12,1.5803172260443518e-12,9.42565441761056e-13,5.366524815576394e-13,3.421195732265304e-13,1.8428566752102934e-13,1.1532033186660327e-13,6.185353223399904e-14,3.3714639922161485e-14,1.9936065484457572e-14,1.077174270270588e-14,6.963861589869198e-09,5.5796073704287314e-09,4.220467913676869e-09,2.9561764499058773e-09,1.995791506460028e-09,1.3136662925158619e-09,8.561817294236688e-10,5.362963435058076e-10,3.245635968425333e-10,1.9020854498212979e-10,1.0858597905635881e-10,6.19162708044683e-11,3.498380331962752e-11,1.9792946068472807e-11,1.1329594945796481e-11,6.491394612755751e-12,3.721555424913605e-12,2.112871726794041e-12,1.1978568816671142e-12,6.664001291090522e-13,3.6416533887824036e-13
0.0,6,6.0,0.0,30.0,0.0,0.0,0.0,0.0,-13.0,0.0,2.0,0.0,0.0,0.0,1.022774262063704e-10,5.120754036906383e-11,2.5910519690368594e-11,1.4398111120417742e-11,7.963006422167622e-12,4.524328700181228e-12,2.664642379060403e-12,1.5260628945102185e-12,9.121488686576355e-13,5.19880457780252e-13,3.330029507374704e-13,1.7935213633050281e-13,1.1270862575397452e-13,6.047661809317209e-14,3.3003774145977676e-14,1.957468464928575e-14,1.0590397554952497e-14,6.970313054319904e-09,5.587408662294161e-09,4.229076916412829e-09,2.964360618237e-09,2.002236528171511e-09,1.3179171945025892e-09,8.584944521905858e-10,5.370893154068627e-10,3.2435430323677366e-10,1.8946150060281084e-10,1.0766374486654449e-10,6.104728137070704e-11,3.4279027676904155e-11,1.9278414976206078e-11,1.098107922804262e-11,6.27105745736573e-12,3.589187301130886e-12,2.036706537470121e-12,1.1554870054113946e-12,6.437504186543599e-13,3.5244298086230444e-13
0.0,7,7.0,0.0,30.0,0.0,0.0,0.0,0.0,-13.0,0.0,2.0,0.0,0.0,0.0,1.0141380248039768e-10,5.043423139978049e-11,2.5328310277095655e-11,1.3999305018907673e-11,7.707462660486832e-12,4.3690951373464765e-12,2.5738795573875166e-12,1.4741441227847291e-12,8.829477181676686e-13,5.037320417999898e-13,3.2419738656473083e-13,1.7457507721376858e-13,1.1017241138053223e-13,5.913628270602909e-14,3.2310185869952646e-14,1.9221252540524628e-14,1.0412731497600601e-14,6.977053775081976e-09,5.5954003695110996e-09,4.237669142393941e-09,2.9722586179740646e-09,2.008228172445793e-09,1.3217172023145454e-09,8.60472875174016e-10,5.377004396930673e-10,3.240914119836978e-10,1.8873983602985773e-10,1.0679930469310843e-10,6.02381018795344e-11,3.362195088062222e-11,1.8796783649743954e-11,1.065326792220805e-11,6.062782106443969e-12,3.4635519370875435e-12,1.9641587022935227e-12,1.115004049875812e-12,6.220554631953228e-13,3.4117263543771227e-13
0.0,8,8.0,0.0,30.0,0.0,0.0,0.0,0.0,-13.0,0.0,2.0,0.0,0.0,0.0,1.0059559553174626e-10,4.970949137072723e-11,2.47824120918341e-11,1.362389119661494e-11,7.465747547895629e-12,4.2215799829688054e-12,2.4872938084224517e-12,1.4244359870197924e-12,8.549020141083147e-13,4.881781678541405e-13,3.156896317950005e-13,1.699483186624962e-13,1.0770891747563563e-13,5.783134048221164e-14,3.16333349345002e-14,1.887555958190943e-14,1.0238646944522943e-14,6.984118720460984e-09,5.603623217211628e-09,4.246293979907012e-09,2.9799281930075444e-09,2.0138223142012778e-09,1.3251074089613528e-09,8.621375778213038e-10,5.381315577765225e-10,3.237652698753336e-10,1.8803015454680456e-10,1.0598067060230615e-10,5.94800583589467e-11,3.3007175931090675e-11,1.834502169329629e-11,1.0344544888082124e-11,5.865745569005328e-12,3.344231560334073e-12,1.8950161900549234e-12,1.0763091109368764e-12,6.012650903424258e-13,3.3033251811499444e-13
0.0,9,9.0,0.0,30.0,0.0,0.0,0.0,0.0,-13.0,0.0,2.0,0.0,0.0,0.0,9.981323524666323e-11,4.90267827401128e-11,2.42691272918534e-11,1.3269940980333062e-11,7.23689313224138e-12,4.0813067339065584e-12,2.4046492241200465e-12,1.3768220798921093e-12,8.279555610408637e-13,4.731915386621241e-13,3.0746718830507125e-13,1.6546600243199078e-13,1.0531551229451023e-13,5.656065432829671e-14,3.097270467753185e-14,1.853740286826261e-14,1.0068050092048688e-14,6.991538607109664e-09,5.61211066411246e-09,4.254990286094724e-09,2.9874148716078237e-09,2.019064531387047e-09,1.3281230070370342e-09,8.635076564064197e-10,5.383860793722426e-10,3.2336898798383824e-10,1.873216457240365e-10,1.051976705628118e-10,5.876554435085068e-11,3.242985036974597e-11,1.7920352852916635e-11,1.0053414243028089e-11,5.679182621624428e-12,3.23083758839494e-12,1.8290821706612674e-12,1.0393093454802803e-12,5.813324444264525e-13,3.199025205226446e-13
0.0,10,10.0,0.0,30.0,0.0,0.0,0.0,0.0,-13.0,0.0,2.0,0.0,0.0,0.0,9.905859783215682e-11,4.838033897555699e-11,2.378510489142266e-11,1.2935676273150725e-11,7.01999969374194e-12,3.947831127405073e-12,2.3257256932052953e-12,1.3311937173615029e-12,8.020556239748985e-13,4.587464850604489e-13,2.9951824898776243e-13,1.6112256350137528e-13,1.0298969386389575e-13,5.53231331074616e-14,3.03278005654664e-14,1.820658592957387e-14,9.900850702340895e-15,6.999340945169472e-09,5.620890483884729e-09,4.26378853832604e-09,2.9947542890713435e-09,2.023991806011572e-09,1.3307939538504124e-09,8.646005369969323e-10,5.384683652926384e-10,3.2289779789834273e-10,1.8660562446257297e-10,1.0444169530675197e-10,5.808790612907126e-11,3.188562147007201e-11,1.75202380258147e-11,9.778491963642364e-12,5.502381010605957e-12,3.12300793387223e-12,1.7661735484203e-12,1.0039174768467524e-12,5.622137557604986e-13,3.0986397140931324e-13
0.0,11,11.0,0.0,30.0,0.0,0.0,0.0,0.0,-13.0,0.0,2.0,0.0,0.0,0.0,9.832480059000754e-11,4.77650835204042e-11,2.332731371679226e-11,1.2619459491118801e-11,6.814230689239614e-12,3.820738384554284e-12,2.250317491091419e-12,1.2874492407230908e-12,7.771526440760004e-13,4.448188390186434e-13,2.9183164432646453e-13,1.5691271157334782e-13,1.0072908105686819e-13,5.411772928022412e-14,2.96981489119407e-14,1.7882918501312008e-14,9.736961902990227e-15,7.007550782311894e-09,5.629985917815084e-09,4.272712451886246e-09,3.001974004156862e-09,2.0286339318632344e-09,1.3331456042528099e-09,8.654319223317673e-10,5.383832890267617e-10,3.2234854742445656e-10,1.858751469452539e-10,1.0370547516775439e-10,5.744133589772961e-11,3.137059286778231e-11,1.7142358843648162e-11,9.518498299396155e-12,5.334677343542677e-12,3.020404685370727e-12,1.7061196790378442e-12,9.70051366531173e-13,5.438681120170214e-13,3.0019944767787977e-13
0.0,12,12.0,0.0,30.0,0.0,0.0,0.0,0.0,-13.0,0.0,2.0,0.0,0.0,0.0,9.76060229555383e-11,4.717655479706878e-11,2.289301638554853e-11,1.2319784077993127e-11,6.6188082787039225e-12,3.6996408327232766e-12,2.1782320460074052e-12,1.2454934012515304e-12,7.531999851830926e-13,4.3138581867274515e-13,2.8439679453889316e-13,1.5283141395740684e-13,9.853140542629733e-14,5.29434367067086e-14,2.908329567989169e-14,1.756621630072348e-14,9.576300001512452e-15,7.016191233131737e-09,5.639416518754692e-09,4.281780204146644e-09,3.009094925583451e-09,2.0330146757198717e-09,1.335199290836645e-09,8.66015821776147e-10,5.38135929439821e-10,3.217193071790684e-10,1.8512469255890996e-10,1.0298288530169121e-10,5.6820773838851314e-11,3.0881283156691613e-11,1.678460181318098e-11,9.272250797112567e-12,5.17545351379711e-12,2.9227120999228543e-12,1.6487612459124604e-12,9.376336377780401e-13,5.26257237080179e-13,2.9089262356103313e-13
0.0,13,13.0,0.0,30.0,0.0,0.0,0.0,0.0,-13.0,0.0,2.0,0.0,0.0,0.0,9.689735152086274e-11,4.6610837568705424e-11,2.2479744497760955e-11,1.203526550688996e-11,6.433009304494118e-12,3.5841758345484336e-12,2.1092888556627152e-12,1.2052368164762673e-12,7.301537068910161e-13,4.1842592414454286e-13,2.772036666023485e-13,1.4887387970960562e-13,9.639450373115849e-14,5.179928859351776e-14,2.848280536280265e-14,1.725630080961553e-14,9.418784313600706e-15,7.025283852557362e-09,5.649198769663566e-09,4.2910053659673315e-09,3.01613243738467e-09,2.03715273414943e-09,1.3369728438713914e-09,8.663646305177955e-10,5.377313591468059e-10,3.2100906477502547e-10,1.843499016075518e-10,1.0226877697449152e-10,5.622181929392467e-11,3.041458683282499e-11,1.6445043051967868e-11,9.038657803759038e-12,5.02413353880029e-12,2.829634853010676e-12,1.5939492741945313e-12,9.065913405939696e-13,5.093452812267954e-13,2.819281487358369e-13
0.0,14,14.0,0.0,30.0,0.0,0.0,0.0,0.0,-13.0,0.0,2.0,0.0,0.0,0.0,9.619464654100143e-11,4.6064500683473084e-11,2.208527518559127e-11,1.1764632722790182e-11,6.256161628740933e-12,3.474003965306439e-12,2.04331853236872e-12,1.166595488611186e-12,7.079723607008183e-13,4.059188430368585e-13,2.7024273555614614e-13,1.45035544920515e-13,9.431631109397156e-14,5.068435557108927e-14,2.7896259940762527e-14,1.6952999063928874e-14,9.264337004001448e-15,7.034848893747678e-09,5.659346535378959e-09,4.300397613420538e-09,3.0230972909071464e-09,2.0410625221473712e-09,1.3384810504318526e-09,8.664892357079213e-10,5.371745023508001e-10,3.202174878699038e-10,1.8354735973418551e-10,1.0155883228281042e-10,5.5640650952396184e-11,2.996773783017278e-11,1.612193367648063e-11,8.816712362989166e-12,4.880180722656111e-12,2.7408965013884636e-12,1.541544263672489e-12,8.768556505096905e-13,4.930986250875202e-13,2.7329154834785806e-13
0.0,15,15.0,0.0,30.0,0.0,0.0,0.0,0.0,-13.0,0.0,2.0,0.0,0.0,0.0,9.549442741271562e-11,4.5534541016851906e-11,2.1707609120054013e-11,1.1506720006062925e-11,6.0876407605586585e-12,3.368807392309507e-12,1.9801619576802244e-12,1.1294903769376194e-12,6.866168063256571e-13,3.938453646058091e-13,2.6350494955565545e-13,1.4131205905957704e-13,9.22948547329661e-14,4.9597743888965846e-14,2.7323257907096606e-14,1.665614345019729e-14,9.112882938926245e-15,7.044905478829818e-09,5.669871389408709e-09,4.309963273334605e-09,3.029996315294489e-09,2.044754824044113e-09,1.3397360559207888e-09,8.663991350501986e-10,5.364700428428405e-10,3.19344741185169e-10,1.8271442116671176e-10,1.0084943961489317e-10,5.5073955647717826e-11,2.9538275770890624e-11,1.5813685899742168e-11,8.605486453178836e-12,4.743095076581665e-12,2.6562381217718115e-12,1.4914154239018425e-12,8.483615954511138e-13,4.774856986336384e-13,2.6496913962105183e-13
0.0,16,16.0,0.0,30.0,0.0,0.0,0.0,0.0,-13.0,0.0,2.0,0.0,0.0,0.0,9.479377473468361e-11,4.501833329024846e-11,2.1344950027204334e-11,1.126045925084228e-11,5.92686672430242e-12,3.2682884196295003e-12,1.9196695303837633e-12,1.0938470170345433e-12,6.660500457041401e-13,3.821873017164918e-13,2.569816982208053e-13,1.3769927229249684e-13,9.032824821643172e-14,4.853859371887496e-14,2.6763413361122343e-14,1.6365571509204883e-14,8.964349548860777e-15,7.055471702634387e-09,5.680782845929627e-09,4.3197057421709916e-09,3.0368329862187143e-09,2.0482373318592537e-09,1.3407477129699375e-09,8.661025585915696e-10,5.356223679880332e-10,3.183913457308637e-10,1.81849064068775e-10,1.0013758725873347e-10,5.451886519567931e-11,2.91240149554422e-11,1.55188598846638e-11,8.404125535653381e-12,4.612410948304048e-12,2.57541709520913e-12,1.4434399971454532e-12,8.21047806501916e-13,4.624768155417146e-13,2.569479610536248e-13
0.0,17,17.0,0.0,30.0,0.0,0.0,0.0,0.0,-13.0,0.0,2.0,0.0,0.0,0.0,9.409024674573522e-11,4.451358536193261e-11,2.0995685725448363e-11,1.10248726577753e-11,5.7733011342431e-12,3.1721681692790076e-12,1.8617004940880145e-12,1.0595951807033323e-12,6.462370726388281e-13,3.70927419781244e-13,2.5066478388364795e-13,1.3419322369780963e-13,8.841468619136952e-14,4.750607755622646e-14,2.6216355162871224e-14,1.608112574678537e-14,8.818666700963648e-15,7.0665646839613045e-09,5.6920885190515336e-09,4.329625807673728e-09,3.043607883468426e-09,2.0515150917465834e-09,1.3415238833523182e-09,8.656065879871057e-10,5.346355383131877e-10,3.173580709845022e-10,1.8094977234269923e-10,9.942077275280432e-11,5.397290062201562e-11,2.8723016044120597e-11,1.5236151383945373e-11,8.211843394671478e-12,4.487694824774105e-12,2.498206012626366e-12,1.3975026566353058e-12,7.948562893421126e-13,4.4804402262848684e-13,2.492157112107297e-13
0.0,18,18.0,0.0,30.0,0.0,0.0,0.0,0.0,-13.0,0.0,2.0,0.0,0.0,0.0,9.338180815697736e-11,4.40182985449473e-11,2.065837066270602e-11,1.0799065841542842e-11,5.626444451088404e-12,3.0801853762332958e-12,1.8061223327888566e-12,1.0266685712609791e-12,6.271447362742004e-13,3.600493719663511e-13,2.4454639539344586e-13,1.307901303136932e-13,8.655243954238642e-14,4.649939871277566e-14,2.5681726145580098e-14,1.5802653451773892e-14,8.675766580039662e-15,7.078200574999448e-09,5.703794225673962e-09,4.339721895417623e-09,3.050319061051724e-09,2.0545908753682607e-09,1.342070698555591e-09,8.649172698545406e-10,5.335132751060895e-10,3.162458527709157e-10,1.8001543917172807e-10,9.869692580504197e-11,5.3433923093442865e-11,2.8333560328171433e-11,1.4964380181257804e-11,8.027917258110026e-12,4.368543282332035e-12,2.424391681794576e-12,1.3534949694186899e-12,7.697322138516555e-13,4.341609636196559e-13,2.41760694904051e-13
0.0,19,19.0,0.0,30.0,0.0,0.0,0.0,0.0,-13.0,0.0,2.0,0.0,0.0,0.0,9.266676961994606e-11,4.353073249414707e-11,2.033170990681645e-11,1.0582221351787562e-11,5.4858334027828535e-12,2.9920952796342602e-12,1.752810224619943e-12,9.950045495957475e-13,6.087416168677822e-13,3.495376400289766e-13,2.386190841845872e-13,1.2748637695237197e-13,8.47398509407707e-14,4.5517789893264865e-14,2.515918238181238e-14,1.553000652118603e-14,8.535583577525161e-15,7.090394536772878e-09,5.715904044173084e-09,4.349990257032253e-09,3.0569623481771124e-09,2.0574654898918713e-09,1.342392784349329e-09,8.640397213817431e-10,5.322589604937385e-10,3.1505573116655803e-10,1.7904528839771566e-10,9.796434284899085e-11,5.290009087059664e-11,2.7954126452916927e-11,1.4702479333462763e-11,7.851683191508404e-12,4.254581065589834e-12,2.3537742198629778e-12,1.3113149145961415e-12,7.456237198522748e-13,4.208027562617446e-13,2.345717751354063e-13
0.0,20,20.0,0.0,30.0,0.0,0.0,0.0,0.0,-13.0,0.0,2.0,0.0,0.0,0.0,9.194373629169093e-11,4.3049374211818366e-11,2.0014544524317614e-11,1.0373592603087019e-11,5.351038556771573e-12,2.907668596401071e-12,1.7016465455777137e-12,9.645438870082388e-13,5.909979125080768e-13,3.3937748021598205e-13,2.3287574235273117e-13,1.2427850672352664e-13,8.29753307471786e-14,4.4560511850475616e-14,2.4648392499683575e-14,1.5263041292170803e-14,8.398054187654339e-15,7.103160686530002e-09,5.7284203382121875e-09,4.360425112935462e-09,3.063531595427356e-09,2.0601380377304454e-09,1.3424934542051274e-09,8.629782273599739e-10,5.308756459800462e-10,3.1378880399037794e-10,1.7803881051515163e-10,9.722163154415417e-11,5.23698216294678e-11,2.7583369433380473e-11,1.4449485200862697e-11,7.682531759573346e-12,4.145459281388827e-12,2.286166218793173e-12,1.2708664491414237e-12,7.224817373263825e-13,4.079458816553153e-13,2.276383296391959e-13
0.0,21,21.0,0.0,30.0,0.0,0.0,0.0,0.0,-13.0,0.0,2.0,0.0,0.0,0.0,9.121156416116977e-11,4.257291074142398e-11,1.970583827046374e-11,1.0172498206256817e-11,5.221662034062136e-12,2.826690566489416e-12,1.6525204163538185e-12,9.352305414083688e-13,5.738853355991434e-13,3.295548737162286e-13,2.2730958251929684e-13,1.2116321221215808e-13,8.125735323473382e-14,4.3626852113237706e-14,2.4149037045049394e-14,1.5001618380926392e-14,8.263116910273417e-15,7.1165120215901106e-09,5.741343752832284e-09,4.37101875948464e-09,3.070018877334301e-09,2.062606135050354e-09,1.3423748758978482e-09,8.617363284623711e-10,5.293660665360314e-10,3.124461924134843e-10,1.7699571063534308e-10,9.646766375054484e-11,5.1841759540280823e-11,2.7220101791733708e-11,1.4204528242219888e-11,7.51990394929039e-12,4.040853697768251e-12,2.2213919735785507e-12,1.2320591146771567e-12,7.002598196997668e-13,3.9556808463920146e-13,2.2095021119851164e-13
0.0,22,22.0,0.0,30.0,0.0,0.0,0.0,0.0,-13.0,0.0,2.0,0.0,0.0,0.0,9.046932298545495e-11,4.210020514681948e-11,1.9404665506025533e-11,9.978316690069714e-12,5.097335357425195e-12,2.7489600613635827e-12,1.6053272865479467e-12,9.070114539153357e-13,5.573770180744051e-13,3.2005648121393463e-13,2.2191411929397956e-13,1.1813732726113929e-13,7.958445310269011e-14,4.2716123782789255e-14,2.3660807886711092e-14,1.474560252800718e-14,8.130712159835539e-15,7.13046032314692e-09,5.754673188413618e-09,4.381761648265558e-09,3.076414660167873e-09,2.0648660963731957e-09,1.3420382150876152e-09,8.603169009895422e-10,5.277326581529042e-10,3.110290159781929e-10,1.7591586625010548e-10,9.570153571019892e-11,5.1314746542519046e-11,2.686327664264549e-11,1.3966824543517153e-11,7.36328734814013e-12,3.9404631403528435e-12,2.159286765191321e-12,1.1948076796146972e-12,6.789139889731128e-13,3.8364828409165737e-13,2.1449771117452808e-13
0.0,23,23.0,0.0,30.0,0.0,0.0,0.0,0.0,-13.0,0.0,2.0,0.0,0.0,0.0,8.971626484792432e-11,4.1630275406107326e-11,1.9110200252961895e-11,9.790481599721219e-12,4.977717427321368e-12,2.6742887490249726e-12,1.5599685514878041e-12,8.7983636331957e-13,5.414474244237728e-13,3.108696011377853e-13,2.1668315217011555e-13,1.151978193112743e-13,7.795522225337633e-14,4.18276643930961e-14,2.3183407660880682e-14,1.449486245009622e-14,8.00078217995329e-15,7.145016042796079e-09,5.768405756946939e-09,4.392642443592568e-09,3.0827079418985126e-09,2.066913091221029e-09,1.341483759183583e-09,8.58722228543413e-10,5.25977577368915e-10,3.0953837490959934e-10,1.7479929301675582e-10,9.492253434902948e-11,5.0787797307358855e-11,2.65119725550708e-11,1.3735668043938709e-11,7.2122125699182105e-12,3.844007980229071e-12,2.099696191800581e-12,1.159031811957386e-12,6.584025916381063e-13,3.721664920549589e-13,2.0827152588308614e-13
0.0,24,24.0,0.0,30.0,0.0,0.0,0.0,0.0,-13.0,0.0,2.0,0.0,0.0,0.0,8.895179749415072e-11,4.116227588264476e-11,1.8821706300557848e-11,9.608476956161543e-12,4.862492619856926e-12,2.602500310281501e-12,1.5163511976796045e-12,8.536576362257497e-13,5.260722717249188e-13,3.019821312443816e-13,2.1161074970882803e-13,1.1234178225615331e-13,7.63683068083252e-14,4.096083483126769e-14,2.271654925222341e-14,1.4249270697769178e-14,7.873270963231154e-15,7.160188174020145e-09,5.782536724195799e-09,4.403648063044769e-09,3.0888863698515552e-09,2.0687412776407927e-09,1.3407110243374659e-09,8.569540662211855e-10,5.241027217215173e-10,3.079753380656586e-10,1.736461171087008e-10,9.413010877104375e-11,5.0260077431103e-11,2.6165380025376276e-11,1.3510423418983229e-11,7.066249919627566e-12,3.751228708472236e-12,2.0424755430893764e-12,1.124655778808102e-12,6.386861644349248e-13,3.6110374068389086e-13,2.0226272558819137e-13
0.0,25,25.0,0.0,30.0,0.0,0.0,0.0,0.0,-13.0,0.0,2.0,0.0,0.0,0.0,8.817546172582603e-11,4.069548106884911e-11,1.8538528275303817e-11,9.431833058788765e-12,4.751369001464567e-12,2.533429701960781e-12,1.4743874735749157e-12,8.284301110023349e-13,5.112284559622666e-13,2.9338253321262217e-13,2.066912348869316e-13,1.0956642977148893e-13,7.482240434135937e-14,4.0115018314509867e-14,2.2259955308467907e-14,1.4008703519194729e-14,7.748124175979003e-15,7.175984110483262e-09,5.797059440693517e-09,4.414763704908136e-09,3.0949363404450185e-09,2.07034391654212e-09,1.3397188480122253e-09,8.550136979811748e-10,5.221097503990458e-10,3.063409352332796e-10,1.7245655294026503e-10,9.332384615481148e-11,4.9730884453302794e-11,2.58227894056031e-11,1.3290519578676645e-11,6.925006287956303e-12,3.661884593186276e-12,1.9874892134761676e-12,1.0916081692657445e-12,6.197273091086412e-13,3.504420161041184e-13,1.9646272599651422e-13
0.0,26,26.0,0.0,30.0,0.0,0.0,0.0,0.0,-13.0,0.0,2.0,0.0,0.0,0.0,8.738691224051288e-11,4.0229271330282626e-11,1.8260083590996074e-11,9.260122612907929e-12,4.644076655196956e-12,2.4669224635285857e-12,1.433994582882723e-12,8.041109539300347e-13,4.968939839991116e-13,2.8505979995952367e-13,2.019191714978877e-13,1.0686908908272751e-13,7.331626130917058e-14,3.928961942008119e-14,2.181335778597357e-14,1.3773040729383208e-14,7.625289087330532e-15,7.192409492715305e-09,5.811965264037812e-09,4.425972865657843e-09,3.1008430845187416e-09,2.071713470053127e-09,1.3385054692182856e-09,8.529019878462355e-10,5.200001046021526e-10,3.0463615276073914e-10,1.7123088529068543e-10,9.250345138085555e-11,4.919963134011291e-11,2.5483580141043397e-11,1.3075443738182836e-11,6.788122265076416e-12,3.5757524153416075e-12,1.9346101508102994e-12,1.0598216379236212e-12,6.014905754106734e-13,3.4016419835926866e-13,1.9086326218285883e-13
0.0,27,27.0,0.0,30.0,0.0,0.0,0.0,0.0,-13.0,0.0,2.0,0.0,0.0,0.0,8.658590139713462e-11,3.9763120407351863e-11,1.7985855199762653e-11,9.09295716276902e-12,4.540366113600681e-12,2.4028340641400626e-12,1.395094398105333e-12,7.806595261685798e-13,4.830479106401215e-13,2.7700342541888816e-13,1.972893515098351e-13,1.0424719513657904e-13,7.184867066173785e-14,3.848406316542663e-14,2.13764975238595e-14,1.3542165584843768e-14,7.504714502643876e-15,7.209468044579447e-09,5.827243474585804e-09,4.437257350042293e-09,3.106590741063923e-09,2.0728416865075143e-09,1.3370685982044475e-09,8.506194255958582e-10,5.177750272968018e-10,3.028619317378731e-10,1.6996945502897834e-10,9.166872982051739e-11,4.866583211631833e-11,2.51472111824178e-11,1.286473601843697e-11,6.655269462929539e-12,3.492625279949566e-12,1.8837193377153687e-12,1.0292326666323544e-12,5.839423516674007e-13,3.3025400671994827e-13,1.854563649350719e-13
0.0,28,28.0,0.0,30.0,0.0,0.0,0.0,0.0,-13.0,0.0,2.0,0.0,0.0,0.0,8.577226546576593e-11,3.9296584459507756e-11,1.771538506959012e-11,8.929983810804144e-12,4.440006893162138e-12,2.3410292875731774e-12,1.3576131923418104e-12,7.580372603569011e-13,4.696702802856308e-13,2.6920337655023137e-13,1.9279678329447153e-13,1.0169828514563922e-13,7.041846961678719e-14,3.769779413525555e-14,2.0949123844276054e-14,1.3315964663427659e-14,7.386350700759935e-15,7.2271614007948835e-09,5.842881186378531e-09,4.448597275879939e-09,3.1121624216074764e-09,2.073719674197343e-09,1.3354054771283385e-09,8.481661675664585e-10,5.154355821649809e-10,3.010191681087357e-10,1.6867264778578204e-10,9.081957280364888e-11,4.812908936834244e-11,2.4813212449236248e-11,1.2657984535476109e-11,6.526148034804116e-12,3.4123114992578034e-12,1.8347053031843264e-12,9.997813425529687e-13,5.670507622993562e-13,3.2069594971365745e-13,1.8023433951476906e-13
0.0,29,29.0,0.0,30.0,0.0,0.0,0.0,0.0,-13.0,0.0,2.0,0.0,0.0,0.0,8.494591298721537e-11,3.882929246190701e-11,1.7448268319101553e-11,8.770882203832167e-12,4.342786125333752e-12,2.2813816528071855e-12,1.3214813877035922e-12,7.362075458270067e-13,4.567420727353201e-13,2.616500673705544e-13,1.88436680651838e-13,9.921999347740387e-14,6.90245375842002e-14,3.6930275653023426e-14,2.0530994176983683e-14,1.3094327749124055e-14,7.270149374900024e-15,7.245488926714135e-09,5.8588632549165084e-09,4.4599710753211274e-09,3.1175402670621855e-09,2.074337965637378e-09,1.333512933007557e-09,8.455420731380805e-10,5.129826716482974e-10,2.991087142372146e-10,1.6734088503633262e-10,8.995594535639643e-11,4.758908337527047e-11,2.4481177232024983e-11,1.2454820938767403e-11,6.4004843808262785e-12,3.3346335447247145e-12,1.7874636624012382e-12,9.714111508432873e-13,5.507855717463164e-13,3.1147527931339263e-13,1.7518974684356834e-13
0.0,30,30.0,0.0,30.0,0.0,0.0,0.0,0.0,-13.0,0.0,2.0,0.0,0.0,0.0,8.41068149247621e-11,3.8360937787108606e-11,1.7184147945635324e-11,8.615361767411646e-12,4.248507279164982e-12,2.2237728682452003e-12,1.2866333189301507e-12,7.151356215546394e-13,4.4424515274885757e-13,2.5433433482268517e-13,1.8420445256336553e-13,9.681004686128162e-14,6.766579422766204e-14,3.6180988994318626e-14,2.0121873706031022e-14,1.2877147721549045e-14,7.156063576954494e-15,7.264447531522112e-09,5.8751721832493436e-09,4.471355494037458e-09,3.1227054984962635e-09,2.074686573771697e-09,1.3313874240627925e-09,8.427467374406453e-10,5.104170540429918e-10,2.9713138155252183e-10,1.6597461715510559e-10,8.907787586295063e-11,4.7045562655845024e-11,2.4150755431727322e-11,1.2254916360762611e-11,6.27802902800556e-12,3.2594270645762285e-12,1.7418966830068692e-12,9.440687805625834e-13,5.351180942903092e-13,3.0257794879623495e-13,1.7031538711507828e-13
0.0,31,31.0,0.0,30.0,0.0,0.0,0.0,0.0,-13.0,0.0,2.0,0.0,0.0,0.0,8.325499633860799e-11,3.78912708245954e-11,1.6922710087913158e-11,8.463159170144233e-12,4.156988970608089e-12,2.168092317753114e-12,1.2530070109905988e-12,6.947884760884242e-13,4.321622230151995e-13,2.47247416312743e-13,1.8009569361337217e-13,9.446625988975668e-14,6.634119765242902e-14,3.5449432639512867e-14,1.972153503706039e-14,1.2664320450121022e-14,7.044047664950254e-15,7.284031476020198e-09,5.891788027719732e-09,4.482725589562955e-09,3.1276384629863883e-09,2.0747550412979392e-09,1.3290250804041273e-09,8.397795207662876e-10,5.077393596486979e-10,2.9508794398508553e-10,1.6457431808160453e-10,8.81854473581832e-11,4.6498335746574876e-11,2.382164754463102e-11,1.205797774211254e-11,6.1585546736089945e-12,3.1865399637848965e-12,1.6979128762476235e-12,9.17703942598106e-13,5.200211093358215e-13,2.9399057384651347e-13,1.6560428582377975e-13
0.0,32,32.0,0.0,30.0,0.0,0.0,0.0,0.0,-13.0,0.0,2.0,0.0,0.0,0.0,8.239052935443041e-11,3.742009250891508e-11,1.6663679769659864e-11,8.314036000483482e-12,4.0680638536295834e-12,2.1142365768252646e-12,1.2205439696211333e-12,6.751347538041928e-13,4.2047678022182727e-13,2.4038092876690686e-13,1.7610617502520514e-13,9.218653079107144e-14,6.504974270889436e-14,3.47351215635901e-14,1.932975788324307e-14,1.2455744692495103e-14,6.9340572534251215e-15,7.304232176179593e-09,5.908688304605658e-09,4.49405472981212e-09,3.1323186754816348e-09,2.074532484077435e-09,1.3264217398768396e-09,8.366395751292694e-10,5.049501060033264e-10,2.9297914196885467e-10,1.6314048130128366e-10,8.727879020295634e-11,4.594726405010317e-11,2.3493599310511748e-11,1.186374449928858e-11,6.041854380910735e-12,3.115831543335594e-12,1.6554266115901201e-12,8.922691985827e-13,5.054687817310548e-13,2.857003965360815e-13,1.6104968219072945e-13
0.0,33,33.0,0.0,30.0,0.0,0.0,0.0,0.0,-13.0,0.0,2.0,0.0,0.0,0.0,8.151352723198747e-11,3.694724864313746e-11,1.640681707536652e-11,8.167776639476329e-12,3.981577588360668e-12,2.0621089572927423e-12,1.189188983878095e-12,6.561446669146337e-13,4.0917307394825184e-13,2.337268490732018e-13,1.7223183626413066e-13,8.9968837453645e-14,6.379045940310304e-14,3.403758656106388e-14,1.8946328768710323e-14,1.2251321997365148e-14,6.826049166649279e-15,7.325038003684768e-09,5.925847898826927e-09,4.505314592629773e-09,3.1367248574108147e-09,2.0740076294320867e-09,1.3235729797702903e-09,8.333258683718948e-10,5.020497122557473e-10,2.908056868375653e-10,1.6167361689856078e-10,8.635807593178691e-11,4.539225561385063e-11,2.316639695024483e-11,1.1671985503691121e-11,5.927739916716159e-12,3.0471716956884657e-12,1.6143577535133308e-12,8.677197999140176e-13,4.914365867686258e-13,2.7769525186257593e-13,1.5664501994021467e-13
0.0,34,34.0,0.0,30.0,0.0,0.0,0.0,0.0,-13.0,0.0,2.0,0.0,0.0,0.0,8.062413936896488e-11,3.6472624918376125e-11,1.6151913713941586e-11,8.024186313785514e-12,3.897387881632041e-12,2.011619079075109e-12,1.1588899398946748e-12,6.377899127398624e-13,3.9823606814087117e-13,2.2727749578678659e-13,1.6846877716327164e-13,8.781123368306176e-14,6.256241140592951e-14,3.3356373603792186e-14,1.8571040747850462e-14,1.2050956611175921e-14,6.719981394279866e-15,7.346434084737446e-09,5.943238975815234e-09,4.5164751670781684e-09,3.140834972604334e-09,2.0731688499940656e-09,1.3204741449995033e-09,8.298372061750469e-10,4.990385127398596e-10,2.8856826548278975e-10,1.6017424948224089e-10,8.542351209457244e-11,4.4833259717257844e-11,2.2839862927012562e-11,1.1482496343680507e-11,5.8160402204880755e-12,2.9804401533946174e-12,1.5746313192882386e-12,8.440135361089074e-13,4.779012395281849e-13,2.6996353657298314e-13,1.5238394036945653e-13
0.0,35,35.0,0.0,30.0,0.0,0.0,0.0,0.0,-13.0,0.0,2.0,0.0,0.0,0.0,7.972254710000646e-11,3.599614254245311e-11,1.5898789930220453e-11,7.883089314300918e-12,3.815363595386538e-12,1.962682467548555e-12,1.1295976451198547e-12,6.200435958063423e-13,3.8765140495021256e-13,2.210255119907741e-13,1.648132505339145e-13,8.571184567482335e-14,6.136469465369232e-14,3.269104323006931e-14,1.8203693139242348e-14,1.185455538890676e-14,6.615813049541405e-15,7.368402098448821e-09,5.960830897588888e-09,4.527504757034517e-09,3.1446262609674043e-09,2.07200419366614e-09,1.3171203732906846e-09,8.261722522953156e-10,4.959167698199445e-10,2.8626754517315285e-10,1.5864291681927254e-10,8.447533794113934e-11,4.4270262161814915e-11,2.2513852172335522e-11,1.1295096843224708e-11,5.706599995376888e-12,2.9155257878897852e-12,1.5361771566225506e-12,8.211105918134693e-13,4.648406282595769e-13,2.6249418003357186e-13,1.482602776302616e-13
0.0,36,36.0,0.0,30.0,0.0,0.0,0.0,0.0,-13.0,0.0,2.0,0.0,0.0,0.0,7.880896017178275e-11,3.5517754401602714e-11,1.5647291728220387e-11,7.744327366617256e-12,3.735383918623621e-12,1.9152201751678907e-12,1.101265662387936e-12,6.028801543942128e-13,3.774053707381836e-13,2.1496384921438282e-13,1.6126165522437188e-13,8.366886868691074e-14,6.019643603360758e-14,3.2041169962904516e-14,1.7844091273189046e-14,1.1662027708529731e-14,6.513504329627369e-15,7.390920107176074e-09,5.97859021289314e-09,4.538370097334977e-09,3.1480753700867684e-09,2.070501418458594e-09,1.3135065607700058e-09,8.223295158093874e-10,4.926846978821576e-10,2.8390419054749024e-10,1.570801668422336e-10,8.351381813173461e-11,4.370328174951451e-11,2.2188249187782662e-11,1.1109628682615959e-11,5.599278341878023e-12,2.852325979214592e-12,1.4989296512476046e-12,7.989734060809794e-13,4.5223374681082613e-13,2.5527662685127764e-13,1.442674447034115e-13
0.0,37,37.0,0.0,30.0,0.0,0.0,0.0,0.0,-13.0,0.0,2.0,0.0,0.0,0.0,7.788361379269559e-11,3.5037441688602946e-11,1.5397288373621716e-11,7.607758140605298e-12,3.657337598702433e-12,1.8691584260333893e-12,1.0738501532303586e-12,5.862752911972257e-13,3.6748486408107925e-13,2.0908575232084783e-13,1.5781052959552936e-13,8.168056389796034e-14,5.905679214821943e-14,3.1406341756212456e-14,1.7492046251559075e-14,1.1473285389133884e-14,6.413016478081018e-15,7.4139622670430836e-09,5.996480381600447e-09,4.549036039723522e-09,3.151158091046888e-09,2.068647991594362e-09,1.309627550666014e-09,8.183074614790188e-10,4.893424401571881e-10,2.814788329277155e-10,1.5548656380268033e-10,8.253924766323355e-11,4.3132365012275204e-11,2.186296368445883e-11,1.0925953744375852e-11,5.493947772131894e-12,2.7907459368359207e-12,1.462827408439594e-12,7.775665620379937e-13,4.400606492039167e-13,2.483007820577124e-13,1.4040023444707639e-13
0.0,38,38.0,0.0,30.0,0.0,0.0,0.0,0.0,-13.0,0.0,2.0,0.0,0.0,0.0,7.694676617081054e-11,3.4555210938974934e-11,1.514867014622442e-11,7.473253887244507e-12,3.5811222280222228e-12,1.824428282149233e-12,1.0473097298909123e-12,5.702059077992351e-13,3.578773656140882e-13,2.0338474528574315e-13,1.544565453837032e-13,7.974525543739551e-14,5.794494815332794e-14,3.0786159467021033e-14,1.714737471914468e-14,1.1288242612555267e-14,6.314311749275065e-15,7.437498720247413e-09,6.014461901590223e-09,4.559465872468144e-09,3.1538496659958563e-09,2.066431133523481e-09,1.3054779926054804e-09,8.14104438238978e-10,4.858901128021992e-10,2.789921090209526e-10,1.5386268216313864e-10,8.155194187296111e-11,4.255758471939959e-11,2.1537929206348735e-11,1.0743951900609474e-11,5.390492917759767e-12,2.730698198025329e-12,1.4278130152571257e-12,7.568566503491787e-13,4.283023803958214e-13,2.415570146879325e-13,1.366531119899796e-13
0.0,39,39.0,0.0,30.0,0.0,0.0,0.0,0.0,-13.0,0.0,2.0,0.0,0.0,0.0,7.599869646630678e-11,3.4071091424150754e-11,1.4901346316126684e-11,7.340700191771701e-12,3.5066435822873482e-12,1.780965330171206e-12,1.0216053155488347e-12,5.546500427012502e-13,3.485709095786496e-13,1.9785461779483245e-13,1.5119650192427373e-13,7.786132757578936e-14,5.686011666458006e-14,3.0180236352427755e-14,1.6809898645490263e-14,1.1106815848413938e-14,6.217353374602875e-15,7.461495382756666e-09,6.032492198644348e-09,4.569621253387016e-09,3.156124739547258e-09,2.063837830187924e-09,1.3010524032465736e-09,8.097187188103761e-10,4.823278065907318e-10,2.7644465663705726e-10,1.522091086052829e-10,8.05522364262549e-11,4.197903673286243e-11,2.121310039590157e-11,1.0563519435820547e-11,5.288809574958807e-12,2.672102081313852e-12,1.3938327792479932e-12,7.368121598818736e-13,4.169409268870224e-13,2.350361275475171e-13,1.330206810054954e-13
0.0,40,40.0,0.0,30.0,0.0,0.0,0.0,0.0,-13.0,0.0,2.0,0.0,0.0,0.0,7.503970309551546e-11,3.3585132856804223e-11,1.4655243320062582e-11,7.20999483306764e-12,3.4338150067655235e-12,1.7387093874863525e-12,9.9670001228986e-13,5.395868126632847e-13,3.3955405694779654e-13,1.9248941259660212e-13,1.4802732071146386e-13,7.602722206387862e-14,5.580153672819131e-14,2.958819758977198e-14,1.6479445116530973e-14,1.0928923782379818e-14,6.1221055304594575e-15,7.485913759740796e-09,6.0505255707738354e-09,4.579462219569718e-09,3.1579573753462145e-09,2.0608548487394775e-09,1.2963451877389157e-09,8.051485177067181e-10,4.786555960902428e-10,2.7383711840220924e-10,1.5052644280595146e-10,7.954048587771457e-11,4.1396837595728876e-11,2.088845082348237e-11,1.0384567538122375e-11,5.188803784059423e-12,2.6148831923483742e-12,1.3608364896733725e-12,7.174033707347447e-13,4.059591670753295e-13,2.287293348519751e-13,1.2949774365065617e-13
0.0,41,41.0,0.0,30.0,0.0,0.0,0.0,0.0,-13.0,0.0,2.0,0.0,0.0,0.0,7.407010233273529e-11,3.30974033690614e-11,1.44103031167844e-11,7.0810467399996874e-12,3.362556847142828e-12,1.6976042265237864e-12,9.72558976398486e-13,5.249963571463335e-13,3.308158700174793e-13,1.8728341355231824e-13,1.4494604027177203e-13,7.42414356101492e-14,5.4768472851808825e-14,2.900967981906271e-14,1.6155846135027085e-14,1.0754487247586545e-14,6.028533307684462e-15,7.51071077247869e-09,6.068513147896935e-09,4.588947210464571e-09,3.1593210802844617e-09,2.0574687522242626e-09,1.291350655170911e-09,8.003920059415531e-10,4.748735495799195e-10,2.711701464917358e-10,1.4881529819942905e-10,7.851706229715766e-11,4.081112247460087e-11,2.0563971084876042e-11,1.0207020918954004e-11,5.090390977322975e-12,2.5589729661259358e-12,1.3287771940231822e-12,6.986022526099522e-13,3.9534082389399286e-13,2.2262824193083352e-13,1.2607930621344977e-13
0.0,42,42.0,0.0,30.0,0.0,0.0,0.0,0.0,-13.0,0.0,2.0,0.0,0.0,0.0,7.309022716374662e-11,3.260798772909421e-11,1.4166481702573704e-11,6.953775036210066e-12,3.2927959217781016e-12,1.6575973162356773e-12,9.491493005705685e-13,5.10859785662532e-13,3.2234588836268706e-13,1.8223113433084087e-13,1.4194981133054002e-13,7.250251748765291e-14,5.376021409155332e-14,2.8444330705944985e-14,1.5838938429422758e-14,1.0583429159018941e-14,5.9366026825479195e-15,7.535838595523077e-09,6.086402861119789e-09,4.59803309417959e-09,3.160188827258015e-09,2.053665912742759e-09,1.286063033450373e-09,7.954473254481209e-10,4.709817386874664e-10,2.6844440727454023e-10,1.470763028848128e-10,7.748235415551165e-11,4.0222043363374673e-11,2.023966709897813e-11,1.0030816559507781e-11,4.9934951952301286e-12,2.504308241185649e-12,1.297610988014283e-12,6.803823687228262e-13,3.850704200064973e-13,2.1672482600924786e-13,1.2276058577113121e-13
0.0,43,43.0,0.0,30.0,0.0,0.0,0.0,0.0,-13.0,0.0,2.0,0.0,0.0,0.0,7.210042635151369e-11,3.2116985765817065e-11,1.3923747769946867e-11,6.8281081655428116e-12,3.224465032352159e-12,1.6186395797406987e-12,9.264399026700148e-13,4.971591278577968e-13,3.1413410606687087e-13,1.7732730770131572e-13,1.390358922520094e-13,7.080906726124993e-14,5.277607319177003e-14,2.7891808524592755e-14,1.5528563270240772e-14,1.0415674450974996e-14,5.8462804891471095e-15,7.561244505697024e-09,6.104139422009109e-09,4.606675196724605e-09,3.1605330764147963e-09,2.0494325233454618e-09,1.2804764838631032e-09,7.903126033425478e-10,4.669802477908848e-10,2.656605858636796e-10,1.4531010064486584e-10,7.643676542867984e-11,3.9629767513098904e-11,1.9915558582783857e-11,9.85590257153399e-12,4.89804836559928e-12,2.4508308636024367e-12,1.2672968183187219e-12,6.627187849374442e-13,3.7513323540795177e-13,2.1101141799284894e-13,1.1953701758870515e-13
0.0,44,44.0,0.0,30.0,0.0,0.0,0.0,0.0,-13.0,0.0,2.0,0.0,0.0,0.0,7.110106368011707e-11,3.162451097504586e-11,1.3682081494401883e-11,6.703983090961801e-12,3.157502510093061e-12,1.5806851671687128e-12,9.044014206763535e-13,4.838772861666552e-13,3.0617095014137e-13,1.7256687538115992e-13,1.3620164473523515e-13,6.9159732627404e-14,5.181538577409388e-14,2.7351781759126588e-14,1.522456629368179e-14,1.0251150017058062e-14,5.757534392913154e-15,7.58687074444037e-09,6.1216643121085914e-09,4.614827333829489e-09,3.1603257948315194e-09,2.0447546089287304e-09,1.2745851155404716e-09,7.849859661474784e-10,4.628691832265382e-10,2.628193905704663e-10,1.4351735204867217e-10,7.538071488340557e-11,3.903447605715307e-11,1.9591677683329884e-11,9.682237161366688e-12,4.803989640316158e-12,2.3984873187400937e-12,1.2377962973022883e-12,6.455879838450664e-13,3.655152672976056e-13,2.054806851842858e-13,1.1640426295642682e-13
0.0,45,45.0,0.0,30.0,0.0,0.0,0.0,0.0,-13.0,0.0,2.0,0.0,0.0,0.0,7.009251734767368e-11,3.113068928368788e-11,1.344147343564612e-11,6.5813445604273165e-12,3.0918517949452716e-12,1.5436912427909158e-12,8.830061134865958e-13,4.709979908924047e-13,2.9844726005967087e-13,1.6794497840160075e-13,1.334445297486674e-13,6.755320735951418e-14,5.087750957259727e-14,2.682392872272654e-14,1.4926797331777272e-14,1.008978465306731e-14,5.670332865497306e-15,7.61265439493794e-09,6.138915782797128e-09,4.622441844885939e-09,3.1595384745626357e-09,2.039618036405573e-09,1.268383000055171e-09,7.794655540789913e-10,4.5864868233994664e-10,2.5992155726158404e-10,1.4169873561543785e-10,7.431463551423026e-11,3.843636280479167e-11,1.9268067748536937e-11,9.509787687109479e-12,4.711264784851414e-12,2.347228388849285e-12,1.2090735290782686e-12,6.289677835110673e-13,3.562031920973396e-13,2.001256148749512e-13,1.1335821714533251e-13
0.0,46,46.0,0.0,30.0,0.0,0.0,0.0,0.0,-13.0,0.0,2.0,0.0,0.0,0.0,6.90751794829969e-11,3.063565795131948e-11,1.3201923541181546e-11,6.460144433757315e-12,3.0274610452202066e-12,1.5076177855664644e-12,8.622277672554398e-13,4.58505757578591e-13,2.909542683373823e-13,1.634569479551954e-13,1.3076210368771712e-13,6.598822935202157e-14,4.996182371212876e-14,2.630793719350069e-14,1.46351102487005e-14,9.931509002284737e-15,5.584645160543788e-15,7.638527275339137e-09,6.155828865416918e-09,4.629469628478564e-09,3.1581421490181617e-09,2.0340085244405186e-09,1.261864186354172e-09,7.73749535487208e-10,4.543189224116087e-10,2.5696785362016544e-10,1.3985494902059338e-10,7.323897410488421e-11,3.7835633179397214e-11,1.894478222088392e-11,9.338529799884316e-12,4.619825616139202e-12,2.2970088346952832e-12,1.1810949462274433e-12,6.128372606451045e-13,3.471843294963036e-13,1.9493949875813547e-13,1.1039501712984202e-13
0.0,47,47.0,0.0,30.0,0.0,0.0,0.0,0.0,-13.0,0.0,2.0,0.0,0.0,0.0,6.804945576412899e-11,3.013956459095354e-11,1.2963440241403022e-11,6.340341065019624e-12,2.964282775438749e-12,1.4724274022844892e-12,8.420416069723074e-13,4.463858465458796e-13,2.836835820950564e-13,1.5909829669560705e-13,1.2815201473984775e-13,6.446357875731629e-14,4.9067728026510653e-14,2.5803504066275595e-14,1.434936278306759e-14,9.776255503282547e-15,5.5004412906095336e-15,7.664415849218018e-09,6.172335391415596e-09,4.635860178898212e-09,3.1561074076528204e-09,2.0279116530558554e-09,1.2550227162281916e-09,7.678361215288091e-10,4.4988012948599e-10,2.539590833127599e-10,1.379867103286104e-10,7.21541908911071e-11,3.723250328071205e-11,1.8621883639647996e-11,9.168446660944353e-12,4.529629484734775e-12,2.247787099519183e-12,1.1538291565558325e-12,5.971766779466962e-13,3.3844660841394744e-13,1.8991591811520096e-13,1.0751104871936924e-13
0.0,48,48.0,0.0,30.0,0.0,0.0,0.0,0.0,-13.0,0.0,2.0,0.0,0.0,0.0,6.701576511974248e-11,2.964256629294777e-11,1.2726039626516813e-11,6.2218987354710084e-12,2.9022735202294858e-12,1.4380851525217704e-12,8.224242129884214e-13,4.346242244795869e-13,2.7662716554622814e-13,1.5486471046116322e-13,1.2561199944274522e-13,6.2978076210164e-14,4.819464241381768e-14,2.5310335019444858e-14,1.4069416395605221e-14,9.623958339952599e-15,5.4176920049031684e-15,7.69024115421922e-09,6.188364022047007e-09,4.641561622968315e-09,3.153404408986404e-09,2.02131287343757e-09,1.2478526405079174e-09,7.617235811386895e-10,4.4533258712842695e-10,2.508960900647638e-10,1.360947592392854e-10,7.106075930488543e-11,3.662719905282625e-11,1.829944273902452e-11,8.999528227249094e-12,4.440638797505242e-12,2.199525033747145e-12,1.1272467992983473e-12,5.819674154108367e-13,3.2997853478214294e-13,1.8504872973412e-13,1.0470295271880609e-13
0.0,49,49.0,0.0,30.0,0.0,0.0,0.0,0.0,-13.0,0.0,2.0,0.0,0.0,0.0,6.597453949682129e-11,2.914482883786805e-11,1.2489744696609723e-11,6.104787132497427e-12,2.841393522303709e-12,1.404558384683559e-12,8.033534422229878e-13,4.2320752796112247e-13,2.6977732335728373e-13,1.5075204039737774e-13,1.2313987942116455e-13,6.153058113483172e-14,4.73420062259368e-14,2.4828144196284124e-14,1.3795136122245903e-14,9.474553393717847e-15,5.336368767925645e-15,7.715918749589923e-09,6.203840286967571e-09,4.646520756467133e-09,3.1500028920238247e-09,2.014197518292072e-09,1.2403480361680034e-09,7.554102563573858e-10,4.406766451313672e-10,2.4777976164722096e-10,1.3417985833619216e-10,6.995916578268109e-11,3.601995554190912e-11,1.7977537630833328e-11,8.831770598827385e-12,4.352820577425388e-12,2.1521876389491524e-12,1.1013204102083309e-12,5.671919053730009e-13,3.2176916104818435e-13,1.8033205252447788e-13,1.0196762973786303e-13
0.0,50,50.0,0.0,30.0,0.0,0.0,0.0,0.0,-13.0,0.0,2.0,0.0,0.0,0.0,6.492622368007804e-11,2.8646525985785008e-11,1.2254584677132463e-11,5.9889808704026504e-12,2.7816064426649855e-12,1.3718165824335914e-12,7.848083537874645e-13,4.1212302884311964e-13,2.6312668483085095e-13,1.467562954566338e-13,1.2073355828890024e-13,6.011999013024161e-14,4.650927768893627e-14,2.4356653899895643e-14,1.3526390432348885e-14,9.327978197824187e-15,5.256443738817826e-15,7.741358683005505e-09,6.218686630847445e-09,4.650683079397733e-09,3.1458721862044438e-09,2.0065508131288875e-09,1.2325030245105535e-09,7.488945780611224e-10,4.3591272818864895e-10,2.4461103377789793e-10,1.3224279432734533e-10,6.884990962238495e-11,3.541101622963691e-11,1.765625306177456e-11,8.665175421898176e-12,4.26614605731452e-12,2.1057428296720186e-12,1.0760242950009933e-12,5.528335710970191e-13,3.1380805731231386e-13,1.7576025478957602e-13,9.930224327592365e-14
0.0,51,51.0,0.0,30.0,0.0,0.0,0.0,0.0,-13.0,0.0,2.0,0.0,0.0,0.0,6.387127515030177e-11,2.8147838830926668e-11,1.2020594392864244e-11,5.874459049246425e-12,2.722879091351128e-12,1.3398312208667488e-12,7.667691387816571e-13,4.0135860137592773e-13,2.5666818886686004e-13,1.4287363525527906e-13,1.1839101870181493e-13,5.874523542972994e-14,4.569593335166093e-14,2.389559430138918e-14,1.3263051091993922e-14,9.184171893327819e-15,5.177889751386455e-15,7.766465476761255e-09,6.2328224668970665e-09,4.6539928293475724e-09,3.1409812200823794e-09,1.9983578888685563e-09,1.2243117905897694e-09,7.421750821319763e-10,4.310413445540476e-10,2.4139089393950765e-10,1.3028437926912258e-10,6.77335028754969e-11,3.4800632429930544e-11,1.7335679736297398e-11,8.499749342316299e-12,4.180590304638993e-12,2.06016121183861e-12,1.051334410646104e-12,5.388767687106785e-13,3.06085284016408e-13,1.7132794213196983e-13,9.670422071268581e-14
0.0,52,52.0,0.0,30.0,0.0,0.0,0.0,0.0,-13.0,0.0,2.0,0.0,0.0,0.0,6.281016397026683e-11,2.7648955211883794e-11,1.1787813694185292e-11,5.761204848271417e-12,2.6651811771285486e-12,1.3085756318102878e-12,7.492170540245745e-13,3.909026909987908e-13,2.5039506966017605e-13,1.3910036327081865e-13,1.1611031954856718e-13,5.740528343175515e-14,4.4901467559029446e-14,2.3444703160482273e-14,1.3004993032363907e-14,9.04307518701503e-15,5.100680294832011e-15,7.791138133022457e-09,6.246164235992982e-09,4.656393012194076e-09,3.1352985290230314e-09,1.9896037961981755e-09,1.2157686040290342e-09,7.352504260972331e-10,4.260630946982332e-10,2.381203851175085e-10,1.2830545176507174e-10,6.66104702625826e-11,3.418906273815215e-11,1.7015913697129137e-11,8.335503504430595e-12,4.096131874727507e-12,2.0154158765229602e-12,1.0272282540391517e-12,5.253067323083315e-13,2.9859136610569753e-13,1.6702994595934081e-13,9.417125187401116e-14
0.0,53,53.0,0.0,30.0,0.0,0.0,0.0,0.0,-13.0,0.0,2.0,0.0,0.0,0.0,6.174337268807596e-11,2.7150069168693323e-11,1.1556286930127778e-11,5.6492051507468766e-12,2.6084850746801048e-12,1.2780248776837336e-12,7.321343594946168e-13,3.8074428471574066e-13,2.4430084309569444e-13,1.3543292036476445e-13,1.138895932651659e-13,5.609913329875012e-14,4.4125391946963575e-14,2.3003725558213948e-14,1.2752094223150096e-14,8.904630310623507e-15,5.0247894948227755e-15,7.815270157405138e-09,6.258625469879575e-09,4.657825429455453e-09,3.1287922622955015e-09,1.9802735221187915e-09,1.2068678413703464e-09,7.28119406258872e-10,4.2097867997636615e-10,2.348006094594295e-10,1.2630687813159037e-10,6.548134910131382e-11,3.3576572523222925e-11,1.6697055756386457e-11,8.172453090916282e-12,4.012752489985065e-12,1.9714822079706357e-12,1.0036847576008715e-12,5.121095220485636e-13,2.9131726859061764e-13,1.628613125683307e-13,9.170128487194498e-14
0.0,54,54.0,0.0,30.0,0.0,0.0,0.0,0.0,-13.0,0.0,2.0,0.0,0.0,0.0,6.067139624886538e-11,2.6651380439135642e-11,1.1326062463269872e-11,5.538450197323333e-12,2.5527656079380332e-12,1.2481556333834738e-12,7.155042592633803e-13,3.708728829801185e-13,2.3837929380496605e-13,1.3186787861740726e-13,1.1172704325949197e-13,5.4825815621434014e-14,4.336723495526855e-14,2.2572413641192107e-14,1.2504235551294306e-14,8.768780981620448e-15,4.950192095275231e-15,7.838749599705563e-09,6.27011685673493e-09,4.658230701661487e-09,3.121430190043999e-09,1.970352009147364e-09,1.1976040100842626e-09,7.207809753271599e-10,4.1578891131700515e-10,2.3143273185692257e-10,1.2428955352249596e-10,6.434668923744781e-11,3.296343345428979e-11,1.637921097096029e-11,8.010616899576261e-12,3.930436742889108e-12,1.9283377048336292e-12,9.806841913868363e-13,4.992719750774629e-13,2.842543734414445e-13,1.588172927825874e-13,8.929251897301375e-14
0.0,55,55.0,0.0,30.0,0.0,0.0,0.0,0.0,-13.0,0.0,2.0,0.0,0.0,0.0,5.959474190665012e-11,2.615309398742968e-11,1.1097192222071042e-11,5.428933265250224e-12,2.497999848317498e-12,1.2189460756901224e-12,6.993108457162135e-13,3.6127847301836644e-13,2.326244628507479e-13,1.2840193546444273e-13,1.0962094143175553e-13,5.358439114692708e-14,4.262654135507224e-14,2.2150526377155408e-14,1.2261300705228575e-14,8.635472364889594e-15,4.87686344027801e-15,7.861459110114517e-09,6.280546307227033e-09,4.657548287230723e-09,3.1131797107334626e-09,1.9598241776512016e-09,1.1879717743557704e-09,7.13234260565687e-10,4.1049471794136695e-10,2.280179834508287e-10,1.2225440300443093e-10,6.320705297001852e-11,3.2349923054630036e-11,1.6062488156560787e-11,7.850016953478914e-12,3.849171820746512e-12,1.885961813653479e-12,9.582080713098283e-13,4.867816591268913e-13,2.773944577488469e-13,1.5489333212294072e-13,8.69433943160872e-14
0.0,56,56.0,0.0,30.0,0.0,0.0,0.0,0.0,-13.0,0.0,2.0,0.0,0.0,0.0,5.851392912887779e-11,2.565541955932677e-11,1.0869731286710066e-11,5.320650371016582e-12,2.444166926702987e-12,1.1903757797338906e-12,6.835390468617891e-13,3.5195150352744835e-13,2.2703063600865624e-13,1.250319081259036e-13,1.0756962577653021e-13,5.237394956859834e-14,4.190287178674089e-14,2.1737829321052088e-14,1.2023176064702969e-14,8.504651035561768e-15,4.8047794565166656e-15,7.883276008753894e-09,6.289819019062662e-09,4.655716496491592e-09,3.1040078597830515e-09,1.9486749518032653e-09,1.1779659827487848e-09,7.054785824497672e-10,4.0509715612054277e-10,2.2455766505839015e-10,1.2020238257470371e-10,6.206301496274785e-11,3.1736324276380316e-11,1.5746999435421755e-11,7.690678141156701e-12,3.7689472503639466e-12,1.8443357737075725e-12,9.362390731063666e-13,4.746268286312975e-13,2.7072967309281833e-13,1.5108506149199108e-13,8.465257838536242e-14
0.0,57,57.0,0.0,30.0,0.0,0.0,0.0,0.0,-13.0,0.0,2.0,0.0,0.0,0.0,5.742948948687443e-11,2.515857125826343e-11,1.0643737504916223e-11,5.2135999941852785e-12,2.3912478581313295e-12,1.162425622083694e-12,6.681745765411955e-13,3.4288286068523565e-13,2.215923326162786e-13,1.2175472832028737e-13,1.0557149805120413e-13,5.11936083765257e-14,4.11958023043296e-14,2.1334094391845305e-14,1.1789750597019834e-14,8.376264942462095e-15,4.733916635868834e-15,7.904072385269401e-09,6.297837580778294e-09,4.652672568692984e-09,3.09388138188883e-09,1.936889294582131e-09,1.1675816624675383e-09,6.975134544073399e-10,3.995974253254076e-10,2.2105315798762037e-10,1.1813447873890772e-10,6.091516047346061e-11,3.1122925450337695e-11,1.543286009935393e-11,7.532627802798606e-12,3.689754617642257e-12,1.80344248709076e-12,9.147609585639535e-13,4.62796379627441e-13,2.6425252314973697e-13,1.47388294450103e-13,8.241857041884672e-14
0.0,58,58.0,0.0,30.0,0.0,0.0,0.0,0.0,-13.0,0.0,2.0,0.0,0.0,0.0,5.634196652596069e-11,2.4662767137865766e-11,1.0419271134658388e-11,5.107782820374843e-12,2.3392253781988287e-12,1.1350776900547507e-12,6.532038873551787e-13,3.3406384541721543e-13,2.1630429496235247e-13,1.185674372578476e-13,1.036250214961214e-13,5.00425117679271e-14,4.050492392244116e-14,2.0939099659413174e-14,1.1560915759661172e-14,8.250263371988592e-15,4.664252018219976e-15,7.92371518130116e-09,6.304502015378852e-09,4.648352657426459e-09,3.082766727710814e-09,1.9244522410214944e-09,1.1568140607112384e-09,6.893386078443822e-10,3.9399687507733505e-10,2.1750592524795949e-10,1.1605170975892248e-10,5.976408567293417e-11,3.051001978857653e-11,1.5120188133223096e-11,7.375895444019984e-12,3.6115873590629624e-12,1.7632663798660498e-12,8.937584980615306e-13,4.5127981147732134e-13,2.579558461083855e-13,1.4379901718778837e-13,8.023978518614294e-14
0.0,59,59.0,0.0,30.0,0.0,0.0,0.0,0.0,-13.0,0.0,2.0,0.0,0.0,0.0,5.525191560947597e-11,2.4168228806625113e-11,1.0196394510894221e-11,5.0032015015089935e-12,2.288083790298725e-12,1.1083151968586955e-12,6.386141261348081e-13,3.2548615186713906e-13,2.1116147819129368e-13,1.1546718090955997e-13,1.0172871859063695e-13,4.8919829616614673e-14,3.982984216061754e-14,2.055262914133098e-14,1.1336565410263955e-14,8.1265969122016e-15,4.595763174369968e-15,7.942066191174349e-09,6.309709627403192e-09,4.642691511629579e-09,3.0706297829605944e-09,1.9113489149887283e-09,1.1456588440758613e-09,6.809541032312175e-10,3.8829697942262683e-10,2.1391747977169814e-10,1.1395513288127589e-10,5.86104052473114e-11,2.9897903305545997e-11,1.4809102499355756e-11,7.22051282925756e-12,3.5344407592589966e-12,1.7237932074275048e-12,8.732173676181495e-13,4.4006720656045477e-13,2.518328109608417e-13,1.403133520952232e-13,7.811630376425076e-14
0.0,60,60.0,0.0,30.0,0.0,0.0,0.0,0.0,-13.0,0.0,2.0,0.0,0.0,0.0,5.415990373142576e-11,2.3675181041050046e-11,9.975171733884336e-12,4.899860431615087e-12,2.237808822868937e-12,1.0821224022455155e-12,6.243930917892692e-13,3.1714184702273076e-13,2.061590406979811e-13,1.1245120554813207e-13,9.988116882883319e-14,4.782475650168546e-14,3.917017658103118e-14,2.0174472609411704e-14,1.111659572424312e-14,8.00521741687667e-15,4.528428189049598e-15,7.95898227374198e-09,6.31335530666119e-09,4.635622893101246e-09,3.0574362739936266e-09,1.897564605119737e-09,1.1341119150462155e-09,6.72360230206077e-10,3.8249939147225167e-10,2.102894338211051e-10,1.1184583650867494e-10,5.7454741881133225e-11,2.9286876659476014e-11,1.4499724555303757e-11,7.066513212085333e-12,3.4583114912398173e-12,1.6850100283782423e-12,8.531241251713599e-13,4.29149172806247e-13,2.4587688309543664e-13,1.3692758817125555e-13,7.60474978266101e-14
0.0,61,61.0,0.0,30.0,0.0,0.0,0.0,0.0,-13.0,0.0,2.0,0.0,0.0,0.0,5.306650929283084e-11,2.3183851404021188e-11,9.755668376848516e-12,4.797765536589732e-12,2.1883874958966344e-12,1.0564845383119953e-12,6.105291953708408e-13,3.09023351452115e-13,2.0129233499134253e-13,1.0951685356007838e-13,9.808100649896739e-14,4.6756510795261254e-14,3.8525560314091166e-14,1.9804425405755097e-14,1.0900905121048055e-14,7.886077969145986e-15,4.4622256438592384e-15,7.974315395891634e-09,6.315331458816616e-09,4.62707941614408e-09,3.04315165858392e-09,1.8830848050195482e-09,1.1221695297320897e-09,6.63557572427648e-10,3.766059358657189e-10,2.0662348514894436e-10,1.09724943877696e-10,5.629772973827133e-11,2.8677243951805676e-11,1.4192177067769705e-11,6.9139312687174345e-12,3.3831975356199963e-12,1.646905061936976e-12,8.334661330007596e-13,4.1851681850001944e-13,2.4008181547163505e-13,1.3363816027159868e-13,7.403285450086449e-14
0.0,62,62.0,0.0,30.0,0.0,0.0,0.0,0.0,-13.0,0.0,2.0,0.0,0.0,0.0,5.1972321837270185e-11,2.2694469865442507e-11,9.537951210976318e-12,4.696924076489772e-12,2.1398079959912974e-12,1.0313877401727038e-12,5.970114222041302e-13,3.011234211077893e-13,1.9655689900467592e-13,1.0666155952817489e-13,9.632691844960589e-14,4.571433380997396e-14,3.7895639567306705e-14,1.944228826811239e-14,1.0689394199674188e-14,7.769132844472432e-15,4.397134600281035e-15,7.98791271076352e-09,6.315528019882959e-09,4.616992538866428e-09,3.0277411634737362e-09,1.8678952710178287e-09,1.1098283382586381e-09,6.545470291556788e-10,3.7061861779987955e-10,2.029214198424657e-10,1.0759361352922482e-10,5.5140014154577e-11,2.806931233263004e-11,1.3886583883649265e-11,6.762802865059514e-12,3.3090980142229075e-12,1.6094675856951695e-12,8.142314995651103e-13,4.08161720760374e-13,2.344416341529435e-13,1.30441642502846e-13,7.207194740652827e-14
0.0,63,63.0,0.0,30.0,0.0,0.0,0.0,0.0,-13.0,0.0,2.0,0.0,0.0,0.0,5.08779417414119e-11,2.2207268422608342e-11,9.322087946031533e-12,4.597344459030368e-12,2.092059559393586e-12,1.006818981210593e-12,5.838292959340133e-13,2.934351301610967e-13,1.9194844783316297e-13,1.0388284658481071e-13,9.461764182594347e-14,4.469748900658419e-14,3.728007311182572e-14,1.9087867164499366e-14,1.0481965684295002e-14,7.654337472631407e-15,4.333134582446677e-15,7.99961662254099e-09,6.313832457567711e-09,4.6052925550512135e-09,3.0111698314161075e-09,1.8519820867313963e-09,1.0970854274159387e-09,6.453298372736502e-10,3.645396320817653e-10,1.9918511502995667e-10,1.0545303964913942e-10,5.398225127526381e-11,2.7463391600649693e-11,1.3583069611944618e-11,6.6131648380515175e-12,3.2360130345604014e-12,1.572687840139985e-12,7.954090250687191e-13,3.9807589567000607e-13,2.289506247183899e-13,1.273347420086797e-13,7.016440687593252e-14
