Line_number,Fiducial,Easting,Northing,Height,Elevation,tx_pitch,tx_roll,tx_yaw,txrx_dx,txrx_dy,txrx_dz,rx_pitch,rx_roll,rx_yaw,S0Z_time_1.431e-04,S0Z_time_1.801e-04,S0Z_time_2.266e-04,S0Z_time_2.846e-04,S0Z_time_3.581e-04,S0Z_time_4.506e-04,S0Z_time_5.671e-04,S0Z_time_7.136e-04,S0Z_time_8.981e-04,S0Z_time_1.131e-03,S0Z_time_1.423e-03,S0Z_time_1.791e-03,S0Z_time_2.255e-03,S0Z_time_2.838e-03,S0Z_time_3.573e-03,S0Z_time_4.498e-03,S0Z_time_5.662e-03,S1Z_time_1.409e-05,S1Z_time_1.610e-05,S1Z_time_1.909e-05,S1Z_time_2.360e-05,S1Z_time_2.960e-05,S1Z_time_3.709e-05,S1Z_time_4.609e-05,S1Z_time_5.759e-05,S1Z_time_7.209e-05,S1Z_time_9.060e-05,S1Z_time_1.141e-04,S1Z_time_1.431e-04,S1Z_time_1.801e-04,S1Z_time_2.266e-04,S1Z_time_2.846e-04,S1Z_time_3.581e-04,S1Z_time_4.506e-04,S1Z_time_5.671e-04,S1Z_time_7.136e-04,S1Z_time_8.981e-04,S1Z_time_1.131e-03
0.0,0,0.0,0.0,30.0,0.0,0.0,0.0,0.0,2.0,0.0,0.0,0.0,0.0,0.0,1.8319348169914265e-10,1.2061135763341956e-10,7.234724459719413e-11,4.7680400990478145e-11,3.4338336889055335e-11,2.254737520395478e-11,1.5793589912069327e-11,1.0386894009477588e-11,7.687287000015415e-12,4.6945574310823466e-12,3.509400505434372e-12,2.2087226072436127e-12,1.242973264283482e-12,6.210408930677354e-13,3.2782591636710177e-13,2.7284583268424375e-13,2.1106511789394406e-13,5.64331425278412e-09,4.62947880164137e-09,3.7565527967362496e-09,2.8751604450592233e-09,1.854144442767613e-09,1.2018123410917213e-09,9.505844159440161e-10,6.078518159832233e-10,4.3647143135793666e-10,2.769286777115223e-10,2.0082927811338734e-10,1.2908277926036956e-10,8.322594602076058e-11,6.065460370879277e-11,3.490983314708831e-11,2.628706533323631e-11,1.8272737028521897e-11,1.0979391723170919e-11,7.793941872622747e-12,4.723260055793663e-12,2.7235359575467335e-12
0.0,1,1.0,0.0,30.0,0.0,0.0,0.0,0.0,2.0,0.0,0.0,0.0,0.0,0.0,2.0380315015389042e-10,1.0955677341612033e-10,7.2306026165959e-11,4.644998220326523e-11,3.3285160327019e-11,2.307702733560671e-11,1.6379726507082963e-11,1.0898928830164302e-11,7.830109376651253e-12,4.8959163755930315e-12,3.0012216609646516e-12,2.0720183048966876e-12,1.4966100504646671e-12,7.033487631892911e-13,4.5222491754118214e-13,5.221446057078822e-13,1.0539721388645971e-13,5.767745310761949e-09,4.697971641832197e-09,3.5832681268881365e-09,2.9643132380436802e-09,1.9028359925258565e-09,1.2747820920418859e-09,9.837305000902e-10,7.354399950435082e-10,4.3550809957232404e-10,2.7102711798187337e-10,1.898807690440079e-10,1.159362447768549e-10,7.811163630007413e-11,5.435489016490025e-11,3.756524190297183e-11,2.4847630220254977e-11,1.7860430503647925e-11,1.1450308866199893e-11,6.4504302134057645e-12,4.405654770305148e-12,2.8596298091603216e-12
0.0,2,2.0,0.0,30.0,0.0,0.0,0.0,0.0,2.0,0.0,0.0,0.0,0.0,0.0,1.8367610207568735e-10,1.143426459289027e-10,7.135457735995342e-11,4.4975951330737936e-11,3.833482770572859e-11,2.1102636772482222e-11,1.4718944072198023e-11,1.0128385281659483e-11,6.805497814742105e-12,4.445556630397726e-12,3.129760612863673e-12,2.0145074514755095e-12,1.082315189580586e-12,7.382684994782298e-13,5.823889868281722e-13,1.7347467789035994e-13,1.3376594330197262e-13,5.686371463550396e-09,4.910312361619758e-09,4.006305374892001e-09,2.8852103560441338e-09,2.09844247161757e-09,1.4109045572832887e-09,9.898307676471817e-10,6.479858606918711e-10,4.787590765285861e-10,2.650980613798046e-10,1.8196330390903552e-10,1.2452564807028825e-10,8.469910197126495e-11,5.801923498588735e-11,3.893577982780071e-11,2.4207106853703176e-11,1.7206089740070114e-11,1.0835969058464487e-11,7.073938828808054e-12,4.361020212517283e-12,2.592120141502067e-12
0.0,3,3.0,0.0,30.0,0.0,0.0,0.0,0.0,2.0,0.0,0.0,0.0,0.0,0.0,1.8526403748917436e-10,1.0815831646823497e-10,7.196814714689887e-11,4.86070463752159e-11,3.391560164450132e-11,2.4259074838719605e-11,1.666540144763006e-11,1.0041780713249912e-11,7.154136910377093e-12,4.3035050736089315e-12,2.776901076433293e-12,1.836934283757814e-12,1.1699111610438538e-12,8.673460020195441e-13,2.7679057540222556e-13,3.753149309911917e-13,-9.421000453505445e-14,6.091691206034633e-09,5.143678199664755e-09,4.0083162072412815e-09,2.821417008725164e-09,2.0414099137775813e-09,1.4853782733812236e-09,1.1365919687788378e-09,7.069689632367996e-10,4.450180340537296e-10,2.905388848545836e-10,1.9110767274296892e-10,1.2548727129760935e-10,7.583496412631511e-11,5.0270806801239115e-11,3.591657738604119e-11,2.412271823131209e-11,1.6645287707797698e-11,1.001633366114737e-11,7.238831383474629e-12,4.347226244581094e-12,2.6980133048195452e-12
0.0,4,4.0,0.0,30.0,0.0,0.0,0.0,0.0,2.0,0.0,0.0,0.0,0.0,0.0,1.8102084183320094e-10,1.1848250436228025e-10,6.582622678395131e-11,4.568942159092457e-11,3.2186659639776846e-11,2.0502196319728056e-11,1.6054264247975918e-11,1.0372130132938144e-11,6.469183578667585e-12,4.579628722663303e-12,2.8722088278532723e-12,2.0141039829999702e-12,1.2182366324529294e-12,8.246707454660276e-13,3.219344480242809e-13,2.624627452430023e-13,2.0174400043769443e-13,5.471780997639892e-09,4.595775464330321e-09,3.838137591833873e-09,2.9131853459096375e-09,2.0821113649942512e-09,1.480849809232106e-09,1.1194581630825012e-09,7.438789080772674e-10,4.761081403939302e-10,3.0398892145172364e-10,1.9026514742628626e-10,1.1849562757147248e-10,7.315736834963615e-11,5.5970547276491744e-11,3.676810212863871e-11,2.315788201777875e-11,1.573769806327491e-11,1.00790170755426e-11,6.428436623487816e-12,4.1389636961920976e-12,2.2680494566285758e-12
0.0,5,5.0,0.0,30.0,0.0,0.0,0.0,0.0,2.0,0.0,0.0,0.0,0.0,0.0,1.782234034533434e-10,1.16880344953278e-10,6.548021659173125e-11,4.327342742709112e-11,3.221226689487802e-11,2.2967457580506292e-11,1.3650829664523799e-11,9.940024550613065e-12,7.174855619976516e-12,4.390055872759866e-12,2.815192061439501e-12,1.965719334959069e-12,9.76233121606962e-13,7.796629689120165e-13,3.9242035591075277e-13,3.34426216406184e-13,1.452169671566213e-13,5.801488600596958e-09,4.9723428437839626e-09,3.55438689272141e-09,3.134714269127123e-09,2.0927217053312455e-09,1.4388438394069968e-09,1.0795459375806462e-09,6.429647081069951e-10,4.4718950692018073e-10,2.9674691123530757e-10,1.906253730725223e-10,1.2487793035508087e-10,7.881374737982789e-11,4.9930988316228095e-11,3.840022560376942e-11,2.3015106645736904e-11,1.5544636438928063e-11,1.0592744497085255e-11,6.545281614411601e-12,3.8302761016463284e-12,2.3124314698432617e-12
0.0,6,6.0,0.0,30.0,0.0,0.0,0.0,0.0,2.0,0.0,0.0,0.0,0.0,0.0,1.9826862078969554e-10,1.153169286627386e-10,7.303374065459495e-11,4.901822851305756e-11,3.0838860291647484e-11,1.8733423594723326e-11,1.3362667670405526e-11,9.427407071372826e-12,6.434507111158972e-12,4.342407351172081e-12,3.056303484741071e-12,2.0443205124103905e-12,1.2272654548931874e-12,6.822381705067114e-13,1.369081808197456e-13,2.7617571970900045e-13,1.292478264137623e-13,6.255092479308991e-09,5.178430319333495e-09,3.799198192353893e-09,3.000485478354788e-09,2.10615093108531e-09,1.497798244703034e-09,1.095143720360741e-09,7.730027036506972e-10,4.913761789814298e-10,3.036256335502811e-10,1.9315092425993007e-10,1.2418621204832117e-10,7.946377240096193e-11,5.4073358438073974e-11,3.624437632849068e-11,2.2796227062428023e-11,1.6570401909880718e-11,8.909857803821709e-12,6.2952928563623925e-12,4.375626380799747e-12,2.414271489639173e-12
0.0,7,7.0,0.0,30.0,0.0,0.0,0.0,0.0,2.0,0.0,0.0,0.0,0.0,0.0,1.8132855364472615e-10,1.1548120236535492e-10,7.173457103225533e-11,4.4378209466159753e-11,3.083214718974563e-11,2.020194118544777e-11,1.4543657013419225e-11,8.629731766917102e-12,5.869899092914438e-12,4.106558904680845e-12,2.7641497155731617e-12,1.5265050751404122e-12,1.158013353899552e-12,4.602944894250237e-13,5.980045207239447e-13,2.0139695682930503e-13,1.2138757791734747e-13,5.765375977108549e-09,4.852319283916671e-09,3.6987613045977943e-09,2.839813883828071e-09,2.0992207027578122e-09,1.4111632770011802e-09,9.772030965760834e-10,7.571858382118813e-10,4.626131056985295e-10,3.5117409346476693e-10,2.055536040872158e-10,1.2113388992907263e-10,8.256774029663676e-11,5.728060077827413e-11,3.463058459216212e-11,2.2518498274673406e-11,1.507623803540474e-11,9.142457854399063e-12,6.133027289585089e-12,3.974442578309066e-12,2.636205735972115e-12
0.0,8,8.0,0.0,30.0,0.0,0.0,0.0,0.0,2.0,0.0,0.0,0.0,0.0,0.0,1.7878770659133634e-10,1.2608052311722154e-10,7.306392034075861e-11,4.4349212621063836e-11,2.8936752678293522e-11,1.9956702573882943e-11,1.3675491487095197e-11,8.618567592507098e-12,6.2074765866130844e-12,4.233638462217581e-12,2.80695528612594e-12,1.7887593260273894e-12,1.1321068907514504e-12,6.499828677221681e-13,3.2149143125548623e-13,2.2386173515941974e-13,9.228008685871214e-14,6.057997758796161e-09,5.2320723905079255e-09,4.017154189564497e-09,3.110616445508555e-09,2.0940197140731646e-09,1.5928949382472923e-09,1.0669584728693785e-09,6.9512038609294e-10,5.163724308774172e-10,3.0969199274929944e-10,2.0774953115191415e-10,1.3256149834070135e-10,7.806525069871435e-11,5.309845786365113e-11,3.365827426388207e-11,2.195410256261017e-11,1.3965238941486556e-11,9.035609513441403e-12,5.8430107563763975e-12,3.8694147045605885e-12,2.1806616347401194e-12
0.0,9,9.0,0.0,30.0,0.0,0.0,0.0,0.0,2.0,0.0,0.0,0.0,0.0,0.0,2.134492502695665e-10,1.1169998384310349e-10,6.75646881396059e-11,4.3781362250236974e-11,2.914963979757586e-11,2.0289665152508578e-11,1.3641100634663168e-11,8.534857738432078e-12,5.8722818213131295e-12,3.9269686824936265e-12,2.4040077038118703e-12,1.7674616851230175e-12,1.1433634869789975e-12,7.901510077686834e-13,5.380779317230871e-13,2.421485099891372e-13,1.3912815221819361e-13,5.889606307776936e-09,5.162031764214031e-09,3.671050573277792e-09,2.8779610410243068e-09,2.1393980551334193e-09,1.4244816374268726e-09,1.113783179903804e-09,7.553309461954816e-10,5.046742623668899e-10,3.2765407063105266e-10,2.067878358890664e-10,1.2617378710355118e-10,8.387007314433132e-11,4.923142901781091e-11,3.5513074796588675e-11,2.318244138298705e-11,1.3816108006791433e-11,8.91681305187729e-12,6.05982799634674e-12,3.319877853326706e-12,2.3069617740500876e-12
0.0,10,10.0,0.0,30.0,0.0,0.0,0.0,0.0,2.0,0.0,0.0,0.0,0.0,0.0,2.0038652743292522e-10,1.263245239318982e-10,7.576779723522586e-11,4.0410462760053724e-11,2.8894501161326977e-11,1.9400523121326064e-11,1.3170830256776069e-11,9.000269123490974e-12,5.469846697496813e-12,4.281710498198628e-12,2.403788249703348e-12,1.677754194565161e-12,1.1206277824240875e-12,6.56676262168655e-13,3.5436054470282515e-13,2.1498293520857464e-13,4.925164044146479e-14,6.10524470690222e-09,5.469213957547565e-09,3.662057502978383e-09,2.933846986033757e-09,2.2331722604791934e-09,1.5699555108200229e-09,1.0473627245074578e-09,7.973046190130092e-10,5.385315546108541e-10,3.004765763149342e-10,2.0199151996084628e-10,1.3108384064432176e-10,8.95988008085118e-11,5.62837018041779e-11,3.539383747650069e-11,2.3768196529681523e-11,1.4264305941806253e-11,9.100641985993627e-12,6.3077083590247835e-12,3.5668415654113335e-12,1.996414238767259e-12
0.0,11,11.0,0.0,30.0,0.0,0.0,0.0,0.0,2.0,0.0,0.0,0.0,0.0,0.0,2.0960078853680733e-10,1.1495327470860735e-10,7.312945828588304e-11,4.411694641428652e-11,2.7877953602148562e-11,1.8137032893766546e-11,1.1583417585064946e-11,8.847846896865669e-12,5.619598711685512e-12,3.5090130007014656e-12,2.4970152737979776e-12,1.532522014309211e-12,1.1532645444142419e-12,7.294116757907006e-13,3.017625633878912e-13,2.1514364773012084e-13,3.256169662499351e-13,5.291305000694942e-09,5.374816631310295e-09,3.5909948683177762e-09,2.9214949097927186e-09,1.956005893633214e-09,1.5551945096812043e-09,1.149435714523762e-09,7.465133909616514e-10,4.5978918063864344e-10,3.235558317475445e-10,2.0567443763100185e-10,1.343603419674046e-10,8.608973533399731e-11,5.5913584789355315e-11,3.31420501213254e-11,2.157395452272295e-11,1.4277635091041076e-11,9.485440320663554e-12,5.373321560827046e-12,3.2863859410526327e-12,2.4248772712914534e-12
0.0,12,12.0,0.0,30.0,0.0,0.0,0.0,0.0,2.0,0.0,0.0,0.0,0.0,0.0,2.170588267034843e-10,1.2641221491373817e-10,6.507474512251803e-11,4.107015421747437e-11,2.5727724955007045e-11,1.872321722991634e-11,1.2311512642702402e-11,8.750385455388069e-12,5.959525866910935e-12,3.645765740343761e-12,2.5041962154041023e-12,1.5322651147198126e-12,1.1133374629176405e-12,6.733788446745107e-13,2.1448031312256152e-13,2.3826446142300104e-13,3.456964639530836e-13,5.736667827658354e-09,5.251779424840261e-09,4.0973937804332966e-09,2.9902294932474246e-09,2.1485924907563128e-09,1.5843853940664421e-09,1.1532433683446674e-09,6.882625710321869e-10,5.29838802063775e-10,3.0230008120475054e-10,2.1702135250713399e-10,1.3245193884085343e-10,8.120914272662018e-11,5.135690384816096e-11,3.330189888736336e-11,2.1972559145886274e-11,1.4177462200094105e-11,8.985615236811747e-12,5.705310348272838e-12,3.672987489983886e-12,1.8770080875032586e-12
0.0,13,13.0,0.0,30.0,0.0,0.0,0.0,0.0,2.0,0.0,0.0,0.0,0.0,0.0,2.0021397146941184e-10,1.2371159225215915e-10,6.674353761815864e-11,4.529528776103362e-11,2.853800117960832e-11,1.8048246408384323e-11,1.1509281605214162e-11,8.46134286593956e-12,5.030644198165901e-12,3.7443012695740745e-12,2.3084175249132645e-12,1.571775230365592e-12,7.91746052765144e-13,5.82193324533736e-13,4.3624183541056345e-13,1.3774289901316993e-13,2.9352870404113234e-13,6.173413798573255e-09,5.199500342500623e-09,4.663899306892046e-09,2.915014110791737e-09,2.255200691409648e-09,1.3987468504391057e-09,1.126811125937785e-09,6.731080210464708e-10,5.529065129420914e-10,3.4571433697239e-10,2.2147135923800225e-10,1.323328206166999e-10,7.904725021693123e-11,5.060379621317796e-11,3.303214609390203e-11,2.1833510106778378e-11,1.333278649226782e-11,7.84199368020656e-12,5.692518795716825e-12,3.5090664678411683e-12,1.764316308618906e-12
0.0,14,14.0,0.0,30.0,0.0,0.0,0.0,0.0,2.0,0.0,0.0,0.0,0.0,0.0,2.15863013541664e-10,1.1280099266349664e-10,6.911103736357939e-11,4.557600172730562e-11,2.7594714205991915e-11,1.7858301529711118e-11,1.274758666187069e-11,8.471402896328353e-12,5.513574407664104e-12,3.3603599608380504e-12,2.2077166575496147e-12,1.4166896166487917e-12,1.0460379432712277e-12,7.611480362570191e-13,4.4884090292343147e-13,2.5871353660541915e-13,2.521190374748652e-13,6.271316764596365e-09,4.927735491966514e-09,4.301484105234466e-09,2.7906418016428845e-09,2.2572426328242257e-09,1.5885880765409537e-09,1.180313433860269e-09,8.516800056698767e-10,5.097945320274195e-10,3.3095664378739857e-10,2.0863892971989646e-10,1.3627536373490938e-10,8.423958446485878e-11,5.301926581446365e-11,3.295225372614982e-11,2.2145278034877577e-11,1.2896457255212794e-11,8.380899807545629e-12,5.874293610186191e-12,3.3742736216051603e-12,1.956420511120914e-12
0.0,15,15.0,0.0,30.0,0.0,0.0,0.0,0.0,2.0,0.0,0.0,0.0,0.0,0.0,2.2051995479624935e-10,1.3390703796171065e-10,7.221747320973824e-11,3.9711665482742304e-11,2.7329083512212916e-11,1.8107881036617086e-11,1.2281724261379228e-11,8.135065712044534e-12,5.419495129293015e-12,3.6171737902979855e-12,2.2084540437594363e-12,1.4403994788605074e-12,9.380997260116329e-13,5.405397911451956e-13,3.2915556250403735e-13,9.679633910477891e-14,1.8358777001076131e-13,5.96222112179091e-09,5.4137323461919405e-09,3.833185881693215e-09,3.0617935367803224e-09,2.267526265308639e-09,1.5105288379988021e-09,1.2236139431580354e-09,8.399761841944897e-10,4.836771095296981e-10,3.201566891892463e-10,2.258902643736319e-10,1.3727835227182098e-10,8.851932166701956e-11,5.370901498454738e-11,3.215092290372858e-11,2.09209021557546e-11,1.2602641400627963e-11,7.8887476778842e-12,5.146739746809852e-12,3.419150463990442e-12,1.823896571491199e-12
0.0,16,16.0,0.0,30.0,0.0,0.0,0.0,0.0,2.0,0.0,0.0,0.0,0.0,0.0,2.014100071264744e-10,1.274132880520142e-10,6.827240509489024e-11,3.997077992026874e-11,2.833050196610606e-11,1.715600490177783e-11,1.1866769679826532e-11,7.80149499128303e-12,4.9916078881154635e-12,2.9914632417954933e-12,2.270860753730494e-12,1.3959972404366838e-12,1.0803720308079268e-12,7.377897401732313e-13,1.3659473018054633e-13,2.6196197116744615e-13,-1.359136160824037e-13,6.303461759275632e-09,5.163871742193195e-09,3.911928272508977e-09,2.92539492222426e-09,2.0757665209397698e-09,1.6395636052536774e-09,1.101342686964318e-09,7.657113565154668e-10,5.2308022411777e-10,3.3183536340645976e-10,2.466473239071695e-10,1.311694088778753e-10,8.493569536436751e-11,5.6032173336390024e-11,3.531748579016267e-11,2.1832663460420128e-11,1.3408828568697761e-11,8.537544396731649e-12,5.295906779465595e-12,2.997796964242881e-12,1.6731018401707457e-12
0.0,17,17.0,0.0,30.0,0.0,0.0,0.0,0.0,2.0,0.0,0.0,0.0,0.0,0.0,1.9242223707256833e-10,1.202836113078012e-10,7.140469923241924e-11,4.499331720230602e-11,2.6557483011166917e-11,1.873792295625625e-11,1.1160783922755566e-11,7.0434255805746204e-12,4.932190745704363e-12,3.2885347463616407e-12,2.035035414315005e-12,1.2621667049736956e-12,8.58449731043546e-13,5.430412162965766e-13,4.900698851176948e-13,3.208322237260411e-13,3.4357997903396893e-13,6.251805423202674e-09,5.4182416350571595e-09,4.013040610971026e-09,3.2685924689974714e-09,2.049500076858967e-09,1.5459643827823808e-09,1.1826307792731566e-09,8.381327919101867e-10,5.317832416177021e-10,3.3831830423046273e-10,2.2780211700325447e-10,1.4325217749248186e-10,9.608340453390886e-11,5.41329247010817e-11,3.0112546482965327e-11,2.0765857750183005e-11,1.199164511579386e-11,8.261432467646293e-12,4.708312824505267e-12,3.2143619791030642e-12,1.8680177539027725e-12
0.0,18,18.0,0.0,30.0,0.0,0.0,0.0,0.0,2.0,0.0,0.0,0.0,0.0,0.0,2.4559160785156836e-10,1.332475787591682e-10,7.64259063046764e-11,4.4579113645782445e-11,2.6435835874707617e-11,1.830068372015698e-11,1.1586098735700363e-11,7.383290684174058e-12,4.95888205356881e-12,3.106758488913276e-12,1.8888535946067614e-12,1.41071301063742e-12,7.9846656566266e-13,6.556904138403692e-13,4.724048841977678e-13,1.5502420971000505e-13,1.5513282042450475e-13,6.064522800590982e-09,5.177161157654705e-09,3.9303064500279376e-09,3.168768872821139e-09,2.3408456122200236e-09,1.5707192798957616e-09,1.1568608417930324e-09,7.680726923863588e-10,5.238631180469755e-10,3.48234770536264e-10,2.255972367906685e-10,1.3485329984174117e-10,8.475905256061442e-11,5.482398193304634e-11,3.4447446192345174e-11,1.7939088759485116e-11,1.2351229466783254e-11,6.7125423559826655e-12,5.484546441604297e-12,2.936582389438194e-12,1.838579030797473e-12
0.0,19,19.0,0.0,30.0,0.0,0.0,0.0,0.0,2.0,0.0,0.0,0.0,0.0,0.0,2.0781135845767885e-10,1.139996495807018e-10,7.600413910998833e-11,4.2610134249010124e-11,2.8391200843505707e-11,1.6254070025460438e-11,1.1736041370507021e-11,7.470630606425352e-12,4.927704312697088e-12,2.7693184904760392e-12,2.314479704553797e-12,1.3965148066600562e-12,8.116656762107807e-13,5.920473462258861e-13,2.353459647436839e-13,2.5653007255599644e-13,2.556315506287541e-13,6.189486219280418e-09,5.405640456837539e-09,3.889481732697454e-09,3.1606359856149084e-09,2.237125663711044e-09,1.7223548545095404e-09,1.2227564050725535e-09,8.220033000955407e-10,5.209754807058916e-10,3.7410060489919014e-10,2.2835813069565742e-10,1.3865654376320826e-10,8.90970342337332e-11,5.346344732804596e-11,3.305762720886397e-11,2.2129393569781226e-11,1.324293234370771e-11,7.97958646808578e-12,5.2725725634494845e-12,2.9545535023472455e-12,1.9093208422775055e-12
0.0,20,20.0,0.0,30.0,0.0,0.0,0.0,0.0,2.0,0.0,0.0,0.0,0.0,0.0,2.3390583430824615e-10,1.4051829804213786e-10,6.774114415280576e-11,4.5826299207550015e-11,2.629047461686375e-11,1.5519735766025254e-11,1.2084577922699348e-11,7.76182252578014e-12,5.370015133468578e-12,3.355513535049849e-12,1.9242038455972306e-12,1.5385304180167875e-12,8.50221727294467e-13,5.063927683852537e-13,3.1567427605728985e-13,1.4118385889359956e-13,2.7800171121226745e-13,6.011339398187065e-09,5.491635859529975e-09,4.171006576591407e-09,3.039811513249748e-09,2.3115281253437142e-09,1.6996137254193026e-09,1.1955271061903778e-09,8.130751939589356e-10,5.505490128522705e-10,3.811710453683389e-10,2.4235856527411545e-10,1.567551093669757e-10,8.305212138061875e-11,5.6961932428028595e-11,3.205644583139624e-11,2.0320109178642748e-11,1.2473782449538901e-11,7.829709801595245e-12,4.978601473841065e-12,2.8435898906876596e-12,1.6305859408378076e-12
0.0,21,21.0,0.0,30.0,0.0,0.0,0.0,0.0,2.0,0.0,0.0,0.0,0.0,0.0,2.330908884522599e-10,1.4302104153001537e-10,6.9286857914844e-11,4.812330206176577e-11,2.77557250944056e-11,1.697260829991541e-11,1.1178291123159208e-11,7.49431019592741e-12,4.7970670277283944e-12,3.0771560020873522e-12,2.1104722218490514e-12,1.1752718983608206e-12,6.843932156351086e-13,5.549532411615893e-13,3.572106369312092e-13,1.5459125530820875e-13,1.3006818409945973e-13,6.19072944308991e-09,5.388692917597136e-09,4.172557477337656e-09,3.114763418579007e-09,2.364136112233212e-09,1.5481322789895634e-09,1.1785626356210234e-09,8.299534520872036e-10,5.872410599479786e-10,3.4097811126470787e-10,2.2325311712591851e-10,1.523519403511633e-10,9.014692656855621e-11,5.609392082064782e-11,3.250084295529984e-11,2.0702994637966482e-11,1.1499863265701639e-11,7.983515337670099e-12,4.670823977488663e-12,3.055323645140421e-12,1.7464492241130045e-12
0.0,22,22.0,0.0,30.0,0.0,0.0,0.0,0.0,2.0,0.0,0.0,0.0,0.0,0.0,2.287415920591331e-10,1.276927226404621e-10,7.726408136868435e-11,4.0862449920898625e-11,2.7519345186710496e-11,1.5535746562034244e-11,1.057273818593068e-11,7.291236801629096e-12,4.401263141066369e-12,3.0677733627981185e-12,2.0824048779740217e-12,1.364617591992513e-12,9.27647471353557e-13,6.231656858058957e-13,2.2496139095107915e-13,2.5398338325540425e-13,6.981967945332295e-14,6.876787035630747e-09,5.388984022160538e-09,4.1331082421826e-09,3.2215970186988173e-09,2.5517639898579285e-09,1.6853211290618018e-09,1.2248274519662784e-09,8.582742716986714e-10,5.451006879399311e-10,3.815779964204059e-10,2.488926750822991e-10,1.3233203411076602e-10,8.525860723037686e-11,5.672035049482386e-11,3.369125757925166e-11,2.1587123538602545e-11,1.3287158397725038e-11,7.455567945254224e-12,4.38794086297301e-12,3.0520325437803645e-12,1.5255942870266291e-12
0.0,23,23.0,0.0,30.0,0.0,0.0,0.0,0.0,2.0,0.0,0.0,0.0,0.0,0.0,2.2989390344522532e-10,1.1851302904437206e-10,7.881324518034821e-11,4.773225978711378e-11,2.7362399055530688e-11,1.6272421900555796e-11,1.1033169243225304e-11,7.001630960914309e-12,4.790667894362964e-12,3.3455826246773162e-12,1.7822233820085315e-12,1.3109878460854144e-12,9.781680154222986e-13,5.04397725430977e-13,6.071609619943158e-13,2.0239384247884052e-13,5.062241143786274e-14,6.195458768504075e-09,5.556486308114651e-09,3.885527441674911e-09,3.189589598538693e-09,2.3263857498316184e-09,1.5730333623082117e-09,1.2448472355294172e-09,9.017283147497401e-10,5.61854864547558e-10,3.6348676072474566e-10,2.3042385484626753e-10,1.4649393463906293e-10,9.47117413179821e-11,5.581360114173932e-11,3.496825638265339e-11,2.103246845169998e-11,1.1842462551970945e-11,7.711884466550185e-12,4.884196353579072e-12,3.1742041819125977e-12,1.7028041790969914e-12
0.0,24,24.0,0.0,30.0,0.0,0.0,0.0,0.0,2.0,0.0,0.0,0.0,0.0,0.0,2.3578228354840295e-10,1.4880491983541224e-10,7.943291710184122e-11,4.548341224603069e-11,2.9050431800596423e-11,1.8015165138198522e-11,1.071127122851913e-11,7.287281206517795e-12,4.790101793693046e-12,2.9811614611045635e-12,2.1056212048606506e-12,1.18572102365682e-12,7.822778944527115e-13,3.369708478403438e-13,2.243727597890654e-13,1.910063875499411e-13,1.3495584966035766e-13,6.723690026214877e-09,5.5051120246334035e-09,4.325480690865434e-09,3.183753659449491e-09,2.206654280146067e-09,1.7675827038913145e-09,1.1804725105072945e-09,8.318371894733976e-10,5.66994668186718e-10,3.642957450507836e-10,2.3218638386734686e-10,1.567911056007186e-10,9.426305060042678e-11,5.7965501474394184e-11,3.286639527463059e-11,1.9452094650517004e-11,1.3793654147699681e-11,7.357041175746338e-12,4.5760728896033405e-12,2.879764795096964e-12,1.478780172300606e-12
0.0,25,25.0,0.0,30.0,0.0,0.0,0.0,0.0,2.0,0.0,0.0,0.0,0.0,0.0,2.2230998808267779e-10,1.3518879982362664e-10,7.763445491014778e-11,4.4758905305549723e-11,2.8061453863965654e-11,1.5423398162540374e-11,1.0274471141286067e-11,6.528809855998941e-12,4.814739750544964e-12,2.5908923020549693e-12,1.81582914635203e-12,1.5530259427216551e-12,8.478058391259675e-13,4.689464479800297e-13,3.2471731326336125e-13,1.356188646861363e-13,2.448598387535744e-13,6.244594169147473e-09,6.085008425143249e-09,4.3334719920197185e-09,3.0850784858005376e-09,2.270533681135208e-09,1.5544754278694535e-09,1.2228138966878084e-09,7.782554625655977e-10,5.533107652172877e-10,4.0050834896189437e-10,2.1771341359826956e-10,1.617569377519417e-10,8.846587573603015e-11,5.635925950279759e-11,3.2130936353885683e-11,2.199459284145381e-11,1.175957048456853e-11,8.151477221487602e-12,5.3206455043729034e-12,2.7730339741030537e-12,1.708732687967718e-12
0.0,26,26.0,0.0,30.0,0.0,0.0,0.0,0.0,2.0,0.0,0.0,0.0,0.0,0.0,2.6072282604777616e-10,1.4424045866388544e-10,7.570954082826255e-11,4.4756725291257013e-11,2.5419171290492015e-11,1.780152493076249e-11,1.0147306226698819e-11,6.8082814227451656e-12,4.0132544909270136e-12,3.2814227607070997e-12,1.9972373911842768e-12,1.3519196098009268e-12,6.979207404154669e-13,5.574912556867878e-13,4.1352929343023547e-13,2.5283772369991533e-13,3.003853804207618e-13,6.204100579493032e-09,5.671902370888232e-09,4.18237525983016e-09,3.1260087813395073e-09,2.5521256150451764e-09,1.5350787657103858e-09,1.2726813429029928e-09,8.285673051341053e-10,5.3828178886542e-10,3.8535336383796506e-10,2.410630891629737e-10,1.6408429753571495e-10,1.0034079736696077e-10,6.42076415230925e-11,3.265246246341349e-11,2.026703705211816e-11,1.1531238229887333e-11,7.823759761186888e-12,4.561559264677839e-12,2.844132032280478e-12,1.7112324574141155e-12
0.0,27,27.0,0.0,30.0,0.0,0.0,0.0,0.0,2.0,0.0,0.0,0.0,0.0,0.0,2.4702446480208833e-10,1.318962045396699e-10,8.354338042783843e-11,4.39955835766349e-11,2.6316948744012728e-11,1.6491052442043063e-11,9.648785773680592e-12,6.266822634847893e-12,4.31091698783273e-12,2.5371670648686366e-12,1.993207271659228e-12,1.3333828001873937e-12,5.039800671258021e-13,5.047994150108919e-13,2.8522947600149624e-13,2.478954807566107e-13,1.57037251464082e-13,6.442036721591438e-09,5.3506601278360316e-09,4.727891567650304e-09,3.209068319090245e-09,2.236947326874988e-09,1.688624331724655e-09,1.2216112113699243e-09,8.541134107463391e-10,5.904473196861574e-10,3.652290289902689e-10,2.554354866280451e-10,1.5533384982892386e-10,9.848155967840894e-11,5.828432571001955e-11,3.8514807010799884e-11,2.06154651067406e-11,1.3493208294773664e-11,7.0204578099313175e-12,4.4794944679495076e-12,2.9341369432420524e-12,1.6066973705829407e-12
0.0,28,28.0,0.0,30.0,0.0,0.0,0.0,0.0,2.0,0.0,0.0,0.0,0.0,0.0,2.1553120401244408e-10,1.338537949397417e-10,7.891510465336582e-11,4.859741268421715e-11,2.8025639015306175e-11,1.723299857859527e-11,9.978768118073847e-12,6.723262765231935e-12,4.13959005687978e-12,2.8451939736458365e-12,1.7251924637522931e-12,1.20942882543018e-12,7.860347132088436e-13,7.400170310967398e-13,2.51626420209623e-13,1.8873357167549997e-13,4.330987710095926e-14,6.713316778617816e-09,5.8453552410322714e-09,4.486884405616089e-09,3.438701896833177e-09,2.3687001069562994e-09,1.6336824064738881e-09,1.1929588009958963e-09,8.225188604230701e-10,5.616854371146152e-10,4.0838245650582494e-10,2.4562326812346924e-10,1.5536532523337907e-10,8.943335727487734e-11,5.853296546520709e-11,3.3544711889436694e-11,2.2440217562390542e-11,1.2834937001033379e-11,7.337522550639388e-12,4.569189965271512e-12,3.13106326824841e-12,1.566691671416258e-12
0.0,29,29.0,0.0,30.0,0.0,0.0,0.0,0.0,2.0,0.0,0.0,0.0,0.0,0.0,2.2361433168853665e-10,1.3769197203641517e-10,8.370465344100982e-11,4.5197480911716535e-11,2.5967319207299994e-11,1.5423342664735275e-11,1.1110860020153921e-11,6.219227867718322e-12,4.00024391248766e-12,2.937433238338964e-12,1.9833098940447333e-12,1.0956461289538465e-12,6.521469048050267e-13,3.5660529145523815e-13,3.5105655337872407e-13,1.9691770634283928e-13,4.1234605059748516e-14,6.797303490714319e-09,5.5312773435985575e-09,4.281624035610048e-09,3.4005693462849972e-09,2.462480475128864e-09,1.7234592394782197e-09,1.2172986390354903e-09,8.426526683307271e-10,5.643252386754705e-10,3.8151990292240115e-10,2.5556109107430334e-10,1.691794968131512e-10,1.0119091334104091e-10,6.260720798666067e-11,3.6912619861480715e-11,1.9979012275726585e-11,1.2204373212567411e-11,7.572207444815149e-12,4.587364804624003e-12,2.5815748230882986e-12,1.599199659804071e-12
0.0,30,30.0,0.0,30.0,0.0,0.0,0.0,0.0,2.0,0.0,0.0,0.0,0.0,0.0,2.2375262947854463e-10,1.3842768584540044e-10,8.102552211910049e-11,4.91090666863757e-11,2.8494454013754594e-11,1.656031682585197e-11,1.0290098475570572e-11,6.096049139078419e-12,4.018466516554341e-12,2.6959271827911405e-12,1.9514858043324774e-12,1.216210335955957e-12,5.88014575530263e-13,5.618714586355768e-13,3.9186877517293707e-13,1.953061879930571e-13,1.5141159947488803e-14,6.472777309684817e-09,5.6866722226434584e-09,4.5170344570463325e-09,3.7103938766704437e-09,2.412997397715604e-09,1.8549701058739298e-09,1.2303775923977944e-09,8.478677155889982e-10,5.614178094175098e-10,3.9580667080171783e-10,2.573983561319839e-10,1.5027343855225307e-10,9.712334666938131e-11,5.917127747345269e-11,3.620477731213021e-11,2.0270789084068338e-11,1.1907666305226157e-11,7.071945411541233e-12,4.626379414730818e-12,2.3716679725621555e-12,1.4696509515655526e-12
0.0,31,31.0,0.0,30.0,0.0,0.0,0.0,0.0,2.0,0.0,0.0,0.0,0.0,0.0,2.331379737828044e-10,1.3232834837416789e-10,7.829203262422265e-11,5.280344824683436e-11,2.95341448437212e-11,1.711993867333615e-11,9.933955734880692e-12,6.389573810983588e-12,4.0461009120766015e-12,2.774067949563771e-12,1.6394701372077245e-12,1.3851588873722508e-12,8.790435497149818e-13,5.220534414305672e-13,2.300789484675511e-13,1.4168087976658724e-13,2.16739705783703e-13,6.6800461008268455e-09,5.7272950861481405e-09,4.494500081923186e-09,3.252501673252356e-09,2.657545002967944e-09,1.7663370908909684e-09,1.140885389013163e-09,8.148127899977398e-10,5.431968306621457e-10,3.682478346311664e-10,2.577651454906639e-10,1.6687526732623482e-10,9.386299441183966e-11,6.137737089001827e-11,3.393659745215001e-11,2.1023991520785827e-11,1.245154735483995e-11,7.71398214953216e-12,4.371507117329531e-12,2.574961739166832e-12,1.7342483910470212e-12
0.0,32,32.0,0.0,30.0,0.0,0.0,0.0,0.0,2.0,0.0,0.0,0.0,0.0,0.0,2.662988219955006e-10,1.557106234135245e-10,7.881309517533213e-11,4.56427396671756e-11,2.8951112231972686e-11,1.7396976694020927e-11,1.0179184951618954e-11,6.2096611280917736e-12,4.20964876767282e-12,2.461205626775059e-12,1.6725154196099134e-12,1.1074453972527634e-12,5.843229554799326e-13,4.574398650960102e-13,4.4362524147885913e-13,1.6831544195911942e-14,-1.2392373878039176e-14,7.345145596425796e-09,5.815452444512459e-09,4.5046755134023695e-09,3.1055890205817425e-09,2.5027102910204817e-09,1.6342665468535463e-09,1.2384254252481188e-09,8.374087336671118e-10,6.065154082424324e-10,3.640379901539576e-10,2.5939847791331945e-10,1.56348503780037e-10,1.0181477265385113e-10,6.305317280441366e-11,3.3808712328594154e-11,1.9832768158727377e-11,1.3519626005389579e-11,7.479482296100166e-12,4.43255229331767e-12,2.519639821470542e-12,1.3388765353326808e-12
0.0,33,33.0,0.0,30.0,0.0,0.0,0.0,0.0,2.0,0.0,0.0,0.0,0.0,0.0,2.501883982498783e-10,1.4040423117786321e-10,8.907446004270227e-11,5.022779117528037e-11,3.093304088328357e-11,1.6689463550173758e-11,1.0067512376012538e-11,6.41764249093637e-12,4.194108708985437e-12,2.567019431633211e-12,1.5634229464838102e-12,1.1409398485048566e-12,6.5570695961897e-13,5.062073428554663e-13,4.170924314047122e-13,1.516316427428838e-13,5.892073750501692e-14,6.907937362167377e-09,6.1204485221658805e-09,4.705142355837701e-09,3.238777689912717e-09,2.26015648350639e-09,1.5377731716209766e-09,1.1790293732982442e-09,8.598684589607458e-10,5.792169738878656e-10,3.4985339268384756e-10,2.6405250596865913e-10,1.567761293734494e-10,1.0969112794997713e-10,6.108642359621406e-11,3.7190326535385534e-11,2.180054066975383e-11,1.2803777405260575e-11,7.784354119673122e-12,4.767006673919965e-12,2.6694609613533863e-12,1.3852346277882893e-12
0.0,34,34.0,0.0,30.0,0.0,0.0,0.0,0.0,2.0,0.0,0.0,0.0,0.0,0.0,2.3757805165022255e-10,1.420880829661644e-10,7.855781257734781e-11,4.763265060521869e-11,2.8237149033522208e-11,1.6316023139238185e-11,9.590854904986329e-12,6.6077111189936765e-12,3.956899125784026e-12,2.5184394378303536e-12,1.6137574747741748e-12,1.239503686687805e-12,7.333675504908518e-13,5.193609613018916e-13,3.9959144892503835e-13,3.1413607760574956e-13,1.6889674236574397e-13,6.27354872972371e-09,5.790254352408838e-09,4.808418891374532e-09,3.440394513299716e-09,2.4689168225437492e-09,1.7204073184210875e-09,1.2406120885488222e-09,8.292918826550005e-10,5.964654105684627e-10,3.854210403136514e-10,2.6016547397406603e-10,1.6164967375046014e-10,1.061422279368993e-10,6.567841561899238e-11,3.7409914909282856e-11,2.3276822354456405e-11,1.2779104589334227e-11,8.151371743494188e-12,4.6248159501017236e-12,2.5003562937024918e-12,1.4454485512640114e-12
0.0,35,35.0,0.0,30.0,0.0,0.0,0.0,0.0,2.0,0.0,0.0,0.0,0.0,0.0,2.7601609586760366e-10,1.392430626974431e-10,8.115765733871023e-11,4.8081354103956424e-11,2.90451434702573e-11,1.6835754984896366e-11,1.0300000446294833e-11,6.365610512150475e-12,4.209840789511646e-12,2.549273342718229e-12,1.8270364602483815e-12,9.628509139574371e-13,7.602461824568709e-13,4.22383856336192e-13,2.4138856830661037e-13,1.8025376761772744e-13,1.1655682166344416e-13,7.078363263729408e-09,5.826120717303606e-09,4.577777301325047e-09,3.5239280103999715e-09,2.4015144348815154e-09,1.741446777810496e-09,1.2282424271354373e-09,8.72753362330135e-10,6.124393853113981e-10,3.7979005944676325e-10,2.4245966199619407e-10,1.5751208132067744e-10,9.805815765451525e-11,6.729898015224371e-11,3.900621676103125e-11,2.144864952020608e-11,1.4156213988950285e-11,7.463081133709139e-12,4.3189380827374615e-12,2.616351012938448e-12,1.2938402215404827e-12
0.0,36,36.0,0.0,30.0,0.0,0.0,0.0,0.0,2.0,0.0,0.0,0.0,0.0,0.0,2.593541158109631e-10,1.4695259033217927e-10,8.676963902290344e-11,4.9960023912574456e-11,3.006274895671965e-11,1.5975386374160408e-11,1.0632442753894416e-11,6.313604533974846e-12,4.0322332430920325e-12,2.674091697077183e-12,1.7072947818738287e-12,1.0590895794424192e-12,7.450177145099448e-13,5.028958035646996e-13,3.815478517318316e-13,1.1047203569549035e-13,6.738919167117458e-14,5.950764203834098e-09,5.747967766616877e-09,4.5889817984465165e-09,3.3841780781890455e-09,2.42775976486462e-09,1.7912138049864968e-09,1.265566231191755e-09,8.597376946691668e-10,6.071095484177583e-10,3.965653719372002e-10,2.5577040895636416e-10,1.5006072523850765e-10,1.0264244916374355e-10,6.180328845085609e-11,4.059208006553978e-11,2.1396021422660076e-11,1.2780186446629426e-11,6.763683294895832e-12,4.487840538679663e-12,2.44064915612239e-12,1.6635905452383e-12
0.0,37,37.0,0.0,30.0,0.0,0.0,0.0,0.0,2.0,0.0,0.0,0.0,0.0,0.0,2.400872292033595e-10,1.3757341265650676e-10,8.481366631015162e-11,5.271104274486944e-11,2.9765123315957397e-11,1.591878760811828e-11,1.0178908224958264e-11,6.809046686394435e-12,4.230313069996993e-12,2.583377997470274e-12,1.7173578098101411e-12,1.035526371700137e-12,5.243084757304373e-13,1.8814526432292917e-13,3.0701273260214675e-13,2.035016037600546e-13,2.0013072110619943e-13,7.013481014882957e-09,6.410837919183574e-09,4.591387081969517e-09,3.5126855633555196e-09,2.3851307648709735e-09,1.786177635817722e-09,1.2241419246687566e-09,8.238745363663824e-10,5.901101056503645e-10,3.7964525905615234e-10,2.617449473734933e-10,1.6400245917291444e-10,1.0190769116435213e-10,6.553842131157902e-11,3.618861837520908e-11,2.3032105402925777e-11,1.2478601375782608e-11,7.365015511172387e-12,4.017197712136503e-12,2.381446504725026e-12,1.4265801216565037e-12
0.0,38,38.0,0.0,30.0,0.0,0.0,0.0,0.0,2.0,0.0,0.0,0.0,0.0,0.0,2.2690661821844803e-10,1.3947873113364878e-10,8.241258981425e-11,5.006806583099555e-11,3.012003391113575e-11,1.6909927153890422e-11,1.0063818308796975e-11,6.0035670668335224e-12,3.996400361309882e-12,2.5251927701734945e-12,1.4998928603929541e-12,1.2429942829588598e-12,5.487236256512395e-13,4.766183569934229e-13,3.9264468552667195e-13,2.6484840630783687e-13,-8.514754915091142e-15,7.363760912729559e-09,5.34008100213632e-09,4.7014208890946026e-09,3.22442493589595e-09,2.4874945758642824e-09,1.76071902782178e-09,1.2200957609183079e-09,9.312346830358802e-10,5.914870139807861e-10,3.686809220788259e-10,2.6513012880118027e-10,1.6737983962765148e-10,1.04620977005137e-10,6.39024557908492e-11,3.724163122765994e-11,2.3678803656646088e-11,1.3930302379226476e-11,7.599735098539204e-12,4.405500208055688e-12,2.2807008865655822e-12,1.318123905994578e-12
0.0,39,39.0,0.0,30.0,0.0,0.0,0.0,0.0,2.0,0.0,0.0,0.0,0.0,0.0,2.4527595569163055e-10,1.5527473472505855e-10,8.88115952008276e-11,4.7825352072867836e-11,2.945181596665429e-11,1.7049934100407835e-11,9.705118405711255e-12,5.897880736616854e-12,3.666980599090796e-12,2.35588376460911e-12,1.918936234403597e-12,1.1806271707694962e-12,4.47597861489571e-13,5.665646929702606e-13,1.7176975589357174e-13,3.034326770795298e-14,1.2001829820336662e-13,7.347793067768129e-09,5.6302433266716576e-09,4.620584478570567e-09,3.368680922872123e-09,2.3383619355931235e-09,1.837371700346365e-09,1.2605207724692795e-09,9.31497577024224e-10,6.077789853624451e-10,4.042954388292999e-10,2.5279025119606717e-10,1.7292118780591564e-10,1.0553043477214353e-10,6.783839326698424e-11,3.823763017036734e-11,2.269400980926956e-11,1.3852939557733418e-11,7.590559683742484e-12,4.162713487940596e-12,2.4895690024924407e-12,1.3613468903007813e-12
0.0,40,40.0,0.0,30.0,0.0,0.0,0.0,0.0,2.0,0.0,0.0,0.0,0.0,0.0,2.6429944555616845e-10,1.4546515122868247e-10,8.292133312724626e-11,5.2924122344801564e-11,2.925923823533399e-11,1.7257579206703034e-11,1.0138490572269026e-11,6.381707496546993e-12,3.893586162931914e-12,2.357287075801497e-12,1.7184776703352991e-12,1.2660630420075177e-12,6.312569831533057e-13,4.1159081991205667e-13,2.7140187179260516e-13,2.6839740626675436e-13,3.3315593870410435e-13,7.076753008240478e-09,5.386788617111126e-09,4.902179104361952e-09,3.228546127523398e-09,2.418293174129697e-09,1.7383167951189535e-09,1.2597239180461154e-09,9.62240317623118e-10,6.492101741208315e-10,3.743788855809853e-10,2.411941974945332e-10,1.650276257029317e-10,1.0566577023444492e-10,6.560844343453997e-11,4.265086962469503e-11,2.3163803849211074e-11,1.4357242029141736e-11,7.559597872845268e-12,4.419529602574846e-12,2.5256613925064807e-12,1.4709683492312103e-12
0.0,41,41.0,0.0,30.0,0.0,0.0,0.0,0.0,2.0,0.0,0.0,0.0,0.0,0.0,2.441208566012184e-10,1.4700391660237181e-10,8.994289784204138e-11,5.281428346439466e-11,2.895815886417072e-11,1.7977173226251412e-11,9.690426594324816e-12,6.544365145274384e-12,3.83873445737207e-12,2.4658525343916975e-12,1.7749585252791869e-12,9.81694719626865e-13,5.661698216177771e-13,2.937988331219038e-13,3.618064181280889e-13,2.611941117952942e-13,2.3160516561169134e-13,6.820669594645539e-09,6.6169516401737975e-09,4.930727440057701e-09,3.3171660678319225e-09,2.303331170183065e-09,1.5830166981584583e-09,1.3138899270132626e-09,9.468630483936098e-10,6.160733578286969e-10,3.910108107803199e-10,2.654976367700324e-10,1.657747886270446e-10,1.1788823714541187e-10,6.056579191901686e-11,4.2195752877238614e-11,2.259785156423458e-11,1.3014841368189613e-11,7.121445370706305e-12,4.1205569709445235e-12,2.589582598920716e-12,1.394986562777079e-12
0.0,42,42.0,0.0,30.0,0.0,0.0,0.0,0.0,2.0,0.0,0.0,0.0,0.0,0.0,2.350875886289154e-10,1.5855519445935748e-10,8.108973779799556e-11,5.043816879029665e-11,3.035826305968967e-11,1.7402868560975154e-11,1.0488625605074324e-11,6.3828384133622645e-12,3.692471061106631e-12,2.5719592709643246e-12,1.6747787561775455e-12,9.687474680938796e-13,7.572460703669608e-13,2.648771860751745e-13,3.4945557611381846e-14,2.0780103356072863e-13,-1.902056226782684e-14,7.055831464456726e-09,6.002199075201337e-09,4.7457889056825435e-09,3.3194489532918527e-09,2.5256941555701067e-09,1.8861327015420748e-09,1.3737301686791705e-09,9.362883107564943e-10,6.155012088668871e-10,4.201890471697037e-10,2.6096826883581807e-10,1.5645071288370735e-10,1.1053662144243187e-10,6.620601302978225e-11,4.187886592821916e-11,2.3658460606174353e-11,1.4083749351824424e-11,8.1435479788476e-12,4.542626739708138e-12,2.113374029373178e-12,1.347339110099964e-12
0.0,43,43.0,0.0,30.0,0.0,0.0,0.0,0.0,2.0,0.0,0.0,0.0,0.0,0.0,2.662320343961432e-10,1.5935265314664382e-10,8.655288255356674e-11,5.036684766060816e-11,3.023122342230993e-11,1.6814513838676768e-11,9.540526124396206e-12,6.322503570117612e-12,3.634422112737464e-12,2.182080942934082e-12,1.5083473360641215e-12,1.239020227994264e-12,4.415297707089148e-13,1.7202553749983367e-13,2.2291383388062264e-13,2.2583854929399847e-13,1.4081673965492776e-13,7.3297361396334834e-09,5.978725776265258e-09,4.826593315048448e-09,3.400746703229333e-09,2.6688548232104293e-09,1.8385997753626986e-09,1.2441137710371978e-09,8.220092619732238e-10,6.029793272524408e-10,4.0069916166446193e-10,2.840524494066021e-10,1.7373322561338322e-10,1.0679387251953088e-10,6.816651121233131e-11,4.1785998784369236e-11,2.347048804259147e-11,1.3468722502121648e-11,7.697315176708917e-12,4.224978698691594e-12,2.1940418813494946e-12,1.4993449447430707e-12
0.0,44,44.0,0.0,30.0,0.0,0.0,0.0,0.0,2.0,0.0,0.0,0.0,0.0,0.0,2.4740690081522307e-10,1.574597218802672e-10,9.447446306300163e-11,5.4472158859394857e-11,3.122887719664025e-11,1.9020398522443953e-11,1.0365447983821286e-11,6.3926978813353254e-12,3.528480656700758e-12,2.5845803031489373e-12,1.4921256938564155e-12,9.644526559233696e-13,4.714590837384274e-13,3.5694597753432813e-13,1.5347291289472226e-13,1.1430762643062925e-13,-5.508309559273959e-15,7.136825079012373e-09,6.344828622657642e-09,4.244014688386385e-09,3.5744464866190077e-09,2.5659657579253054e-09,1.7968786831192882e-09,1.28217098491415e-09,8.876074722016641e-10,5.80821744829224e-10,3.8946271108451655e-10,2.564542753846013e-10,1.7259255326460235e-10,1.0054659424362453e-10,6.707453654109865e-11,4.369306966207067e-11,2.324056372733172e-11,1.3904816057502995e-11,8.079132480798414e-12,4.56765915985336e-12,2.5030136801674457e-12,1.4402939094719615e-12
0.0,45,45.0,0.0,30.0,0.0,0.0,0.0,0.0,2.0,0.0,0.0,0.0,0.0,0.0,2.558228124120134e-10,1.5123270466843428e-10,8.343063783877342e-11,5.2806617885892595e-11,3.039257384634001e-11,1.636623041551785e-11,1.0534477878506036e-11,6.200466228171819e-12,3.543889528266092e-12,2.402390376304929e-12,1.4104072487431516e-12,9.58411663397664e-13,7.092675636304766e-13,3.71763039183078e-13,2.346371336689451e-13,1.5993632156022344e-13,1.0775950680050404e-13,7.4336611965511045e-09,5.649564636890309e-09,4.9444634524279934e-09,3.835704324500187e-09,2.5112593993221653e-09,1.9183045450644053e-09,1.2856018580021458e-09,8.985305994617991e-10,5.824746348439155e-10,4.003073034738732e-10,2.7629135979509453e-10,1.7079461144954396e-10,1.177170642995191e-10,7.321453611014541e-11,4.192526999287119e-11,2.448786609912513e-11,1.3366414689683372e-11,7.510452846926504e-12,4.310481372034022e-12,2.5687680888091905e-12,1.5185579459321596e-12
0.0,46,46.0,0.0,30.0,0.0,0.0,0.0,0.0,2.0,0.0,0.0,0.0,0.0,0.0,2.5315025825863465e-10,1.626541718307768e-10,8.51061744436116e-11,5.214044356199629e-11,3.0595754941883804e-11,1.9839732165262828e-11,1.0244301240936877e-11,5.68240877310617e-12,3.864275107370167e-12,2.235150748797635e-12,1.5045088543767055e-12,9.026055715413467e-13,5.77989926445945e-13,3.5560757858288663e-13,3.4482056250478977e-13,2.4975342696602074e-13,3.2483647666317914e-13,6.916582296045819e-09,5.692749579723194e-09,4.9612478093775325e-09,3.7889270379221696e-09,2.5739011969957164e-09,1.7643574141752863e-09,1.2634996277481081e-09,7.892820669040362e-10,6.135937092555016e-10,4.042134812683068e-10,2.5498390975608897e-10,1.7218765754629418e-10,1.0856577297376302e-10,6.907543268914739e-11,4.485826810996264e-11,2.453543982025123e-11,1.3830572300994208e-11,8.515724014105527e-12,4.290048639076287e-12,2.2875712750494447e-12,1.367582788054851e-12
0.0,47,47.0,0.0,30.0,0.0,0.0,0.0,0.0,2.0,0.0,0.0,0.0,0.0,0.0,2.4256602528463863e-10,1.6201898327386907e-10,9.228374199959706e-11,5.3579824270081675e-11,3.2254966308176983e-11,1.6837800498488854e-11,1.0820183627305985e-11,6.238544149592588e-12,3.560407996982252e-12,2.2451801731923955e-12,1.4028050684257413e-12,7.978917223368081e-13,7.720973371702727e-13,3.756749965017203e-13,1.8206905948091768e-13,2.7754401448661247e-13,1.0819668742304305e-13,6.84919752280495e-09,6.843942061941891e-09,4.7348215565999245e-09,3.845021363886177e-09,2.5234181511364384e-09,1.8451283353148805e-09,1.2914894203483044e-09,8.82679603219149e-10,6.085656814345115e-10,3.817760095348507e-10,2.8551300850838795e-10,1.674081757618763e-10,1.1447705921495563e-10,7.139577699588605e-11,4.101187845002798e-11,2.464567515453277e-11,1.361680520393099e-11,7.924929028334525e-12,4.593368099576532e-12,2.3318553881418117e-12,1.4638774071369294e-12
0.0,48,48.0,0.0,30.0,0.0,0.0,0.0,0.0,2.0,0.0,0.0,0.0,0.0,0.0,2.6060593982334173e-10,1.428613602911893e-10,8.4616113007552e-11,5.102479219364195e-11,3.066622953193919e-11,1.854451824734807e-11,1.0189633796162172e-11,6.088700460272979e-12,3.915637957277328e-12,2.174662358331479e-12,1.620597070253516e-12,8.838191036116077e-13,5.437095312696092e-13,4.51886645728999e-13,6.100481286154048e-14,1.646648140814815e-13,-6.462939231942434e-14,8.0120514571519e-09,6.992712781123627e-09,5.089182673915445e-09,3.8337411695849204e-09,2.437176072947957e-09,1.7855533037146124e-09,1.3503070266162106e-09,9.230851361542037e-10,6.17210478989282e-10,4.163458363131609e-10,2.623065394275898e-10,1.7870434384880342e-10,1.1740880168546814e-10,6.265971401993659e-11,4.793692380154853e-11,2.6077874778922898e-11,1.4337311011066909e-11,7.881184193369299e-12,4.655430266779479e-12,2.2626769484962455e-12,1.4407011352795935e-12
0.0,49,49.0,0.0,30.0,0.0,0.0,0.0,0.0,2.0,0.0,0.0,0.0,0.0,0.0,2.5003289195050405e-10,1.558974556623793e-10,8.41776175284805e-11,5.4153070947763794e-11,3.2084176956781346e-11,1.8859580325804914e-11,1.112832854953194e-11,6.6259989382825064e-12,3.53559842506431e-12,2.349039230299475e-12,1.4980512760018862e-12,8.290125598852229e-13,4.571146446277455e-13,4.632603150399607e-13,2.965680311043413e-13,8.712641120710553e-14,1.0891829492672223e-13,7.384102746381621e-09,6.2839688095342055e-09,5.281880497739149e-09,3.6928577276356713e-09,2.701778838345949e-09,1.9534447788074785e-09,1.4199414190929351e-09,9.171259565974142e-10,6.094641154494462e-10,3.9482844937318455e-10,2.812889120071055e-10,1.7062315466576022e-10,1.1318949039702653e-10,6.632795082867478e-11,4.14788575209849e-11,2.6533602952227593e-11,1.5288812853839502e-11,8.575376339006617e-12,4.363185921418303e-12,2.4691218211412256e-12,1.2194948403736556e-12
0.0,50,50.0,0.0,30.0,0.0,0.0,0.0,0.0,2.0,0.0,0.0,0.0,0.0,0.0,2.644079913527491e-10,1.575383867899421e-10,8.82222681257823e-11,5.070744678738794e-11,3.2358199767683914e-11,1.786495359475963e-11,1.0672626014450229e-11,6.107516525851057e-12,3.871828069231501e-12,2.2700174197606216e-12,1.3430911687415244e-12,9.37808181479544e-13,5.022587151384683e-13,5.757279678180382e-13,1.2256642073481713e-13,2.461798701937436e-13,-1.453320815710038e-14,7.694258308668246e-09,5.7182479332875634e-09,5.124795707420525e-09,3.505858869419021e-09,2.6357872801083478e-09,1.9130235865593345e-09,1.2522719266482954e-09,9.477060527978404e-10,6.565088578385886e-10,4.3053046398874287e-10,2.761905141682811e-10,1.808505479323661e-10,1.2107518868831133e-10,7.127260518581124e-11,4.316273743218372e-11,2.5100614274140145e-11,1.5244054081851042e-11,8.179078332810869e-12,4.152251700766665e-12,2.3308717094369186e-12,1.3797077787047086e-12
0.0,51,51.0,0.0,30.0,0.0,0.0,0.0,0.0,2.0,0.0,0.0,0.0,0.0,0.0,2.602455706278684e-10,1.533340417840679e-10,8.627070606410054e-11,5.315774974884867e-11,3.139542288064079e-11,1.790354874863078e-11,1.0838154191034877e-11,6.065555252842704e-12,3.851430856550345e-12,2.3423806857021972e-12,1.1905023324620617e-12,8.606195275429436e-13,5.823982772855128e-13,5.223839777008375e-13,2.849906715600327e-13,8.659511031599298e-14,9.116152804294437e-14,6.980450521804927e-09,6.1152290363900945e-09,4.956699234853544e-09,3.7181824424277654e-09,2.6372001565006615e-09,1.977966094079435e-09,1.3191397988147482e-09,9.081371485176105e-10,6.068638771017671e-10,3.8354453357134073e-10,2.553135119154319e-10,1.64227276586095e-10,1.1587320037191195e-10,6.777098629696418e-11,4.321785030444154e-11,2.422647961479368e-11,1.5344508136123284e-11,8.185126097518685e-12,4.231652258395571e-12,2.5168396905482634e-12,1.348537696939991e-12
0.0,52,52.0,0.0,30.0,0.0,0.0,0.0,0.0,2.0,0.0,0.0,0.0,0.0,0.0,2.741636291491978e-10,1.7431544798963368e-10,8.659550851087027e-11,5.607683964737988e-11,3.2443134059202e-11,1.9677891151477877e-11,1.1183907321351495e-11,5.998938647122617e-12,4.323908848303038e-12,2.3435180486930633e-12,1.5175825703386779e-12,7.948489720126576e-13,4.963686613609708e-13,4.722102263835892e-13,3.9878640896934794e-13,7.503433852435126e-14,1.3862579643293286e-14,7.531018233433377e-09,6.440027876950179e-09,4.886031506097121e-09,3.7227049508792685e-09,2.5247185209043024e-09,1.8963598188686277e-09,1.3187692014181806e-09,8.844283498260442e-10,6.001631877682614e-10,4.1264317205059795e-10,2.750230358298272e-10,1.710167585074813e-10,1.1124263430220111e-10,7.2008513935106e-11,4.8468310647453144e-11,2.4051621010058764e-11,1.4495353698455009e-11,8.13867845625539e-12,4.657232043621048e-12,2.5514254603174625e-12,1.1869536443356655e-12
0.0,53,53.0,0.0,30.0,0.0,0.0,0.0,0.0,2.0,0.0,0.0,0.0,0.0,0.0,2.6069145154116637e-10,1.5507558865496113e-10,9.50282086874192e-11,5.6391450920412426e-11,3.319929754180757e-11,1.8997135134581267e-11,1.1082091806959023e-11,6.1904191581060886e-12,3.827212780348496e-12,2.401462900223166e-12,1.2788362651418843e-12,1.074145261431944e-12,5.271780949336661e-13,3.1347660966294095e-13,2.4122597093118305e-13,4.526394299895515e-14,2.1844403670099259e-13,8.0455000389789e-09,6.698799588521973e-09,5.40618972721801e-09,3.587012420163855e-09,3.0057103262661915e-09,1.8196424882311835e-09,1.3373817259772257e-09,9.304631405265849e-10,5.800087591392291e-10,3.9303870987622996e-10,2.6014078536101995e-10,1.882290786067839e-10,1.1100581334388254e-10,7.404630325173558e-11,3.94795618130811e-11,2.5194869250870043e-11,1.5271388839549757e-11,8.576157028289056e-12,4.731266177725073e-12,2.671782330348673e-12,1.2248204952178273e-12
0.0,54,54.0,0.0,30.0,0.0,0.0,0.0,0.0,2.0,0.0,0.0,0.0,0.0,0.0,2.7575265459769667e-10,1.564574027765004e-10,8.725630830041427e-11,5.899846065651192e-11,3.390945036909317e-11,1.998886113591495e-11,1.1115269681154694e-11,6.207137255126163e-12,4.036017772441614e-12,2.2926546741599216e-12,1.573136796434111e-12,8.583373380398211e-13,5.384696184429283e-13,5.3965455054548596e-14,3.756265476209241e-13,1.5303158567849918e-13,1.244576846807586e-14,7.894841684313082e-09,6.804167275546358e-09,5.021504631572112e-09,3.2019345320934238e-09,2.849178067847667e-09,1.9569234723636056e-09,1.3228881857703637e-09,9.454063054518872e-10,6.335090805838434e-10,4.1596710800319713e-10,2.6009054089458927e-10,1.7096313837264477e-10,1.1333430037579773e-10,7.404543383653935e-11,4.2770338082045556e-11,2.414019567968139e-11,1.3489693834769889e-11,7.949372089017883e-12,4.552377595491261e-12,2.6339428603029845e-12,1.6178783559257026e-12
0.0,55,55.0,0.0,30.0,0.0,0.0,0.0,0.0,2.0,0.0,0.0,0.0,0.0,0.0,2.535812697554548e-10,1.6515628061140153e-10,8.998525526656064e-11,5.3072563490815885e-11,3.19162055414158e-11,1.9089469138080936e-11,1.1333900221830735e-11,6.366240144736087e-12,3.643847809816675e-12,2.4593958592336708e-12,1.3039952623388438e-12,6.72481554662922e-13,5.916979340932124e-13,3.250429697130021e-13,1.9825134208397874e-13,1.817382524601907e-13,8.786712676929333e-14,7.169618478210908e-09,7.016190183283651e-09,5.185142415794309e-09,3.989220413346566e-09,2.6531491449133817e-09,1.7606923053011542e-09,1.4133300168240216e-09,1.0091560924943547e-09,5.727071816480872e-10,4.063025139049259e-10,2.642660294640105e-10,1.9139450073497948e-10,1.2342082124874404e-10,8.17319953786837e-11,4.494288715529972e-11,2.71495108539845e-11,1.3866246987417415e-11,8.191507607779731e-12,4.093269874754841e-12,2.0778227370804786e-12,1.3718334610346942e-12
0.0,56,56.0,0.0,30.0,0.0,0.0,0.0,0.0,2.0,0.0,0.0,0.0,0.0,0.0,2.702773118025659e-10,1.6232593882626075e-10,9.362722885886028e-11,5.981135911687072e-11,3.254367092233354e-11,1.6510418685750504e-11,9.979013530003834e-12,6.282156005806026e-12,4.012901258561434e-12,2.299093584158556e-12,1.1795318585238902e-12,1.0260923598218255e-12,6.191949012048485e-13,3.68603133246605e-13,2.290831125526022e-13,1.734160902533591e-13,8.447197573949208e-14,7.4224326853260434e-09,6.883818574695654e-09,5.112091205103946e-09,4.197876014324398e-09,2.6814695688108714e-09,2.024765468678883e-09,1.3603599731435964e-09,9.465391169154844e-10,5.674681286325956e-10,3.981592884369587e-10,2.782564908987784e-10,1.7107643557591947e-10,1.2804675767108514e-10,6.898158738265556e-11,4.092995282538336e-11,2.739923776945493e-11,1.568556043601637e-11,8.861098630401143e-12,4.6789322565411724e-12,2.685789916104944e-12,1.3523813056191808e-12
0.0,57,57.0,0.0,30.0,0.0,0.0,0.0,0.0,2.0,0.0,0.0,0.0,0.0,0.0,2.5414364061925217e-10,1.7089885234408145e-10,9.059358651112743e-11,5.982959465071605e-11,3.3490439732802413e-11,1.943993406509262e-11,1.2235646334497734e-11,5.784484223928356e-12,3.828410647108842e-12,2.105428415400945e-12,1.5395810450076429e-12,8.63651607010749e-13,5.638267808393741e-13,4.279094307306256e-13,1.9262605159259978e-13,7.087069980862514e-14,3.857805792983096e-14,7.789789714463946e-09,6.485409555655381e-09,5.248895695677249e-09,3.691607825786945e-09,2.5128117115800784e-09,1.909756624870474e-09,1.3530774052266936e-09,9.874699919097e-10,6.305314003739875e-10,4.310223477554171e-10,3.059420850265517e-10,1.8046908757633677e-10,1.2130355830963313e-10,6.883485900846711e-11,4.1294502154461124e-11,2.7538258297925556e-11,1.4646427618951682e-11,8.384512116127997e-12,4.598280237525082e-12,2.3178520812165473e-12,1.5446449304987605e-12
0.0,58,58.0,0.0,30.0,0.0,0.0,0.0,0.0,2.0,0.0,0.0,0.0,0.0,0.0,2.825430909587302e-10,1.5675750702169568e-10,9.773447958605539e-11,5.248667763577498e-11,3.167972379337377e-11,1.863694763715765e-11,1.0461362318222425e-11,6.4158716943010555e-12,3.741765356745522e-12,2.2045817738597413e-12,1.1442642502722449e-12,8.526889154466904e-13,4.1009414212418054e-13,3.873763178101684e-13,2.675425876440644e-13,8.214248477373007e-14,4.913939601597105e-13,7.281726371928417e-09,6.583299243611128e-09,5.473644247959868e-09,3.544154493321889e-09,2.442935005680912e-09,1.9072410174173086e-09,1.2192362156366685e-09,9.552007863897071e-10,6.260978514704645e-10,4.321027330502496e-10,2.9595961548703714e-10,1.9666772921959136e-10,1.1451337965194335e-10,7.134970473417555e-11,4.5726924212048786e-11,2.7378289767682572e-11,1.6047043874013654e-11,8.838921747189227e-12,4.7621659576676466e-12,2.295014297088058e-12,1.2339679869545304e-12
0.0,59,59.0,0.0,30.0,0.0,0.0,0.0,0.0,2.0,0.0,0.0,0.0,0.0,0.0,2.6619773722922597e-10,1.6616289474911175e-10,9.907511135362006e-11,5.240076690603803e-11,3.2600402729706213e-11,1.7334272306579205e-11,1.1108192597461793e-11,6.200873844267112e-12,3.8600085500678856e-12,1.879747369955406e-12,1.2541988130092793e-12,9.470159241787749e-13,6.06843745085472e-13,2.2051012203085204e-13,1.6479329149255414e-13,8.9270792161986e-14,2.1317988447463088e-13,8.339756881684583e-09,6.6894793337035685e-09,4.981832165704019e-09,3.5083382951974946e-09,2.8264742368177708e-09,1.9879587366907837e-09,1.330576736038428e-09,9.810167122522846e-10,6.05058158800099e-10,3.951264452643801e-10,3.0609479285077775e-10,1.7990378029651753e-10,1.267384414673081e-10,7.225656071319575e-11,4.324393878760746e-11,2.3361852574973435e-11,1.51562341969054e-11,8.782059534845422e-12,4.5139341632450174e-12,2.5660932424723142e-12,1.3155284319267584e-12
0.0,60,60.0,0.0,30.0,0.0,0.0,0.0,0.0,2.0,0.0,0.0,0.0,0.0,0.0,2.711523201121727e-10,1.4872499690055975e-10,9.440527885536115e-11,5.594573111123737e-11,3.319178632189284e-11,1.8580143456021267e-11,1.0401160604987048e-11,6.166921764505674e-12,3.65740116690222e-12,2.2603974973316015e-12,1.1649375729733916e-12,9.761209598137276e-13,6.007496272183631e-13,3.391566047880542e-13,2.632610746936326e-13,-2.1908397011470536e-13,-1.6097781028652543e-14,8.110019333033798e-09,6.693798900608055e-09,5.094012546806651e-09,4.201705451696177e-09,2.788535485818058e-09,1.832372581376453e-09,1.435137205440268e-09,9.278974438484985e-10,6.297492373301775e-10,4.3071143494556437e-10,2.5643715241078105e-10,1.7643821120933333e-10,1.1382668348380845e-10,7.993655103572658e-11,4.120498473560011e-11,2.7236863048328492e-11,1.5510806566149647e-11,8.681040553537413e-12,4.9534605645268834e-12,2.2691269176332065e-12,1.4322714365818923e-12
0.0,61,61.0,0.0,30.0,0.0,0.0,0.0,0.0,2.0,0.0,0.0,0.0,0.0,0.0,2.8233677424341464e-10,1.5258343468668283e-10,8.733815554503032e-11,5.954265945661449e-11,2.9372311101763695e-11,1.930876007522864e-11,1.1814779223251057e-11,6.237023605333223e-12,3.47262487886345e-12,2.293508463327179e-12,1.550483351993063e-12,8.301356565697076e-13,7.401265676143758e-13,4.904323937798735e-13,3.8616114434169626e-14,8.980211007163781e-14,1.5807289658299864e-13,7.596143153165689e-09,7.352984049821282e-09,5.678649476218699e-09,3.8254712354650205e-09,2.7043844545988594e-09,2.004577356786758e-09,1.3895054771048797e-09,9.876451603823071e-10,6.11565222911799e-10,3.980262348557574e-10,2.538735766440819e-10,1.7614769786093919e-10,1.131440208118882e-10,7.597023456810415e-11,3.948886901988879e-11,2.5610364110320047e-11,1.6045105636065344e-11,9.064922347670868e-12,4.456721008293807e-12,2.4989039085859433e-12,1.1985947660789851e-12
0.0,62,62.0,0.0,30.0,0.0,0.0,0.0,0.0,2.0,0.0,0.0,0.0,0.0,0.0,2.6964335070817367e-10,1.4784597589403658e-10,9.128660338332971e-11,5.861223602108764e-11,3.3853510310542945e-11,1.9326703154645593e-11,1.1826966636077579e-11,6.831440593494134e-12,3.810808318544592e-12,2.3190458388492373e-12,1.3959584293236227e-12,9.668368505603098e-13,4.711373530062138e-13,2.1162529274495e-13,2.4651890391863306e-13,7.635070603801796e-14,1.1549644316642474e-13,8.552891225444126e-09,6.239344714028161e-09,5.0483912260187666e-09,3.721643457930238e-09,2.9917811048550776e-09,1.8229354690381862e-09,1.4438874555823633e-09,9.229375551348684e-10,6.331587771129806e-10,4.5878539511937605e-10,2.803547906381498e-10,1.9198102130213305e-10,1.1116655222114097e-10,7.870491929083872e-11,4.752446553286588e-11,2.8170758055132838e-11,1.573306757729155e-11,8.704382154313006e-12,4.895132203332543e-12,2.4868726343887025e-12,1.5002210771933672e-12
0.0,63,63.0,0.0,30.0,0.0,0.0,0.0,0.0,2.0,0.0,0.0,0.0,0.0,0.0,2.5144470837583046e-10,1.5042981126867237e-10,9.346187386809407e-11,6.319115686391856e-11,3.6081704896386266e-11,1.9801214539587422e-11,1.1391907086026497e-11,6.243057593886579e-12,3.82278441627038e-12,2.0401235068653737e-12,1.434059563230659e-12,6.397312827959306e-13,6.631617512997122e-13,2.2347151473552752e-13,2.876739046291727e-13,2.8569288824506955e-14,-2.1565059133669e-14,8.446534366178161e-09,6.348948670909811e-09,5.310324918941976e-09,3.559405937081588e-09,2.842846337341614e-09,1.9051802619551036e-09,1.4314049595576466e-09,8.721055005507165e-10,6.576254435801005e-10,4.31183055877927e-10,2.972944815540245e-10,1.8140140029080141e-10,1.1211609408506651e-10,7.241249281910207e-11,4.4121962614014515e-11,2.7879519272793295e-11,1.4950579270004517e-11,9.406652449494676e-12,4.546337400769635e-12,2.8077441918931905e-12,1.38455419126438e-12
