Line_number,Fiducial,Easting,Northing,Height,Elevation,tx_pitch,tx_roll,tx_yaw,txrx_dx,txrx_dy,txrx_dz,rx_pitch,rx_roll,rx_yaw,S0Z_time_1.431e-04,S0Z_time_1.801e-04,S0Z_time_2.266e-04,S0Z_time_2.846e-04,S0Z_time_3.581e-04,S0Z_time_4.506e-04,S0Z_time_5.671e-04,S0Z_time_7.136e-04,S0Z_time_8.981e-04,S0Z_time_1.131e-03,S0Z_time_1.423e-03,S0Z_time_1.791e-03,S0Z_time_2.255e-03,S0Z_time_2.838e-03,S0Z_time_3.573e-03,S0Z_time_4.498e-03,S0Z_time_5.662e-03,S1Z_time_1.409e-05,S1Z_time_1.610e-05,S1Z_time_1.909e-05,S1Z_time_2.360e-05,S1Z_time_2.960e-05,S1Z_time_3.709e-05,S1Z_time_4.609e-05,S1Z_time_5.759e-05,S1Z_time_7.209e-05,S1Z_time_9.060e-05,S1Z_time_1.141e-04,S1Z_time_1.431e-04,S1Z_time_1.801e-04,S1Z_time_2.266e-04,S1Z_time_2.846e-04,S1Z_time_3.581e-04,S1Z_time_4.506e-04,S1Z_time_5.671e-04,S1Z_time_7.136e-04,S1Z_time_8.981e-04,S1Z_time_1.131e-03
0.0,0,0.0,0.0,30.0,0.0,0.0,0.0,0.0,-13.0,0.0,2.0,0.0,0.0,0.0,5.4961646119037045e-11,3.3754629430153186e-11,2.2474234306348174e-11,1.6094048988479026e-11,1.2043431583276678e-11,9.209915665712725e-12,7.12089114625814e-12,5.501157516955638e-12,4.2230645944242705e-12,3.2121164047170627e-12,2.421079493456801e-12,1.795675849256863e-12,1.3080768012783684e-12,9.347283747134985e-13,6.519350990459248e-13,4.4438052848657797e-13,2.9458091044090937e-13,4.231390948713285e-09,3.100617514114056e-09,2.084673260031196e-09,1.2651972033734556e-09,7.64831372029289e-10,4.739159225057428e-10,3.1025359111815034e-10,2.0366156196905086e-10,1.3252876759726638e-10,8.435152527276104e-11,5.314791457291292e-11,3.403786403014798e-11,2.2435883050041762e-11,1.531519191524484e-11,1.086587810383618e-11,7.826746537390596e-12,5.666515647229555e-12,4.081687420074852e-12,2.9058308945104806e-12,2.0462143497511448e-12,1.4126149247695934e-12
0.0,1,1.0,0.0,30.0,0.0,0.0,0.0,0.0,-13.0,0.0,2.0,0.0,0.0,0.0,6.178791469617113e-11,3.7122691384400885e-11,2.3607203208984733e-11,1.6121577215248365e-11,1.1648405439614302e-11,8.720349019354182e-12,6.660744739303712e-12,5.111380755833347e-12,3.908353991973446e-12,2.96701478157786e-12,2.235671075394402e-12,1.6588498208095711e-12,1.210021640519414e-12,8.662028657730821e-13,6.054796289853112e-13,4.1380549188294875e-13,2.750917869161124e-13,4.213625189434281e-09,3.0854747697929485e-09,2.073883178321243e-09,1.259924659674028e-09,7.649474217965898e-10,4.792139045499214e-10,3.1991074881347757e-10,2.1617584236202618e-10,1.454453263450156e-10,9.530476077703595e-11,6.087776600546866e-11,3.8628939740808334e-11,2.4653924517865244e-11,1.6094418276123765e-11,1.094702934468966e-11,7.632662253714675e-12,5.40609402228152e-12,3.843836993700061e-12,2.710078443065026e-12,1.8985307553348804e-12,1.3045882321849994e-12
0.0,2,2.0,0.0,30.0,0.0,0.0,0.0,0.0,-13.0,0.0,2.0,0.0,0.0,0.0,6.848756003975355e-11,4.111207148614196e-11,2.5411958293745964e-11,1.6618134719919962e-11,1.1526000102930182e-11,8.383899599209463e-12,6.293802495961795e-12,4.783285504329913e-12,3.6365284322129882e-12,2.752488205167158e-12,2.071730313229481e-12,1.5369901447615084e-12,1.122146363748504e-12,8.044110150338174e-13,5.63366307048776e-13,3.859304979079896e-13,2.5723240012866887e-13,4.1953223125417876e-09,3.0700099961932956e-09,2.0629871432852473e-09,1.2544554360125037e-09,7.639633374505508e-10,4.818334426806441e-10,3.2558608119880305e-10,2.2445245896727556e-10,1.5509797089567206e-10,1.0459678241877379e-10,6.835409426392893e-11,4.372717105213913e-11,2.7560070700063624e-11,1.7432172779989395e-11,1.1385264142260629e-11,7.637487527296683e-12,5.253468281141221e-12,3.666149325511735e-12,2.5536109677561853e-12,1.7738737476201672e-12,1.2118786765497468e-12
0.0,3,3.0,0.0,30.0,0.0,0.0,0.0,0.0,-13.0,0.0,2.0,0.0,0.0,0.0,7.451430774901117e-11,4.52710234164076e-11,2.767432399579265e-11,1.7526828126144298e-11,1.16752785331931e-11,8.204988747306245e-12,6.018654803360998e-12,4.512290986757595e-12,3.40315857514874e-12,2.5649588790414233e-12,1.9266633258780047e-12,1.4283345309592994e-12,1.0432692728702658e-12,7.486126971791985e-13,5.2513874422204e-13,3.6048590650254704e-13,2.408497385645533e-13,4.176507414522003e-09,3.054231289801675e-09,2.0519918102833007e-09,1.2490225335366136e-09,7.627696709721125e-10,4.834311753079789e-10,3.2918490572718624e-10,2.2991595867234318e-10,1.62010647728594e-10,1.1197397951872663e-10,7.499035811950098e-11,4.880226338368645e-11,3.084214348332451e-11,1.9207905077511418e-11,1.2158891649539286e-11,7.849734284310579e-12,5.215584595683036e-12,3.5490040883972024e-12,2.4336700423836837e-12,1.6699991520824652e-12,1.1327394220197233e-12
0.0,4,4.0,0.0,30.0,0.0,0.0,0.0,0.0,-13.0,0.0,2.0,0.0,0.0,0.0,7.962901135546654e-11,4.9259676609478495e-11,3.0167303017685456e-11,1.8751787766018898e-11,1.2073896373972299e-11,8.183753664470373e-12,5.835762534534119e-12,4.2960581463424544e-12,3.20506772825179e-12,2.4015314242032956e-12,1.7983253651242594e-12,1.3313814948164497e-12,9.723698119643189e-13,6.981628565687428e-13,4.903938902857415e-13,3.372325318318071e-13,2.2580659221875866e-13,4.157199851573425e-09,3.0381637872885755e-09,2.0409046915967496e-09,1.2436508908937852e-09,7.616268472682904e-10,4.84743612180981e-10,3.3184381080472357e-10,2.337213028274294e-10,1.6692574954422413e-10,1.1760708785793767e-10,8.05491548560178e-11,5.349165207672362e-11,3.4209958659822134e-11,2.1263001622329854e-11,1.3210180438791822e-11,8.261341789232391e-12,5.296764419274044e-12,3.495137779212571e-12,2.3488579693573105e-12,1.5859886313464217e-12,1.0658102156207224e-12
0.0,5,5.0,0.0,30.0,0.0,0.0,0.0,0.0,-13.0,0.0,2.0,0.0,0.0,0.0,8.380967876241776e-11,5.287100867635352e-11,3.269633868713077e-11,2.0182350897590302e-11,1.2681011279583391e-11,8.312085645699e-12,5.744763476122131e-12,4.13365409330915e-12,3.040187240281109e-12,2.2599493455662113e-12,1.6849512202839999e-12,1.2448503060625225e-12,9.085704077367864e-13,6.52498318589801e-13,4.587752938939255e-13,3.1595804798096015e-13,2.1197990753790806e-13,4.137408310843251e-09,3.021828614538626e-09,2.0297456166870385e-09,1.2383431229464462e-09,7.605885351611067e-10,4.860467482750436e-10,3.3415017147880497e-10,2.366483165572381e-10,1.7052532162344606e-10,1.2184695803803722e-10,8.503360667737548e-11,5.760378052266247e-11,3.744255354403084e-11,2.343990866045091e-11,1.4460323004703145e-11,8.847132576840463e-12,5.494587408231103e-12,3.5070626494984116e-12,2.2990589037338528e-12,1.521642385981656e-12,1.0101972612740106e-12
0.0,6,6.0,0.0,30.0,0.0,0.0,0.0,0.0,-13.0,0.0,2.0,0.0,0.0,0.0,8.715829138695119e-11,5.6012014314210664e-11,3.5118693702710796e-11,2.1713395624935897e-11,1.3445359423088828e-11,8.573439288071987e-12,5.7425347933759075e-12,4.0244513504213365e-12,2.9072713781018013e-12,2.1385494162651994e-12,1.5851083987913328e-12,1.1676500604919052e-12,8.511182271521089e-13,6.111268474352334e-13,4.2996784804017513e-13,2.964736895239091e-13,1.992592885342139e-13,4.117137212348877e-09,3.0052402370118366e-09,2.018534904101374e-09,1.2331097347426205e-09,7.596605439282866e-10,4.874239571162526e-10,3.363700856997319e-10,2.3916113595734743e-10,1.7332942558788086e-10,1.2507085264729684e-10,8.857895987393817e-11,6.108050800991105e-11,4.0398740722356286e-11,2.5606460452679774e-11,1.5825923113816764e-11,9.56994754612437e-12,5.798858860029849e-12,3.5849195494951405e-12,2.2847087291669477e-12,1.4771028666753156e-12,9.654080318650408e-13
0.0,7,7.0,0.0,30.0,0.0,0.0,0.0,0.0,-13.0,0.0,2.0,0.0,0.0,0.0,8.982984225145749e-11,5.867171426647831e-11,3.7344731149128995e-11,2.325732398715039e-11,1.4313617480477207e-11,8.945135606265385e-12,5.822518247973602e-12,3.967175325291745e-12,2.8054973480898984e-12,2.0361680450754084e-12,1.4976638355860952e-12,1.0988589370598208e-12,7.993677273030556e-13,5.736176934603686e-13,4.036934888659501e-13,2.7861139443607327e-13,1.8754558460554357e-13,4.096391549654734e-09,2.988410481576064e-09,2.0072896501829532e-09,1.2279656539475399e-09,7.588459042248969e-10,4.888931920840423e-10,3.3860799828209855e-10,2.4150825142327564e-10,1.7569013609043304e-10,1.2760565857494998e-10,9.137205189257381e-11,6.39513019389271e-11,4.300761665924377e-11,2.7665559673972845e-11,1.723103611468166e-11,1.0387427272506729e-11,6.193029237848277e-12,3.725486557249627e-12,2.3058842081216998e-12,1.4525928890493234e-12,9.312249325819272e-13
0.0,8,8.0,0.0,30.0,0.0,0.0,0.0,0.0,-13.0,0.0,2.0,0.0,0.0,0.0,9.198688980368967e-11,6.088992762276165e-11,3.93299649363315e-11,2.47486490513483e-11,1.5236608682686736e-11,9.401506500596467e-12,5.975110572683605e-12,3.9593500598661335e-12,2.7340611966833632e-12,1.9519959922575845e-12,1.4217471439033294e-12,1.0377101354900407e-12,7.527660385371909e-13,5.395934409819989e-13,3.797072707185643e-13,2.622214040780009e-13,1.7674959048316056e-13,4.075178660625562e-09,2.9713518438123307e-09,1.9960250701732657e-09,1.2229259183413695e-09,7.581518590812602e-10,4.9045698823777e-10,3.4089822396672525e-10,2.4380991722079093e-10,1.778249077018707e-10,1.2970187636597898e-10,9.360114595128441e-11,6.629363921886761e-11,4.525159639716273e-11,2.955518119582636e-11,1.8613695878429733e-11,1.1257835921443505e-11,6.6567339971194844e-12,3.922293496518304e-12,2.3616408051367085e-12,1.448164712549824e-12,9.075731796068802e-13
0.0,9,9.0,0.0,30.0,0.0,0.0,0.0,0.0,-13.0,0.0,2.0,0.0,0.0,0.0,9.377495644404148e-11,6.273226577390112e-11,4.1063924097930154e-11,2.6143720452033207e-11,1.617288287913612e-11,9.916754973684107e-12,6.188638975515378e-12,3.997169516335717e-12,2.6918695194835758e-12,1.8854101162487424e-12,1.3567008767629814e-12,9.835787238817687e-13,7.10841854214337e-13,5.08723313866144e-13,3.577935774751687e-13,2.471702196714941e-13,1.6679090902223429e-13,4.053508404585451e-09,2.9540788584774546e-09,1.9847564791011518e-09,1.2180046272278403e-09,7.575881717391195e-10,4.921177839089181e-10,3.4324992246714583e-10,2.4611859997379305e-10,1.7985785992420957e-10,1.315355454723934e-10,9.543002761843481e-11,6.820392491069924e-11,4.714889181302137e-11,3.124340959202008e-11,1.9928095354103045e-11,1.2143985839424806e-11,7.168377519441672e-12,4.166421021423698e-12,2.4497540724548275e-12,1.4634737093290285e-12,8.944027100033179e-13
0.0,10,10.0,0.0,30.0,0.0,0.0,0.0,0.0,-13.0,0.0,2.0,0.0,0.0,0.0,9.531240178284991e-11,6.427248380065756e-11,4.255913686434628e-11,2.74178604201393e-11,1.709013970909096e-11,1.0467044602331092e-11,6.450483561577666e-12,4.075684257952742e-12,2.677371536421416e-12,1.83581810748986e-12,1.3020193841664853e-12,9.35964970584139e-13,6.731968630078095e-13,4.807179785036205e-13,3.3776254500021223e-13,2.3333880049591165e-13,1.5759699906425932e-13,4.031392883812914e-09,2.9366082761939117e-09,1.9735004083253255e-09,1.2132154593154745e-09,7.571652743888859e-10,4.938805333985055e-10,3.456659711419285e-10,2.4845502653724693e-10,1.8185495590636793e-10,1.3322220195067824e-10,9.698859991453229e-11,6.977869925384611e-11,4.873853038228466e-11,3.272164773962266e-11,2.1144008220921893e-11,1.3015322912000811e-11,7.707198080690528e-12,4.4475466845087114e-12,2.566806776457638e-12,1.4976334289304425e-12,8.915920829569241e-13
0.0,11,11.0,0.0,30.0,0.0,0.0,0.0,0.0,-13.0,0.0,2.0,0.0,0.0,0.0,9.668909833779545e-11,6.558142006879506e-11,4.384175440050257e-11,2.856146225841617e-11,1.796519094835182e-11,1.1031760844825051e-11,6.74807226120622e-12,4.189156274351997e-12,2.6885244586985215e-12,1.8025417346731802e-12,1.2572846312411572e-12,8.944728066901932e-13,6.394980997003816e-13,4.55325568251805e-13,3.19446877106811e-13,2.2062093915134577e-13,1.4910239101311952e-13,4.0088461581862e-09,2.918958794324734e-09,1.9622748928172425e-09,1.2085723415958942e-09,7.568935252821872e-10,4.957519170167626e-10,3.4814931758987513e-10,2.508271803013557e-10,1.838491499586778e-10,1.3483346979772677e-10,9.837318443355547e-11,7.11041822912219e-11,5.0068925809446824e-11,3.399776452994646e-11,2.2244738060370718e-11,1.384861430633576e-11,8.254655099844838e-12,4.7549393420488115e-12,2.708482019762833e-12,1.5491842212940476e-12,8.988786678860189e-13
0.0,12,12.0,0.0,30.0,0.0,0.0,0.0,0.0,-13.0,0.0,2.0,0.0,0.0,0.0,9.796966459376312e-11,6.67210733491073e-11,4.4944324664907154e-11,2.9575974896599864e-11,1.8783068185297003e-11,1.1594086435469271e-11,7.069629971768723e-12,4.331458442787398e-12,2.722856544849391e-12,1.7847483738241764e-12,1.2221083339012875e-12,8.587847782217445e-13,6.094699059183845e-13,4.3232843194028155e-13,3.026991724268017e-13,2.089218027327384e-13,1.4124803011608306e-13,3.985884040133675e-09,2.901150721173614e-09,1.951099317219528e-09,1.2040897867839574e-09,7.567831229651954e-10,4.977392889738819e-10,3.507042454184864e-10,2.532391002579433e-10,1.8585633480183943e-10,1.3641170155432986e-10,9.96515229076298e-11,7.225179939861995e-11,5.118997077922909e-11,3.5090060316338346e-11,2.3224459286349188e-11,1.4627716533727002e-11,8.795198726935029e-12,5.078254944552726e-12,2.869930522589723e-12,1.6161662135488751e-12,9.15816845237223e-13
0.0,13,13.0,0.0,30.0,0.0,0.0,0.0,0.0,-13.0,0.0,2.0,0.0,0.0,0.0,9.919845372665951e-11,6.774228514432548e-11,4.590069284065094e-11,3.047026860795711e-11,1.9535712853439572e-11,1.2141084282201298e-11,7.404666500963241e-12,4.496439309585531e-12,2.7775855104182024e-12,1.781427701289127e-12,1.1960870409605779e-12,8.286362243042941e-13,5.828849519717421e-13,4.11540091943638e-13,2.8738975327238487e-13,1.9815665354680854e-13,1.3398070597578655e-13,3.962523951330117e-09,2.8832057002983672e-09,1.9399941216756688e-09,1.1997829122384857e-09,7.568442011568892e-10,4.998500504483124e-10,3.533360294594075e-10,2.556943087597343e-10,1.878844830397683e-10,1.3798110121094696e-10,1.0086926104569822e-10,7.327753355687308e-11,5.214814202148044e-11,3.602240750846224e-11,2.408547710955162e-11,1.5342808972448444e-11,9.316561377464482e-12,5.408094280724412e-12,3.0461231853464003e-12,1.6962604795216636e-12,9.417635629371729e-13
0.0,14,14.0,0.0,30.0,0.0,0.0,0.0,0.0,-13.0,0.0,2.0,0.0,0.0,0.0,1.004046697819533e-10,6.868469452290161e-11,4.674274300760785e-11,3.125760990724063e-11,2.0220534629379853e-11,1.2663462580292325e-11,7.744239083017898e-12,4.678214639451993e-12,2.8497562982010922e-12,1.7914032097272581e-12,1.1787729178266109e-12,8.037914905860685e-13,5.59554488184011e-13,3.928020426112771e-13,2.7340488657675155e-13,1.8824975851776724e-13,1.2725253798719056e-13,3.938784818194439e-09,2.8651465130336615e-09,1.9289805203883567e-09,1.1956672867083609e-09,7.570868865738567e-10,5.020913860448898e-10,3.560503461243838e-10,2.5819675889664e-10,1.8993838191161138e-10,1.3955535538652524e-10,1.020561330358064e-10,7.422340294720576e-11,5.298393396698504e-11,3.682062728927588e-11,2.4835706098569874e-11,1.5989366420654513e-11,9.809715699814161e-12,5.736341473851476e-12,3.232143752411744e-12,1.7869559489135433e-12,9.75888371197106e-13
0.0,15,15.0,0.0,30.0,0.0,0.0,0.0,0.0,-13.0,0.0,2.0,0.0,0.0,0.0,1.0160681439167136e-10,6.957793817996693e-11,4.749859286600154e-11,3.195331206760577e-11,2.0839013764414114e-11,1.3155156855865614e-11,8.081041758273544e-12,4.871375706564558e-12,2.936373398834417e-12,1.8133660801733062e-12,1.1696596693325194e-12,7.840242511244554e-13,5.39318427299532e-13,3.759802295900496e-13,2.6064524557302896e-13,1.791334770289548e-13,1.2102050021158576e-13,3.914686996768242e-09,2.8469969454678766e-09,1.9180802853935175e-09,1.1917587291608742e-09,7.575212777975148e-10,5.044701867904479e-10,3.58852842782045e-10,2.607508243157109e-10,1.9202180238633827e-10,1.4114245300629557e-10,1.032310594724581e-10,7.511986532520465e-11,5.3730936079329945e-11,3.7509999320995903e-11,2.5486520248002608e-11,1.6567052657456662e-11,1.0268619361734318e-11,6.056324990356183e-12,3.4234074876375515e-12,1.885707649446447e-12,1.0172031314117523e-12
0.0,16,16.0,0.0,30.0,0.0,0.0,0.0,0.0,-13.0,0.0,2.0,0.0,0.0,0.0,1.028161895544096e-10,7.044338001405945e-11,4.819184475794071e-11,3.257303213839463e-11,2.139544775162628e-11,1.3612824745152215e-11,8.409372300793012e-12,5.071120462646503e-12,3.0345137819231482e-12,1.8459201017490434e-12,1.1681809553012514e-12,7.691029958209771e-13,5.220359811516837e-13,3.609612406784892e-13,2.490244736910281e-13,1.7074749735350442e-13,1.1524597958490289e-13,3.890252224995814e-09,2.8287817028775653e-09,1.9073155989933156e-09,1.1880731283098925e-09,7.581573724766513e-10,5.069930384775232e-10,3.617489052020445e-10,2.633610344536427e-10,1.9413832105772081e-10,1.427475040456443e-10,1.0440597125691378e-10,7.598839582999041e-11,5.441596020031886e-11,3.811371945298155e-11,2.6051032914710905e-11,1.707865065457874e-11,1.0689837704490604e-11,6.3628462043940435e-12,3.6158091666095896e-12,1.990065563212125e-12,1.0646052653691952e-12
0.0,17,17.0,0.0,30.0,0.0,0.0,0.0,0.0,-13.0,0.0,2.0,0.0,0.0,0.0,1.0403946970870404e-10,7.129592089628682e-11,4.884154052423168e-11,3.313163264793144e-11,2.189589234975878e-11,1.4035318501591324e-11,8.725018749101858e-12,5.273320749195901e-12,3.1414148023836376e-12,1.8876290006559857e-12,1.1737177889351348e-12,7.587818104442623e-13,5.075774698580155e-13,3.4764836465002917e-13,2.3846775667380593e-13,1.6303818058762434e-13,1.0989436657714983e-13,3.865503601749887e-09,2.810526358643209e-09,1.8967089611701476e-09,1.1846263078493517e-09,7.590049798003128e-10,5.096662202564011e-10,3.647435624755582e-10,2.6603182633666666e-10,1.9629151657244706e-10,1.443742597420409e-10,1.0558847898107541e-10,7.684382733023208e-11,5.50597541594594e-11,3.865209250722167e-11,2.654280408351409e-11,1.752909867135464e-11,1.1072109871324495e-11,6.652115274141063e-12,3.805811055791512e-12,2.0977663668998304e-12,1.1169279278804925e-12
0.0,18,18.0,0.0,30.0,0.0,0.0,0.0,0.0,-13.0,0.0,2.0,0.0,0.0,0.0,1.052804869119541e-10,7.214564152550635e-11,4.9462536256415915e-11,3.3642502541894624e-11,2.234731316909098e-11,1.4423177668662222e-11,9.025097825622104e-12,5.474540229191728e-12,3.2545367936225447e-12,1.937060479672399e-12,1.185611438575093e-12,7.527959079670369e-13,4.958177027015289e-13,3.359577274539065e-13,2.2891036192623633e-13,1.5595797012371406e-13,1.0493467845462467e-13,3.840465590966687e-09,2.7922573288982706e-09,1.886283136229344e-09,1.1814339383271363e-09,7.600736435582883e-10,5.124956983598435e-10,3.678414662661327e-10,2.687673846702754e-10,1.9848492626586395e-10,1.46025856033322e-10,1.0678362573993795e-10,7.769627721509722e-11,5.5677971194887107e-11,3.9142254081352446e-11,2.6974934939878274e-11,1.792466884668703e-11,1.1415904314132714e-11,6.92162643255529e-12,3.990483120330618e-12,2.206789565032331e-12,1.1729908870289468e-12
0.0,19,19.0,0.0,30.0,0.0,0.0,0.0,0.0,-13.0,0.0,2.0,0.0,0.0,0.0,1.0654141013262507e-10,7.299917006017123e-11,5.0066086482242514e-11,3.411722795783911e-11,2.27569416653034e-11,1.477816818386015e-11,9.30786902199949e-12,5.672016474382778e-12,3.371602947948255e-12,1.992823805044045e-12,1.2031788950809093e-12,7.508609966373093e-13,4.866310891239697e-13,3.2581470887720907e-13,2.2029614950765715e-13,1.4946483198846654e-13,1.0033921406528797e-13,3.815164048001618e-09,2.774001866956228e-09,1.8760611259997398e-09,1.1785114869090687e-09,7.613725872874369e-10,5.154871167362905e-10,3.7104690288148555e-10,2.715715648814486e-10,2.007219461728447e-10,1.4770512962464459e-10,1.0799497436919858e-10,7.855262802616409e-11,5.628218122362416e-11,3.9598242337961316e-11,2.7359489568625097e-11,1.8272301813948174e-11,1.1722994786702546e-11,7.169997531415453e-12,4.1675066533008945e-12,2.315384487602562e-12,1.2316470164775592e-12
0.0,20,20.0,0.0,30.0,0.0,0.0,0.0,0.0,-13.0,0.0,2.0,0.0,0.0,0.0,1.0782348864491854e-10,7.386075220394696e-11,5.066049414540148e-11,3.456551196855383e-11,2.3131815446596282e-11,1.510288251037362e-11,9.572541435140625e-12,5.8636184012950566e-12,3.490620269873689e-12,2.0535996603122275e-12,1.225728707702563e-12,7.526754457738721e-13,4.798884334175664e-13,3.171507990012747e-13,2.125760893406003e-13,1.435217030152104e-13,9.608323728893357e-14,3.78962626436442e-09,2.755788072982964e-09,1.8660661606139725e-09,1.1758741944401211e-09,7.629106833348495e-10,5.186457902754895e-10,3.743638167233419e-10,2.744478733098924e-10,2.030057474322602e-10,1.4941472158799137e-10,1.0922524435352609e-10,7.941760520566212e-11,5.688080109354078e-11,4.0031276730447484e-11,2.7707176273330714e-11,1.8579094804429213e-11,1.1996076748760652e-11,7.396792636624e-12,4.3351507113834546e-12,2.422076148966644e-12,1.2918208574567333e-12
0.0,21,21.0,0.0,30.0,0.0,0.0,0.0,0.0,-13.0,0.0,2.0,0.0,0.0,0.0,1.091274987249523e-10,7.473304827993752e-11,5.125173729271994e-11,3.4995257761744924e-11,2.347847525960818e-11,1.5400406910045904e-11,9.819085356744572e-12,6.0477879181185646e-12,3.6098855568499836e-12,2.1181622198888724e-12,1.2525757255785042e-12,7.579242591635786e-13,4.754552229612181e-13,3.0990099369468234e-13,2.0570683310810719e-13,1.3809593621451704e-13,9.214468503217772e-14,3.763881026469289e-09,2.7376449149756153e-09,1.8563217007057193e-09,1.1735370706425051e-09,7.646964426452165e-10,5.219767049295181e-10,3.7779583638383804e-10,2.7739948023770984e-10,2.0533922855235387e-10,1.511570902394905e-10,1.1047666276170941e-10,8.02945263948724e-11,5.7479885812608394e-11,4.045013765837283e-11,2.8027222651449738e-11,1.8851930171215024e-11,1.2238435536354731e-11,7.602341646205535e-12,4.492229028680109e-12,2.525657330528147e-12,1.352537375580059e-12
0.0,22,22.0,0.0,30.0,0.0,0.0,0.0,0.0,-13.0,0.0,2.0,0.0,0.0,0.0,1.1045399818339375e-10,7.561770241588948e-11,5.1844024233982494e-11,3.541274760175949e-11,2.3802788286351728e-11,1.5674055869218972e-11,1.0048056756818186e-11,6.223472606092537e-12,3.727980019504639e-12,2.1853940998157094e-12,1.2830539016893838e-12,7.662840137122996e-13,4.731911397137278e-13,3.0400176786863984e-13,1.9964938981138718e-13,1.3315874331260085e-13,8.850389530483156e-14,3.737958683986154e-09,2.7196022574088523e-09,1.8468514466887666e-09,1.1715149005547964e-09,7.667380203337091e-10,5.2548452649305e-10,3.813463010452966e-10,2.804292488402213e-10,2.0772500077282285e-10,1.529344960697673e-10,1.1175114479334839e-10,8.118580150377246e-11,5.808376482938795e-11,4.0861574322945915e-11,2.832738578059569e-11,1.909722517227868e-11,1.245367109493419e-11,7.787567034345356e-12,4.638043710076287e-12,2.625172616259838e-12,1.4129405430084158e-12
0.0,23,23.0,0.0,30.0,0.0,0.0,0.0,0.0,-13.0,0.0,2.0,0.0,0.0,0.0,1.1180346233760101e-10,7.651573359420542e-11,5.244025716985546e-11,3.582286744008788e-11,2.4109868063353184e-11,1.5927169477329407e-11,1.026043982104656e-11,6.39005460283936e-12,3.843755618657792e-12,2.2542951706273252e-12,1.3165267830878225e-12,7.774281086648438e-13,4.729504980265452e-13,2.993896140199955e-13,1.9436794545346587e-13,1.2868464194282947e-13,8.514335143177501e-14,3.7118912237478906e-09,2.7016908942378965e-09,1.83767935193201e-09,1.1698222573844488e-09,7.6904323216546e-10,5.291736177653861e-10,3.850182872966172e-10,2.8353977015625736e-10,2.1016539709820752e-10,1.5474898708461566e-10,1.1305037986871673e-10,8.209325416490343e-11,5.869553186445574e-11,4.127069523496764e-11,2.8614048896911042e-11,1.932078123794093e-11,1.2645479177394777e-11,7.95382467262793e-12,4.772320944403568e-12,2.719898294199167e-12,1.4723025345721324e-12
0.0,24,24.0,0.0,30.0,0.0,0.0,0.0,0.0,-13.0,0.0,2.0,0.0,0.0,0.0,1.131763505268887e-10,7.742779440706874e-11,5.304240216524621e-11,3.6229342492883015e-11,2.4404064205680115e-11,1.616296689233749e-11,1.0457510374776312e-11,6.547279543781397e-12,3.956315642943853e-12,2.323986304669221e-12,1.3523956298116166e-12,7.9103185834731e-13,4.745833236784404e-13,2.9600009610286755e-13,1.8982885415932093e-13,1.2465091912035788e-13,8.204743953757558e-14,3.6857123457839014e-09,2.6839425833834496e-09,1.8288296374055327e-09,1.1684735185247724e-09,7.716195778870667e-10,5.330480626427656e-10,3.888146369597545e-10,2.8673339908687124e-10,2.1266249562178e-10,1.566023944905224e-10,1.1437587003659374e-10,8.301832142213284e-11,5.931740875608989e-11,4.1681316353916413e-11,2.8892366710587333e-11,1.9527710900357713e-11,1.281748545439453e-11,8.102763086423793e-12,4.895143109101685e-12,2.809320492109283e-12,1.530025060586086e-12
0.0,25,25.0,0.0,30.0,0.0,0.0,0.0,0.0,-13.0,0.0,2.0,0.0,0.0,0.0,1.145731343402603e-10,7.835433574469669e-11,5.365177345835242e-11,3.663496170269784e-11,2.4688999172217842e-11,1.6384447614378025e-11,1.0640721216784404e-11,6.695188377709648e-12,4.064991556029161e-12,2.3937090828289585e-12,1.3901053000816303e-12,8.067771261920987e-13,4.779368244099793e-13,2.9376734557247897e-13,1.8599981374459734e-13,1.2103712379787298e-13,7.920221774644915e-14,3.6594575387159265e-09,2.666390080310717e-09,1.8203268059168532e-09,1.1674828825880918e-09,7.744742683504534e-10,5.371116952402407e-10,3.927379862320969e-10,2.9001228931143504e-10,2.1521815000690873e-10,1.5849633983848384e-10,1.1572894758668411e-10,8.396217425766693e-11,5.995100770492664e-11,4.2096256229142774e-11,2.9166431639148335e-11,1.972242223997168e-11,1.2973126770371782e-11,8.236203388408774e-12,5.006880860667294e-12,2.893112811572015e-12,1.5856346878523406e-12
0.0,26,26.0,0.0,30.0,0.0,0.0,0.0,0.0,-13.0,0.0,2.0,0.0,0.0,0.0,1.1599430636976797e-10,7.929570720871218e-11,5.426924481486483e-11,3.704177861110942e-11,2.496763377104705e-11,1.6594331852393052e-11,1.0811609013774757e-11,6.834054035920861e-12,4.16931772801765e-12,2.46282237508481e-12,1.4291481425123576e-12,8.243563299015308e-13,4.828570487378764e-13,2.92623915814949e-13,1.8284922569051013e-13,1.1782460022104486e-13,7.659519677386648e-14,3.6331641523239296e-09,2.6490671687660197e-09,1.8121956544601732e-09,1.1668643860336327e-09,7.776142542601456e-10,5.413681321555224e-10,3.96790796012131e-10,2.933784264469107e-10,2.1783402243841117e-10,1.604322512315872e-10,1.1711078604117521e-10,8.492578908928417e-11,6.059751554818797e-11,4.2517576823124625e-11,2.943944197890034e-11,1.990864338290649e-11,1.3115572598391071e-11,8.356040452453147e-12,5.108128063605098e-12,2.9711140539246083e-12,1.6387740055050154e-12
0.0,27,27.0,0.0,30.0,0.0,0.0,0.0,0.0,-13.0,0.0,2.0,0.0,0.0,0.0,1.1744038022312375e-10,8.025221528771146e-11,5.489540190207624e-11,3.7451283043785385e-11,2.5242347437269824e-11,1.6795031544646693e-11,1.0971721416524004e-11,6.964324252241972e-12,4.269005326755221e-12,2.5307965791857586e-12,1.4690661766213793e-12,8.434757456527796e-13,4.891905784471863e-13,2.9250091032428874e-13,1.8034572900656268e-13,1.1499607129146403e-13,7.421513255722777e-14,3.606871465518991e-09,2.632008687104497e-09,1.8044612835046285e-09,1.1666319184332308e-09,7.810462550715542e-10,5.458208062366517e-10,4.0097538293934163e-10,2.968336593535071e-10,2.2051161628924955e-10,1.6241138536339417e-10,1.185224110812739e-10,8.590999046875555e-11,6.125782060942159e-11,4.2946774122669925e-11,2.971386006818878e-11,2.0089472692071588e-11,1.3247679380894893e-11,8.464164621792846e-12,5.199641692563425e-12,3.043306299268984e-12,1.6891902821093986e-12
0.0,28,28.0,0.0,30.0,0.0,0.0,0.0,0.0,-13.0,0.0,2.0,0.0,0.0,0.0,1.1891188750299322e-10,8.122415489204892e-11,5.55306489203457e-11,3.786454259804587e-11,2.5515023190507956e-11,1.6988644344228485e-11,1.1122562401967141e-11,7.08657127314857e-12,4.363916367109203e-12,2.5972061754244327e-12,1.5094518448922058e-12,8.6385810675678e-13,4.967861451475132e-13,2.9332830591112293e-13,1.7845789006680523e-13,1.1253527794202824e-13,7.20518321921029e-14,3.5806207482620015e-09,2.615250548932135e-09,1.7971491022852139e-09,1.166799235718252e-09,7.847767870738536e-10,5.504730005488586e-10,4.0529395050615706e-10,3.00379729632937e-10,2.232523070538913e-10,1.6443485247890927e-10,1.1996471372169435e-10,8.691547787975188e-11,6.193259875375814e-11,4.3384925310929013e-11,2.99915538205107e-11,2.026744341977472e-11,1.3371970673833849e-11,8.5624023525278e-12,5.282288162471401e-12,3.1097934889222262e-12,1.7367229396723362e-12
0.0,29,29.0,0.0,30.0,0.0,0.0,0.0,0.0,-13.0,0.0,2.0,0.0,0.0,0.0,1.2040937449371584e-10,8.221182484956433e-11,5.617528099656185e-11,3.8282315729425113e-11,2.5787130431953292e-11,1.7176963902129513e-11,1.126555347179222e-11,7.201448745229723e-12,4.4540386852760655e-12,2.6617211429050852e-12,1.5499476005848091e-12,8.852445348465525e-13,5.054960995773135e-13,2.950354022057161e-13,1.7715402611349187e-13,1.1042667721481864e-13,7.009597469930539e-14,3.554455316185241e-09,2.5988297570167698e-09,1.7902848293599084e-09,1.1673799709589944e-09,7.888121900474889e-10,5.553278815697725e-10,4.0974861956945245e-10,3.040182993342688e-10,2.2605737088873767e-10,1.6650364205083962e-10,1.2143846590646064e-10,8.794284440272123e-11,6.262237140001246e-11,4.3832800119653685e-11,3.027391880009642e-11,2.044459446334775e-11,1.349063663838961e-11,8.652473632971327e-12,5.3569969248353924e-12,3.1707806678252215e-12,1.781290822254135e-12
0.0,30,30.0,0.0,30.0,0.0,0.0,0.0,0.0,-13.0,0.0,2.0,0.0,0.0,0.0,1.2193339965004804e-10,8.321553428671993e-11,5.682953176396538e-11,3.870513973512508e-11,2.60598013277779e-11,1.7361500912783433e-11,1.1402008194084222e-11,7.309655710504258e-12,4.539462409429992e-12,2.7240976864048387e-12,1.5902445671276291e-12,9.073958656045228e-13,5.151776928371791e-13,2.9755134055991203e-13,1.7640213832440979e-13,1.0865519870957891e-13,6.833894809496079e-14,3.5284205768473796e-09,2.5827844096233413e-09,1.7838944878822318e-09,1.1683876423924104e-09,7.931586521385334e-10,5.603885309374393e-10,4.1434145765611485e-10,3.0775097681413374e-10,2.2892801053212134e-10,1.686186476748385e-10,1.2294433778859538e-10,8.899259160584361e-11,6.332754483582949e-11,4.429094372876304e-11,3.056198054098195e-11,2.062254134038483e-11,1.3605547277320244e-11,8.735963737260839e-12,5.424721638228542e-12,3.2265540902004355e-12,1.8228799170355924e-12
0.0,31,31.0,0.0,30.0,0.0,0.0,0.0,0.0,-13.0,0.0,2.0,0.0,0.0,0.0,1.2348453214176826e-10,8.423560422948935e-11,5.749360350615073e-11,3.913339753571414e-11,2.633389848150943e-11,1.7543510512865927e-11,1.1533117606664981e-11,7.411907370113872e-12,4.620358330154754e-12,2.7841686415936614e-12,1.630080474357739e-12,9.300934418134196e-13,5.25694151598693e-13,3.008056475524075e-13,1.761699305675952e-13,1.0720605657948518e-13,6.677270394863926e-14,3.502564066701807e-09,2.567153698611097e-09,1.7780043952186024e-09,1.1698356585612917e-09,7.978222327780827e-10,5.656579753214326e-10,4.1907450657786567e-10,3.115793406515545e-10,2.3186537859001168e-10,1.707806902696574e-10,1.2448291571030995e-10,9.006514287441832e-11,6.404843741337566e-11,4.4759737745475957e-11,3.0856478355636785e-11,2.0802543520106e-11,1.3718274757545183e-11,8.814306809064636e-12,5.486408792527512e-12,3.2774624324584645e-12,1.861531922994636e-12
0.0,32,32.0,0.0,30.0,0.0,0.0,0.0,0.0,-13.0,0.0,2.0,0.0,0.0,0.0,1.250633513320638e-10,8.527236700651316e-11,5.8167685427156804e-11,3.956736718458756e-11,2.661007300113126e-11,1.7724022665741847e-11,1.1659944158366669e-11,7.50891208527668e-12,4.696958429917038e-12,2.841833857408215e-12,1.6692370478728856e-12,9.531394486989546e-13,5.369155454598983e-13,3.0472876960034637e-13,1.764248916274535e-13,1.060646123910773e-13,6.538963017648317e-14,3.4769354779883657e-09,2.5519778987978186e-09,1.7726411467144414e-09,1.1717373205672521e-09,8.028088836183543e-10,5.711392141844532e-10,4.239498080116161e-10,3.1550496150894196e-10,2.348705982681026e-10,1.7299053909405141e-10,1.2605471997615415e-10,9.116085611923922e-11,6.478529907649014e-11,4.5239444723471136e-11,3.1157932703605937e-11,2.0985565817297335e-11,1.3830121099220041e-11,8.888778869848786e-12,5.542973344462962e-12,3.3238993698399775e-12,1.8973338656417323e-12
0.0,33,33.0,0.0,30.0,0.0,0.0,0.0,0.0,-13.0,0.0,2.0,0.0,0.0,0.0,1.2667044694229543e-10,8.632616489904668e-11,5.88519641023446e-11,4.0007257727890995e-11,2.6888813014366874e-11,1.7903873076286342e-11,1.1783422102635961e-11,7.601353961640444e-12,4.7695387082188e-12,2.8970507951131867e-12,1.7075370019173486e-12,9.763568635898277e-13,5.487194552154371e-13,3.092525750692561e-13,1.7713442123906002e-13,1.0521628294449168e-13,6.418244230903944e-14,3.4515866748679483e-09,2.537298348245531e-09,1.7678315935754433e-09,1.1741058215700572e-09,8.081244675722108e-10,5.768352453560667e-10,4.289694268407116e-10,3.1952942185509163e-10,2.3794478166838406e-10,1.7524893038092167e-10,1.2766022171387966e-10,9.228003610980176e-11,6.553832611210088e-11,4.573024058702191e-11,3.1466698517324845e-11,2.1172332718137065e-11,1.3942148379611499e-11,8.960498052727364e-12,5.595280702121143e-12,3.366287752697134e-12,1.930408821383844e-12
0.0,34,34.0,0.0,30.0,0.0,0.0,0.0,0.0,-13.0,0.0,2.0,0.0,0.0,0.0,1.2830641965269653e-10,8.739734877452143e-11,5.954662897388607e-11,4.04532345647269e-11,2.7170483276821898e-11,1.808373294429508e-11,1.1904362539156057e-11,7.689880298862258e-12,4.838404336933277e-12,2.9498255319195347e-12,1.7448407638583722e-12,9.995890862945174e-13,5.609914571446518e-13,3.1431080848992095e-13,1.782659832645673e-13,1.0464648650517992e-13,6.314409295993307e-14,3.4265716982030963e-09,2.523157419249137e-09,1.763602814975603e-09,1.176954243782689e-09,8.13774776134032e-10,5.827490884570997e-10,4.341354721767431e-10,3.236543335119782e-10,2.4108904578335635e-10,1.775565835731664e-10,1.2929985834376542e-10,9.342294634465735e-11,6.63076729251944e-11,4.623223832442899e-11,3.1783006888130016e-11,2.1363375324653777e-11,1.4055209360521968e-11,9.030430132156016e-12,5.6441342668552305e-12,3.4050655698940625e-12,1.9609077312186936e-12
0.0,35,35.0,0.0,30.0,0.0,0.0,0.0,0.0,-13.0,0.0,2.0,0.0,0.0,0.0,1.2997188193549424e-10,8.848627702254973e-11,6.025187485042527e-11,4.090543693002584e-11,2.7455356843027192e-11,1.8264136477903476e-11,1.202346159429057e-11,7.775093170347965e-12,4.9038770978682815e-12,3.0002043115183092e-12,1.7810430390932549e-12,1.0226993098911358e-12,5.736254416534991e-13,3.198394880067e-13,1.7978727244580544e-13,1.0434062073779855e-13,6.226769875307275e-14,3.401946758446346e-09,2.5095984799139434e-09,1.7599820846272348e-09,1.1802955533102786e-09,8.197655452302993e-10,5.888838062984828e-10,4.3945011608424913e-10,3.2788135304230533e-10,2.4430452633022566e-10,1.7991421525658342e-10,1.3097404737915995e-10,9.458982025036078e-11,6.709346190125871e-11,4.674550546372435e-11,3.2106997332955775e-11,2.1559071143938436e-11,1.416997708490353e-11,9.099397715674935e-12,5.690267687295093e-12,3.4406738204455313e-12,1.9890022377400078e-12
0.0,36,36.0,0.0,30.0,0.0,0.0,0.0,0.0,-13.0,0.0,2.0,0.0,0.0,0.0,1.3166745897594265e-10,8.95933148815074e-11,6.096790270721458e-11,4.136398960879386e-11,2.7743639907218343e-11,1.8445505561636305e-11,1.214131051868752e-11,7.857544417711467e-12,4.966284990822502e-12,3.0482657436805205e-12,1.8160693085886215e-12,1.0455696848095134e-12,5.86523785713286e-13,3.2577724212577803e-13,1.8166638413056884e-13,1.0428406584452543e-13,6.1546483571523e-14,3.3777702161331417e-09,2.4966658462913164e-09,1.7569968321509132e-09,1.1841425932600126e-09,8.261024698984029e-10,5.952425244363198e-10,4.449156101097292e-10,3.3221219504956755e-10,2.475923895767933e-10,1.8232255094791275e-10,1.3268319844196687e-10,9.578087149475703e-11,6.78957919479649e-11,4.7270077155921065e-11,3.243874258516771e-11,2.1759677274102486e-11,1.4286972500705044e-11,9.168091759941348e-12,5.734340984909634e-12,3.473546340821305e-12,2.014878459742194e-12
0.0,37,37.0,0.0,30.0,0.0,0.0,0.0,0.0,-13.0,0.0,2.0,0.0,0.0,0.0,1.3339378959027254e-10,9.07188341290296e-11,6.169491961191665e-11,4.1829010527940293e-11,2.8035490931199633e-11,1.8628171323872254e-11,1.22584067459714e-11,7.937733390475541e-12,5.025953853934376e-12,3.09411371972995e-12,1.849872336615966e-12,1.0681003226650978e-12,5.995973982892319e-13,3.3206558540894143e-13,1.838719790451917e-13,1.0446220688917981e-13,6.097373668954875e-14,3.3541025494941065e-09,2.484404725109285e-09,1.754674599667286e-09,1.188508075608327e-09,8.327912181239892e-10,6.018284491005523e-10,4.50534299772677e-10,3.3664864351024186e-10,2.509538423210582e-10,1.8478233492840852e-10,1.3442772349501973e-10,9.699630324900819e-11,6.871474602101777e-11,4.780596615818321e-11,3.2778267544076197e-11,2.1965357708328327e-11,1.4406589566657669e-11,9.23708435125556e-12,5.7769397574865186e-12,3.504101563503409e-12,2.038731615143166e-12
0.0,38,38.0,0.0,30.0,0.0,0.0,0.0,0.0,-13.0,0.0,2.0,0.0,0.0,0.0,1.3515152709126152e-10,9.18632130629278e-11,6.243313827710235e-11,4.230061547715644e-11,2.833103510873845e-11,1.881239259544606e-11,1.2375165191599712e-11,8.01610682480294e-12,5.083200807207394e-12,3.1378710800279415e-12,1.8824287531406503e-12,1.0902081804943536e-12,6.127656569141872e-13,3.386491352095738e-13,1.8637343749254677e-13,1.048604699356212e-13,6.054278414355058e-14,3.331006308707887e-09,2.4728611471923373e-09,1.7530429941025593e-09,1.1934045723530268e-09,8.398374441819954e-10,6.086448837312949e-10,4.563086372122396e-10,3.4119256129504236e-10,2.543901401963825e-10,1.8729433832711865e-10,1.3620804537416777e-10,9.823631629997309e-11,6.955039777715668e-11,4.835317061100111e-11,3.312556371582211e-11,2.2176205538637065e-11,1.452911758979854e-11,9.306841939636363e-12,5.818576741265634e-12,3.5327361191313966e-12,2.0607614080503574e-12
0.0,39,39.0,0.0,30.0,0.0,0.0,0.0,0.0,-13.0,0.0,2.0,0.0,0.0,0.0,1.3694134008133312e-10,9.30268366893479e-11,6.318277652476228e-11,4.277892088675395e-11,2.8630375104767522e-11,1.8998371414902805e-11,1.2491929271773017e-11,8.09306032801444e-12,5.138329312667432e-12,3.1796740435191868e-12,1.9137357634178723e-12,1.1118258608781399e-12,6.259562521369213e-13,3.4547577311326e-13,1.891409992661575e-13,1.0546436736562902e-13,6.024697158516702e-14,3.308546056317514e-09,2.4620818917173657e-09,1.7521296357591131e-09,1.1988445065045802e-09,8.472468018277125e-10,6.156952443593845e-10,4.622411922021268e-10,3.4584589806190826e-10,2.579025944816095e-10,1.8985936566038677e-10,1.380246047537406e-10,9.950111598078347e-11,7.040281741567109e-11,4.8911680215501535e-11,3.3480600205265284e-11,2.2392260829690607e-11,1.4654760754493474e-11,9.377738429771924e-12,5.859695102062268e-12,3.5598201439632797e-12,2.081168104604058e-12
0.0,40,40.0,0.0,30.0,0.0,0.0,0.0,0.0,-13.0,0.0,2.0,0.0,0.0,0.0,1.3876391317161136e-10,9.421009704344459e-11,6.394405680995908e-11,4.326404533373275e-11,2.8933598877814425e-11,1.9186265835230682e-11,1.2608981288246952e-11,8.16894101223424e-12,5.191625638430947e-12,3.219667387775662e-12,1.9438080264523923e-12,1.132900358863013e-12,6.391049550178401e-13,3.524967556404247e-13,1.9214588709625348e-13,1.0625954850083423e-13,6.007965682881619e-14,3.2867882933361696e-09,2.4521144015063954e-09,1.7519621037562388e-09,1.2048401434849532e-09,8.550249576735706e-10,6.229830740587023e-10,4.683346617517392e-10,3.5061069671774765e-10,2.614925775995089e-10,1.9247826002961272e-10,1.398778657073078e-10,1.007909179434441e-10,7.12720767368782e-11,4.948148121548115e-11,3.384333208411445e-11,2.261352487843883e-11,1.478365494415486e-11,9.450067710524481e-12,5.9006729209688825e-12,3.5856941181620705e-12,2.1001492315872634e-12
0.0,41,41.0,0.0,30.0,0.0,0.0,0.0,0.0,-13.0,0.0,2.0,0.0,0.0,0.0,1.4061994763575887e-10,9.541339358332743e-11,6.471720586620153e-11,4.3756110249502627e-11,2.9240785261840806e-11,1.9376200338126647e-11,1.2726551957773886e-11,8.244050896076078e-12,5.243356516781435e-12,3.2580003506814077e-12,1.972674734001489e-12,1.1533917825090786e-12,6.52155321315365e-13,3.596667791826382e-13,1.953604126171621e-13,1.072318523906713e-13,6.003421034499602e-14,3.265801370577195e-09,2.4430066896149894e-09,1.7525678789964377e-09,1.2114035835067274e-09,8.631776050675471e-10,6.305120566809707e-10,4.745918785070546e-10,3.554890986507206e-10,2.6516152748655834e-10,1.9515190717031966e-10,1.4176832003754566e-10,1.0210595283973712e-10,7.215825344031733e-11,5.006256045222388e-11,3.421370676718612e-11,2.2839971498202684e-11,1.4915882045113396e-11,9.524055348531507e-12,5.941828434105164e-12,3.6106670384754805e-12,2.1178968400765193e-12
0.0,42,42.0,0.0,30.0,0.0,0.0,0.0,0.0,-13.0,0.0,2.0,0.0,0.0,0.0,1.4251016201219157e-10,9.663713361454246e-11,6.550245448654358e-11,4.4255240154056757e-11,2.9552007859036093e-11,1.956827417870048e-11,1.2844828967912853e-11,8.318650764574811e-12,5.293767795999818e-12,3.2948232116723276e-12,2.0003769127215162e-12,1.1732720702078823e-12,6.650583445813192e-13,3.6694400422709895e-13,1.987580647121566e-13,1.0836736030999378e-13,6.01040220433947e-14,3.2456553847634972e-09,2.434807237541923e-09,1.7539742853618283e-09,1.218546755501234e-09,8.717104787620083e-10,6.382860300612322e-10,4.810158181530882e-10,3.6048334793149313e-10,2.68910951012475e-10,1.9788123853381496e-10,1.4369649054958237e-10,1.0344647000557599e-10,7.306143469299896e-11,5.065490867089549e-11,3.459166887417561e-11,2.3071555879991694e-11,1.5051481970624417e-11,9.599869283992123e-12,5.983425673646346e-12,3.6350157198454502e-12,2.1345952828730957e-12
0.0,43,43.0,0.0,30.0,0.0,0.0,0.0,0.0,-13.0,0.0,2.0,0.0,0.0,0.0,1.44435292669395e-10,9.788173271697418e-11,6.630003742905678e-11,4.476156263249609e-11,2.9867337683591186e-11,1.976256797704767e-11,1.296396451801134e-11,8.392964242441411e-12,5.343083900202539e-12,3.330284500953859e-12,2.0269649638974854e-12,1.1925237245445894e-12,6.777720690962856e-13,3.742900437933039e-13,2.023135807035624e-13,1.0965244611695716e-13,6.028251282243924e-14,3.2264220590067593e-09,2.427564885463565e-09,1.7562084298956383e-09,1.2262814131543942e-09,8.806293706293449e-10,6.463089988562002e-10,4.876096060035358e-10,3.6559579467263106e-10,2.727424266193658e-10,2.0066723356898799e-10,1.4566293343527882e-10,1.048127402609932e-10,7.39817200103099e-11,5.12585232010577e-11,3.4977163934065934e-11,2.3308221498596215e-11,1.5190462662973968e-11,9.67762945202046e-12,6.0256802361229426e-12,3.6589850222457405e-12,2.150419459083e-12
0.0,44,44.0,0.0,30.0,0.0,0.0,0.0,0.0,-13.0,0.0,2.0,0.0,0.0,0.0,1.4639609434813694e-10,9.914761515768941e-11,6.711019342431887e-11,4.527520819198093e-11,3.018684490043146e-11,1.9959148851900644e-11,1.3084081859456152e-11,8.467181892985472e-12,5.391507929076721e-12,3.364528778956656e-12,2.0524964479798116e-12,1.2111385793655632e-12,6.902611724257187e-13,3.8166992075079943e-13,2.060030012624476e-13,1.1107382314475498e-13,6.05631495206244e-14,3.2081746073025435e-09,2.421328714987739e-09,1.7592971427745156e-09,1.2346191335921448e-09,8.899401466440147e-10,6.545851471499106e-10,4.943765229443521e-10,3.708288977218559e-10,2.7665760633875686e-10,2.0351092135690404e-10,1.476682399242257e-10,1.0620505794525475e-10,7.491922350424966e-11,5.187341009989246e-11,3.537014119788951e-11,2.354990545176427e-11,1.5332808332079463e-11,9.757416315329725e-12,6.068764972327951e-12,3.6827888091858435e-12,2.1655334821985934e-12
0.0,45,45.0,0.0,30.0,0.0,0.0,0.0,0.0,-13.0,0.0,2.0,0.0,0.0,0.0,1.4839334069239544e-10,1.0043521428181724e-10,6.793316525991592e-11,4.579631008301932e-11,3.051059992262975e-11,2.0158074362008623e-11,1.3205280886858291e-11,8.541465204243523e-12,5.439222248724028e-12,3.3976949250160616e-12,2.077034114909433e-12,1.2291166138188498e-12,7.024965263494471e-13,3.890519983661739e-13,2.0980371016005415e-13,1.1261858673786257e-13,6.093946207780501e-14,3.1909875827659624e-09,2.416147925028632e-09,1.7632669179312554e-09,1.2435713192363034e-09,8.996487653109541e-10,6.631188509327777e-10,5.013200108783079e-10,3.761852268489345e-10,2.8065821733072567e-10,2.064133817351973e-10,1.4971303734292585e-10,1.0762374230666945e-10,7.587407556306549e-11,5.249958582709286e-11,3.577055575737968e-11,2.3796542550370865e-11,1.5478486176803112e-11,9.839278337757118e-12,6.112815450765268e-12,3.7066114603975316e-12,2.1800897298494607e-12
0.0,46,46.0,0.0,30.0,0.0,0.0,0.0,0.0,-13.0,0.0,2.0,0.0,0.0,0.0,1.504278247785224e-10,1.0174497287940548e-10,6.876919991876271e-11,4.6325004132406304e-11,3.0838674065859375e-11,2.0359395487639038e-11,1.3327642855409967e-11,8.61595036505662e-12,5.486389444665656e-12,3.4299148734024516e-12,2.100644175943007e-12,1.246464824440972e-12,7.144547439890733e-13,3.964078880857337e-13,2.1369446011284924e-13,1.1427425189732582e-13,6.140506189144411e-14,3.1749367094402876e-09,2.412071701527994e-09,1.7681438552418667e-09,1.253149203325029e-09,9.09761297679106e-10,6.719146905326439e-10,5.084436777977642e-10,3.81667464568577e-10,2.847460630740032e-10,2.0937574603348522e-10,1.517979897080392e-10,1.0906913836144101e-10,7.684642403218433e-11,5.313707850949333e-11,3.617837011710495e-11,2.404806841696679e-11,1.562745181560691e-11,9.92323845710482e-12,6.157935093811753e-12,3.7306097810321745e-12,2.194228234442802e-12
0.0,47,47.0,0.0,30.0,0.0,0.0,0.0,0.0,-13.0,0.0,2.0,0.0,0.0,0.0,1.5250035964990174e-10,1.0307734352987189e-10,6.961854875186828e-11,4.686142861125795e-11,3.1171139906177614e-11,2.0563158850805574e-11,1.345123431250304e-11,8.690751767499687e-12,5.533153527525727e-12,3.461312735926642e-12,2.1233948083806836e-12,1.2631961638660958e-12,7.261177201078386e-13,4.03712338219949e-13,2.1765538601844956e-13,1.160287857790851e-13,6.195366052674881e-14,3.1600986976496505e-09,2.4091490818896967e-09,1.7739536052476245e-09,1.2633638595610203e-09,9.202839490360943e-10,6.809774630502417e-10,5.157513025944969e-10,3.872784077243454e-10,2.8892302431975505e-10,2.1239919752535803e-10,1.5392379796370797e-10,1.1054161732729586e-10,7.783643496854793e-11,5.378592884754477e-11,3.659355533156123e-11,2.4304421799375575e-11,1.5779653629896068e-11,1.0009299633416621e-11,6.20419992352614e-12,3.754915171341139e-12,2.208076374626539e-12
0.0,48,48.0,0.0,30.0,0.0,0.0,0.0,0.0,-13.0,0.0,2.0,0.0,0.0,0.0,1.5461177886241613e-10,1.0443278892770543e-10,7.048146767055214e-11,4.740572414669855e-11,3.1508071446805745e-11,2.0769408340591472e-11,1.357611033661818e-11,8.765965198866312e-12,5.579641300350568e-12,3.4920042529555625e-12,2.1453548812071483e-12,1.2793285524352665e-12,7.37472170765905e-13,4.1094310687338817e-13,2.2166800686791433e-13,1.1787063500092916e-13,6.257908810303504e-14,3.146551043042238e-09,2.407428815154841e-09,1.7807213174387876e-09,1.2742262163143483e-09,9.312230823377121e-10,6.903121948279274e-10,5.232468396984721e-10,3.930209689414448e-10,2.9319105990562093e-10,2.1548497168739034e-10,1.560911999575614e-10,1.120415767269565e-10,7.884429303948827e-11,5.444619071222722e-11,3.701609179284223e-11,2.456554626432375e-11,1.5935036199008042e-11,1.0097449557954833e-11,6.251662883427606e-12,3.779635942786596e-12,2.2217488282172572e-12
0.0,49,49.0,0.0,30.0,0.0,0.0,0.0,0.0,-13.0,0.0,2.0,0.0,0.0,0.0,1.567629370444194e-10,1.0581178219399739e-10,7.135821734728201e-11,4.795803367703708e-11,3.1849544168469304e-11,2.0978186280460134e-11,1.3702317175780609e-11,8.841670707171226e-12,5.625963813496302e-12,3.522096518392992e-12,2.1665928871217733e-12,1.2948839668928908e-12,7.485091777680723e-13,4.1808082216456824e-13,2.257152175720257e-13,1.1978874786963725e-13,6.32753108298127e-14,3.1343718096841884e-09,2.4069592191225785e-09,1.7884715931816083e-09,1.2857470757654803e-09,9.425852433837215e-10,6.999241539596403e-10,5.309344236228063e-10,3.988981780404649e-10,2.975522075110168e-10,2.1863435634130737e-10,1.5830097023539752e-10,1.1356944024489685e-10,7.987020163384716e-11,5.511793147843873e-11,3.744596973604347e-11,2.4831391402373422e-11,1.6093542981968984e-11,1.0187664611180622e-11,6.300357724807699e-12,3.804859687701179e-12,2.2353477481671916e-12
0.0,50,50.0,0.0,30.0,0.0,0.0,0.0,0.0,-13.0,0.0,2.0,0.0,0.0,0.0,1.5895471047370185e-10,1.0721480717852482e-10,7.224906341786164e-11,4.8518502445674954e-11,3.219563501453357e-11,2.118953424836793e-11,1.3829894373357791e-11,8.91793513969447e-12,5.67221784826463e-12,3.551687928656828e-12,2.187176064680768e-12,1.3098876084828935e-12,7.592237426284022e-13,4.251088325049862e-13,2.297812718708369e-13,1.2177259174784737e-13,6.403644729992191e-14,3.1236393978208005e-09,2.4077880358175945e-09,1.7972284444219139e-09,1.2979371383268136e-09,9.543771877105194e-10,7.098188628326889e-10,5.388183734797759e-10,4.0491318348956414e-10,3.020085844199966e-10,2.2184869174221134e-10,1.605539197211198e-10,1.1512565740904605e-10,8.091438274775754e-11,5.580123213842421e-11,3.788318951634011e-11,2.5101913648470553e-11,1.6255118378888377e-11,1.0279913156825654e-11,6.350302462429425e-12,3.83065562920278e-12,2.2489631244606515e-12
0.0,51,51.0,0.0,30.0,0.0,0.0,0.0,0.0,-13.0,0.0,2.0,0.0,0.0,0.0,1.6118799767306336e-10,1.0864235875684498e-10,7.315427668054046e-11,4.90872780269919e-11,3.254642234497811e-11,2.140349363800108e-11,1.3958876462095901e-11,8.994814365313509e-12,5.718487383863259e-12,3.5808683106024316e-12,2.2071696932099155e-12,1.3243671511042679e-12,7.696143540962426e-13,4.3201304945539884e-13,2.338517574178909e-13,1.2381216585125295e-13,6.485678326442574e-14,3.114432297221757e-09,2.409962286915282e-09,1.8070152593438055e-09,1.3108070326277387e-09,9.666059091318984e-10,7.200021106781946e-10,5.469031975228956e-10,4.1106925395974774e-10,3.065623883444972e-10,2.2512937066366884e-10,1.6285089533637097e-10,1.1671070315772287e-10,8.197707670111599e-11,5.6496187236058446e-11,3.832776170202646e-11,2.537707680106111e-11,1.6419709284717483e-11,1.0374158255119385e-11,6.401502415927567e-12,3.857076895590131e-12,2.2626732965913995e-12
0.0,52,52.0,0.0,30.0,0.0,0.0,0.0,0.0,-13.0,0.0,2.0,0.0,0.0,0.0,1.6346372002550392e-10,1.1009494312630577e-10,7.407413328974335e-11,4.966451037708869e-11,3.290198588089022e-11,2.1620106030481397e-11,1.40892942991162e-11,9.072355199034732e-12,5.764845013801346e-12,3.6097191884589233e-12,2.22663654268273e-12,1.3383520687571365e-12,7.796825726347656e-13,4.3878178544437883e-13,2.3791356405087543e-13,1.2589800980794316e-13,6.573078471346834e-14,3.1068288273735064e-09,2.413528130958896e-09,1.8178547761986206e-09,1.3243673512879407e-09,9.7927866982216e-10,7.304799660972102e-10,5.551935977625025e-10,4.173697800366296e-10,3.1121589834872206e-10,2.284778385197584e-10,1.651927796035312e-10,1.183250773414374e-10,8.305854173375903e-11,5.720290465960161e-11,3.877970702062153e-11,2.5656852305884405e-11,1.6587266230294275e-11,1.0470359872490758e-11,6.453952860862017e-12,3.884162678668198e-12,2.2765455834845918e-12
0.0,53,53.0,0.0,30.0,0.0,0.0,0.0,0.0,-13.0,0.0,2.0,0.0,0.0,0.0,1.6578282240971733e-10,1.1157307810429694e-10,7.500891494363955e-11,5.0250351902764794e-11,3.326240665244027e-11,2.183941343016977e-11,1.4221176105925262e-11,9.15059705196236e-12,5.811353287562714e-12,3.638314154948801e-12,2.2456364607931872e-12,1.3518730403055629e-12,7.894326346225991e-13,4.4540558841908303e-13,2.419548461831525e-13,1.2802120833079632e-13,6.665310916978151e-14,3.1009068661740383e-09,2.418530724434274e-09,1.8297690665433617e-09,1.338628692636159e-09,9.924030318012694e-10,7.412587895236289e-10,5.636944746970777e-10,4.2381827613248363e-10,3.1597147590476664e-10,2.318955935547433e-10,1.6758049026638425e-10,1.1996930419956532e-10,8.415905352321504e-11,5.7921505326978914e-11,3.923905618954866e-11,2.5941219357316827e-11,1.675774419010685e-11,1.0568476658417076e-11,6.50764131804441e-12,3.911940248314234e-12,2.2906370003392724e-12
0.0,54,54.0,0.0,30.0,0.0,0.0,0.0,0.0,-13.0,0.0,2.0,0.0,0.0,0.0,1.6814627385637065e-10,1.1307729343140154e-10,7.595890906576088e-11,5.084495754306815e-11,3.3627766957351034e-11,2.2061458405406198e-11,1.4354548268878487e-11,9.229573332562347e-12,5.858065961454551e-12,3.666719316701543e-12,2.264226079894762e-12,1.3649614285930758e-12,7.988710784598078e-13,4.5187707529419283e-13,2.4596498017862505e-13,1.3017339235736382e-13,6.761861516800104e-14,3.09674356922335e-09,2.4250140890026277e-09,1.84277952913549e-09,1.3536017084562503e-09,1.0059868896508704e-09,7.523452455832615e-10,5.724109321991577e-10,4.304183826342453e-10,3.2083156610044537e-10,2.353841871229947e-10,1.7001497995471162e-10,1.2164393184331222e-10,8.52789046589475e-11,5.865212279378544e-11,3.9705849658371285e-11,2.623016485970966e-11,1.6931103122930817e-11,1.0668467353071311e-11,6.562549512192419e-12,3.940426806193698e-12,2.304995034801465e-12
0.0,55,55.0,0.0,30.0,0.0,0.0,0.0,0.0,-13.0,0.0,2.0,0.0,0.0,0.0,1.7055506822562672e-10,1.1460813108157667e-10,7.692440898150006e-11,5.144848485884462e-11,3.399815033293082e-11,2.2286284164773187e-11,1.4489435947348304e-11,9.309312626025254e-12,5.90502914905679e-12,3.6949937887331275e-12,2.282458627238157e-12,1.377648830163249e-12,8.08006394209047e-13,4.581907658725487e-13,2.499345175063831e-13,1.3234673700343606e-13,6.862236994535604e-14,3.0944150822837015e-09,2.4330209874243502e-09,1.856906895719141e-09,1.3692971577596113e-09,1.0200385042626204e-09,7.637463153103987e-10,5.813482825930299e-10,4.371738683163334e-10,3.257986990125619e-10,2.3894522407503404e-10,1.7249723591229754e-10,1.2334953176896262e-10,8.641840410146998e-11,5.93949028102523e-11,4.018013728574648e-11,2.652368328292401e-11,1.7107308300196397e-11,1.0770291882448595e-11,6.61865503175079e-12,3.969631170031922e-12,2.3196584580341716e-12
0.0,56,56.0,0.0,30.0,0.0,0.0,0.0,0.0,-13.0,0.0,2.0,0.0,0.0,0.0,1.7301022490638345e-10,1.1616614558095933e-10,7.790571409063748e-11,5.2061094126799257e-11,3.4373641542259635e-11,2.2513934591385688e-11,1.4625863529313687e-11,9.389839678254384e-12,5.95228236686785e-12,3.723190217065611e-12,2.300383822937626e-12,1.3899666912455581e-12,8.168486978922076e-13,4.64342918725752e-13,2.5385513441164163e-13,1.3453395666197633e-13,6.965965540824512e-14,3.0939962500044286e-09,2.4425928109291065e-09,1.8721712499010036e-09,1.3857259664919138e-09,1.03456653739784e-09,7.754693081893001e-10,5.905120519610022e-10,4.440886330414617e-10,3.308754912524635e-10,2.425803632600518e-10,1.7502827980226248e-10,1.250866984190515e-10,8.757787664877819e-11,6.015000284944703e-11,4.0661977970903065e-11,2.6821776439716488e-11,1.7286330467428756e-11,1.087391219096048e-11,6.67593272132837e-12,3.999555286474336e-12,2.3346581495163043e-12
0.0,57,57.0,0.0,30.0,0.0,0.0,0.0,0.0,-13.0,0.0,2.0,0.0,0.0,0.0,1.7551278953782963e-10,1.177519043364913e-10,7.890313003714898e-11,5.2682948435536805e-11,3.475432657365562e-11,2.2744454251425305e-11,1.476385496732663e-11,9.471176209874578e-12,5.999859474738509e-12,3.751355312461123e-12,2.318047851258527e-12,1.4019459852485022e-12,8.254094310974769e-13,4.703313703451448e-13,2.577195787852476e-13,1.3672829755980653e-13,7.072597246785587e-14,3.095560324558737e-09,2.453769480990859e-09,1.8885920602498227e-09,1.4028992929848669e-09,1.0495800868201903e-09,7.875218739974101e-10,5.999079857155364e-10,4.511667107678696e-10,3.360646476856427e-10,2.4629131815084216e-10,1.776091675990494e-10,1.2685604880377368e-10,8.875766242726045e-11,6.091759162520343e-11,4.115143925647242e-11,2.7124453207359805e-11,1.7468145876092798e-11,1.0979292855223199e-11,6.734355837010314e-12,4.030195575578667e-12,2.3500179176859706e-12
0.0,58,58.0,0.0,30.0,0.0,0.0,0.0,0.0,-13.0,0.0,2.0,0.0,0.0,0.0,1.780638347540026e-10,1.193659879752029e-10,7.991696887755037e-11,5.33142137818736e-11,3.514029265177733e-11,2.2977888388319124e-11,1.49034340218664e-11,9.553341583960524e-12,6.047789513673252e-12,3.7795303817178035e-12,2.3354933920837678e-12,1.413616946741152e-12,8.337010861328071e-13,4.761553787020246e-13,2.615216148643482e-13,1.3892352806369826e-13,7.181704385658615e-14,3.0991786784182482e-09,2.4665893686414218e-09,1.9061882286561663e-09,1.420828598859479e-09,1.0650887217520252e-09,7.999120144400998e-10,6.095420544754837e-10,4.584122728773343e-10,3.413689633231095e-10,2.500798575937271e-10,1.8024098957285223e-10,1.2865822219060107e-10,8.995811641967589e-11,6.169784861468402e-11,4.1648596916769175e-11,2.743172921162342e-11,1.7652736216499204e-11,1.108640151703248e-11,6.793896993088272e-12,4.0615441136122365e-12,2.365755301736708e-12
0.0,59,59.0,0.0,30.0,0.0,0.0,0.0,0.0,-13.0,0.0,2.0,0.0,0.0,0.0,1.8066446095221278e-10,1.210089906947384e-10,8.094754924891647e-11,5.395505916635292e-11,3.5531628258419794e-11,2.321428291035253e-11,1.5044624433962822e-11,9.63635334915128e-12,6.096097445726273e-12,3.80775184601721e-12,2.352759700730517e-12,1.425008856778845e-12,8.417369565921863e-13,4.81815472190605e-13,2.652559663507919e-13,1.4111392700647696e-13,7.292881554868746e-14,3.104920526080939e-09,2.4810892345905925e-09,1.924978154856672e-09,1.4395257249794164e-09,1.0811025184011837e-09,8.126480945827501e-10,6.194204602857736e-10,4.658296318347926e-10,3.467913253793575e-10,2.5394780668354284e-10,1.829248703694199e-10,1.304938798665385e-10,9.117960803891826e-11,6.249096359727709e-11,4.21535345431705e-11,2.7743626487734103e-11,1.7840088476827762e-11,1.1195209168314462e-11,6.854528926728089e-12,4.09358966334476e-12,2.3818823429129157e-12
0.0,60,60.0,0.0,30.0,0.0,0.0,0.0,0.0,-13.0,0.0,2.0,0.0,0.0,0.0,1.8331579708630135e-10,1.2268152062547648e-10,8.19951965375825e-11,5.460565668740408e-11,3.592842316103245e-11,2.3453684376810872e-11,1.518745004460432e-11,9.720227677627073e-12,6.1448048021768395e-12,3.8360517384399734e-12,2.3698827256100444e-12,1.4361498744215166e-12,8.495309128797753e-13,4.873133047686666e-13,2.689182584905167e-13,1.4329427028301564e-13,7.405745691342358e-14,3.1128526601565745e-09,2.4973041935024948e-09,1.9449798178550814e-09,1.4590029719424794e-09,1.0976320953088343e-09,8.257388541043529e-10,6.295496432205277e-10,4.734232451873023e-10,3.523347154897288e-10,2.578970477620451e-10,1.8566196918611055e-10,1.3236370497469017e-10,9.242252075306384e-11,6.32971362186199e-11,4.266634313600036e-11,2.8060173130055502e-11,1.803019474867825e-11,1.130569031619522e-11,6.916225104921274e-12,4.126318562624395e-12,2.3984063164607374e-12
0.0,61,61.0,0.0,30.0,0.0,0.0,0.0,0.0,-13.0,0.0,2.0,0.0,0.0,0.0,1.8601900148584317e-10,1.243842002044499e-10,8.306024304937756e-11,5.52661816339526e-11,3.633076844714527e-11,2.3696139985809895e-11,1.5331934874786455e-11,9.804979715197823e-12,6.193930247068571e-12,3.8644581749951735e-12,2.386895254514833e-12,1.4470669093823801e-12,8.570972019656547e-13,4.926515179597451e-13,2.7250495961589746e-13,1.4545981594722548e-13,7.519935972955345e-14,3.1230392077820306e-09,2.515267705793561e-09,1.966210874759978e-09,1.4792731844882627e-09,1.1146886482817056e-09,8.39193418417704e-10,6.399362884097956e-10,4.81197719907161e-10,3.580022120787784e-10,2.619295215370098e-10,1.8845348004351598e-10,1.3426840242467296e-10,9.368725176460338e-11,6.411657558605947e-11,4.318712071033112e-11,2.8381402939805487e-11,1.8223051995663878e-11,1.1417823052202345e-11,6.978960195840474e-12,4.159715482915867e-12,2.41533041792852e-12
0.0,62,62.0,0.0,30.0,0.0,0.0,0.0,0.0,-13.0,0.0,2.0,0.0,0.0,0.0,1.8877526270248589e-10,1.2611766656114067e-10,8.414302818208807e-11,5.5936812576541124e-11,3.673875656311571e-11,2.394169756558959e-11,1.547810317702995e-11,9.890623858586583e-12,6.243490063659292e-12,3.89299579537425e-12,2.4038270815539093e-12,1.4577855309133442e-12,8.644502704213694e-13,4.978336102377848e-13,2.7601332261292584e-13,1.4760628802350212e-13,7.63511361870176e-14,3.1355414138636597e-09,2.53501160025176e-09,1.98868877730421e-09,1.5003498390942263e-09,1.1322839846941671e-09,8.530213097232144e-10,6.505873335290353e-10,4.891578170814096e-10,3.6379699287093665e-10,2.660472283187737e-10,1.913006321509057e-10,1.3620869887483296e-10,9.497421174471124e-11,6.494949989972437e-11,4.371597192134173e-11,2.8707355078115895e-11,1.8418661798335667e-11,1.1531589045969025e-11,7.042710424532979e-12,4.193764069822065e-12,2.432654399756017e-12
0.0,63,63.0,0.0,30.0,0.0,0.0,0.0,0.0,-13.0,0.0,2.0,0.0,0.0,0.0,1.9158580038471427e-10,1.2788257191513681e-10,8.52438986007064e-11,5.661773145719132e-11,3.715248135588118e-11,2.4190405570099583e-11,1.5625979466716528e-11,9.977173972941734e-12,6.293498571452018e-12,3.921686171172373e-12,2.420705187921663e-12,1.4683299082639144e-12,8.716046096045675e-13,5.028638141809956e-13,2.794413267355792e-13,1.4972985923030396e-13,7.750961599564417e-14,3.1504174581006608e-09,2.5565661306158715e-09,2.0124309060145172e-09,1.5222471339346374e-09,1.150430556977853e-09,8.672324580865169e-10,6.615099767883443e-10,4.973084569473147e-10,3.6972233753495067e-10,2.702522293708187e-10,1.942046903630297e-10,1.3818534278309096e-10,9.62838246218399e-11,6.579613612163706e-11,4.4253007713316306e-11,2.9038073730029652e-11,1.8617030086023007e-11,1.1646973480619502e-11,7.107453830780689e-12,4.228447477544262e-12,2.4503751560123166e-12
