Line_number,Fiducial,Easting,Northing,Height,Elevation,tx_pitch,tx_roll,tx_yaw,txrx_dx,txrx_dy,txrx_dz,rx_pitch,rx_roll,rx_yaw,S0Z_time_1.431e-04,S0Z_time_1.801e-04,S0Z_time_2.266e-04,S0Z_time_2.846e-04,S0Z_time_3.581e-04,S0Z_time_4.506e-04,S0Z_time_5.671e-04,S0Z_time_7.136e-04,S0Z_time_8.981e-04,S0Z_time_1.131e-03,S0Z_time_1.423e-03,S0Z_time_1.791e-03,S0Z_time_2.255e-03,S0Z_time_2.838e-03,S0Z_time_3.573e-03,S0Z_time_4.498e-03,S0Z_time_5.662e-03,S1Z_time_1.409e-05,S1Z_time_1.610e-05,S1Z_time_1.909e-05,S1Z_time_2.360e-05,S1Z_time_2.960e-05,S1Z_time_3.709e-05,S1Z_time_4.609e-05,S1Z_time_5.759e-05,S1Z_time_7.209e-05,S1Z_time_9.060e-05,S1Z_time_1.141e-04,S1Z_time_1.431e-04,S1Z_time_1.801e-04,S1Z_time_2.266e-04,S1Z_time_2.846e-04,S1Z_time_3.581e-04,S1Z_time_4.506e-04,S1Z_time_5.671e-04,S1Z_time_7.136e-04,S1Z_time_8.981e-04,S1Z_time_1.131e-03
0.0,0,0.0,0.0,30.0,0.0,0.0,0.0,0.0,-13.0,0.0,2.0,0.0,0.0,0.0,1.5772906423985693e-10,1.1469028993944254e-10,6.473670135030236e-11,4.933604347088855e-11,3.530852787690463e-11,2.522872184492567e-11,1.510823851429383e-11,9.791465783880186e-12,7.2342854345912174e-12,4.184583220454308e-12,4.617299070227628e-12,2.5949023637860154e-12,6.061088470001462e-14,-4.027266867293653e-13,-8.807400186594742e-13,-2.2551082100003707e-13,8.276554026364391e-13,4.6951918962899345e-09,4.308905273247015e-09,3.3850489078715434e-09,2.3967955105487867e-09,1.7567512568597852e-09,1.3589560063680268e-09,9.146836626034696e-10,5.731182286425514e-10,4.2616985302219664e-10,2.6406556292033274e-10,1.622809314323439e-10,1.1027340981377786e-10,8.636963794342217e-11,5.6645545147520534e-11,3.696288205023637e-11,1.82868521143136e-11,1.6994699696800927e-11,1.25401243484748e-11,-3.676156622269478e-12,-8.956373973085858e-12,1.815230463174767e-11
0.0,1,1.0,0.0,30.0,0.0,0.0,0.0,0.0,-13.0,0.0,2.0,0.0,0.0,0.0,1.7033620898827451e-10,1.0544530664650215e-10,6.76572369808828e-11,4.886225950782552e-11,3.045639151312683e-11,2.0923423602496573e-11,1.3105477860446279e-11,1.0923005992673506e-11,6.668282068128295e-12,4.538842833899168e-12,2.563296663429828e-12,2.1772037916895606e-12,1.4424158828607998e-12,2.9849949674954013e-12,-5.925949977280804e-13,-3.395995964952021e-13,5.786347344230264e-13,5.311746510231579e-09,3.979981061007219e-09,3.589306562873259e-09,2.675502412027283e-09,1.7362077419474814e-09,1.2467110776366608e-09,8.997543724517412e-10,6.864461436951424e-10,3.9441848406041293e-10,2.9474838167914724e-10,1.728948289969032e-10,1.1349142272310681e-10,6.710428693617202e-11,5.0905158296807026e-11,4.0885739024101913e-11,2.5967338084230432e-11,1.1412766212524931e-11,2.9827271103404546e-11,2.1512441216709186e-11,-2.4602085556399586e-12,-2.5696101697188933e-12
0.0,2,2.0,0.0,30.0,0.0,0.0,0.0,0.0,-13.0,0.0,2.0,0.0,0.0,0.0,1.7092677530918445e-10,1.0640597020972851e-10,6.817912981000572e-11,3.9636941305836244e-11,2.968774163173621e-11,2.1981149762100833e-11,1.3394722918429755e-11,1.1538342663391776e-11,7.717733829478385e-12,4.121145011229596e-12,1.869680861758894e-12,2.3433672170500846e-12,-1.4092315145867462e-13,1.4662373571283464e-12,-1.2871016272134773e-12,5.01995358202992e-13,6.521183284488477e-13,5.432003804645516e-09,4.052005633223694e-09,3.1973866825497354e-09,2.371035215186659e-09,1.8662545401907162e-09,1.3608110646860952e-09,8.964812272849911e-10,6.347940225419276e-10,4.115313919568896e-10,2.4665926554022337e-10,1.6718159257740391e-10,1.1298283405173742e-10,6.755087681767012e-11,4.641095613934321e-11,5.037571124382949e-11,2.6257118951765557e-11,1.9785986048838362e-11,4.5963917005234164e-12,1.1987839381052307e-11,-7.386306085675179e-12,-7.924083775416663e-12
0.0,3,3.0,0.0,30.0,0.0,0.0,0.0,0.0,-13.0,0.0,2.0,0.0,0.0,0.0,1.8865783301686818e-10,9.931124002369557e-11,6.41873405405884e-11,4.639320437209985e-11,2.981956722574145e-11,2.1593664401176495e-11,1.4294022438370208e-11,1.0336812471796052e-11,6.133609274477405e-12,3.0444525569284728e-12,1.1427357725065226e-12,2.124700477420057e-12,1.6965478699355827e-12,-1.260898923877344e-12,1.119798236335637e-12,7.733548678160165e-13,1.7097492201614852e-12,5.208701087030679e-09,3.984833107239373e-09,3.5376026405985417e-09,2.666718619382982e-09,1.8215516577168776e-09,1.3312658933353963e-09,9.585310857537228e-10,6.712845718738696e-10,4.4240628154690984e-10,2.6723766871301844e-10,1.9052093526089254e-10,1.214180919349141e-10,7.813423365568882e-11,7.205442439831623e-11,2.2003370520481892e-11,2.991403028181244e-11,2.2701374466735583e-11,6.7255253475692006e-12,-2.2737896746929786e-12,-9.954171570835085e-14,6.750309067160786e-12
0.0,4,4.0,0.0,30.0,0.0,0.0,0.0,0.0,-13.0,0.0,2.0,0.0,0.0,0.0,1.8670914667145518e-10,1.0128853266453444e-10,6.949624378405825e-11,4.9236038607111954e-11,3.156187586798014e-11,2.1042837567049883e-11,1.4264029271496444e-11,1.1156013217999879e-11,5.723852626945751e-12,3.1694037842734047e-12,1.9860779697287297e-12,3.643150733032623e-12,8.924060552179003e-13,-4.760577677377027e-13,-3.8483139767903464e-13,9.146430751017513e-13,2.381618998517168e-13,5.238702983408617e-09,4.705498741811989e-09,3.3515381487152984e-09,2.7041931311167906e-09,1.999228252565554e-09,1.332839211775785e-09,8.603589052094412e-10,6.605189804386763e-10,3.8441496181801073e-10,2.8739238413621505e-10,2.102038724824771e-10,1.2331303920684157e-10,7.547081285973733e-11,3.9502628726206925e-11,3.526303862389306e-11,2.7106125992130718e-11,9.251673572521119e-12,-4.069049557349664e-12,4.946604029176322e-12,8.17985230223048e-12,-1.7964894353571372e-13
0.0,5,5.0,0.0,30.0,0.0,0.0,0.0,0.0,-13.0,0.0,2.0,0.0,0.0,0.0,1.76569154631966e-10,1.0838614655254367e-10,6.446166988660846e-11,4.5831058973710076e-11,2.747194367771418e-11,1.844849385954881e-11,1.4484300606957496e-11,9.767705786233074e-12,7.948990647598226e-12,3.198455898757803e-12,2.940695001908754e-12,2.4780340472168377e-12,1.6709586029461742e-12,-1.2338261544283199e-12,-8.2268062747563e-13,-5.269074961544503e-13,-1.3121283753439037e-13,5.542091915480124e-09,4.0709133054265614e-09,3.7063925175106716e-09,2.5976785702588886e-09,1.9133847764466476e-09,1.4341640913005564e-09,1.0724840909813297e-09,6.945374187335566e-10,4.0713901588609056e-10,3.0386141831708987e-10,2.0070162948957255e-10,1.1367160445919174e-10,6.444110187358563e-11,3.453866176491052e-11,2.9707920807348474e-11,3.367292982128085e-11,2.4625576122549918e-11,1.9318406316249147e-11,-1.2100697296194056e-11,-6.8082081959038225e-12,-3.959018423009698e-12
0.0,6,6.0,0.0,30.0,0.0,0.0,0.0,0.0,-13.0,0.0,2.0,0.0,0.0,0.0,1.9919971902388623e-10,1.0520335532996105e-10,7.038071730581508e-11,4.7911369403468215e-11,2.794863465345174e-11,1.8916926744765235e-11,1.1202952408881576e-11,9.269045731259953e-12,5.806278452182761e-12,4.828723743010483e-12,2.344739385594759e-12,3.1076769746496246e-12,8.582260452282705e-13,2.644373226541562e-12,5.323009891022639e-13,7.291726616753253e-14,-5.588242317284901e-13,5.437115449897117e-09,4.0167884191532216e-09,3.5259773991252485e-09,2.6349373094783086e-09,1.961734758249436e-09,1.1213120119418822e-09,8.968800195588696e-10,6.317899838038994e-10,4.593011009988125e-10,2.9147855545229816e-10,2.1754885603542515e-10,1.183291204185905e-10,9.148300950242179e-11,4.668433519881668e-11,3.112137799784816e-11,1.8678862192769375e-11,3.265239701127221e-11,-1.7934370172065518e-12,-1.0020477978944448e-11,1.839876275083491e-12,3.882783202106874e-12
0.0,7,7.0,0.0,30.0,0.0,0.0,0.0,0.0,-13.0,0.0,2.0,0.0,0.0,0.0,1.8162309895405456e-10,1.0718486904546835e-10,5.793311596079829e-11,4.386700453223308e-11,3.01839085322265e-11,2.0124812036219143e-11,1.275739585972714e-11,9.71827669479083e-12,4.395377991372373e-12,5.577935265568463e-12,1.9989847528607015e-12,6.894383797635649e-13,-1.4816304441678917e-12,2.37656692000157e-13,8.452233304592838e-13,-1.205716033585472e-12,1.4448914690761334e-13,4.78526786444712e-09,4.27883408177885e-09,2.9558849722834515e-09,2.6686059621861558e-09,2.0807298452957114e-09,1.2587157959838765e-09,9.894252526062307e-10,6.841606156193463e-10,3.8468240438929314e-10,3.1838410583683715e-10,1.8563916430369308e-10,1.169466435026493e-10,6.513600494626354e-11,3.815335676828947e-11,4.209403869854206e-11,3.615019950992931e-11,8.855714322520803e-12,3.839731965446746e-12,-2.088267762093094e-11,3.856155718191733e-12,-5.006502541289767e-12
0.0,8,8.0,0.0,30.0,0.0,0.0,0.0,0.0,-13.0,0.0,2.0,0.0,0.0,0.0,1.8661961812230524e-10,1.1426481678356483e-10,6.079803938224612e-11,4.910461615607095e-11,2.832410272479991e-11,1.9471843973573754e-11,1.5550743109526406e-11,7.870949464510737e-12,5.890710719212477e-12,3.4989496834022054e-12,2.3659673841233792e-12,2.542402863354768e-12,3.08049435591695e-12,-2.1492500249375145e-13,-3.8698235744931387e-13,3.384081098332526e-13,3.961991215831073e-13,5.55507685075932e-09,4.556898863100187e-09,3.4710481877612575e-09,2.7769846408741132e-09,1.9750642221911938e-09,1.388727837294505e-09,9.746526203582664e-10,7.300283836308129e-10,4.720317932713595e-10,3.0125650541021515e-10,1.827917188103423e-10,1.2589826488759554e-10,8.227711929207358e-11,6.603852732432374e-11,3.489215808675463e-11,2.912141810029284e-11,4.855264414280533e-11,3.96087868674453e-12,8.147424451262753e-12,-8.124655104721097e-14,1.8589362282524592e-12
0.0,9,9.0,0.0,30.0,0.0,0.0,0.0,0.0,-13.0,0.0,2.0,0.0,0.0,0.0,1.7829304697296874e-10,1.1056007862010464e-10,6.715043219187749e-11,4.217639748019695e-11,3.0127135512355675e-11,1.7872992315220754e-11,1.539164733531631e-11,9.799551960987666e-12,5.52250424166588e-12,4.6486493626188176e-12,3.623027727434073e-12,1.1598682926599666e-12,5.725448904779327e-13,4.793863842681001e-13,-1.1010742545047946e-12,-2.905267641022256e-13,6.242846244040957e-14,5.378596836623884e-09,4.935459268373673e-09,3.6543396485409265e-09,2.4375930116232287e-09,1.7582925470297449e-09,1.4096186858695666e-09,9.893061557389303e-10,7.540464558509679e-10,4.84408726385681e-10,2.985322951229276e-10,1.8580929519549443e-10,1.2011089899168468e-10,6.411381711647764e-11,5.875145800880392e-11,2.968343264611109e-11,1.403535426918749e-11,1.035894965329823e-11,3.099421880057395e-11,3.306965181735791e-12,3.4205910692370794e-12,-5.835979925264832e-12
0.0,10,10.0,0.0,30.0,0.0,0.0,0.0,0.0,-13.0,0.0,2.0,0.0,0.0,0.0,2.0040486711712782e-10,1.0589807871755959e-10,6.37861162983623e-11,4.036773946084063e-11,2.5678775847772168e-11,1.912708164255053e-11,1.2260921709974865e-11,7.353627491746065e-12,6.2792357964454965e-12,3.2864268646060398e-12,1.7796350141602046e-12,9.59108957147348e-13,8.262888411685661e-13,1.8382809733940412e-12,1.3419104219706262e-12,1.3048502079672865e-12,-1.8402830734733942e-12,5.330848784326616e-09,4.4664320574844275e-09,3.5876349372276715e-09,2.6095563154343042e-09,1.8472201895830799e-09,1.2780563780359736e-09,9.913986757595843e-10,6.494243427570306e-10,4.6560869060226655e-10,3.027422086706202e-10,1.7993097759849809e-10,1.200982958022138e-10,5.824420186328468e-11,3.983814724251018e-11,3.563752861349331e-11,1.9152144648930774e-11,6.691006568412027e-12,1.350561445411112e-11,-1.6889732579393236e-12,-8.40656447918833e-12,-1.5437179503496425e-11
0.0,11,11.0,0.0,30.0,0.0,0.0,0.0,0.0,-13.0,0.0,2.0,0.0,0.0,0.0,1.9129528416633353e-10,1.1558805943422799e-10,6.85014535983172e-11,4.227516632212373e-11,2.8630860610293175e-11,1.931150445835839e-11,1.334543582280413e-11,9.794148204560599e-12,4.038647404256632e-12,1.7394859832503196e-12,8.947475761000785e-13,1.7023597580692788e-12,1.2078839123422389e-12,-6.058622176875845e-13,9.335851263539257e-13,1.340615466836411e-12,1.832539402757102e-12,5.404919630271654e-09,4.342695917707328e-09,3.715143569813662e-09,2.5135670531058336e-09,1.904088039246504e-09,1.4015407867798786e-09,1.0014098948630013e-09,6.58106627274499e-10,4.454939138359365e-10,3.1788759080066967e-10,2.0716764085323644e-10,1.2696121172184139e-10,8.688878141250237e-11,5.799890934560712e-11,2.934017144356453e-11,2.3104304023424575e-11,1.2999828473024936e-11,2.401706046441761e-11,1.064677057389331e-11,4.035257984183944e-12,-1.595780631894833e-11
0.0,12,12.0,0.0,30.0,0.0,0.0,0.0,0.0,-13.0,0.0,2.0,0.0,0.0,0.0,1.949448382385868e-10,1.1638354554205599e-10,6.732805948271524e-11,4.233064247567779e-11,2.4769528970878278e-11,1.7191685169759254e-11,1.2467372322358988e-11,7.66543767107065e-12,6.1528110848630756e-12,2.91024895388437e-12,2.019621485708632e-12,1.943472466681434e-12,-9.811071257771863e-13,4.2331603883700417e-13,-1.7953878534162e-12,5.24456493646812e-13,1.5715851494505822e-12,5.15222389743092e-09,4.608260061658063e-09,3.8463986096230866e-09,2.8700092428741656e-09,1.7144807749138418e-09,1.4498046672166495e-09,1.0033553222232054e-09,7.667002775342195e-10,4.98937730216762e-10,3.100994635414783e-10,2.143739918167031e-10,1.1384242218634037e-10,9.210178212216574e-11,5.56539903167924e-11,2.8499766075400724e-11,2.0384908293434032e-11,2.2828373610538234e-11,1.2466123758812895e-11,1.2277481029142828e-11,-8.74806070473188e-13,-9.75355066602777e-12
0.0,13,13.0,0.0,30.0,0.0,0.0,0.0,0.0,-13.0,0.0,2.0,0.0,0.0,0.0,1.835767203809076e-10,1.0106058645420944e-10,6.369723383797251e-11,4.353476027289302e-11,2.6884534256663454e-11,1.7131771017075368e-11,1.2027522789351433e-11,9.098261743827776e-12,6.7219652912129856e-12,4.04318185828567e-12,2.2924464636547784e-12,9.82022319624653e-13,1.3838264978436845e-12,7.191689926959418e-13,7.264936352415784e-13,4.5024529045638686e-13,1.7412883281275505e-12,5.137015788437602e-09,4.941203418684284e-09,3.817644055618901e-09,2.793321824083513e-09,1.8886903212852383e-09,1.3467861131255161e-09,9.775610692288825e-10,6.990750230496508e-10,4.844967941631655e-10,3.5085444136455773e-10,1.8198552342033303e-10,1.2488417629683536e-10,7.012456435642048e-11,6.66821124866213e-11,4.055181190420574e-11,1.336181363999511e-11,2.909309851638186e-12,-1.7713768694799635e-12,2.7517485905512805e-12,-1.5218645386191801e-13,-7.6356203800547e-12
0.0,14,14.0,0.0,30.0,0.0,0.0,0.0,0.0,-13.0,0.0,2.0,0.0,0.0,0.0,2.0941353537536307e-10,1.1420560389488992e-10,7.138535289616404e-11,4.3323763641493086e-11,2.8578432945524366e-11,1.8862748808663124e-11,1.2904721873550516e-11,8.134406115706498e-12,5.431092552002635e-12,4.154604987512083e-12,1.714261599670808e-12,2.7212312784701213e-13,2.691690110345191e-12,1.0100850454790284e-12,1.3902683095284758e-12,1.7442068919082235e-12,4.956177815319985e-13,5.050059215745977e-09,4.154693752061457e-09,4.055633812288295e-09,2.7379883569922337e-09,1.8391511190754797e-09,1.3380084561638912e-09,1.0203083680161712e-09,7.096565855111141e-10,4.982436200236798e-10,3.0234859733510646e-10,2.0935037668314574e-10,1.2848573628533407e-10,7.917840764371808e-11,5.100990285215704e-11,3.478546003556508e-11,1.1130301402566964e-11,1.833115394301474e-12,-9.752146005946052e-13,1.1693611120447592e-11,1.780673873827045e-11,-9.774651193860958e-12
0.0,15,15.0,0.0,30.0,0.0,0.0,0.0,0.0,-13.0,0.0,2.0,0.0,0.0,0.0,1.9925231791311847e-10,1.118868703885049e-10,6.880234981563443e-11,4.082692996591031e-11,2.726063828608131e-11,1.9030263910028048e-11,8.76536247628791e-12,7.526869741224032e-12,5.274214110360532e-12,5.1403279244255535e-12,2.327542425879664e-12,5.420264267630719e-13,-2.7669652915162276e-13,2.0818343840398158e-12,6.068595939796043e-14,4.503805203261858e-13,1.7258723060587316e-12,5.180273669691254e-09,4.600267535180193e-09,3.612371974515023e-09,2.750625454162706e-09,1.948657523424108e-09,1.40827655207074e-09,1.0664730577047156e-09,6.7718982869195e-10,4.783875255236797e-10,3.191680372130629e-10,2.0880583060722932e-10,1.1070174274069613e-10,9.09926045980086e-11,7.534028619597257e-11,6.266690578189094e-11,2.307531113602984e-11,1.371398229484177e-11,9.216532036090229e-12,6.438156672844972e-12,6.6008292958362126e-12,-2.3501859304358115e-12
0.0,16,16.0,0.0,30.0,0.0,0.0,0.0,0.0,-13.0,0.0,2.0,0.0,0.0,0.0,1.9258173624953784e-10,1.1950167051583306e-10,6.08488032816453e-11,4.3665792966724344e-11,2.5431878808316114e-11,1.5214967355752577e-11,9.960664592520036e-12,7.942252472341352e-12,4.713197559848419e-12,3.1239593532860275e-12,2.6796721671397345e-12,1.2517223679871022e-12,1.9059386341150613e-12,9.50254949210154e-13,-5.196469317142987e-14,1.093312040198333e-12,4.506883040756321e-13,5.3275911013024275e-09,5.112516535559191e-09,3.68558291481196e-09,2.6610102472818847e-09,2.011878217400701e-09,1.3973793208283381e-09,1.0872948062267528e-09,7.902230115160168e-10,5.099713601674107e-10,3.3913612941157076e-10,2.1362995318132394e-10,1.6892802024807477e-10,9.081692009294845e-11,5.700932610875719e-11,3.4856209290779006e-11,2.905744325586837e-11,4.6241856549400165e-12,1.1922091377596797e-11,1.3027369987555765e-11,5.187670664356739e-12,-3.145104233470939e-13
0.0,17,17.0,0.0,30.0,0.0,0.0,0.0,0.0,-13.0,0.0,2.0,0.0,0.0,0.0,2.1900420873313255e-10,1.1806957562884726e-10,6.81620221132524e-11,3.964043590148628e-11,2.5060957323699815e-11,1.8270893398309764e-11,1.0132802889916453e-11,7.381136348514462e-12,7.136996160586948e-12,2.5258483395155847e-12,7.311455426700131e-13,-2.3026037360298755e-13,1.7045383833379363e-12,7.460728508787198e-13,-3.0672610609861734e-13,5.073478339448231e-13,-3.748569376696276e-13,5.5174802611484946e-09,4.941361978686301e-09,3.6083842771533104e-09,2.920201510553931e-09,2.1478893310366114e-09,1.552676606060165e-09,9.243083890032514e-10,7.530690162471952e-10,4.995430718462998e-10,3.404608315886615e-10,2.0948760508599967e-10,1.4518446803983165e-10,1.0246545589948776e-10,5.274817660663748e-11,1.832343548756524e-11,4.1115215791367776e-11,-4.747922810731737e-13,2.6739228945557538e-11,1.5045772531801148e-11,2.0064938473342336e-13,5.371934500699069e-12
0.0,18,18.0,0.0,30.0,0.0,0.0,0.0,0.0,-13.0,0.0,2.0,0.0,0.0,0.0,2.0318878403909945e-10,1.1644477474328637e-10,7.205320909847091e-11,4.031407022912347e-11,2.6054094332478854e-11,1.709220108327927e-11,7.378816236684925e-12,7.95613112090701e-12,2.2550712765473774e-12,3.957578498880787e-12,1.983652164238562e-12,2.7062806498500303e-12,1.991266199719105e-12,1.2759323308867745e-12,7.251685200882334e-13,1.6004734009604117e-12,3.215556923189227e-14,5.9452414329470915e-09,4.291364059908057e-09,3.654866282321231e-09,2.9138660497659517e-09,1.7966846909744614e-09,1.6374584619251241e-09,1.0746348258347869e-09,6.750291482998927e-10,5.289041219735061e-10,3.4390561653463465e-10,2.1438765893236873e-10,1.4921801529773e-10,7.976315440573068e-11,3.377433218843254e-11,3.101660084093832e-11,3.06202550663097e-11,2.1510675968864916e-11,-3.877356775403288e-12,4.5257249658810004e-12,-1.6586460858338205e-11,-6.786814333032166e-12
0.0,19,19.0,0.0,30.0,0.0,0.0,0.0,0.0,-13.0,0.0,2.0,0.0,0.0,0.0,2.1610532086364e-10,1.1969407960085082e-10,7.565141735707262e-11,4.1770718386735134e-11,2.4641845244539838e-11,1.5240813267774686e-11,1.004624359680308e-11,7.742875563598684e-12,5.0420032228799296e-12,2.862036976595177e-12,2.19620466899133e-12,1.2413929790237518e-12,-9.928954894227843e-13,1.3836472531068786e-12,-1.2386234395437048e-12,-1.066435141085961e-12,1.1902256637190982e-12,5.059677880229349e-09,4.903276524852401e-09,3.946968422959052e-09,2.87002516657025e-09,1.812152457824139e-09,1.548155427698423e-09,1.0135951398369376e-09,7.740543104327416e-10,4.724553162235984e-10,3.191936791081984e-10,2.349015645462505e-10,1.3993200385892662e-10,1.0108037406647566e-10,5.3306082408437535e-11,2.3353120584000628e-11,1.779697510824088e-11,1.527843209879634e-11,9.9154528722988e-12,7.155743497425963e-12,-1.1874798554992543e-12,9.986188343030208e-12
0.0,20,20.0,0.0,30.0,0.0,0.0,0.0,0.0,-13.0,0.0,2.0,0.0,0.0,0.0,2.2757106533670869e-10,1.221249214165279e-10,7.243852515219095e-11,3.889226538215194e-11,2.686776797261021e-11,1.738284585353292e-11,1.1425324601949276e-11,5.4217152099035335e-12,5.471760120317086e-12,2.2464026781309147e-12,2.587975509119791e-12,8.35426234746505e-13,2.5253969396313827e-12,1.712636935378338e-12,-1.5495996209129983e-12,1.812691647883368e-12,8.565249220834192e-13,5.877811561990809e-09,4.974657437104132e-09,3.3807016404423687e-09,2.675780859627596e-09,2.027131514253697e-09,1.567605764308872e-09,9.741671419366304e-10,7.283129116591307e-10,5.431142796753042e-10,3.58555051678392e-10,2.1802095884738425e-10,1.3724591500588414e-10,7.486757753709367e-11,5.4741702394732905e-11,4.163724015662725e-11,2.379063285083864e-11,5.59894970234639e-12,-2.3783260800259686e-12,-8.059058123472802e-12,4.96954933660578e-12,1.6067779009514596e-11
0.0,21,21.0,0.0,30.0,0.0,0.0,0.0,0.0,-13.0,0.0,2.0,0.0,0.0,0.0,2.2392407408089312e-10,1.3128948266826233e-10,7.489809275237341e-11,3.8444690233589386e-11,2.7102239073986658e-11,1.5275052431263073e-11,1.1603057414960044e-11,6.2830252397567396e-12,5.67539377121673e-12,1.798548700223722e-12,1.0172678872288305e-12,1.703026189090158e-12,1.0805166008736629e-12,1.5269229099117456e-12,5.068398033652964e-13,5.879472620948274e-13,2.9077272898643585e-13,5.19981894205492e-09,5.0689662849242245e-09,3.933556044758096e-09,2.9802671766641245e-09,2.0993468825738994e-09,1.4903023916452902e-09,1.0055375229487437e-09,7.746252424689645e-10,5.225643104917589e-10,3.4718254324197934e-10,2.423718038341481e-10,1.1339662468965361e-10,7.91146682599786e-11,5.035119539285422e-11,2.4656653707218174e-11,2.5043612422133336e-11,7.768588619578343e-12,1.2364440112903445e-11,1.220852904715915e-11,1.1123169268188022e-11,-5.6428121157231305e-12
0.0,22,22.0,0.0,30.0,0.0,0.0,0.0,0.0,-13.0,0.0,2.0,0.0,0.0,0.0,2.163583557723669e-10,1.2383969488031267e-10,7.063364410023996e-11,4.1720679053215666e-11,2.7079149774993447e-11,1.584249443812678e-11,1.1095126589654418e-11,6.122455854628979e-12,4.230451981749152e-12,1.146533848264364e-12,5.911738136206885e-13,8.344058990076489e-13,-6.439313402649647e-13,1.4772886439765052e-12,-7.492993366016025e-13,6.984033100160464e-13,-1.2211704776793967e-12,5.692322313281125e-09,4.4306802341009665e-09,3.819592632576729e-09,2.8729075672576468e-09,1.947158541016185e-09,1.32540943213652e-09,1.0329796027775643e-09,7.304475765137967e-10,5.153470286397237e-10,3.6008303827421163e-10,2.1966800903912216e-10,1.1129302874222764e-10,8.61270934240916e-11,4.8762851125640236e-11,3.8341934494801754e-11,1.4913954430452433e-11,2.706498388935608e-11,-1.4395130514916422e-11,1.2632571290858761e-11,4.420172056412115e-12,6.987656814724079e-12
0.0,23,23.0,0.0,30.0,0.0,0.0,0.0,0.0,-13.0,0.0,2.0,0.0,0.0,0.0,2.37446706679839e-10,1.2907456651395848e-10,6.613922283377627e-11,3.934004653052161e-11,2.8110338783394212e-11,1.5237075999940888e-11,1.1336646846966699e-11,6.151926380848177e-12,4.306334734747744e-12,4.11660892116336e-12,1.117492627391328e-12,3.2031459855974053e-12,2.5371424509289424e-12,-2.409020247873278e-13,-4.603261870605487e-13,-2.290442983958511e-13,-1.5215051537872816e-12,5.4934750951080175e-09,4.612993406451575e-09,3.784962427792687e-09,2.8852980882764314e-09,1.9630441042530657e-09,1.4362276388892198e-09,1.1060782854840964e-09,7.604814084398472e-10,5.533827804835376e-10,3.5648588213686e-10,2.029755683592099e-10,1.3313339103926038e-10,9.067961081697566e-11,5.481717793570786e-11,3.0028353728784097e-11,2.0919985349464326e-11,9.952739443018022e-12,7.37128130193486e-13,-2.4486932405393297e-12,-7.615896407031946e-12,-7.0363400414279785e-12
0.0,24,24.0,0.0,30.0,0.0,0.0,0.0,0.0,-13.0,0.0,2.0,0.0,0.0,0.0,2.3035358576896202e-10,1.1785270666184922e-10,7.344101867933419e-11,4.033007063623043e-11,2.748342476061905e-11,1.7494144073879246e-11,1.0556275114884245e-11,6.725630567000743e-12,5.292390361346602e-12,3.850379094772441e-12,2.7401040252246905e-12,1.5972041565904966e-12,2.4299911184265375e-12,-1.649753398449001e-12,-9.884053154260925e-14,9.86172252516099e-13,6.201522098674463e-13,6.296260585072933e-09,4.92859928420558e-09,4.01872465920147e-09,2.6596448917243918e-09,2.0518408802497577e-09,1.4738745870869228e-09,1.0984358717431864e-09,7.626140652026287e-10,5.045731516773111e-10,3.5741186069957614e-10,2.2560156692005815e-10,1.5412342027799588e-10,8.068366421687964e-11,5.218766564059042e-11,4.032453911905338e-11,1.3286319845016893e-11,1.1683503943893385e-11,-2.210475045851331e-11,9.407237981291154e-12,1.651916394307883e-11,-4.42154584881166e-12
0.0,25,25.0,0.0,30.0,0.0,0.0,0.0,0.0,-13.0,0.0,2.0,0.0,0.0,0.0,2.1619235843610372e-10,1.2411333752547282e-10,7.136345972906726e-11,4.391213245088364e-11,2.3908955252016528e-11,1.4339563713847418e-11,1.0696595441321593e-11,5.503559591959267e-12,3.398792783295561e-12,3.387264344630406e-12,2.0071879741769954e-12,8.458933422370245e-13,1.1602701751622116e-12,7.608132104276849e-13,-2.173605748557189e-13,-1.4745818495322366e-13,5.2209883691280794e-14,6.257003847746103e-09,4.633021304779758e-09,4.1265658534941665e-09,2.787071749829459e-09,2.1250002477071034e-09,1.5515282785525703e-09,1.0575381588213362e-09,8.226074358949e-10,4.804620383295188e-10,3.6150091639525784e-10,2.2050093471493143e-10,1.4528471957632347e-10,1.0088275106491731e-10,4.447040915897867e-11,4.647217606425106e-11,2.437224209235077e-11,1.1890443118474586e-11,-1.3778845620915582e-11,1.3452206461964006e-11,-1.3060346600693372e-11,1.1507722188547156e-11
0.0,26,26.0,0.0,30.0,0.0,0.0,0.0,0.0,-13.0,0.0,2.0,0.0,0.0,0.0,2.278486252711676e-10,1.1878044526504632e-10,7.490675810792057e-11,4.55630486622556e-11,2.8425588319029427e-11,1.7560292792868882e-11,9.275360322483979e-12,6.540737962446799e-12,3.734920836533207e-12,1.8393887387537513e-12,-3.979771610509204e-13,2.996818289257699e-12,1.9450006466820736e-13,-1.127332156794715e-12,-5.384984663422618e-13,-7.383814531582678e-13,4.151753979375751e-13,5.779628910967475e-09,4.921723571690161e-09,3.8563997804295825e-09,2.983831236593893e-09,2.219848828993255e-09,1.4553455846471723e-09,1.1289834018184855e-09,6.904335959632104e-10,4.892263681890427e-10,3.728061646884112e-10,2.2328262353917672e-10,1.4009121045895728e-10,9.500793779219861e-11,6.004453871257402e-11,3.786123860469314e-11,3.513749571588915e-11,7.287661790162127e-12,1.9449741855070364e-11,-9.257882722912282e-12,-1.5030886453077934e-11,-1.8879507321246297e-12
0.0,27,27.0,0.0,30.0,0.0,0.0,0.0,0.0,-13.0,0.0,2.0,0.0,0.0,0.0,2.352110241622653e-10,1.4409111563276419e-10,8.245786499456375e-11,4.446864313500837e-11,2.1877620842532612e-11,1.6391964224458148e-11,1.1442655337979726e-11,5.256133980951833e-12,3.4242024668642628e-12,2.653852854002064e-12,4.2442416870866305e-12,8.30934059482756e-13,9.841008473448937e-13,7.123123118662421e-13,-1.9330701876780398e-14,4.1218059964256297e-13,1.4573219985711176e-12,5.948834930044397e-09,5.070521086079144e-09,4.2120193153297515e-09,2.971105596224276e-09,2.180025364499298e-09,1.4380396748754122e-09,1.1379065425736132e-09,7.251417183991743e-10,4.870053385939158e-10,3.564634282936544e-10,2.3652069994262804e-10,1.319981722371366e-10,8.888226849820685e-11,5.605594605341148e-11,3.3881369463586536e-11,1.042234793645155e-11,5.042312314241388e-12,8.701054797548535e-12,-8.294246931583656e-12,5.9061826331859535e-12,2.1292621169478608e-11
0.0,28,28.0,0.0,30.0,0.0,0.0,0.0,0.0,-13.0,0.0,2.0,0.0,0.0,0.0,2.2114838400859183e-10,1.205274472372767e-10,8.418685191840131e-11,4.5661636902707096e-11,2.6923042214614922e-11,1.5663725368038765e-11,1.1056279170551336e-11,4.8076999055199646e-12,5.813610072820574e-12,3.4256593008697713e-12,1.0176466352885026e-12,1.790050960883825e-12,2.004684644140045e-12,1.9950264538777255e-13,1.7405904953252268e-12,-5.204866678210248e-13,3.743225260553627e-13,6.237372926080254e-09,4.5789618750845815e-09,4.009289149559874e-09,3.091802309834794e-09,2.129104647419802e-09,1.558083686603082e-09,1.112526849234421e-09,8.058762181193919e-10,5.00316514802317e-10,3.637291283087749e-10,2.467959082211535e-10,1.6058680371526755e-10,7.725777606959908e-11,3.896918884505199e-11,2.3039491007921213e-11,1.3331751142398219e-11,1.1767314045635608e-11,2.214419281467006e-12,1.1251388666600147e-11,2.5879687883117918e-12,3.825804979170818e-12
0.0,29,29.0,0.0,30.0,0.0,0.0,0.0,0.0,-13.0,0.0,2.0,0.0,0.0,0.0,2.1378098578512797e-10,1.4944103909755227e-10,7.383892609376558e-11,4.580037315164021e-11,2.7545966794622372e-11,1.48130514852347e-11,1.0723793871941811e-11,6.3733431057702695e-12,3.717084633340267e-12,2.3028829828947916e-12,3.4671583068911122e-12,1.480696743538186e-12,1.0964793319397988e-12,1.3796532960497828e-12,7.568700832686486e-13,-5.596597681405193e-13,4.879089740291598e-13,5.2584705572745e-09,4.9162034628174195e-09,4.005599918744091e-09,2.772275430827275e-09,2.054749326601079e-09,1.5144247604850022e-09,1.0883568556528274e-09,7.712267315866716e-10,5.332528990431377e-10,3.370635395271946e-10,2.2483870948035766e-10,1.5049714995000967e-10,8.804704614651047e-11,6.782738832556392e-11,2.899090947121204e-11,1.96467984640936e-11,2.043427630018197e-11,9.414435346257724e-12,1.9571969460680137e-11,2.0250182743197894e-12,1.740987988034067e-12
0.0,30,30.0,0.0,30.0,0.0,0.0,0.0,0.0,-13.0,0.0,2.0,0.0,0.0,0.0,2.1746691244539912e-10,1.2545365002090538e-10,7.082908274208115e-11,4.6993439699968815e-11,3.0093548995552725e-11,1.574104653244233e-11,1.0594516993101095e-11,7.386381970326254e-12,3.969888016683462e-12,3.7748698482724094e-12,1.5288526799516532e-12,-6.533609472489822e-13,7.732670861461229e-13,-1.8397747485301464e-13,7.833127189272349e-13,-1.1923199099469158e-12,8.557729468286551e-13,5.286144124465287e-09,5.1625250349525346e-09,4.269386766385995e-09,3.0431071732347893e-09,2.2531435308461807e-09,1.5181035690868887e-09,1.1698690135970827e-09,7.669701286213234e-10,5.408397417933699e-10,3.6731726952476165e-10,2.3746142574569775e-10,1.55858073406126e-10,1.0425646804735449e-10,7.70434398522484e-11,4.027219421636211e-11,3.247473282440264e-11,2.6781672215707578e-11,2.0824921983843886e-11,5.6946854361486664e-12,-9.000552067883692e-12,5.176831773216869e-12
0.0,31,31.0,0.0,30.0,0.0,0.0,0.0,0.0,-13.0,0.0,2.0,0.0,0.0,0.0,2.1622750455988456e-10,1.2253158422811338e-10,7.878689265156989e-11,4.608797773586136e-11,2.408313441917619e-11,1.8194880029958217e-11,9.361974115938232e-12,4.809595804065417e-12,4.849230394058408e-12,2.315857513854265e-12,2.249879575032859e-12,9.705673604440386e-13,-4.677116402795801e-13,3.45107697289868e-13,6.261648722702254e-13,-2.6079043957976757e-14,-2.44846665954889e-13,6.366009079254828e-09,4.8572510944590065e-09,4.1106068545023995e-09,3.100307447415924e-09,2.1692973077304788e-09,1.5408418283569144e-09,1.1151983857484173e-09,8.207661179626644e-10,5.526233140831111e-10,3.823859732895183e-10,2.6832157517174714e-10,1.5399925976400943e-10,8.142988451553862e-11,6.004906909848688e-11,3.241375175887732e-11,2.8702278626246504e-11,-1.0469804183396054e-11,2.2541781362441397e-11,-9.66856346393284e-12,-8.249352143789411e-12,-5.831283916413904e-12
0.0,32,32.0,0.0,30.0,0.0,0.0,0.0,0.0,-13.0,0.0,2.0,0.0,0.0,0.0,2.124983418390007e-10,1.3931700497232002e-10,7.11493128483207e-11,4.967546500843227e-11,2.586271487027703e-11,1.9474893162777195e-11,9.720112703440348e-12,6.0978751497572426e-12,4.389725136923999e-12,2.7018825581225247e-12,1.463407656361617e-12,2.1746501429897775e-12,1.3024431972045909e-12,1.2182612220333297e-12,7.899472727477733e-14,-1.3705841967089884e-12,8.740252439375343e-15,6.087480375709634e-09,5.101494300304759e-09,3.908211316649422e-09,2.9684322968302925e-09,2.121097575962062e-09,1.677480307689304e-09,1.143886712797407e-09,8.400652871337229e-10,4.902142279905547e-10,3.8762058980580766e-10,2.320902800225372e-10,1.6820086024205582e-10,8.242627932712405e-11,4.9974579213616075e-11,2.3745645707905112e-11,1.0713359948293187e-11,1.8410755014650006e-11,3.3055229640154873e-12,1.3867151934565897e-11,9.265005531217903e-12,1.8092488149368162e-12
0.0,33,33.0,0.0,30.0,0.0,0.0,0.0,0.0,-13.0,0.0,2.0,0.0,0.0,0.0,2.2543312529727383e-10,1.364635189531396e-10,7.248287732140346e-11,4.77953620658771e-11,2.7504768536165246e-11,1.7584070786885833e-11,1.104157266708789e-11,6.95361220600264e-12,4.921119890990259e-12,4.145106935618687e-12,4.799404634829086e-13,2.302405014428867e-12,2.224091083031416e-12,3.271641578442416e-13,4.75554044503897e-13,-1.7701598061139325e-12,-1.6737810142405287e-13,6.106765882934492e-09,4.945127415347187e-09,3.5981524169366752e-09,2.8122727000531946e-09,2.198683703596918e-09,1.5318929785988756e-09,1.1318330443638593e-09,8.23520166029615e-10,5.181606893626485e-10,3.667646146482312e-10,2.4047362889288414e-10,1.644625424826275e-10,9.922620579672041e-11,7.511872755294079e-11,4.233324547453367e-11,1.251435964878667e-11,1.1028771846320938e-11,1.192369569656132e-11,-2.8642709285377178e-12,-4.871217539964292e-12,-3.3937993660224965e-12
0.0,34,34.0,0.0,30.0,0.0,0.0,0.0,0.0,-13.0,0.0,2.0,0.0,0.0,0.0,2.331060942830869e-10,1.3593889159189308e-10,7.770295531882786e-11,5.3526753562504525e-11,3.0642124692533104e-11,1.735414246590765e-11,9.642130454898624e-12,5.761361942488453e-12,5.2378639741973795e-12,1.4979567746403777e-12,6.594687644375822e-13,2.352701371163196e-12,-8.222285936454984e-14,3.4194155983757945e-13,3.189050603343772e-13,1.1696860138365088e-12,3.4237315465993393e-13,6.347483454099351e-09,5.075616627481142e-09,4.520148316607655e-09,3.0797193155389517e-09,2.1055971060100463e-09,1.5739248637602837e-09,1.1062147994235376e-09,7.324869558189896e-10,5.478528941428235e-10,3.609627645540847e-10,2.4555853033251993e-10,1.637752372355035e-10,1.0148736720831894e-10,7.037897258081899e-11,3.883672320873476e-11,3.516555176385109e-11,5.3013718831166394e-12,1.1575033137549527e-11,-1.0256992662027645e-11,-4.391863647409075e-12,-1.9849842756699122e-11
0.0,35,35.0,0.0,30.0,0.0,0.0,0.0,0.0,-13.0,0.0,2.0,0.0,0.0,0.0,2.3088106372209368e-10,1.3811059722231524e-10,8.939529914614132e-11,5.1651410550973235e-11,2.766504608742965e-11,1.60864122830286e-11,8.939631016431018e-12,4.0523487015917155e-12,4.3866478725794176e-12,3.3087739774080893e-12,2.877989513620836e-13,2.4637802333215314e-14,-1.2900334432113987e-12,6.687201828517043e-13,9.53636638357992e-13,4.098436841282369e-13,-4.2189439703679974e-13,5.938309988543132e-09,4.934326544659398e-09,4.293014636108019e-09,3.0422698694083733e-09,2.2548412177151196e-09,1.513911731918159e-09,1.1290861889850422e-09,7.738307405650597e-10,5.421776346870059e-10,3.807184281761116e-10,2.372864448596968e-10,1.6380997180109414e-10,9.007648566613172e-11,6.598334559444334e-11,2.1591151558203167e-11,2.832262042582509e-11,1.8491088567348768e-11,1.9436799595735335e-11,1.6869832839584033e-11,-1.770934137765202e-11,-1.4490859791497503e-11
0.0,36,36.0,0.0,30.0,0.0,0.0,0.0,0.0,-13.0,0.0,2.0,0.0,0.0,0.0,2.4936469785252964e-10,1.3202104139868777e-10,8.060660191487209e-11,4.902996332350068e-11,2.6789238517325568e-11,1.790434003030189e-11,9.99195626025085e-12,3.5507615861424163e-12,3.136781857989677e-12,2.464286926612789e-12,2.0714350413819003e-12,5.860963861279726e-13,-3.097556584932685e-13,2.8040925579487758e-14,-8.978273707407066e-13,1.3762669714600604e-12,6.526810770632861e-13,6.357992456701151e-09,5.031111108512256e-09,4.294788780651798e-09,3.026180648531778e-09,2.293686568287132e-09,1.6162962153916383e-09,1.1253974229420032e-09,7.929077888921519e-10,5.372204884016419e-10,3.695197142509217e-10,2.2475364997504019e-10,1.6173740334421987e-10,1.100213748720745e-10,5.692158281291316e-11,2.437881377096353e-11,2.732426226350026e-11,1.1895812849432984e-12,5.032024392079482e-12,1.5392757931979697e-12,-9.672000140357194e-12,7.498408530931332e-12
0.0,37,37.0,0.0,30.0,0.0,0.0,0.0,0.0,-13.0,0.0,2.0,0.0,0.0,0.0,2.2466973137773496e-10,1.4627791994056485e-10,8.636852641601122e-11,4.7121512062091287e-11,2.7195610562549052e-11,1.5746630935124377e-11,8.207430825074302e-12,5.8518237253001096e-12,2.6974552519511137e-12,3.5426819921904137e-12,2.1073800090356265e-12,1.3941845168712364e-12,9.55255119588327e-13,9.930315376640402e-13,2.8035958818509244e-13,2.04430366606162e-12,1.076417927608491e-12,5.640125980336941e-09,5.35893618581226e-09,4.081791094997409e-09,2.713176907275777e-09,2.48169798794836e-09,1.7054786396335728e-09,1.0252330818924187e-09,7.753191189802374e-10,5.993009169865997e-10,3.5236690167997626e-10,2.460643319704054e-10,1.6726514738482128e-10,1.0318682115789357e-10,7.69915256865677e-11,3.934679565899195e-11,5.33611147181574e-11,1.0224689665930273e-11,1.1201809931545404e-11,1.3278058146822505e-12,3.217486570167979e-12,-4.144762795360617e-13
0.0,38,38.0,0.0,30.0,0.0,0.0,0.0,0.0,-13.0,0.0,2.0,0.0,0.0,0.0,2.268443480379683e-10,1.4392978588513083e-10,7.961120981294675e-11,4.361674714156081e-11,2.971234158987127e-11,1.68768542844072e-11,1.025360155908947e-11,5.981009496319461e-12,4.198135886212519e-12,8.81224362521595e-13,1.6725657789598766e-12,1.3190065145316477e-12,1.1947060638681679e-12,-4.795781495539833e-13,4.251491847729989e-13,-1.484844572926366e-13,7.08335414155205e-13,6.082190294065578e-09,5.11591123546832e-09,4.259898502144854e-09,3.198134841661436e-09,2.3164547401513945e-09,1.5944247183241816e-09,1.1933825071711797e-09,8.344623939397579e-10,5.425214881405181e-10,3.657961875611645e-10,2.735699020353278e-10,1.765940680837134e-10,1.0866921089033939e-10,5.573383661649205e-11,4.668432226105629e-11,8.902945681728117e-12,2.4403898792673215e-11,-9.828419618188448e-12,-2.1795512670707495e-12,2.6472937004195046e-11,1.1254284098068097e-12
0.0,39,39.0,0.0,30.0,0.0,0.0,0.0,0.0,-13.0,0.0,2.0,0.0,0.0,0.0,2.372033217306597e-10,1.3270156833428738e-10,7.88559360469406e-11,4.7309439154895646e-11,2.9036612004837268e-11,1.6910107085056675e-11,1.0170513358188147e-11,5.0463146024877004e-12,6.9343937256936584e-12,3.263383444086695e-12,2.0790996932537788e-12,2.1395540701980005e-12,-8.624523979857098e-13,1.5097444535376016e-12,-2.9762814454780697e-13,-7.193396187085036e-13,-1.4203550793200933e-12,5.843875993232339e-09,5.179411811894598e-09,4.189086498420767e-09,3.1211671363397315e-09,2.3448893948726746e-09,1.630028808052612e-09,1.1559053236870213e-09,7.429927793893554e-10,5.839463795191885e-10,3.520562437732439e-10,2.6328658569640673e-10,1.489264313618525e-10,1.1247799093691584e-10,7.156562246907002e-11,5.652431383883585e-11,3.562314058954868e-11,1.1267073480190605e-11,5.735683333565372e-12,-1.8839968051686544e-12,-3.4285632372265558e-12,-1.6344639677391656e-11
0.0,40,40.0,0.0,30.0,0.0,0.0,0.0,0.0,-13.0,0.0,2.0,0.0,0.0,0.0,2.3889317663943203e-10,1.4237450587550735e-10,8.033446284183092e-11,5.3321873256123305e-11,3.3869746457715316e-11,1.511232734377389e-11,1.1316949381489449e-11,6.392388773989581e-12,3.700463499300871e-12,3.070305588826012e-12,1.7100859076767291e-12,8.098919174551514e-13,9.730406848642373e-13,1.6753061599128321e-12,2.8863326189586424e-13,3.6044661856703603e-13,-1.0579012910545e-12,6.029654394602273e-09,5.372583493194266e-09,4.1876898223621425e-09,3.2211327418572085e-09,2.477066972055015e-09,1.5908947988497873e-09,1.124669885218351e-09,7.943582860808589e-10,5.35660781867118e-10,4.0364386856949157e-10,2.446616076032095e-10,1.648535004656928e-10,1.0749685156202107e-10,6.368182713346153e-11,3.983637306655141e-11,7.874151881078061e-12,1.8450474644520235e-11,8.858284331165177e-12,9.011616614958995e-12,1.1135499927541728e-11,1.1463581409955089e-11
0.0,41,41.0,0.0,30.0,0.0,0.0,0.0,0.0,-13.0,0.0,2.0,0.0,0.0,0.0,2.3843721310830805e-10,1.445072751325678e-10,8.528664651670231e-11,5.073052943423451e-11,2.831971824773861e-11,1.633672116787064e-11,8.622318289868268e-12,6.206829712861565e-12,3.8304879004932494e-12,3.6023211770379358e-12,1.9413920019030243e-12,2.217797651292912e-12,2.7803569127007575e-13,-1.1945616991419038e-12,2.667760005912834e-13,1.0494704769521515e-12,2.3981476864068745e-13,6.3369234090619385e-09,5.134686372652545e-09,4.576301454604014e-09,3.2279964884031877e-09,2.272802938184766e-09,1.6707072624885937e-09,1.2540704607836992e-09,7.752955969606503e-10,5.804456372350162e-10,3.897679907321174e-10,2.483323002407814e-10,1.5198924626862998e-10,1.0242689710824006e-10,5.983678457513854e-11,4.2521496785904445e-11,1.668662733055512e-11,1.866623292517035e-11,1.828574409491013e-11,8.562485267936071e-12,-1.2335032902101139e-11,-2.4101954077863312e-12
0.0,42,42.0,0.0,30.0,0.0,0.0,0.0,0.0,-13.0,0.0,2.0,0.0,0.0,0.0,2.388822434584623e-10,1.4046929055468343e-10,8.835810249858809e-11,5.264339343368536e-11,3.120125485961231e-11,1.684205267984829e-11,9.576357748476156e-12,6.982267992477836e-12,4.631314206622035e-12,3.5617720101661705e-12,7.759150175201514e-13,8.371090278558336e-13,2.283199813411607e-13,-6.022860105687287e-13,3.9413571632539057e-13,-3.313223118572457e-13,9.536327577113652e-13,6.290574190404685e-09,4.863155404004646e-09,4.3617047781109306e-09,3.3560165924152773e-09,2.3864432278242077e-09,1.571432136453513e-09,1.258803845450157e-09,8.354156232983305e-10,5.022115585971905e-10,3.72946046193756e-10,2.2784593187315725e-10,1.508312235564779e-10,9.001316048490975e-11,7.140624556539263e-11,4.6865459875711e-11,3.0352406007254784e-11,1.1156975488615065e-11,6.576719964255818e-12,1.287177391213103e-11,9.448060937127182e-12,1.201230504250113e-12
0.0,43,43.0,0.0,30.0,0.0,0.0,0.0,0.0,-13.0,0.0,2.0,0.0,0.0,0.0,2.4980820462868323e-10,1.3647088030266542e-10,8.544781062698417e-11,4.714861612828354e-11,2.5425354563719668e-11,1.805329861506133e-11,9.905887525362045e-12,6.714253076104288e-12,4.602965740026061e-12,1.349917820722283e-12,1.5361542957909806e-12,1.5757237976116935e-12,6.664966258955451e-13,2.3333099083082453e-13,7.477746248145016e-13,7.24619462380005e-14,-4.1055409819045673e-13,6.5914028779856066e-09,5.304014710178017e-09,4.116623987148289e-09,3.20195797892944e-09,2.3707871442817142e-09,1.6656442482813924e-09,1.2095042549280171e-09,8.899308434357271e-10,5.845519044041602e-10,3.6685972409672785e-10,2.3980762764104996e-10,1.5012255984808438e-10,1.0658943754787015e-10,7.384012547522065e-11,3.030199677657073e-11,2.9322416781723265e-11,2.2063836674405598e-11,1.1570505958942763e-11,-2.580659446562055e-12,2.8358047747782243e-12,3.3664560735478775e-12
0.0,44,44.0,0.0,30.0,0.0,0.0,0.0,0.0,-13.0,0.0,2.0,0.0,0.0,0.0,2.1195725037113403e-10,1.4889039533410563e-10,7.702953406388666e-11,4.9975063679197256e-11,2.7936471267291325e-11,1.5878143401333178e-11,1.0185717784245276e-11,5.802754838339521e-12,3.1213921427169598e-12,3.1611459938689727e-12,5.573083590421581e-14,2.6099073722750074e-13,1.3539985036621996e-12,1.973692301754666e-12,1.1384759766553317e-12,6.211279177988617e-13,-9.668366950466182e-13,6.240423439965831e-09,4.997197369889362e-09,4.4736122729346956e-09,3.2360166898411934e-09,2.22829768592775e-09,1.7004581996154032e-09,1.090955633440627e-09,7.681729667751402e-10,5.201708150384698e-10,3.629301978866366e-10,2.2339766424441933e-10,1.4186305329916813e-10,1.1731411964084597e-10,3.839900518695221e-11,3.737314737661488e-11,1.9589364900469443e-11,-4.510874783723176e-13,6.831141818474181e-12,1.5226273067465034e-11,3.8442609010959405e-12,1.8609942232517955e-12
0.0,45,45.0,0.0,30.0,0.0,0.0,0.0,0.0,-13.0,0.0,2.0,0.0,0.0,0.0,2.3711612880324024e-10,1.4339179517177855e-10,9.093736553049068e-11,5.215555619612688e-11,3.1014816779111596e-11,1.6869696731534136e-11,1.0548949937814686e-11,6.204122341178822e-12,2.4155141498030826e-12,3.398281500497348e-12,2.127546484898303e-12,5.975007621349495e-13,1.835124362171515e-12,-6.296566587085467e-13,4.3656501550150985e-13,1.3488452914929585e-12,1.2758149984338662e-12,6.097552752903227e-09,5.585264968640701e-09,4.475532974273609e-09,3.044163233143121e-09,2.282412578374697e-09,1.6094962146755786e-09,1.3360242776552636e-09,7.858749865201843e-10,5.440616742349059e-10,3.735256811680034e-10,2.2997120850564034e-10,1.9147613147788537e-10,9.867521005977472e-11,4.614944759608147e-11,3.853990966930477e-11,1.9963376637504646e-11,2.7305076412530337e-11,7.299287244380155e-12,-2.1136191285470284e-11,-1.0076662396742668e-11,1.1051280122307824e-12
0.0,46,46.0,0.0,30.0,0.0,0.0,0.0,0.0,-13.0,0.0,2.0,0.0,0.0,0.0,2.2304906732058062e-10,1.2969703044054234e-10,8.247986958824848e-11,5.332509327703493e-11,2.78217877499327e-11,1.7473371218037074e-11,9.961789026139949e-12,5.342662999423569e-12,3.7812459017890325e-12,1.765828914858822e-12,2.9452268369222472e-12,-3.4108715857827885e-13,1.184712155429833e-13,7.573377047797329e-13,3.084253103434423e-14,-2.2803975347942737e-13,1.023469790719402e-12,6.584473767323821e-09,5.59336746176894e-09,4.216442516044312e-09,3.0324957138098236e-09,2.340066027813462e-09,1.5527787404056418e-09,1.1710425323220358e-09,9.11030459922977e-10,5.773785718146859e-10,3.9274421137093055e-10,2.41342240618012e-10,1.6772899418858252e-10,1.1814756216784886e-10,7.380982875308243e-11,3.1559686162671574e-11,1.3376724996348484e-11,2.3572724792904382e-11,-3.5680074414090754e-13,5.861642062519862e-12,-3.42279106883397e-12,1.8225935108540356e-11
0.0,47,47.0,0.0,30.0,0.0,0.0,0.0,0.0,-13.0,0.0,2.0,0.0,0.0,0.0,2.3614626599307713e-10,1.3755921912319292e-10,8.211818652379165e-11,5.018990606387798e-11,2.973466880300009e-11,1.8100569033370757e-11,8.87231999747711e-12,7.686223649325603e-12,3.483366537616232e-12,2.0125955424091432e-12,3.1160772462969897e-13,7.647524800270349e-13,-4.879173846459223e-13,-7.332918550970448e-14,6.813891397028155e-13,1.5021449708497934e-13,2.412594372092733e-13,6.091839759024062e-09,5.171295321231469e-09,4.024802911861761e-09,3.1889351937026976e-09,2.274465587138229e-09,1.6781356432085604e-09,1.1397984268688482e-09,8.362736792511109e-10,5.803722943579838e-10,3.9000741784907674e-10,2.405622168949014e-10,1.5099287536986282e-10,1.2009409072026596e-10,6.692280264074478e-11,3.594611832418029e-11,2.4274779154513613e-11,-9.184155061362612e-12,2.3746002261440483e-12,-4.161195719037946e-12,1.3930623344498438e-12,4.287270967870588e-12
0.0,48,48.0,0.0,30.0,0.0,0.0,0.0,0.0,-13.0,0.0,2.0,0.0,0.0,0.0,2.405922904508335e-10,1.5085636425195658e-10,9.103496802370085e-11,5.19883093478631e-11,3.131194827331292e-11,1.8919081098926566e-11,1.1208906124943565e-11,6.387895588600842e-12,4.785017093036477e-12,2.520199807977108e-12,-7.19524812341038e-13,3.721229629203729e-12,6.014402411560053e-13,-1.5734103905989906e-13,5.4865009729632755e-14,-1.3687124897111848e-12,-2.732715330015243e-13,6.4949117641105535e-09,5.066821031655599e-09,4.376008456726928e-09,3.120598781981122e-09,2.2820214799284393e-09,1.6594001067918163e-09,1.2487280214246564e-09,8.004548715414731e-10,5.746695425818545e-10,3.8935357013109493e-10,2.684739003718787e-10,1.5307804663547163e-10,9.258254249569044e-11,5.2326225304194404e-11,3.311377040734942e-11,4.9378709650405394e-11,-2.0200427061711182e-13,5.962361550106263e-12,1.4106606962833014e-11,-7.131595346932934e-12,2.5393755284463776e-12
0.0,49,49.0,0.0,30.0,0.0,0.0,0.0,0.0,-13.0,0.0,2.0,0.0,0.0,0.0,2.437289212479346e-10,1.4434802650989546e-10,7.656489878354927e-11,5.186669606156551e-11,3.057626408889881e-11,1.757941533912392e-11,1.1034704368756763e-11,5.988872309978261e-12,4.147115501865188e-12,2.17568209904303e-12,1.3108907872512738e-12,2.2778695141873774e-12,-5.007388961416442e-14,-2.1677327965703494e-13,-4.94312355911864e-13,-6.011869185004419e-13,-4.2953357465802386e-13,6.650778570752077e-09,5.652978738190998e-09,4.464772692595834e-09,3.312452502034674e-09,2.3661631893678863e-09,1.7944219861658936e-09,1.2398877319734143e-09,8.557419838567189e-10,5.796766070894267e-10,3.9425097231643383e-10,2.6792392373075427e-10,1.4558588704273483e-10,1.0745653107556542e-10,5.888965882052734e-11,4.5586209893462443e-11,2.9526536092917784e-11,1.0942417722253559e-11,3.2052587273062656e-11,-6.378104129759511e-12,2.91494126743613e-12,3.1883460372236966e-12
0.0,50,50.0,0.0,30.0,0.0,0.0,0.0,0.0,-13.0,0.0,2.0,0.0,0.0,0.0,2.456991844252929e-10,1.3500954462688312e-10,8.628139509585949e-11,5.516656238532269e-11,3.2736675934927635e-11,1.489233607361475e-11,1.0541239842203281e-11,3.197515776077411e-12,4.389853133076497e-12,1.4862566929282791e-12,3.386993302494717e-12,5.585374828977983e-13,1.659691211475581e-13,1.5029276312250442e-12,-5.36876686314906e-13,5.367614463234714e-13,4.362601640452305e-13,6.169853303983614e-09,5.303829022034177e-09,4.355195641455847e-09,3.5726114415324517e-09,2.481731682357652e-09,1.7044345338620238e-09,1.164892822099881e-09,8.775517658758083e-10,5.598419425134258e-10,3.8069446650020934e-10,2.626473359313113e-10,1.6211274417557602e-10,9.478303575643857e-11,4.910865209522728e-11,2.9022680593196346e-11,2.5670936775089293e-11,1.1522861800511401e-11,2.1038038282858066e-11,2.2949615050135494e-11,-6.475732439829983e-13,-1.1004528549365222e-11
0.0,51,51.0,0.0,30.0,0.0,0.0,0.0,0.0,-13.0,0.0,2.0,0.0,0.0,0.0,2.5103353768728646e-10,1.4161874686475892e-10,8.746840628167163e-11,5.033965690305305e-11,2.980254673773434e-11,1.7871843252799258e-11,9.65515254677588e-12,4.914554392120406e-12,4.185095300454382e-12,2.630532761004472e-12,1.5787015026910013e-12,9.592387444020477e-13,-1.08354245261068e-13,1.3292235132217224e-12,5.3594687795540724e-15,-1.197916041593387e-13,-1.1444663073976891e-13,5.848817921860567e-09,5.654123663226223e-09,4.559860025210505e-09,3.264697356155927e-09,2.231255355076832e-09,1.809316573110035e-09,1.187354994209309e-09,7.675697094472757e-10,5.488048490736303e-10,4.050584454738095e-10,2.644734290202331e-10,1.4498902027699405e-10,9.894264964334221e-11,8.489535247789238e-11,2.2713701707832343e-11,1.6389542755670055e-11,1.3717512371049897e-11,-5.780833374772828e-12,2.1276790486255352e-11,3.4002591105370687e-12,6.36442328142095e-13
0.0,52,52.0,0.0,30.0,0.0,0.0,0.0,0.0,-13.0,0.0,2.0,0.0,0.0,0.0,2.603601120189205e-10,1.555927983983493e-10,8.916482977086465e-11,4.9037628636668445e-11,3.4205074866190124e-11,1.7857035188600454e-11,1.0582464763129314e-11,6.171231425108099e-12,3.7349386873633765e-12,2.002049153775257e-12,1.2991383246893225e-12,-2.2396719490526021e-13,6.638566629021981e-13,2.036780363656127e-12,-8.841988479868179e-13,7.275739433915004e-13,1.4230742492224533e-13,6.950316797156243e-09,5.230748904411252e-09,4.687504072954369e-09,3.3312049000961756e-09,2.3016886036337284e-09,1.7086162245293548e-09,1.2192517165314227e-09,8.148333499129741e-10,6.519169245804606e-10,3.48115400259332e-10,2.7292152412124824e-10,1.5828492225585325e-10,1.1328577747824293e-10,6.794322150535707e-11,5.121927524234255e-11,7.255341874073034e-12,-6.49868801518129e-12,1.591536345923874e-11,3.252961874551689e-12,-7.352375222535664e-12,1.4209654771442646e-11
0.0,53,53.0,0.0,30.0,0.0,0.0,0.0,0.0,-13.0,0.0,2.0,0.0,0.0,0.0,2.538952872128841e-10,1.4021458221276344e-10,8.627528138974645e-11,5.534333529154817e-11,3.153446527059561e-11,1.7027406798458718e-11,1.088090531202772e-11,4.230683132289519e-12,2.70777951359027e-12,1.929714253192916e-12,3.70026561490231e-12,3.864401949217374e-13,1.6655371001867299e-12,1.1304553804829996e-12,-2.6032974623493656e-13,6.714195210905723e-13,-1.805383713022958e-13,7.147291488249194e-09,5.92805782093545e-09,3.690396886227088e-09,3.39425141880176e-09,2.4097497760145e-09,1.7272644329487187e-09,1.3008063251424294e-09,8.393793390006112e-10,5.891482289827263e-10,4.358243759731586e-10,2.6590946161904055e-10,1.6243433043067345e-10,1.1234853612296236e-10,7.711301480751578e-11,4.083986895121666e-11,3.380798414265529e-11,2.3763770953941824e-11,1.289900609862701e-11,1.081955959537026e-11,-3.965511329715021e-12,6.736408889858358e-12
0.0,54,54.0,0.0,30.0,0.0,0.0,0.0,0.0,-13.0,0.0,2.0,0.0,0.0,0.0,2.710831877859085e-10,1.4863918133425286e-10,8.99400627595419e-11,5.23846193183884e-11,3.382390222346607e-11,1.6708742984916676e-11,1.0145755340968184e-11,4.8272783353011155e-12,4.395720287013e-12,1.5134419456191145e-12,1.5459607124937097e-13,-1.640344564701607e-13,2.173628674187219e-13,-5.703890283898926e-13,2.6178879644219855e-13,1.1833752789677128e-12,2.194490336279934e-12,6.554050469896432e-09,5.792285619736319e-09,4.51084367222444e-09,3.3443764733021676e-09,2.214390335788638e-09,1.5448225791664695e-09,1.2264707827353752e-09,8.179488697408643e-10,5.544420201338393e-10,3.4671150576133644e-10,2.731267378926367e-10,1.468174521089307e-10,1.2794587455848647e-10,7.71554187191787e-11,3.454356841976807e-11,3.909341934190031e-11,1.8718169834129964e-11,-6.053247381574696e-12,2.1825988901086167e-11,9.060633106416373e-12,5.3438507983454014e-12
0.0,55,55.0,0.0,30.0,0.0,0.0,0.0,0.0,-13.0,0.0,2.0,0.0,0.0,0.0,2.716879816392287e-10,1.5257694004767553e-10,8.64398960341678e-11,5.0934880125516733e-11,3.3310911928348635e-11,1.842451011789184e-11,8.377795134608427e-12,6.183090223953284e-12,4.229880641691988e-12,1.5508369869081746e-12,2.9687768652440634e-12,1.6289425604548844e-12,5.618023695857153e-13,6.498131189865884e-13,1.1296187754821006e-12,-5.420162501251127e-13,6.033691176136984e-13,6.466402155043279e-09,6.046092113684935e-09,4.666042196560669e-09,3.5980863109687578e-09,2.307955723905717e-09,1.7919128089734144e-09,1.2477304887088282e-09,8.964428493313465e-10,5.930464226651153e-10,4.3234535257102016e-10,2.647800059962504e-10,1.4629747910946117e-10,1.0036916544375652e-10,6.008615415555603e-11,4.6814324610392245e-11,3.356303781169346e-11,-8.305855645730524e-12,1.2246583654176768e-11,-6.922153478301487e-12,1.5216303797967933e-11,2.6835148146288532e-12
0.0,56,56.0,0.0,30.0,0.0,0.0,0.0,0.0,-13.0,0.0,2.0,0.0,0.0,0.0,2.6097606952807524e-10,1.5294539584098528e-10,9.045570426659778e-11,5.5249517171746337e-11,3.1022813509520486e-11,1.9141269262031076e-11,1.2793454886968583e-11,6.084227057818594e-12,4.241456377188508e-12,2.073861792065841e-12,1.0224433542777926e-12,1.4658221487219338e-13,1.429149095865983e-13,5.640514933036814e-13,2.2857014499000003e-12,1.5329186319753069e-12,1.0429643536051499e-12,6.956220808861923e-09,6.139299457552583e-09,4.399824803197868e-09,3.6627015139287167e-09,2.5462353118372753e-09,1.7231362570432028e-09,1.218287686830246e-09,8.675930087975083e-10,5.766613871633292e-10,4.1572208985155736e-10,2.602463411082589e-10,1.7548037340962235e-10,9.899640783481793e-11,6.116413417786288e-11,5.511164744376068e-11,2.8844150232946942e-11,2.3872451511529968e-11,-3.3701041668751428e-12,1.2873506279024872e-12,-7.291649305700926e-12,1.4510487462098491e-11
0.0,57,57.0,0.0,30.0,0.0,0.0,0.0,0.0,-13.0,0.0,2.0,0.0,0.0,0.0,2.4820041059793826e-10,1.5751273558827598e-10,8.3991036964434e-11,5.519113679325033e-11,3.340573873200972e-11,1.9733767893819213e-11,1.0334828352483952e-11,6.473155019369898e-12,3.062725788176447e-12,2.8192216519176304e-12,6.673723132145405e-13,3.050969057876714e-13,-2.7074638366836972e-14,2.4227159211741762e-12,1.7794265522617297e-12,4.492018066681347e-13,8.060737490084288e-13,7.428989353829062e-09,6.192535152285194e-09,4.511120994814e-09,3.3718358017368255e-09,2.4521234898464828e-09,1.7873480812108877e-09,1.1760830143382102e-09,8.051662086710779e-10,6.118469386698979e-10,3.8866481912372363e-10,2.7334063804693203e-10,1.733638237242624e-10,9.745118584918567e-11,7.950607405325534e-11,4.817817406388922e-11,4.0205707996299866e-11,1.6737674770688713e-11,-2.9676265685247005e-12,-1.3430526443131852e-11,2.223061420855811e-12,-9.715714203570253e-12
0.0,58,58.0,0.0,30.0,0.0,0.0,0.0,0.0,-13.0,0.0,2.0,0.0,0.0,0.0,2.55281121750976e-10,1.356122816220794e-10,8.906019167034783e-11,5.16363138539432e-11,3.1495276405594663e-11,1.8670192044610138e-11,1.303996846839238e-11,4.349843041187668e-12,4.5581718054672684e-12,2.2854714319910696e-12,2.1098643242579157e-12,1.530843147822124e-12,7.654883074900047e-13,-5.483439669402348e-13,1.2227858779867779e-12,-4.594292820069416e-13,3.260126230126579e-13,6.881761444786666e-09,5.7109629059653755e-09,5.022386893971245e-09,3.2894096234814014e-09,2.587773980558774e-09,1.787019994136247e-09,1.2647775910640184e-09,9.090627330813303e-10,5.636306095592833e-10,4.5036386719192495e-10,2.666505070071865e-10,1.909612802393924e-10,1.1292946617168646e-10,5.621306598877196e-11,6.045928384284356e-11,6.292966561071208e-12,2.9643513869152645e-12,-2.9215217479051337e-12,8.626276751622175e-12,1.121738652398296e-11,4.704571131027295e-12
0.0,59,59.0,0.0,30.0,0.0,0.0,0.0,0.0,-13.0,0.0,2.0,0.0,0.0,0.0,2.404496470464232e-10,1.4071825259899972e-10,9.447024049622838e-11,5.66804668092574e-11,3.2880467381617726e-11,1.9368905481760495e-11,1.1967826123867509e-11,4.057973584551358e-12,3.5545174627029127e-12,1.827189430956211e-12,-4.66493301772964e-13,-6.184648628295194e-13,-4.156241854508518e-13,-4.1856026615488293e-13,2.791346412500915e-13,-1.464919224376002e-12,6.222403973235749e-13,6.81855892380572e-09,5.48181988404567e-09,4.650343216663826e-09,3.2996668194691543e-09,2.729477193551915e-09,1.8684713235773956e-09,1.2710630770788667e-09,8.785385914323271e-10,6.290574166530526e-10,3.930307571415467e-10,2.481009697656772e-10,1.6239105188968449e-10,1.0934768334837149e-10,8.296507270431527e-11,5.085454647734545e-11,4.9008160716475843e-11,2.517204550410765e-11,9.260002057526777e-13,1.7041225077328226e-11,1.0622374189030456e-11,2.3599163033261213e-12
0.0,60,60.0,0.0,30.0,0.0,0.0,0.0,0.0,-13.0,0.0,2.0,0.0,0.0,0.0,2.655806086074318e-10,1.5407375165633493e-10,9.309484768992207e-11,5.086548940197152e-11,3.019222099116196e-11,1.674268089330606e-11,1.0746959912068069e-11,7.851896716495016e-12,6.3011709436239295e-12,3.809682658931654e-12,2.125310619077018e-12,1.0220076091177437e-12,-3.4542968558885876e-13,6.763510947381073e-13,2.382174791184426e-13,-7.449660189306444e-13,-2.872257509809739e-13,7.033217533723612e-09,6.0704111053302215e-09,4.40011865451449e-09,3.720969612988561e-09,2.4896734847399988e-09,1.8298796891398911e-09,1.2422010643916207e-09,8.209666259358525e-10,5.790193816626256e-10,4.692936106308e-10,2.455343896016758e-10,1.8121061157441837e-10,1.231761527184716e-10,7.464192986914609e-11,4.642926643226239e-11,2.6305165612032927e-11,1.0824750405661845e-12,2.267868250455866e-11,2.0669796049576207e-11,3.2831201169251533e-12,6.6872760560788715e-12
0.0,61,61.0,0.0,30.0,0.0,0.0,0.0,0.0,-13.0,0.0,2.0,0.0,0.0,0.0,2.474008211424037e-10,1.5460157750990984e-10,8.759365274759522e-11,5.454293277444214e-11,2.9630990227365443e-11,1.7715552446259985e-11,1.2289518598492609e-11,6.652376116941889e-12,4.21760770530693e-12,2.759461211219495e-12,1.3261986837164149e-12,1.2560740006865072e-12,1.2915782295641357e-12,3.3664596669973434e-12,2.3542297282213606e-13,-3.81647582942428e-13,-7.610617498775156e-13,6.917548863323696e-09,6.127828706752513e-09,4.419529398375466e-09,3.3135598960307646e-09,2.476450056215857e-09,1.836301311611467e-09,1.3032224832279458e-09,8.54445902314401e-10,5.867559908361014e-10,4.075407505728191e-10,2.9613329512823547e-10,1.7426847980718804e-10,1.2373991234308986e-10,7.657097998655834e-11,4.45111401246932e-11,4.9446262217777574e-11,1.4530231873928135e-11,9.859384052785379e-12,6.245436979067947e-12,-5.621548199356257e-12,9.489348989970906e-13
0.0,62,62.0,0.0,30.0,0.0,0.0,0.0,0.0,-13.0,0.0,2.0,0.0,0.0,0.0,2.723233819300765e-10,1.4821870475705253e-10,9.507576186565914e-11,5.4342116653036886e-11,3.4045277877756854e-11,1.813676167974072e-11,1.1105374039951493e-11,7.287335898726026e-12,2.8742895874272013e-12,1.15657365330307e-12,2.393262873825734e-12,2.0459187494020572e-13,-1.033496917189447e-12,-3.9990904001111224e-14,5.179139563790665e-13,-8.164659269157703e-13,-1.2812796304392834e-12,7.387787793561999e-09,6.061846318153991e-09,4.451931045000164e-09,3.629142486992447e-09,2.509058715967021e-09,1.7871372362997918e-09,1.3273816730665254e-09,8.629028871953697e-10,5.09541897088782e-10,4.145455924652807e-10,2.453999134884422e-10,1.8691470277432322e-10,1.0670205977921511e-10,6.571577711331881e-11,4.4368909608322925e-11,1.359452250827334e-11,2.2776525394241733e-11,1.0689848192106972e-11,3.477733031277936e-11,-1.1263203312190926e-11,1.2548712063902123e-11
0.0,63,63.0,0.0,30.0,0.0,0.0,0.0,0.0,-13.0,0.0,2.0,0.0,0.0,0.0,2.721944441616921e-10,1.464860170397104e-10,8.578918275452086e-11,5.507548036734303e-11,3.438844763747229e-11,2.06524058599692e-11,1.1751424402496886e-11,8.485430233965755e-12,3.5516198477424832e-12,2.231378607906451e-12,1.556738650733465e-12,1.4655684925205228e-12,1.3803420082895637e-12,-4.894769820449399e-13,-5.571890438542557e-13,5.825286558175067e-13,-1.0699904433654564e-12,7.30030065913549e-09,5.9924855570007506e-09,4.821758038749142e-09,3.6429442730590496e-09,2.737380232680226e-09,1.6826017345320074e-09,1.1459556127528496e-09,8.744053423221887e-10,5.859947733863109e-10,4.0352737787899126e-10,3.0198842399062606e-10,1.7893951004802587e-10,1.0794565218441659e-10,7.873714526221694e-11,4.7199145523318955e-11,2.4344446743638096e-11,1.864427328834115e-11,-3.804838170701323e-12,3.1838488213224436e-12,6.744813613044754e-12,-3.719428822418735e-12
