Line_number,Fiducial,Easting,Northing,Height,Elevation,tx_pitch,tx_roll,tx_yaw,txrx_dx,txrx_dy,txrx_dz,rx_pitch,rx_roll,rx_yaw,S0Z_time_1.431e-04,S0Z_time_1.801e-04,S0Z_time_2.266e-04,S0Z_time_2.846e-04,S0Z_time_3.581e-04,S0Z_time_4.506e-04,S0Z_time_5.671e-04,S0Z_time_7.136e-04,S0Z_time_8.981e-04,S0Z_time_1.131e-03,S0Z_time_1.423e-03,S0Z_time_1.791e-03,S0Z_time_2.255e-03,S0Z_time_2.838e-03,S0Z_time_3.573e-03,S0Z_time_4.498e-03,S0Z_time_5.662e-03,S1Z_time_1.409e-05,S1Z_time_1.610e-05,S1Z_time_1.909e-05,S1Z_time_2.360e-05,S1Z_time_2.960e-05,S1Z_time_3.709e-05,S1Z_time_4.609e-05,S1Z_time_5.759e-05,S1Z_time_7.209e-05,S1Z_time_9.060e-05,S1Z_time_1.141e-04,S1Z_time_1.431e-04,S1Z_time_1.801e-04,S1Z_time_2.266e-04,S1Z_time_2.846e-04,S1Z_time_3.581e-04,S1Z_time_4.506e-04,S1Z_time_5.671e-04,S1Z_time_7.136e-04,S1Z_time_8.981e-04,S1Z_time_1.131e-03
0.0,0,0.0,0.0,30.0,0.0,0.0,0.0,0.0,-13.0,0.0,2.0,0.0,0.0,0.0,1.0795193839508071e-10,8.06122828495116e-11,4.922765769469095e-11,3.229474366268417e-11,1.879285805405804e-11,1.1211176426207773e-11,5.942389526442833e-12,3.300436412474973e-12,1.6974722484468742e-12,8.640190315659582e-13,3.9936351485712823e-13,1.884968412090239e-13,8.837943563625731e-14,3.609090293884491e-14,1.7222124051654695e-14,6.7678187729709936e-15,3.50852967634185e-15,4.211111103656279e-09,3.1103189973071426e-09,2.1410845019341497e-09,1.267479243768176e-09,7.861005721003381e-10,4.881467435925931e-10,3.4336332914464235e-10,2.531597058278396e-10,1.9076943512918614e-10,1.608369069293476e-10,1.1294459075037475e-10,8.143822785147065e-11,5.864230050655244e-11,3.90422446371552e-11,2.5623744530030696e-11,1.5121437246930148e-11,9.283049716297221e-12,5.59901553219664e-12,2.700291352473491e-12,1.4530011876040178e-12,5.428328529336182e-13
0.0,1,1.0,0.0,30.0,0.0,0.0,0.0,0.0,-13.0,0.0,2.0,0.0,0.0,0.0,1.0927010796330598e-10,7.763611864401701e-11,5.505703955280878e-11,3.5625772148376944e-11,2.2112635972870988e-11,1.2896304398263306e-11,6.80282604594007e-12,3.921840174705967e-12,2.0318082621281292e-12,1.0613878698602498e-12,5.531985341591686e-13,2.461626862589076e-13,1.1590330451164448e-13,5.068704756034621e-14,2.4847855309796255e-14,8.770295235432351e-15,3.1777347962306344e-15,4.289668707109607e-09,3.0224185764049377e-09,2.1597609530212134e-09,1.2930804834430062e-09,7.300857629009734e-10,4.794143363666482e-10,3.4363092246370844e-10,2.5196591239743234e-10,1.8583521058114666e-10,1.4536454443599694e-10,1.1056172847504695e-10,8.24415565293934e-11,5.890105447132852e-11,4.0814823333263015e-11,2.7949889661161998e-11,1.6716320426279225e-11,1.032097461942251e-11,6.1416421496331645e-12,3.2632294664689876e-12,1.7665550911923318e-12,7.915616575843565e-13
0.0,2,2.0,0.0,30.0,0.0,0.0,0.0,0.0,-13.0,0.0,2.0,0.0,0.0,0.0,1.0862514837429584e-10,7.208534098070389e-11,4.9891637710448274e-11,3.472791931698112e-11,2.1600294875187106e-11,1.3302255178802439e-11,8.070094760756123e-12,4.5112794188354714e-12,2.337940555810222e-12,1.277711631058262e-12,6.353001304863387e-13,3.030829377846025e-13,1.4098634111339486e-13,6.962819151815689e-14,3.0316686893649074e-14,1.2640935928706166e-14,4.743978065569901e-15,4.2430450147721245e-09,3.1204492208915656e-09,1.976613893337934e-09,1.2231855627921604e-09,7.803231256098336e-10,4.838651334854915e-10,3.3916352110657163e-10,2.359006205409794e-10,1.8208220802418153e-10,1.3850963491738999e-10,1.0517618300259114e-10,8.174017453404412e-11,6.333533241100292e-11,4.257643914696184e-11,2.81762324419379e-11,1.8674912541005085e-11,1.1316445410092898e-11,6.066894865444364e-12,3.767174161254261e-12,1.8637262426693736e-12,1.0853533112670464e-12
0.0,3,3.0,0.0,30.0,0.0,0.0,0.0,0.0,-13.0,0.0,2.0,0.0,0.0,0.0,1.030682479050072e-10,7.483212333529366e-11,5.291274240257553e-11,3.574187656299813e-11,2.381141669491209e-11,1.4969829774153724e-11,9.276301941314473e-12,4.9263188688487155e-12,2.7735813471278257e-12,1.3820790135766088e-12,7.166261146268465e-13,3.547581305710419e-13,1.7637369138040689e-13,7.964140367723347e-14,3.6850669361631284e-14,1.4189392185816495e-14,5.5402065672261165e-15,4.107295146036441e-09,3.110568461725058e-09,2.115817920243033e-09,1.2597554014357061e-09,7.846883701552801e-10,4.814223641844565e-10,3.197321729338481e-10,2.3212996360622704e-10,1.7919494020674372e-10,1.3970001252394869e-10,1.0847880777420899e-10,8.153597786264861e-11,6.056301582503256e-11,4.297435655121711e-11,2.8841979174661913e-11,1.9377307925123468e-11,1.2096468774104975e-11,6.985671345836027e-12,3.871867375903806e-12,1.934799581560845e-12,1.0957377925798935e-12
0.0,4,4.0,0.0,30.0,0.0,0.0,0.0,0.0,-13.0,0.0,2.0,0.0,0.0,0.0,1.0231330618138117e-10,7.1539219209678e-11,5.240655342346099e-11,3.6336435105155676e-11,2.389562610290735e-11,1.6663849202154976e-11,9.627617518242258e-12,5.182046886813936e-12,3.158069108253461e-12,1.6384992658839952e-12,8.19721165778669e-13,4.3029653176823094e-13,2.1568714155734787e-13,1.0291375135513925e-13,4.588486151507664e-14,1.8939952499520197e-14,8.200377452536965e-15,4.237679943409446e-09,3.0635409140853384e-09,1.9588051194188034e-09,1.2469445586505838e-09,7.518590767665391e-10,4.911866123045812e-10,3.116711042409162e-10,2.312797730147786e-10,1.7799701225094715e-10,1.312525020852054e-10,1.0205297650251086e-10,8.070140086296486e-11,6.168080932202238e-11,4.1876672895383883e-11,2.9447246103617515e-11,2.0126625101925023e-11,1.2611561346618085e-11,7.800517621021545e-12,4.036956931242227e-12,2.411884105874996e-12,1.0672916828610045e-12
0.0,5,5.0,0.0,30.0,0.0,0.0,0.0,0.0,-13.0,0.0,2.0,0.0,0.0,0.0,9.734692171762429e-11,6.977755934767149e-11,5.0472143943235103e-11,3.469745834185879e-11,2.2641459908696268e-11,1.6304571873796347e-11,1.0243719410730284e-11,6.020068368292461e-12,3.3594843464632162e-12,1.8819456061301305e-12,9.464945802265075e-13,5.044796801161627e-13,2.4247272143930764e-13,1.2258535840803867e-13,5.4925962324093015e-14,2.5881143815652883e-14,9.647412485447685e-15,4.173583790860238e-09,3.0849308933696795e-09,2.0407908682032437e-09,1.2481560280601257e-09,7.333019905527966e-10,4.866902644155195e-10,3.305083325108817e-10,2.2257806088260248e-10,1.6968588368969262e-10,1.328395280468722e-10,1.0069304145881402e-10,7.197816327158331e-11,5.7127979751126574e-11,3.9945759221607944e-11,3.007524148751742e-11,2.0710480419877833e-11,1.2819439776946202e-11,8.220119194194103e-12,4.631157502976319e-12,2.587058324726169e-12,1.465614913439675e-12
0.0,6,6.0,0.0,30.0,0.0,0.0,0.0,0.0,-13.0,0.0,2.0,0.0,0.0,0.0,9.624246228311987e-11,7.241637162317523e-11,5.17851719031666e-11,3.587996221510121e-11,2.518481292172259e-11,1.5937371791257502e-11,1.0732870358173093e-11,6.176209402819875e-12,3.625924988458594e-12,1.908320447346887e-12,1.0928065612000232e-12,5.490157184269956e-13,2.7507221260138094e-13,1.333494907059973e-13,6.420144669980987e-14,2.7073220442548616e-14,1.0858365216823524e-14,4.1128782160837315e-09,3.0714600888024913e-09,2.0156232388428356e-09,1.1746358480328883e-09,6.748424282570205e-10,4.902908979510687e-10,3.5217119348528975e-10,2.397343033669244e-10,1.7888947301344465e-10,1.2505342818767775e-10,9.318028695151331e-11,7.284049403323016e-11,5.589500876789103e-11,3.907999259981864e-11,2.9167222810401674e-11,1.97982894262568e-11,1.3210444400828927e-11,8.639050083867063e-12,5.1093937594996164e-12,2.722886314801875e-12,1.5220820446641881e-12
0.0,7,7.0,0.0,30.0,0.0,0.0,0.0,0.0,-13.0,0.0,2.0,0.0,0.0,0.0,9.726784006990136e-11,6.778086249611229e-11,5.0487172974740426e-11,3.616852151660729e-11,2.529911923068273e-11,1.693157002204121e-11,1.1182483757127535e-11,6.403787207779251e-12,3.928929728404227e-12,2.2421666744228545e-12,1.2171425906851711e-12,6.074179599580792e-13,3.154163718367056e-13,1.516899308955639e-13,7.117493411654265e-14,3.315426619478111e-14,1.3999250082075882e-14,4.148877176285428e-09,2.974789078730425e-09,2.0003168066897477e-09,1.1928329735168534e-09,7.637160829135492e-10,4.944079395971709e-10,3.448930489148018e-10,2.3885477686104293e-10,1.737045010939314e-10,1.398063590913262e-10,9.61839077416613e-11,6.853843964114997e-11,5.416313889012733e-11,3.7316419245696385e-11,3.0698725643537045e-11,2.0809343681714914e-11,1.3323474802726759e-11,8.43404333987187e-12,5.036955612535579e-12,3.0113765418869003e-12,1.6342727614161525e-12
0.0,8,8.0,0.0,30.0,0.0,0.0,0.0,0.0,-13.0,0.0,2.0,0.0,0.0,0.0,9.523538232955643e-11,7.352461920704569e-11,4.922707065073539e-11,3.4745506644356604e-11,2.5391503473512537e-11,1.6892993512464415e-11,1.0429338770502687e-11,6.750480610652998e-12,4.017994942218759e-12,2.40331894269188e-12,1.3556720555002411e-12,7.122824117285814e-13,3.5651305960717644e-13,1.7291348754960187e-13,7.944355193851683e-14,3.765250013099799e-14,1.4288944987985524e-14,4.062609635940129e-09,3.047479415552773e-09,2.0344661764391503e-09,1.2767087293152667e-09,7.437857742156712e-10,4.850540554117733e-10,3.513285422396893e-10,2.49281837534409e-10,1.8635963409539318e-10,1.2550925376829356e-10,9.847156098805019e-11,7.416060419391846e-11,5.4001238125491013e-11,4.192177595186768e-11,2.9043841443088576e-11,1.853722442006621e-11,1.389546661698921e-11,8.13404832579522e-12,5.117605769489714e-12,3.0959216195783854e-12,1.9063066248018263e-12
0.0,9,9.0,0.0,30.0,0.0,0.0,0.0,0.0,-13.0,0.0,2.0,0.0,0.0,0.0,9.42222230755878e-11,6.769558517055986e-11,5.065564728898147e-11,3.3021605083008255e-11,2.5141044438353756e-11,1.6321088528179067e-11,1.0478420869887296e-11,7.031650326759897e-12,4.255102657634506e-12,2.5054597163678654e-12,1.4276143251111404e-12,7.52849842857698e-13,4.0503458821166115e-13,2.0095770733416511e-13,8.994556493976855e-14,4.264987572305002e-14,1.8638010294402813e-14,3.823148481435876e-09,3.0956196648292717e-09,1.955799381511874e-09,1.255624838685118e-09,7.468114053894378e-10,5.050077601425216e-10,3.3670585492411524e-10,2.528077459774837e-10,1.8020173969868398e-10,1.334346967244576e-10,9.809744382207147e-11,7.179172493867033e-11,5.1809159198529195e-11,3.784358234906619e-11,3.004356180389145e-11,2.0778620069168458e-11,1.3570757578198767e-11,9.023756156199754e-12,5.220252397202831e-12,3.1591571913101672e-12,1.5542028212314407e-12
0.0,10,10.0,0.0,30.0,0.0,0.0,0.0,0.0,-13.0,0.0,2.0,0.0,0.0,0.0,9.462327016812728e-11,6.74421602413827e-11,4.8069008814161906e-11,3.480127473576091e-11,2.351617262259589e-11,1.6922904983977293e-11,1.1287790263292556e-11,7.261551275547888e-12,4.520079395468387e-12,2.5569025762949315e-12,1.4097166923589733e-12,8.146861846715096e-13,4.2494481334906885e-13,2.1438885949888224e-13,1.0715032757693946e-13,4.8402280471052664e-14,2.2354341439700105e-14,4.036276349282029e-09,2.9452912997042315e-09,1.9369363121596044e-09,1.2100318250426283e-09,7.598190729920425e-10,4.968744885210706e-10,3.5751876111199754e-10,2.5728023151175007e-10,1.8893224404179696e-10,1.3087443011186749e-10,9.682586277765123e-11,7.333759161628082e-11,5.2325925873611096e-11,3.9838443953175866e-11,2.5844674300751082e-11,2.0591550163414486e-11,1.3104523851601923e-11,8.714666837885407e-12,5.368586723870911e-12,3.3348048621182128e-12,1.7832186359324283e-12
0.0,11,11.0,0.0,30.0,0.0,0.0,0.0,0.0,-13.0,0.0,2.0,0.0,0.0,0.0,1.0351301967372016e-10,6.905181506887994e-11,4.7772745717365e-11,3.5331944078717525e-11,2.481045614566649e-11,1.679894343748182e-11,1.1783605959736432e-11,7.532631895927045e-12,4.721782721088266e-12,2.6284390235844233e-12,1.5422789953018546e-12,8.466772058490801e-13,4.647714145249346e-13,2.385234452632186e-13,1.1638319347879172e-13,5.270828678099692e-14,2.315467478382847e-14,3.970216705160566e-09,3.0448159107142457e-09,2.0659504503320316e-09,1.2232539253997465e-09,7.46363721557561e-10,4.892818397101405e-10,3.4985639972777327e-10,2.2890784665385078e-10,1.8401323473167613e-10,1.3167957770436573e-10,9.507319250546604e-11,7.118147167769877e-11,5.060313064956051e-11,3.848927134429064e-11,2.7320827754051583e-11,1.9972187737361095e-11,1.2469280482042537e-11,8.843179828039953e-12,5.19147223820231e-12,3.2038340610013996e-12,2.0084323937455706e-12
0.0,12,12.0,0.0,30.0,0.0,0.0,0.0,0.0,-13.0,0.0,2.0,0.0,0.0,0.0,9.699207678692357e-11,7.10810360468066e-11,5.090221365067746e-11,3.485416340695832e-11,2.4592095325036324e-11,1.5979102712231612e-11,1.1374237732718362e-11,7.634913823927393e-12,5.084309959810992e-12,2.7645393928200314e-12,1.656619409905421e-12,8.990098479849476e-13,4.830277276880385e-13,2.580943418240773e-13,1.237135451105987e-13,5.637561349489649e-14,2.464551095813011e-14,4.120991069350434e-09,3.047341576493152e-09,1.8438321086277338e-09,1.1904841456015412e-09,7.581204055202785e-10,4.909373514533056e-10,3.488122405832019e-10,2.526309091434268e-10,1.8918232492739107e-10,1.33479757841113e-10,1.0632353058587119e-10,7.2481797551861e-11,5.1303350504346006e-11,3.793956130487597e-11,2.7359458292705573e-11,1.867739249967306e-11,1.3171417768536506e-11,8.978078415571339e-12,5.611556095148949e-12,3.275894791467683e-12,1.9945630244270244e-12
0.0,13,13.0,0.0,30.0,0.0,0.0,0.0,0.0,-13.0,0.0,2.0,0.0,0.0,0.0,9.91568734961521e-11,6.944702953499223e-11,4.7776119839413396e-11,3.2794545712304086e-11,2.4007020583985617e-11,1.68617505654833e-11,1.2186348773688237e-11,8.074197187180712e-12,4.85068366727214e-12,2.785660868086932e-12,1.6070089752721223e-12,8.907683561470924e-13,5.518503025338895e-13,2.6860878167734103e-13,1.3497373564174632e-13,6.32422288959118e-14,2.7842645391660722e-14,4.112832952968105e-09,2.883359651879757e-09,1.937842494444221e-09,1.188459129727227e-09,7.790113085582709e-10,4.982674423360286e-10,3.4994836441820786e-10,2.636619128517091e-10,1.9281730661779108e-10,1.32900215345137e-10,1.0022615279444519e-10,7.055255683724093e-11,5.526800250620413e-11,3.801104703670036e-11,2.5077536347104603e-11,1.8674276588476387e-11,1.3300259382734125e-11,8.674927331615415e-12,5.50161369002016e-12,3.29717017877024e-12,2.1207047567157234e-12
0.0,14,14.0,0.0,30.0,0.0,0.0,0.0,0.0,-13.0,0.0,2.0,0.0,0.0,0.0,9.682375341808939e-11,7.282171670433523e-11,4.8409970109378577e-11,3.5050355467660184e-11,2.430793371734621e-11,1.6612658936039007e-11,1.1573207805979645e-11,7.671280756564961e-12,4.592066580153617e-12,2.9185195184914438e-12,1.8050454359177235e-12,9.966090901121687e-13,5.462236814077523e-13,2.801909540414577e-13,1.3775197461728359e-13,6.741222209925593e-14,3.023676493438048e-14,4.1363027871656595e-09,2.9038810603837037e-09,1.914178536526038e-09,1.1775749639280949e-09,7.935299389706651e-10,4.997523269003409e-10,3.472011114046008e-10,2.584156998963143e-10,1.9273425884752494e-10,1.392005432235721e-10,1.0222633857198614e-10,7.201990162431894e-11,5.209732266143366e-11,3.744341795914634e-11,2.7040925366182374e-11,1.9493550718526707e-11,1.3080817541058874e-11,8.232274737016743e-12,5.230940432328598e-12,3.564757778415588e-12,1.9391497383571232e-12
0.0,15,15.0,0.0,30.0,0.0,0.0,0.0,0.0,-13.0,0.0,2.0,0.0,0.0,0.0,1.0855494364588111e-10,7.300459249699853e-11,4.7483807942717e-11,3.280599503294065e-11,2.386029326190393e-11,1.6715760857181633e-11,1.1295604394484712e-11,7.390274725929687e-12,4.918415705293115e-12,3.021979590166584e-12,1.827102278706942e-12,1.0256285045735671e-12,6.207568880258623e-13,2.999181968511689e-13,1.5260172745600532e-13,7.852038741946953e-14,3.682652204134473e-14,4.281087297819311e-09,3.0152879992691686e-09,1.9943280638578754e-09,1.174883720621975e-09,7.112435854273675e-10,5.043360400579676e-10,3.5372254797858134e-10,2.560597792802656e-10,1.921116089320772e-10,1.3855737248296302e-10,1.011383609852403e-10,7.291392514656956e-11,5.104491340747821e-11,3.727423385126787e-11,2.762840487001733e-11,1.8758857597115988e-11,1.2671985862946815e-11,8.391675259307104e-12,5.58093819924965e-12,3.5093504945988984e-12,2.0501283756512175e-12
0.0,16,16.0,0.0,30.0,0.0,0.0,0.0,0.0,-13.0,0.0,2.0,0.0,0.0,0.0,1.001556814820779e-10,6.842594501343044e-11,5.0338376686238546e-11,3.324057632377309e-11,2.2781445855453182e-11,1.6144579705518076e-11,1.1092290200624721e-11,7.682493495805168e-12,5.029565801256454e-12,3.1904273100481662e-12,1.852600867194524e-12,1.0470789922485267e-12,5.739545368226666e-13,3.10816632701094e-13,1.5636133032802806e-13,7.913772457907055e-14,3.905012861077911e-14,4.092613358862587e-09,2.746369631587956e-09,1.9286154525098274e-09,1.1460768306304599e-09,7.599393318810878e-10,4.957073486605198e-10,3.5698072728912093e-10,2.7271915335856944e-10,1.9558356298092949e-10,1.4250480811815544e-10,1.0675441342385626e-10,7.233382891678942e-11,5.272867294032532e-11,3.797868402447775e-11,2.7399934016409158e-11,1.901729661345365e-11,1.2846707480937575e-11,8.700454107493316e-12,5.564747414058173e-12,3.507089050317623e-12,2.1925775754271634e-12
0.0,17,17.0,0.0,30.0,0.0,0.0,0.0,0.0,-13.0,0.0,2.0,0.0,0.0,0.0,1.0106270859245228e-10,6.933267198596644e-11,4.9959900686076126e-11,3.5763954573106493e-11,2.397324271595833e-11,1.6096215998329145e-11,1.1914320788679331e-11,7.620652195484013e-12,5.023097983289447e-12,2.9601733787103633e-12,1.9151957383701655e-12,1.1347917834864652e-12,6.220628777911722e-13,3.440983154636905e-13,1.671688153693457e-13,8.294692018719026e-14,4.115219368312333e-14,4.0465414743656844e-09,2.7556955600850453e-09,1.899323343098274e-09,1.135981676497821e-09,7.760560168844065e-10,4.931998480640811e-10,3.6535666303763906e-10,2.651887207946607e-10,1.8896653613174975e-10,1.4611931801161857e-10,9.825211374752999e-11,7.754368310637785e-11,5.182893970744852e-11,4.036344265586601e-11,2.727193701300119e-11,1.880343345305869e-11,1.2278159394197645e-11,8.58478161589153e-12,5.3863612039070705e-12,3.362465495449795e-12,2.1190399749880784e-12
0.0,18,18.0,0.0,30.0,0.0,0.0,0.0,0.0,-13.0,0.0,2.0,0.0,0.0,0.0,1.0225090356414432e-10,7.350610802395867e-11,4.8073018945987736e-11,3.444206226732285e-11,2.4098862224244026e-11,1.679947108370285e-11,1.1586274111472056e-11,7.872317831261509e-12,5.062073316677663e-12,3.146777374517104e-12,1.94039914506341e-12,1.1912502428754321e-12,6.529119168341157e-13,3.604229349345429e-13,1.8208921545251854e-13,9.563478140025782e-14,4.362259466830612e-14,3.908135860140107e-09,2.719716043403663e-09,1.93077218302753e-09,1.2147023957652773e-09,7.8128856137042e-10,5.206162699826535e-10,3.547045621394137e-10,2.614346561354429e-10,1.9053511134872862e-10,1.4736981568859119e-10,1.069078953411154e-10,7.698609397977475e-11,5.4959543148132135e-11,3.823713497486166e-11,2.642269469942181e-11,1.808318544556928e-11,1.2274370629646418e-11,8.203755313630333e-12,5.674138079556766e-12,3.5035972541253446e-12,2.199067961252617e-12
0.0,19,19.0,0.0,30.0,0.0,0.0,0.0,0.0,-13.0,0.0,2.0,0.0,0.0,0.0,1.1544497847588564e-10,7.516313893774344e-11,5.1022215686590056e-11,3.499776746590594e-11,2.3634584067337378e-11,1.721692952500316e-11,1.1703667989864304e-11,7.894054209413468e-12,5.26642420894151e-12,3.1005218349117095e-12,1.926945837650226e-12,1.1945889876899192e-12,6.889482881087716e-13,3.651937907461747e-13,1.966698810157742e-13,9.793905523005175e-14,4.478114526613163e-14,3.730408734248247e-09,2.8284672892281404e-09,1.9052440242176844e-09,1.1345926212320344e-09,7.6369704634537e-10,5.025572289898539e-10,3.504724373381392e-10,2.7179041294032574e-10,2.0451856692091152e-10,1.4099628558879776e-10,1.0746214414136252e-10,7.53225616419184e-11,5.617134636295632e-11,3.903339358883258e-11,2.7696285268742053e-11,1.860824482197369e-11,1.2301082355838134e-11,8.779015119689268e-12,5.549211799613298e-12,3.4402497655125618e-12,2.0606376718389667e-12
0.0,20,20.0,0.0,30.0,0.0,0.0,0.0,0.0,-13.0,0.0,2.0,0.0,0.0,0.0,1.0433154366072805e-10,7.635476804918054e-11,5.128842275585877e-11,3.4722490996603455e-11,2.3280936394093097e-11,1.662798720779004e-11,1.102282596824634e-11,7.599579019076632e-12,4.8563323711339314e-12,3.252742245948805e-12,2.0118290494967024e-12,1.2133385412426107e-12,7.064331483103796e-13,3.6691331380988846e-13,1.9949564503357052e-13,1.0006015066756714e-13,4.7727004251520416e-14,3.740949525952734e-09,2.7806639860466867e-09,1.7945383765366137e-09,1.1700082523123855e-09,7.846661572523885e-10,4.892159394388478e-10,3.700466773995443e-10,2.747063127410458e-10,2.0052730718393853e-10,1.529223495983836e-10,1.04590371046714e-10,7.578791646475754e-11,5.381182464492467e-11,3.913006177979233e-11,2.7618323166923395e-11,1.9015443241929232e-11,1.2272863013396403e-11,8.105307518381035e-12,5.444881773893114e-12,3.5013335849974297e-12,1.8965096612772443e-12
0.0,21,21.0,0.0,30.0,0.0,0.0,0.0,0.0,-13.0,0.0,2.0,0.0,0.0,0.0,1.0859171038270766e-10,7.679483702716877e-11,5.1856592539799533e-11,3.5498863341656047e-11,2.4962684087072765e-11,1.638309198606519e-11,1.161953347039118e-11,7.580977053527678e-12,5.1905021176361815e-12,3.3062982032281054e-12,1.9974752756092858e-12,1.195473005074604e-12,6.978405678604093e-13,3.72006278038769e-13,2.047163096959201e-13,1.0813567544242896e-13,5.242155300133715e-14,3.661196650926095e-09,2.7090494816311315e-09,1.8388121688985177e-09,1.1830989204398338e-09,7.809827423019082e-10,5.372220509695478e-10,3.627775661677787e-10,2.8327339518756354e-10,2.0814780791285942e-10,1.489669397071337e-10,1.1030404691252489e-10,7.960267989155736e-11,5.824319757127645e-11,3.904978258987955e-11,2.8065801000852622e-11,1.8066037147626797e-11,1.259334763951919e-11,7.663447840586936e-12,5.450355882201458e-12,3.3916375828074812e-12,1.8361375144064527e-12
0.0,22,22.0,0.0,30.0,0.0,0.0,0.0,0.0,-13.0,0.0,2.0,0.0,0.0,0.0,1.0502521246987029e-10,7.343087072185123e-11,5.126617319903376e-11,3.529135728982195e-11,2.3943829365372317e-11,1.6421603966513317e-11,1.1091542840982737e-11,7.990872933420978e-12,5.08505666704871e-12,3.353142123899802e-12,2.0791675260655788e-12,1.2506464121355474e-12,7.321110972710703e-13,4.0526559274338994e-13,2.1237923119496256e-13,1.15715975678008e-13,5.3696790516152036e-14,3.651936361240819e-09,2.918984353681891e-09,1.9239438284171897e-09,1.1232850852049593e-09,7.267864005893966e-10,5.206589244538603e-10,3.8128061038987403e-10,2.8072076646035323e-10,1.9847864029784265e-10,1.4576078564421457e-10,1.1034521757844121e-10,7.851211127988993e-11,5.417359826732202e-11,4.1748305561025203e-11,2.798756397608177e-11,1.8376976264306505e-11,1.2430358567716358e-11,7.962784385088236e-12,5.122047837397451e-12,3.1654702839450075e-12,2.1308823896412617e-12
0.0,23,23.0,0.0,30.0,0.0,0.0,0.0,0.0,-13.0,0.0,2.0,0.0,0.0,0.0,1.1119127868766416e-10,7.704444595143304e-11,5.1479829610997694e-11,3.7449092616134575e-11,2.4755105494527097e-11,1.785057869395405e-11,1.1609225481990643e-11,7.763568496938856e-12,5.157032724726827e-12,3.3597963720512257e-12,2.166766731160575e-12,1.2267686630134617e-12,7.44516181964745e-13,4.10174482529202e-13,2.15246574457e-13,1.1185831755648748e-13,5.633318888661892e-14,3.746683949998455e-09,2.6231901198385923e-09,1.7666724275798928e-09,1.098624672255599e-09,7.639623824833623e-10,5.235042547196559e-10,3.716825519216699e-10,2.7711813445475375e-10,2.2210184156188777e-10,1.5647377865234513e-10,1.105550764183193e-10,7.868857721447639e-11,5.763165460721727e-11,3.982759065769461e-11,2.868638338131365e-11,1.8611616233930632e-11,1.2106017217303326e-11,7.65858174200281e-12,4.99409559941403e-12,3.4510932466742968e-12,2.0826267889955306e-12
0.0,24,24.0,0.0,30.0,0.0,0.0,0.0,0.0,-13.0,0.0,2.0,0.0,0.0,0.0,1.0949389312590518e-10,7.912513893970582e-11,5.2354686443324085e-11,3.577462981918473e-11,2.2699014450723687e-11,1.6963212591860978e-11,1.1297221265182967e-11,7.38469918971992e-12,5.13444377653572e-12,3.3067301757635035e-12,2.082180188344802e-12,1.232151148908657e-12,7.803446450065491e-13,4.1978362077651765e-13,2.3429430152721726e-13,1.1899970561623877e-13,5.817443066721271e-14,3.612456222854853e-09,2.7186743503252104e-09,1.81418803900478e-09,1.1787443416566371e-09,7.674413650451301e-10,5.468423728747961e-10,3.9146415065583794e-10,2.84713674005709e-10,2.1191461945732997e-10,1.5682294117394894e-10,1.1134815178130216e-10,8.195070358341334e-11,5.979090586823137e-11,3.895493439967795e-11,2.6522808206499105e-11,1.8520808734115955e-11,1.2435425632784855e-11,7.995529319187382e-12,5.178523831321829e-12,3.150447669997509e-12,1.9661226958812715e-12
0.0,25,25.0,0.0,30.0,0.0,0.0,0.0,0.0,-13.0,0.0,2.0,0.0,0.0,0.0,1.159347919556662e-10,7.898560367822818e-11,5.466172354177277e-11,3.5472532153648245e-11,2.6187864154148623e-11,1.750725082660038e-11,1.1191254962367174e-11,7.589614302717372e-12,5.1052068890406926e-12,3.4576345804290237e-12,2.095443783036703e-12,1.2781907865851444e-12,7.647887795434337e-13,4.19367653232061e-13,2.375206605123163e-13,1.2340654289486286e-13,5.937214582438715e-14,3.691436283549371e-09,2.575501319559147e-09,1.8158619451439607e-09,1.181363714292558e-09,7.919318346249111e-10,5.420715965748054e-10,3.8548451498112493e-10,2.838644005515154e-10,2.0625901383926625e-10,1.6222467190565666e-10,1.1087104838355938e-10,8.019305905808794e-11,5.7561862493209835e-11,4.199327842511483e-11,2.8487620825149787e-11,1.92215156228841e-11,1.3061354354143094e-11,8.075525996880954e-12,5.121941068282809e-12,3.5226321291918298e-12,1.9094306145640287e-12
0.0,26,26.0,0.0,30.0,0.0,0.0,0.0,0.0,-13.0,0.0,2.0,0.0,0.0,0.0,1.1401393915897444e-10,7.919009934603744e-11,5.337222243247013e-11,3.825543593984317e-11,2.4690895256268503e-11,1.6922835904632318e-11,1.1363937255249865e-11,7.610120381007631e-12,5.2569063826094525e-12,3.326083872330275e-12,2.0862600309681344e-12,1.2696194568936553e-12,7.857976253645666e-13,4.452796633647118e-13,2.381390132826597e-13,1.2180281347883934e-13,6.603999059398642e-14,3.496446384358335e-09,2.673258198500004e-09,1.8852089839749163e-09,1.142397402961391e-09,7.642726169200965e-10,5.422055028266763e-10,3.9405173996051417e-10,3.0188254514511277e-10,2.0669092902385395e-10,1.6341888316915306e-10,1.2048524903965037e-10,8.605082948154459e-11,5.834869386337363e-11,4.03314347577435e-11,2.780656431390109e-11,1.987090656141079e-11,1.2043096349162527e-11,8.354886755173757e-12,5.278750616207762e-12,3.3933075335080134e-12,1.9521092000489517e-12
0.0,27,27.0,0.0,30.0,0.0,0.0,0.0,0.0,-13.0,0.0,2.0,0.0,0.0,0.0,1.1818242629940815e-10,7.809289579582971e-11,5.115017598594079e-11,3.6912679223828696e-11,2.5055545235697864e-11,1.6861990346383034e-11,1.2030858656892375e-11,7.900266058690957e-12,5.28417070058707e-12,3.1813579350826278e-12,2.1553892222270274e-12,1.347701492095357e-12,8.141152437049472e-13,4.816047057412484e-13,2.376387899906989e-13,1.3110548632913867e-13,6.751226313374538e-14,3.590730806064182e-09,2.4792006465012515e-09,1.7997582449216742e-09,1.20167676258442e-09,7.640387050429423e-10,5.708994890113891e-10,3.93845436374658e-10,2.9971062794380985e-10,2.2767660469254292e-10,1.650307684574987e-10,1.1774360642346633e-10,8.564971874630406e-11,6.022840926177277e-11,4.1658782240069465e-11,2.895342550609713e-11,1.9980564241579882e-11,1.2512921495331248e-11,8.29295414061658e-12,5.234721551004327e-12,3.4026821937997686e-12,2.0491203023290375e-12
0.0,28,28.0,0.0,30.0,0.0,0.0,0.0,0.0,-13.0,0.0,2.0,0.0,0.0,0.0,1.218024070882402e-10,7.882392714557198e-11,5.3304872909567e-11,3.94735263175404e-11,2.527648985160429e-11,1.7105749304150112e-11,1.1571433336860726e-11,7.650949835099142e-12,5.2911333760428124e-12,3.1894974597386387e-12,2.2410198321451308e-12,1.2690059307426868e-12,8.000142812288378e-13,4.698530996441784e-13,2.415556051439041e-13,1.3825579131416878e-13,7.030446649034168e-14,3.677575451616178e-09,2.5323958791217074e-09,1.8033807953741726e-09,1.1677901980669827e-09,7.707236358576772e-10,5.600420804325656e-10,3.946813114731901e-10,2.929461253593783e-10,2.2604834656778422e-10,1.5805328271216457e-10,1.2181831217100184e-10,9.10373245140243e-11,5.94181066177778e-11,4.135736264694303e-11,2.9842335362445885e-11,1.9073261765054787e-11,1.280048548734904e-11,8.41402700124821e-12,5.443795449567767e-12,3.2888650682109e-12,2.212651376772319e-12
0.0,29,29.0,0.0,30.0,0.0,0.0,0.0,0.0,-13.0,0.0,2.0,0.0,0.0,0.0,1.1732473070233248e-10,8.185696606444248e-11,6.054819157708913e-11,3.856223898494222e-11,2.6213017228277362e-11,1.7202685080819735e-11,1.2186201140113187e-11,8.035064905262277e-12,5.140640867761149e-12,3.368748296552486e-12,2.1910089436171296e-12,1.3685755819746469e-12,8.345251365501488e-13,4.737635565604458e-13,2.7168118902946906e-13,1.3880193215221293e-13,6.900050781823955e-14,3.502884266752043e-09,2.6028459674987957e-09,1.7643924332530478e-09,1.1680445041093175e-09,7.692007084398048e-10,5.512849429763193e-10,4.1344035783725887e-10,3.031474112603111e-10,2.2530697559556835e-10,1.5643887375762345e-10,1.1824904871519527e-10,9.045919337434858e-11,6.256802257998806e-11,4.182260724570871e-11,3.032913607859278e-11,1.9314183163097483e-11,1.2680066249031337e-11,8.515263798934974e-12,5.2493856573512385e-12,3.1740550093786104e-12,1.90039363609888e-12
0.0,30,30.0,0.0,30.0,0.0,0.0,0.0,0.0,-13.0,0.0,2.0,0.0,0.0,0.0,1.2165194886026642e-10,8.376646655621756e-11,5.667626940576772e-11,3.7991362534570926e-11,2.678776001091821e-11,1.747234264000028e-11,1.1361613478203326e-11,7.45848821718149e-12,4.7629582763131015e-12,3.389827393124296e-12,2.1209970510813665e-12,1.3026867514649386e-12,8.263978654610657e-13,4.4990726765888525e-13,2.6754952833391827e-13,1.350639234743461e-13,7.169250932002535e-14,3.396885576144367e-09,2.68467712196281e-09,1.769183006467146e-09,1.1992851317196598e-09,7.785154949302143e-10,5.7537177061385e-10,4.185181877859969e-10,3.1040929164435896e-10,2.2206196855805632e-10,1.71224781936331e-10,1.20328561948005e-10,8.71304067854022e-11,6.495488247777618e-11,4.120878163651459e-11,3.083631034775162e-11,1.9597723633148933e-11,1.3445138679682928e-11,8.619424356919483e-12,5.5961560636483715e-12,3.2547356599840262e-12,2.005056895929077e-12
0.0,31,31.0,0.0,30.0,0.0,0.0,0.0,0.0,-13.0,0.0,2.0,0.0,0.0,0.0,1.212609750854457e-10,8.586260075409788e-11,5.5132697886331905e-11,4.009996360044616e-11,2.6457366196813765e-11,1.7238346329987974e-11,1.1461248233197374e-11,7.762922727952956e-12,5.1966459533612256e-12,3.3976806725648216e-12,2.087267609925035e-12,1.2545151932575879e-12,8.155685637291063e-13,4.68346254046027e-13,2.834057216966367e-13,1.433277016036313e-13,7.790084451230768e-14,3.430241751326418e-09,2.6388833580920384e-09,1.7115133390554e-09,1.1456493883513025e-09,7.691704515668021e-10,5.587010123777352e-10,3.899882092624121e-10,2.935026948930257e-10,2.2469790891852836e-10,1.7111646813184895e-10,1.239740308093115e-10,8.639534548227587e-11,6.63620006509587e-11,4.5002494473635604e-11,3.1720577505337346e-11,2.0066603409860667e-11,1.2581841108416685e-11,8.160553752149702e-12,4.85412822415732e-12,3.2629648451927523e-12,1.9284080386279475e-12
0.0,32,32.0,0.0,30.0,0.0,0.0,0.0,0.0,-13.0,0.0,2.0,0.0,0.0,0.0,1.2562659434453318e-10,8.473018679487716e-11,5.851019370179196e-11,3.999686657201628e-11,2.7504095647911078e-11,1.806818926609221e-11,1.1010810529872722e-11,7.770890191668132e-12,5.141254405077078e-12,3.316541715689298e-12,2.1278852675507234e-12,1.4034359322762537e-12,7.988246743377622e-13,4.675905083735535e-13,2.7022093458652667e-13,1.4487494304764454e-13,7.563563087073849e-14,3.6442634242993704e-09,2.509567903775777e-09,1.7411482509399398e-09,1.1442074000622664e-09,8.253956674927255e-10,5.836665054781941e-10,4.3142802242283853e-10,3.1957514978923857e-10,2.2678980780841157e-10,1.7765915117143656e-10,1.2560751774754455e-10,8.694116750877426e-11,6.587014940140814e-11,4.3531753700986624e-11,2.964540009334281e-11,2.042919488774403e-11,1.356827452967522e-11,8.505154830738467e-12,5.160004312949908e-12,3.4195847297871355e-12,1.9116512401831317e-12
0.0,33,33.0,0.0,30.0,0.0,0.0,0.0,0.0,-13.0,0.0,2.0,0.0,0.0,0.0,1.266191734066881e-10,8.619070697375416e-11,5.7081367536324696e-11,4.2125615196449466e-11,2.741961081213636e-11,1.8893829303414333e-11,1.1458533813053107e-11,7.879941605948689e-12,5.320048994221316e-12,3.2711189383180017e-12,2.116220937425354e-12,1.3001128144115498e-12,7.939551011020085e-13,4.876436225300024e-13,2.796011125066175e-13,1.5378730163916736e-13,7.789410939003794e-14,3.3184388276657343e-09,2.5491560874719798e-09,1.8060260727311708e-09,1.2054278575730234e-09,7.96302964537625e-10,5.894047152227944e-10,4.2913389260204825e-10,3.0513458162746073e-10,2.3953355928931763e-10,1.7798239897870998e-10,1.3599209130256658e-10,9.058105880982964e-11,6.813159223758134e-11,4.508955665930738e-11,3.116581739082198e-11,2.168808771537805e-11,1.3329505427606553e-11,8.390401386780198e-12,5.1353442700554134e-12,3.2712153027272048e-12,1.8700740851465135e-12
0.0,34,34.0,0.0,30.0,0.0,0.0,0.0,0.0,-13.0,0.0,2.0,0.0,0.0,0.0,1.2868422444395946e-10,8.657744989365629e-11,6.251458849152814e-11,4.263994413513123e-11,2.8561781737555567e-11,1.7942812205425888e-11,1.2507218048863094e-11,7.663539610999625e-12,4.9118112079422184e-12,3.2197529069277414e-12,2.217365055795083e-12,1.4289239066596054e-12,8.57549339008387e-13,5.026639663241242e-13,2.8154041889569e-13,1.5200801960819538e-13,7.937223022267739e-14,3.37189737657199e-09,2.5782506910793345e-09,1.7298029949968168e-09,1.1717755590543803e-09,8.568867510372682e-10,5.752023245137814e-10,4.352471262743072e-10,3.2731350537725033e-10,2.4474575776493497e-10,1.764885010916074e-10,1.2783113407132342e-10,9.531778420850238e-11,6.508678437374475e-11,4.687724941326978e-11,3.171811469092368e-11,2.1087483520650037e-11,1.313610888536663e-11,8.33551354625137e-12,5.192461805276035e-12,3.297429401349171e-12,2.0610317125518724e-12
0.0,35,35.0,0.0,30.0,0.0,0.0,0.0,0.0,-13.0,0.0,2.0,0.0,0.0,0.0,1.345511212595637e-10,8.804965363941733e-11,6.068384545968272e-11,4.038324935683611e-11,2.6889387204033383e-11,1.742611351499269e-11,1.1921051294279025e-11,8.128989712072312e-12,5.253734199225238e-12,3.4007230705410003e-12,2.2015030559720566e-12,1.3752975325605172e-12,8.640752112996776e-13,5.075450902800619e-13,2.8900119085637577e-13,1.531067124777617e-13,8.038370301796327e-14,3.2712875589318415e-09,2.5821155490202476e-09,1.797518326836002e-09,1.202344842931923e-09,8.10814149925738e-10,5.836411372573479e-10,4.512998661605235e-10,3.289751856898252e-10,2.502524076922505e-10,1.827231014160406e-10,1.3187165796886342e-10,9.108356781049829e-11,6.696257978482116e-11,4.652523415843048e-11,3.3113627308570644e-11,2.116368884761109e-11,1.4159155881814476e-11,8.653244392361458e-12,5.036357204393353e-12,3.2742354579249208e-12,2.084048556841897e-12
0.0,36,36.0,0.0,30.0,0.0,0.0,0.0,0.0,-13.0,0.0,2.0,0.0,0.0,0.0,1.2777870553261293e-10,8.971513004194247e-11,6.125670849023958e-11,4.2456285236403355e-11,2.7931507951962325e-11,1.764220703883716e-11,1.17396926584567e-11,8.211949560017431e-12,5.073428881189054e-12,3.345125437124216e-12,2.1879460061326915e-12,1.429828309643604e-12,8.690814400671709e-13,5.216540848531215e-13,2.7411369902915057e-13,1.5806936052417683e-13,8.102843107479947e-14,3.3711577260985354e-09,2.5237267594905456e-09,1.782786034018638e-09,1.2005622639197961e-09,8.652130099206908e-10,6.03509329571524e-10,4.41171303722292e-10,3.417213680208943e-10,2.389147246668714e-10,1.8084230706138227e-10,1.3978251146020743e-10,9.899275897091895e-11,6.595340968850336e-11,5.007154122563692e-11,3.148095612937762e-11,2.1807495100864108e-11,1.4725905615278768e-11,8.737277258151588e-12,4.986029874636628e-12,3.4392401949498575e-12,1.7861923047290814e-12
0.0,37,37.0,0.0,30.0,0.0,0.0,0.0,0.0,-13.0,0.0,2.0,0.0,0.0,0.0,1.2998373500730968e-10,9.005113414479229e-11,6.168689384699513e-11,4.074369923567196e-11,2.6541263957125635e-11,1.86375196029456e-11,1.27142940019389e-11,8.41350992877532e-12,5.305553002623388e-12,3.347758667084906e-12,2.0828398854089173e-12,1.4121868029870631e-12,8.654721329904347e-13,5.199670563770612e-13,2.8614218571502283e-13,1.5833520441229568e-13,8.79666315327279e-14,3.4401627371384237e-09,2.5452595687988588e-09,1.8553280628340644e-09,1.143783478360006e-09,8.357460873376662e-10,6.232995759487651e-10,4.587836693329101e-10,3.5496150609897755e-10,2.5636534336060346e-10,1.8130392062294876e-10,1.333570041488978e-10,1.0388203687030421e-10,6.962133501151834e-11,4.692254959223601e-11,3.286885172225146e-11,2.1942394785379108e-11,1.458480429277215e-11,8.613451692634279e-12,5.4211106063986375e-12,3.3651260049426594e-12,1.9151050679157565e-12
0.0,38,38.0,0.0,30.0,0.0,0.0,0.0,0.0,-13.0,0.0,2.0,0.0,0.0,0.0,1.391867047768593e-10,8.985581719024442e-11,6.068807807921795e-11,4.145504168725183e-11,2.986089155706022e-11,1.9396078773815133e-11,1.261121942571492e-11,8.1616281525166e-12,4.988345739574724e-12,3.063978780400257e-12,2.068105402025131e-12,1.3469835205407137e-12,8.07632400714662e-13,5.049209996824533e-13,2.939077715972272e-13,1.618173162857859e-13,8.837091709391485e-14,3.3392405853563744e-09,2.356981527933783e-09,1.6268877530457053e-09,1.217016824174474e-09,8.627271934540776e-10,5.956764574236526e-10,4.664950468078448e-10,3.610902773025635e-10,2.7078365347023344e-10,1.9474985123826764e-10,1.3727491802360015e-10,9.394595576716666e-11,6.816547875303479e-11,4.6163111755769546e-11,3.278402568384067e-11,2.0885689807355935e-11,1.337103684651898e-11,9.128645352703039e-12,5.297639352807752e-12,3.066993318642583e-12,1.8099312887818532e-12
0.0,39,39.0,0.0,30.0,0.0,0.0,0.0,0.0,-13.0,0.0,2.0,0.0,0.0,0.0,1.3359191607987757e-10,9.491660439209413e-11,6.381685978808743e-11,4.413412934547484e-11,2.8957142832925108e-11,1.977060363807647e-11,1.177578437049154e-11,7.762024701258633e-12,5.318774522980295e-12,3.3988928334924237e-12,2.1381360077493847e-12,1.3094053738010887e-12,8.559199483914995e-13,4.924830779951903e-13,2.899286159303584e-13,1.604323737603012e-13,8.716187842006206e-14,3.4983936196653405e-09,2.558354092705933e-09,1.733143606072207e-09,1.2109462702660014e-09,8.652775942651707e-10,5.988610292121214e-10,4.746328811265284e-10,3.3157325253811114e-10,2.5970454494391123e-10,1.9329702054727805e-10,1.396911868029342e-10,1.0541945859558244e-10,7.116513913185143e-11,4.925956223388096e-11,3.4368070840396093e-11,2.159234312556207e-11,1.4750771493937455e-11,9.413402921734126e-12,5.5200326256651624e-12,3.2396648624109742e-12,2.0722010562125753e-12
0.0,40,40.0,0.0,30.0,0.0,0.0,0.0,0.0,-13.0,0.0,2.0,0.0,0.0,0.0,1.4482658179822944e-10,9.502181812720515e-11,6.131890896703803e-11,4.401916585670353e-11,2.8461779429631045e-11,1.957429950801061e-11,1.3598421345424531e-11,8.644201994671701e-12,5.5112181526446525e-12,3.4311446345205905e-12,2.213408421337062e-12,1.3602018042375653e-12,8.34758823003803e-13,5.274919058910247e-13,2.9395693334798786e-13,1.708552825547018e-13,8.790525462501442e-14,3.35737555341874e-09,2.4274425082704078e-09,1.6851050672276632e-09,1.1931707520497798e-09,8.524487202828641e-10,6.535595336236997e-10,4.739579075950152e-10,3.433242621065135e-10,2.571518761196613e-10,1.9303376363293026e-10,1.3683200701216698e-10,1.0192050425134821e-10,6.896840830951066e-11,4.9797260109112154e-11,3.3582408238408487e-11,2.24354568859561e-11,1.492225192845055e-11,8.77995471940298e-12,5.723610881731011e-12,3.4346971025453194e-12,1.874291974133442e-12
0.0,41,41.0,0.0,30.0,0.0,0.0,0.0,0.0,-13.0,0.0,2.0,0.0,0.0,0.0,1.3571578241178566e-10,9.597103705721438e-11,6.13340547544021e-11,4.322599824297635e-11,2.952553034772342e-11,1.968668873711021e-11,1.1814420511977614e-11,8.383484943430848e-12,5.183260267687722e-12,3.445989604407305e-12,2.222356118048595e-12,1.3742101073133818e-12,8.475705095125949e-13,4.952081814592693e-13,3.1756188997640557e-13,1.6986590382949926e-13,8.860562256023478e-14,3.0583304548243633e-09,2.5553977501651493e-09,1.8322267660868408e-09,1.1828354506645152e-09,8.857463330473268e-10,6.240634150638742e-10,4.6556650485438955e-10,3.671903981315879e-10,2.663556730453009e-10,1.972785499891505e-10,1.5075275305219699e-10,9.742150809473658e-11,7.177092193557189e-11,4.992054286672879e-11,3.266218544190092e-11,2.2596045952904184e-11,1.458521844408186e-11,9.38050207389615e-12,5.349749127410702e-12,3.4000376090277243e-12,2.186609823214371e-12
0.0,42,42.0,0.0,30.0,0.0,0.0,0.0,0.0,-13.0,0.0,2.0,0.0,0.0,0.0,1.4281188974930385e-10,9.887643856471747e-11,6.781067428891471e-11,4.5667907695887975e-11,3.089117010150579e-11,1.983464036642607e-11,1.3108215940330552e-11,8.65650156635386e-12,5.446422431390071e-12,3.591025171093836e-12,2.16045871801495e-12,1.4178354312244625e-12,8.611402922068943e-13,5.494968503078113e-13,2.9374890719731477e-13,1.6945747390910558e-13,9.350396399989227e-14,3.1916776762840308e-09,2.448293908838741e-09,1.7113468288065745e-09,1.1620381246015128e-09,8.716016229205734e-10,6.590293072381689e-10,4.907977212057284e-10,3.404646174927735e-10,2.7373265425400715e-10,2.0592169394941827e-10,1.3901336156199803e-10,1.0704256090615443e-10,7.0247146383685e-11,5.220384200451949e-11,3.3763395624890553e-11,2.36506497989719e-11,1.4002830153444285e-11,9.974259591619588e-12,5.8528286830234805e-12,3.5999452843004286e-12,2.1143186677985723e-12
0.0,43,43.0,0.0,30.0,0.0,0.0,0.0,0.0,-13.0,0.0,2.0,0.0,0.0,0.0,1.420696733789829e-10,9.45165676438873e-11,6.800144993529197e-11,4.3764502812566794e-11,2.934859820728272e-11,1.994157350248149e-11,1.3044344594994464e-11,8.432630283909015e-12,5.400622496126453e-12,3.4880856605929766e-12,2.172859208667261e-12,1.3715134985593988e-12,9.341849514962887e-13,5.100393900548381e-13,3.0249673800092264e-13,1.6605669753938644e-13,9.055928220137762e-14,3.198905942189489e-09,2.488448708871714e-09,1.680443308423047e-09,1.2110485734373926e-09,8.759955570195151e-10,6.011066925985735e-10,4.791446210184914e-10,3.706112389499773e-10,2.7182102171015e-10,2.0607018523888135e-10,1.4159248341208465e-10,1.0907129594951912e-10,7.543942166829241e-11,4.868669095924363e-11,3.503908727092993e-11,2.3752319928409677e-11,1.5166596046762737e-11,9.619809703776388e-12,5.966856302311614e-12,3.4885230755278676e-12,1.982286228434915e-12
0.0,44,44.0,0.0,30.0,0.0,0.0,0.0,0.0,-13.0,0.0,2.0,0.0,0.0,0.0,1.4507135184154322e-10,9.556088401623804e-11,6.92872887252858e-11,4.463562375901915e-11,3.098718355047055e-11,1.9985511084845722e-11,1.3410914552675739e-11,8.395972440699027e-12,5.627703465149903e-12,3.4451803955248324e-12,2.1100239364416577e-12,1.3612513397828198e-12,8.767723824852744e-13,5.316223230365262e-13,3.0403752743929956e-13,1.6551519204131013e-13,9.75328587627006e-14,3.0331261512007948e-09,2.3732357299748907e-09,1.814206421932481e-09,1.281099063977363e-09,8.757676450917e-10,6.390766812793798e-10,5.013765912529509e-10,3.8634456997755127e-10,2.7334515356314046e-10,2.0141406554337271e-10,1.4702752933342686e-10,1.0501103112436721e-10,7.350610018178503e-11,5.113920987689056e-11,3.3909446359300884e-11,2.3219153215527948e-11,1.4323485162131735e-11,9.927888874234369e-12,5.709287047203028e-12,3.667126563259704e-12,2.2630929240621402e-12
0.0,45,45.0,0.0,30.0,0.0,0.0,0.0,0.0,-13.0,0.0,2.0,0.0,0.0,0.0,1.4195666478649724e-10,1.0077664833696393e-10,6.639532634144672e-11,4.5230823582693655e-11,2.9919805656869594e-11,1.951687836783628e-11,1.3345095892714646e-11,8.227133218197398e-12,5.477692785896031e-12,3.364017722187139e-12,2.3482141149892624e-12,1.3741008226825901e-12,8.846909625612035e-13,5.135477848496456e-13,3.0627047193724836e-13,1.8024704068632774e-13,9.148018967352296e-14,3.161800683459058e-09,2.4797671811870388e-09,1.7888277462981821e-09,1.2562378971890345e-09,9.03345796294266e-10,6.74077154093559e-10,4.979980520900469e-10,3.8355317097347566e-10,2.7415727616393377e-10,2.0542626895160122e-10,1.465291453584715e-10,1.049612284452131e-10,7.623898735716307e-11,5.1450482742294674e-11,3.725844021202216e-11,2.5221387523506532e-11,1.594180764013345e-11,9.960503127152099e-12,6.066709724651924e-12,3.6323393505186732e-12,1.915408684317473e-12
0.0,46,46.0,0.0,30.0,0.0,0.0,0.0,0.0,-13.0,0.0,2.0,0.0,0.0,0.0,1.4154601301793132e-10,1.0097501553836626e-10,6.817619389340764e-11,4.96000964630672e-11,2.9879813886991167e-11,2.1779395883391013e-11,1.2889587893986402e-11,8.610995935543952e-12,5.232665688308683e-12,3.649487253975981e-12,2.1883707576032527e-12,1.327730949074735e-12,9.046408430272461e-13,4.937952171899443e-13,3.161439370645745e-13,1.7130891075103462e-13,9.828168054830739e-14,3.255180911936231e-09,2.4117833355677588e-09,1.829694240862649e-09,1.2476809889860454e-09,8.991751991642894e-10,6.475725529371605e-10,4.803039133304677e-10,3.5671418289507167e-10,2.8932104588755305e-10,2.0604708866565026e-10,1.5487646160274633e-10,1.1466152155227653e-10,7.896561195909121e-11,5.110887429252145e-11,3.552027783448996e-11,2.3545581180913325e-11,1.605388104906146e-11,1.0053482060385436e-11,5.851581399260961e-12,3.814481831832816e-12,2.0462574508670007e-12
0.0,47,47.0,0.0,30.0,0.0,0.0,0.0,0.0,-13.0,0.0,2.0,0.0,0.0,0.0,1.4851593417431085e-10,1.0511786254407412e-10,6.678321513635796e-11,4.839660968613235e-11,3.3518562622875565e-11,2.1513240688424262e-11,1.3347016046048047e-11,8.98478141327907e-12,5.771588882877807e-12,3.552691861410738e-12,2.281354398511507e-12,1.3729462376842223e-12,8.588670637198655e-13,5.354980093620833e-13,3.030256077885776e-13,1.8354996909240087e-13,9.52636101727585e-14,3.2063125555958585e-09,2.3665669842094707e-09,1.8081449497516848e-09,1.2429822845593348e-09,9.193772901457517e-10,6.679726385661791e-10,5.201218301582255e-10,3.788508014153091e-10,3.034197279632309e-10,2.0360721494454494e-10,1.5302429301107506e-10,1.0867398320123884e-10,7.831403278330438e-11,5.3884868340375656e-11,3.711344783009393e-11,2.452884048248286e-11,1.517378537997848e-11,1.0425341067886907e-11,6.053240156752761e-12,3.5455372032885977e-12,2.126725957482835e-12
0.0,48,48.0,0.0,30.0,0.0,0.0,0.0,0.0,-13.0,0.0,2.0,0.0,0.0,0.0,1.615883524368128e-10,1.0187665767331123e-10,7.08014028404668e-11,4.79037746812769e-11,3.019002550945989e-11,2.0184561880145974e-11,1.3612254965365242e-11,8.635679286282921e-12,5.827571915240193e-12,3.3896380869618316e-12,2.212931339617273e-12,1.407275200835712e-12,8.377488576809554e-13,5.192375672991419e-13,3.0978480522878153e-13,1.7604264965866005e-13,1.022502069864048e-13,3.106009586594212e-09,2.426109369700996e-09,1.7485176486361524e-09,1.2094207079228448e-09,8.63375723744797e-10,6.972579222403237e-10,5.232437436535339e-10,4.0061171699779417e-10,2.9318405784986576e-10,2.2362125789148845e-10,1.5311782296061997e-10,1.1562753874222209e-10,7.479815850312627e-11,5.507842137312827e-11,3.595771493501292e-11,2.3818823104308022e-11,1.5985001358200287e-11,9.434795417527992e-12,6.396537289728391e-12,3.884763659530639e-12,2.204856018139693e-12
0.0,49,49.0,0.0,30.0,0.0,0.0,0.0,0.0,-13.0,0.0,2.0,0.0,0.0,0.0,1.5441066416961926e-10,1.0850825421282932e-10,6.59272858393224e-11,4.729712351933471e-11,3.1858899541363595e-11,2.112036046028069e-11,1.373732042766457e-11,8.767766931322172e-12,5.4395300739729935e-12,3.6403894879123105e-12,2.2773864360204782e-12,1.3606591648010667e-12,8.695374590371572e-13,5.362933306569094e-13,3.178747374051828e-13,1.8538175286729595e-13,9.655620049590808e-14,3.0650361643581043e-09,2.365561175407942e-09,1.871462119782774e-09,1.325007299854458e-09,9.042559775514574e-10,7.315891921339242e-10,5.070088677216892e-10,3.937054838105834e-10,2.910812398132859e-10,2.1032135263717643e-10,1.670018911635576e-10,1.1031370895898985e-10,8.172468332589759e-11,5.491767753165504e-11,3.636931930738857e-11,2.4307524361408344e-11,1.5756700941734417e-11,1.0193951745235256e-11,6.3559732161160235e-12,3.672672680671114e-12,2.2327807269295374e-12
0.0,50,50.0,0.0,30.0,0.0,0.0,0.0,0.0,-13.0,0.0,2.0,0.0,0.0,0.0,1.5970736312042984e-10,1.0844640565315939e-10,6.996786920461633e-11,5.08151084893293e-11,3.382612799060112e-11,2.0581674085230333e-11,1.3593477151856787e-11,9.001673840771084e-12,5.724193373067872e-12,3.6342730664500687e-12,2.222848977856945e-12,1.4395870622835538e-12,8.54750878075894e-13,5.122727787901317e-13,3.1338032167976903e-13,1.7457769533835892e-13,9.631455239789168e-14,3.0693300814870947e-09,2.4140430039633633e-09,1.7589411367986061e-09,1.300003189890833e-09,9.338472725381134e-10,7.077907426076419e-10,5.451615474867516e-10,3.922896156958275e-10,3.125513859737333e-10,2.2495762667444808e-10,1.6666072201810371e-10,1.17135417746515e-10,8.285254068214535e-11,5.6691536040888114e-11,3.782770817960331e-11,2.4997013033870615e-11,1.5848378798266976e-11,1.0098079378505373e-11,6.4468486284573154e-12,3.6851264622803606e-12,2.1522708172504956e-12
0.0,51,51.0,0.0,30.0,0.0,0.0,0.0,0.0,-13.0,0.0,2.0,0.0,0.0,0.0,1.5738713712244406e-10,1.1382116359727829e-10,7.294200532216057e-11,4.782726664290281e-11,3.3781089884675844e-11,2.162277839237106e-11,1.4380822738544999e-11,8.841826653389243e-12,5.772601227656398e-12,3.625558897614593e-12,2.1669833149318246e-12,1.437172036220157e-12,8.665994017166829e-13,5.135055228167074e-13,3.157380969622749e-13,1.7916645214306611e-13,9.9475886128926e-14,3.158921934903545e-09,2.3724024610853164e-09,1.8562686163886518e-09,1.3006857241782549e-09,9.859512837505707e-10,7.514195754435768e-10,5.583348880442871e-10,4.0610573130372754e-10,3.105809987497648e-10,2.241483301515771e-10,1.5932229647821176e-10,1.100312865093643e-10,8.243176930957678e-11,6.010409250221997e-11,4.004726572719876e-11,2.645743252363877e-11,1.5551170738919902e-11,9.794067475221431e-12,6.174211843646891e-12,3.637410271279156e-12,2.08534002019295e-12
0.0,52,52.0,0.0,30.0,0.0,0.0,0.0,0.0,-13.0,0.0,2.0,0.0,0.0,0.0,1.6156667997129858e-10,1.1274015507551749e-10,7.466881757207404e-11,5.0422602524853487e-11,3.0541937423895205e-11,2.1927624248497015e-11,1.4104286524804055e-11,9.220871959178253e-12,5.6229312832205885e-12,3.651010544781598e-12,2.209723546633165e-12,1.2996433980875068e-12,8.792315022614859e-13,5.141190837783631e-13,3.1481918972473937e-13,1.870892404429534e-13,1.0255843728484931e-13,3.196390061323906e-09,2.392731094346384e-09,1.6545864802460643e-09,1.3740559886858764e-09,9.448517366681277e-10,7.077917726503133e-10,5.66790369847285e-10,4.2357144802862487e-10,3.069510430028897e-10,2.1721400993417056e-10,1.7299806126920958e-10,1.1821669436193624e-10,8.055720676732807e-11,5.559198084005108e-11,4.0014807705068064e-11,2.5447229643349185e-11,1.6669529297531217e-11,1.0226292941878715e-11,6.570492155787817e-12,3.77296733883693e-12,2.4127673900642616e-12
0.0,53,53.0,0.0,30.0,0.0,0.0,0.0,0.0,-13.0,0.0,2.0,0.0,0.0,0.0,1.6679485122460915e-10,1.1684387615871843e-10,7.461905173085448e-11,4.927282545689692e-11,3.1479751153870415e-11,2.1448598877325797e-11,1.3761018762375082e-11,9.13873811879143e-12,5.877876892211217e-12,3.6182626052495994e-12,2.2726661121634857e-12,1.4191983331118546e-12,8.430327386867553e-13,4.888751280395619e-13,2.871380512514177e-13,1.862415546011964e-13,1.0530017520089799e-13,3.1930664754611413e-09,2.5650718894428286e-09,1.8530565580453552e-09,1.3708639912820606e-09,9.838556197872771e-10,7.472907317861305e-10,5.518386408221317e-10,4.284128757383648e-10,3.1249655189203714e-10,2.4508267436433416e-10,1.79796170552991e-10,1.2557645490197943e-10,8.620740413657604e-11,5.708179096788334e-11,3.709372293692778e-11,2.6958832024832835e-11,1.5976096007280373e-11,1.0368628206739976e-11,6.425113644867191e-12,3.817456254076747e-12,2.309385398099327e-12
0.0,54,54.0,0.0,30.0,0.0,0.0,0.0,0.0,-13.0,0.0,2.0,0.0,0.0,0.0,1.6846983267995887e-10,1.1352143446745694e-10,7.462810620062524e-11,5.1114668960776445e-11,3.409878935084185e-11,2.2609392122973725e-11,1.4347661241129323e-11,8.965112380875376e-12,5.9063784106842424e-12,3.650961254887489e-12,2.2529915907704647e-12,1.4911105335077778e-12,8.63564901211709e-13,5.082951352177813e-13,3.13404705468124e-13,1.8326084861786509e-13,9.987934456128546e-14,3.0207546244874563e-09,2.336982754118462e-09,1.737989934379756e-09,1.3314312547678314e-09,9.961061695569165e-10,7.617971258728705e-10,5.586379981592954e-10,4.288176853152482e-10,3.243750041970468e-10,2.3234284255081153e-10,1.6674197297971066e-10,1.2031071529918673e-10,8.421201826876607e-11,5.66928079961205e-11,4.157166512366706e-11,2.661062096653327e-11,1.611896369413379e-11,1.1195422889061769e-11,6.720462932040144e-12,4.000523511391811e-12,2.2255529603117285e-12
0.0,55,55.0,0.0,30.0,0.0,0.0,0.0,0.0,-13.0,0.0,2.0,0.0,0.0,0.0,1.6877997489354866e-10,1.1841338136884944e-10,7.865722208049445e-11,5.253014894457586e-11,3.607197230686941e-11,2.1497707681019405e-11,1.4173522054294601e-11,9.404405147414839e-12,5.838997956115956e-12,3.675087284540758e-12,2.3746321077521597e-12,1.4287681524303818e-12,8.67366724953534e-13,5.19383597757048e-13,3.2097891203802865e-13,1.8722408920835647e-13,1.0093855383357262e-13,3.0208512498226036e-09,2.3374846990207786e-09,1.8936885750243727e-09,1.4169312407941365e-09,1.0002493302894159e-09,7.442156434074043e-10,5.857760952566868e-10,4.209899399853716e-10,3.212196317974346e-10,2.43530180755694e-10,1.7284258737307538e-10,1.2804756536281496e-10,8.641609401090849e-11,5.863712413866699e-11,4.254387256215051e-11,2.6785567514828055e-11,1.7192269738069362e-11,1.0842921283853633e-11,6.522851949784687e-12,3.734832493611346e-12,2.2612137512395588e-12
0.0,56,56.0,0.0,30.0,0.0,0.0,0.0,0.0,-13.0,0.0,2.0,0.0,0.0,0.0,1.7003395070857907e-10,1.1610972197942068e-10,7.731246138146336e-11,5.2671048968254206e-11,3.3932290810044994e-11,2.1363866868125727e-11,1.5086749936637103e-11,9.69661189487809e-12,6.081448406696243e-12,3.5794690228742445e-12,2.3730520350280647e-12,1.4472627891678328e-12,9.071128371207385e-13,5.398197778752216e-13,3.1092478465577444e-13,1.8027290883254775e-13,1.0117990472036007e-13,3.3123981909213955e-09,2.4663043538054715e-09,1.8667165629226925e-09,1.4061554259929116e-09,1.0221981886650375e-09,8.123868340501395e-10,6.056849073582155e-10,4.419482338689737e-10,3.461394793451792e-10,2.4245831955841896e-10,1.7742263709776583e-10,1.2699211536107822e-10,8.687759482588338e-11,6.157176670345287e-11,4.062586374789143e-11,2.557304607249322e-11,1.7366908869220777e-11,1.0657952653813837e-11,6.373123353624897e-12,4.109737476932187e-12,2.1610973564173216e-12
0.0,57,57.0,0.0,30.0,0.0,0.0,0.0,0.0,-13.0,0.0,2.0,0.0,0.0,0.0,1.7874572194596342e-10,1.1595553184681029e-10,7.865168472959634e-11,5.347920017786207e-11,3.6280732257811025e-11,2.2695624460002868e-11,1.4410918266752267e-11,9.419238305518955e-12,6.226884356791362e-12,4.044412130779679e-12,2.2077041521311112e-12,1.4039400489477208e-12,8.81892971363681e-13,5.060393373638363e-13,2.9525404106168385e-13,1.8391133949506312e-13,1.0244242580912389e-13,3.2187788374333187e-09,2.400992022903156e-09,1.8502371765924593e-09,1.3862886752156385e-09,1.0936581117240003e-09,7.973087021055726e-10,6.167247154962977e-10,4.633568508349505e-10,3.381466441228589e-10,2.4416471133478476e-10,1.6969836463508945e-10,1.2678375423231144e-10,8.714356067333127e-11,6.074655636827504e-11,4.292065357417246e-11,2.5856148753818737e-11,1.7248331773194115e-11,1.138462615197536e-11,6.734145167929946e-12,3.708609272742861e-12,2.353380328015382e-12
0.0,58,58.0,0.0,30.0,0.0,0.0,0.0,0.0,-13.0,0.0,2.0,0.0,0.0,0.0,1.765244803808816e-10,1.2008571437798027e-10,7.5422238993875e-11,5.373436972913774e-11,3.6052815498443764e-11,2.328046465672252e-11,1.537770951112488e-11,9.29848049760593e-12,6.1517373572904515e-12,3.703530538307435e-12,2.32543645664619e-12,1.468769435467597e-12,8.734879006817986e-13,5.197581336823294e-13,3.1924013114169824e-13,1.720625847109271e-13,1.0805247183637374e-13,3.0987072657451124e-09,2.415509208011921e-09,1.917358113579316e-09,1.469977996925872e-09,1.0851662033145815e-09,7.899286855550744e-10,6.004426868225213e-10,4.523573109879287e-10,3.4626045265481523e-10,2.425964471222116e-10,1.7995572970791704e-10,1.252340714610058e-10,9.406334007453467e-11,6.096472578933561e-11,4.101591829200097e-11,2.7137701377384656e-11,1.7171290689843976e-11,1.1031241913824309e-11,7.045232779564054e-12,4.076483650992468e-12,2.3370801677996517e-12
0.0,59,59.0,0.0,30.0,0.0,0.0,0.0,0.0,-13.0,0.0,2.0,0.0,0.0,0.0,1.7495315737488304e-10,1.2388796807295466e-10,8.291007381643149e-11,5.16254122754251e-11,3.556193290210831e-11,2.3774632516867962e-11,1.3947412494424829e-11,9.703103918187336e-12,6.4448444485300895e-12,3.777282355694977e-12,2.4188332469863447e-12,1.457384333890803e-12,8.801470724293271e-13,5.361227310835492e-13,3.11790196531772e-13,1.939054295257437e-13,1.0761399349869666e-13,3.1538898480391995e-09,2.411042914444381e-09,1.939443224739723e-09,1.3777594727009117e-09,1.095448725430241e-09,7.80017999403044e-10,5.789457438527549e-10,4.566742639177286e-10,3.643986029081463e-10,2.460983922933342e-10,1.8299950741860276e-10,1.288390744099181e-10,9.167964567192844e-11,6.457163900177407e-11,4.0576110257773985e-11,2.942250859052627e-11,1.7429066240539387e-11,1.1030336693599501e-11,6.808033676038764e-12,3.9196984663703e-12,2.2778359726327303e-12
0.0,60,60.0,0.0,30.0,0.0,0.0,0.0,0.0,-13.0,0.0,2.0,0.0,0.0,0.0,1.8551719380678174e-10,1.1643725449671642e-10,7.925978915211243e-11,5.507470255362837e-11,3.761970288791459e-11,2.2437992543584996e-11,1.6373698769998117e-11,1.0019070609845187e-11,6.166980755794164e-12,3.871934963267969e-12,2.35275740216299e-12,1.3674661613607482e-12,8.755433861492281e-13,5.247283832386646e-13,3.199560394850437e-13,1.880873794620709e-13,1.0517990731001853e-13,3.1238298893025735e-09,2.5376371588809765e-09,1.9467526777577e-09,1.42581955723527e-09,1.1702628928534277e-09,8.447032793592502e-10,6.562475657988178e-10,4.642083868614125e-10,3.6064354153699315e-10,2.629228626350767e-10,1.864412083758623e-10,1.4090066132682657e-10,9.113906443752823e-11,6.260845723720117e-11,4.1610302738126243e-11,2.8476772265108723e-11,1.7798329963062616e-11,1.2009908866440542e-11,7.10765974197013e-12,4.029251754679206e-12,2.3074952816441806e-12
0.0,61,61.0,0.0,30.0,0.0,0.0,0.0,0.0,-13.0,0.0,2.0,0.0,0.0,0.0,1.8914656649462284e-10,1.2357299196635902e-10,8.319724236332743e-11,5.348959423599814e-11,3.7218758060183066e-11,2.3021651032871532e-11,1.3926834811627667e-11,1.0035249519240514e-11,6.1134645481505295e-12,3.999105518360624e-12,2.4356406120916453e-12,1.4412236583995325e-12,8.598160198442406e-13,5.561872120477761e-13,3.2429747623082057e-13,1.8509583329296252e-13,1.0709546006769214e-13,3.281302466033675e-09,2.4437835298117707e-09,1.9038926978028364e-09,1.507362769922011e-09,1.10733751334219e-09,8.694106213704266e-10,6.443374358445114e-10,4.922583554570986e-10,3.5130262269916e-10,2.620437323105543e-10,1.877690498014401e-10,1.3285067786089237e-10,9.523625862695039e-11,6.661533252492155e-11,4.3014419793545006e-11,2.836959737692188e-11,1.957096000958938e-11,1.1528247433440383e-11,7.260896615478668e-12,4.13666178516577e-12,2.3501365775895725e-12
0.0,62,62.0,0.0,30.0,0.0,0.0,0.0,0.0,-13.0,0.0,2.0,0.0,0.0,0.0,1.9512684019760304e-10,1.256105619911313e-10,8.235301250065015e-11,5.664086400286087e-11,3.561961469581937e-11,2.3864343338436148e-11,1.5449832749808942e-11,1.004773834455454e-11,5.948681969576882e-12,3.918186497656158e-12,2.3769219827180825e-12,1.4403181579812093e-12,8.965643724321182e-13,5.505250001281257e-13,3.282173459598573e-13,1.7642337962941924e-13,1.0472127076322293e-13,3.237180344820095e-09,2.5660429618608184e-09,2.0548864175197075e-09,1.477453519197172e-09,1.1328274025603154e-09,8.737234592344354e-10,6.534257717411128e-10,4.9627646540948e-10,3.6818410409643045e-10,2.512352239089709e-10,1.9179595812267213e-10,1.366586335792071e-10,9.725765903104221e-11,6.503721426593248e-11,4.370311183703326e-11,2.9212142583376104e-11,1.804575616361027e-11,1.1765858543806986e-11,6.901233393412313e-12,4.269983618784716e-12,2.700823453346484e-12
0.0,63,63.0,0.0,30.0,0.0,0.0,0.0,0.0,-13.0,0.0,2.0,0.0,0.0,0.0,1.8645492837486315e-10,1.2771470059582982e-10,8.117435758340726e-11,5.5675009418141754e-11,3.815472888731511e-11,2.480161672630781e-11,1.6389889719248763e-11,1.0093050527876351e-11,6.376063957839042e-12,3.815389172687719e-12,2.4023411020309444e-12,1.4467757111749122e-12,8.605137177312395e-13,5.40923421894632e-13,3.1820594502598955e-13,1.8692411544916366e-13,1.0371581598461847e-13,3.1573370144725067e-09,2.4458380054102196e-09,2.079318273260538e-09,1.4428870368567941e-09,1.1396707518961965e-09,8.805903586748294e-10,6.625616153136377e-10,4.723313955007407e-10,3.646680292862902e-10,2.585904925434941e-10,1.9613266187179646e-10,1.2904482128969386e-10,9.545258286925325e-11,6.882567087677476e-11,4.3275502257530256e-11,2.91569680816533e-11,1.8081959607343675e-11,1.1365352059689339e-11,6.836916019516335e-12,4.555829907427685e-12,2.604028755728562e-12
