Line_number,Fiducial,Easting,Northing,Height,Elevation,tx_pitch,tx_roll,tx_yaw,txrx_dx,txrx_dy,txrx_dz,rx_pitch,rx_roll,rx_yaw,S0Z_time_1.431e-04,S0Z_time_1.801e-04,S0Z_time_2.266e-04,S0Z_time_2.846e-04,S0Z_time_3.581e-04,S0Z_time_4.506e-04,S0Z_time_5.671e-04,S0Z_time_7.136e-04,S0Z_time_8.981e-04,S0Z_time_1.131e-03,S0Z_time_1.423e-03,S0Z_time_1.791e-03,S0Z_time_2.255e-03,S0Z_time_2.838e-03,S0Z_time_3.573e-03,S0Z_time_4.498e-03,S0Z_time_5.662e-03,S1Z_time_1.409e-05,S1Z_time_1.610e-05,S1Z_time_1.909e-05,S1Z_time_2.360e-05,S1Z_time_2.960e-05,S1Z_time_3.709e-05,S1Z_time_4.609e-05,S1Z_time_5.759e-05,S1Z_time_7.209e-05,S1Z_time_9.060e-05,S1Z_time_1.141e-04,S1Z_time_1.431e-04,S1Z_time_1.801e-04,S1Z_time_2.266e-04,S1Z_time_2.846e-04,S1Z_time_3.581e-04,S1Z_time_4.506e-04,S1Z_time_5.671e-04,S1Z_time_7.136e-04,S1Z_time_8.981e-04,S1Z_time_1.131e-03
0.0,0,0.0,0.0,30.0,0.0,0.0,0.0,0.0,-13.0,0.0,2.0,0.0,0.0,0.0,1.0936157307478058e-09,8.092669802097479e-10,5.964245940726268e-10,4.1957336195681114e-10,3.005302201149195e-10,2.2666196457765004e-10,1.614683597647046e-10,1.156323626142988e-10,7.960086121175051e-11,5.579153048475425e-11,3.804399373735633e-11,2.4391490221218084e-11,1.6222549371560408e-11,1.0109611053278131e-11,5.778614731087973e-12,3.40286900611937e-12,1.8622388170494676e-12,6.604495346340314e-09,6.20179924181944e-09,5.132047821580462e-09,4.3530649960282735e-09,3.5745843799966925e-09,3.1232056373120212e-09,2.5892734068547874e-09,2.0451172486610705e-09,1.721974426440722e-09,1.307539722962961e-09,1.0209273157208048e-09,8.07354354525455e-10,5.926981975096282e-10,4.662936040589468e-10,3.381307554410224e-10,2.392065266142813e-10,1.6253087636608532e-10,1.1063159144850346e-10,7.456152263328018e-11,4.874974076103943e-11,3.002185400811366e-11
0.0,1,1.0,0.0,30.0,0.0,0.0,0.0,0.0,-13.0,0.0,2.0,0.0,0.0,0.0,1.0182186521889298e-09,8.028772117524753e-10,5.93969697072679e-10,4.3198638008403594e-10,3.181141922998738e-10,2.2428769309925507e-10,1.5769816310965922e-10,1.1287557521465168e-10,7.960967855745937e-11,5.531030340620942e-11,3.7166628868946284e-11,2.5049796551647282e-11,1.6272942678280775e-11,1.0181627352065788e-11,6.029290694487575e-12,3.224855797742259e-12,1.808687399445874e-12,6.375456624237215e-09,6.094237783726437e-09,5.187947701817623e-09,4.426774973275455e-09,3.565101908535265e-09,3.1803035014844366e-09,2.618915192698851e-09,2.114304018620822e-09,1.6856295822678262e-09,1.3204948806492566e-09,1.0851541538030137e-09,8.227712024041912e-10,6.236940734255782e-10,4.705547332611858e-10,3.3430295472162705e-10,2.3337781893694825e-10,1.5792570843919493e-10,1.1121847626691259e-10,7.212298176189375e-11,4.7971661313946274e-11,3.1757661144226607e-11
0.0,2,2.0,0.0,30.0,0.0,0.0,0.0,0.0,-13.0,0.0,2.0,0.0,0.0,0.0,1.1115754161709428e-09,8.506915901679146e-10,5.808598212064216e-10,4.2551737299948446e-10,3.094922231386807e-10,2.3058128277541048e-10,1.5984492260488334e-10,1.1426452688846264e-10,7.473629902626083e-11,5.7685820643646496e-11,3.6824453111749865e-11,2.4942026954433325e-11,1.554105935030469e-11,1.0104725559436795e-11,5.973565457831609e-12,3.4962752078290135e-12,1.8517369796735973e-12,6.788528923710755e-09,5.897571543396183e-09,5.2573793455494545e-09,4.549008484526916e-09,3.891827312269076e-09,3.0268066758199266e-09,2.6138146353159215e-09,2.038364956916325e-09,1.6022247046807025e-09,1.3699263681775987e-09,1.0804549884511074e-09,8.309110939493716e-10,6.19886369721456e-10,4.467008182853151e-10,3.4103564487297906e-10,2.399706576670497e-10,1.6646320856623897e-10,1.0901220407212665e-10,7.464162707023142e-11,4.647927486401825e-11,2.999177135736129e-11
0.0,3,3.0,0.0,30.0,0.0,0.0,0.0,0.0,-13.0,0.0,2.0,0.0,0.0,0.0,1.0458910423106086e-09,8.164596357688543e-10,5.761681119704559e-10,4.4836556322670097e-10,3.3446361258435145e-10,2.363617708953224e-10,1.6587296132441345e-10,1.14255340749351e-10,8.058789106198034e-11,5.693509318421583e-11,3.968368836489477e-11,2.4198002345256655e-11,1.5743677193520383e-11,9.672600544629967e-12,5.819156872619526e-12,3.6331872478810923e-12,1.6980473800793134e-12,6.858269679622623e-09,6.169864217493166e-09,5.374641751731678e-09,4.307558633553534e-09,3.6101219070581954e-09,3.1067183309998885e-09,2.5486650796048637e-09,2.0693737834490228e-09,1.741280114115966e-09,1.3186582030824471e-09,1.032786890354194e-09,7.596740589468657e-10,6.158544173922784e-10,4.6229847009088363e-10,3.2769586943452447e-10,2.375807265321291e-10,1.6278631337827584e-10,1.12289707569081e-10,7.348298084643105e-11,4.8400021939563065e-11,3.093018837329391e-11
0.0,4,4.0,0.0,30.0,0.0,0.0,0.0,0.0,-13.0,0.0,2.0,0.0,0.0,0.0,1.0992163632245545e-09,7.709682281698659e-10,5.666144089887122e-10,4.237343668779189e-10,3.3318036552669413e-10,2.341506200490839e-10,1.547703652071242e-10,1.1670111801221542e-10,7.953730497495047e-11,5.448874755168983e-11,3.6614840665640445e-11,2.4984048862353283e-11,1.622067502049246e-11,9.614371994875492e-12,6.087516878887553e-12,3.397563196920954e-12,1.7749656822291215e-12,6.148540549722309e-09,5.635819508775508e-09,5.213002430538638e-09,4.606462436027352e-09,3.8861175990698464e-09,2.978686745619117e-09,2.5546188889007632e-09,2.133211051132269e-09,1.676105470312392e-09,1.3425168312532586e-09,1.068025358482927e-09,8.229173248825893e-10,6.244762460553092e-10,4.520010069087959e-10,3.2764226657052794e-10,2.19970106689332e-10,1.5695748474270912e-10,1.1497726492149414e-10,6.851098621748026e-11,4.6369619711744796e-11,3.0179701402372427e-11
0.0,5,5.0,0.0,30.0,0.0,0.0,0.0,0.0,-13.0,0.0,2.0,0.0,0.0,0.0,1.0612008081894705e-09,8.693904998156264e-10,5.788017184881719e-10,4.2628384704261294e-10,3.158272635686135e-10,2.335590547355587e-10,1.6059013161762804e-10,1.206365366710047e-10,7.519580119710718e-11,5.697615967590316e-11,3.910221254542209e-11,2.59893687713657e-11,1.6755715366392845e-11,9.921287239302183e-12,5.659380990635083e-12,3.257177679734936e-12,1.7818976737908703e-12,6.65616780986601e-09,5.982507901384899e-09,5.208223715990658e-09,4.652340466233091e-09,3.856351381136971e-09,2.991301798388827e-09,2.467113465695704e-09,1.982439016276434e-09,1.7465199715021968e-09,1.3224038245143487e-09,1.0616717878331299e-09,7.909488207041455e-10,5.948352705395664e-10,4.607918055684428e-10,3.3729570299651356e-10,2.4222589545773793e-10,1.6384467988000289e-10,1.0941618491426035e-10,6.976022453249625e-11,5.059793312694111e-11,3.2584061813882344e-11
0.0,6,6.0,0.0,30.0,0.0,0.0,0.0,0.0,-13.0,0.0,2.0,0.0,0.0,0.0,1.0430775645344651e-09,7.880644312171183e-10,5.846990482644369e-10,4.438432557065156e-10,3.3278192111501246e-10,2.300785057449128e-10,1.6266730477012256e-10,1.1450765042495851e-10,8.343310891654552e-11,5.6585344377713767e-11,3.7533319840223876e-11,2.6240794217534055e-11,1.565090614569285e-11,1.0649547137056724e-11,6.304949596376968e-12,3.3033246384968015e-12,1.7486129644124127e-12,6.598096811519593e-09,5.7706510061160225e-09,5.205378229202786e-09,4.427879347026406e-09,3.825379698009278e-09,2.932402505389607e-09,2.563305552836991e-09,2.0642599577554478e-09,1.6750783520931415e-09,1.3216413002860339e-09,1.0435081901816152e-09,8.191344739155558e-10,6.339757823488268e-10,4.567527295303284e-10,3.2655030533339503e-10,2.312120023216509e-10,1.5628611268266398e-10,1.1524302564875033e-10,7.546399241673226e-11,4.805972824896855e-11,3.214573313363902e-11
0.0,7,7.0,0.0,30.0,0.0,0.0,0.0,0.0,-13.0,0.0,2.0,0.0,0.0,0.0,1.0613714632884635e-09,7.256470182610065e-10,5.63073003885944e-10,4.231500724185315e-10,3.348360841683746e-10,2.2837439065419732e-10,1.615641372429226e-10,1.1572356925543667e-10,8.483178191111726e-11,5.539224305929706e-11,3.759027559936085e-11,2.6656551354206833e-11,1.6783595217832408e-11,9.968684476796184e-12,5.4663109075322554e-12,3.2447940685495974e-12,1.7402109382926311e-12,6.938405106250532e-09,6.090563779053236e-09,5.165367514947591e-09,4.265856353515507e-09,3.5069015570050035e-09,3.0667729594162637e-09,2.591466905729497e-09,2.0368579275700974e-09,1.7621888310110439e-09,1.320232399539837e-09,1.0618649341731501e-09,8.123359161415875e-10,6.113378024595695e-10,4.382073752687022e-10,3.3202220069923044e-10,2.342556492949323e-10,1.64506666770064e-10,1.1019322677579664e-10,7.304747362336069e-11,5.0652603939235446e-11,3.1365600233753134e-11
0.0,8,8.0,0.0,30.0,0.0,0.0,0.0,0.0,-13.0,0.0,2.0,0.0,0.0,0.0,1.039709153385734e-09,8.009193480962036e-10,5.642637229326995e-10,4.3564648625457744e-10,3.3006813895424985e-10,2.363209648671314e-10,1.6833846704193065e-10,1.1074570780789028e-10,8.325214881682026e-11,5.5202267941621255e-11,3.9604426920636086e-11,2.6083729953556148e-11,1.6101157895788543e-11,1.0214188357163835e-11,5.97583306768013e-12,3.302494489226139e-12,1.7595002418385801e-12,6.50263133612061e-09,6.106567775350592e-09,5.088293730799838e-09,4.326729868699987e-09,3.821829911951629e-09,3.0963097525722595e-09,2.5630805510775603e-09,2.0453908216083423e-09,1.7597893369917854e-09,1.379477963113978e-09,1.0044086657661057e-09,7.979293333552861e-10,6.019635946484809e-10,4.434973516478659e-10,3.2858623881534114e-10,2.3942826816394795e-10,1.5967696415531052e-10,1.1149663873986155e-10,7.297902071351698e-11,4.8334347780360753e-11,3.1051604017062145e-11
0.0,9,9.0,0.0,30.0,0.0,0.0,0.0,0.0,-13.0,0.0,2.0,0.0,0.0,0.0,1.0601885324194689e-09,8.352872772114297e-10,5.852586189086518e-10,4.574621467489747e-10,3.277050458570681e-10,2.2938762909708967e-10,1.586755013431969e-10,1.2111660919297596e-10,7.829786798606264e-11,5.417039590220498e-11,3.850433920799542e-11,2.5353857127056718e-11,1.6983952098954285e-11,1.0045087359823716e-11,5.810713754581072e-12,3.3012009451269335e-12,1.743548720465968e-12,6.506002939411443e-09,6.098093362416992e-09,5.33190439395852e-09,4.39863106587738e-09,3.687499464981495e-09,2.9976537438599453e-09,2.6551898335529228e-09,2.043450557746154e-09,1.7892825591762194e-09,1.2992693832782584e-09,1.039808785217272e-09,8.329723496983581e-10,6.239645764538711e-10,4.661495178062711e-10,3.171020751480034e-10,2.379692007158181e-10,1.6703061054956277e-10,1.114581232422336e-10,7.233357424517603e-11,4.8490545942999085e-11,3.2627724238274693e-11
0.0,10,10.0,0.0,30.0,0.0,0.0,0.0,0.0,-13.0,0.0,2.0,0.0,0.0,0.0,1.077882188758579e-09,8.040313629617146e-10,6.115289356942837e-10,4.555285443581707e-10,3.279138899471016e-10,2.3328922906383727e-10,1.6948183497143445e-10,1.1347575968157693e-10,8.166943969311417e-11,5.4760205712064855e-11,3.850059668624628e-11,2.5574365035230196e-11,1.611231216433185e-11,9.994450079906222e-12,5.850164623900816e-12,3.333116624281199e-12,1.6658174024861594e-12,6.401710870533925e-09,5.701156644932004e-09,5.047337071561047e-09,4.289586005831134e-09,3.714983171277041e-09,3.017640554037416e-09,2.613423793448958e-09,2.1874257499249115e-09,1.7044717717877383e-09,1.2860592203223902e-09,9.68303611988793e-10,7.98365143934139e-10,5.950426106133432e-10,4.4487918137233657e-10,3.1493818566174643e-10,2.410236534576741e-10,1.6299600199565297e-10,1.0503842108920665e-10,7.317731918488187e-11,4.954356554507046e-11,2.971366301770597e-11
0.0,11,11.0,0.0,30.0,0.0,0.0,0.0,0.0,-13.0,0.0,2.0,0.0,0.0,0.0,1.0642876930372162e-09,8.40555916008556e-10,5.738722531635899e-10,4.094917432776135e-10,3.274190211537816e-10,2.321674524399701e-10,1.5691948271865044e-10,1.1706359991003143e-10,8.293229597007374e-11,5.3186984790960955e-11,3.803943778591039e-11,2.5309148595971217e-11,1.6412637411066283e-11,9.377490698189838e-12,6.1016070821658695e-12,3.188319598739013e-12,1.744048955696498e-12,6.5432303499783015e-09,5.823425508015261e-09,5.34970204675152e-09,4.388092277522408e-09,3.5879464238776304e-09,3.0872911384878693e-09,2.5701229765771236e-09,1.9556883522068267e-09,1.7285716123543762e-09,1.3169453397369572e-09,1.0832180561697627e-09,7.975283568030656e-10,5.963123890112945e-10,4.537338870519947e-10,3.316616061991694e-10,2.46011721503243e-10,1.6429924019766576e-10,1.1079833403057032e-10,7.049572466596949e-11,4.812513791683915e-11,3.087311892981462e-11
0.0,12,12.0,0.0,30.0,0.0,0.0,0.0,0.0,-13.0,0.0,2.0,0.0,0.0,0.0,1.1192713316548858e-09,7.980850835290845e-10,5.840915533888973e-10,4.227462401755421e-10,3.1772940672220925e-10,2.2477481114480247e-10,1.5747748901508568e-10,1.1631890938369369e-10,7.91850261726197e-11,5.381888048769001e-11,3.759103877066568e-11,2.4652869138869164e-11,1.6276138554795725e-11,1.0021991868182785e-11,5.9990087131972304e-12,3.0583166071275495e-12,1.7128549302570912e-12,6.4394877073887525e-09,5.9420095666364915e-09,5.236930332855976e-09,4.413225029912943e-09,3.791262652322695e-09,3.038501853191228e-09,2.504859800955878e-09,1.957551952041203e-09,1.6386899519443172e-09,1.295389743276772e-09,1.0332972513863536e-09,7.928001147217137e-10,6.504733708073949e-10,4.864701018023513e-10,3.336600478901195e-10,2.339396129194074e-10,1.6028051587963351e-10,1.076213666138937e-10,7.62255818250933e-11,4.684842248492862e-11,3.089696219315873e-11
0.0,13,13.0,0.0,30.0,0.0,0.0,0.0,0.0,-13.0,0.0,2.0,0.0,0.0,0.0,1.1140814462643496e-09,8.083695366591221e-10,5.900666864577182e-10,4.238435495975907e-10,3.265658716222568e-10,2.4088303418246915e-10,1.6640298604404043e-10,1.2375415099904064e-10,8.301738689167025e-11,5.5502813648932403e-11,3.9158156058043734e-11,2.556946293345198e-11,1.676763607512497e-11,9.614446915837747e-12,5.755512616395913e-12,3.175560597749854e-12,1.7183224112132808e-12,6.821534071457924e-09,6.305713225184033e-09,5.351950365916359e-09,4.356606792712461e-09,3.55324543842697e-09,3.0622586019750406e-09,2.5126493187239435e-09,2.0805975226988068e-09,1.6986432815367223e-09,1.3224292865956097e-09,1.0162305235079304e-09,7.987344367069734e-10,6.042219593309747e-10,4.47636713490001e-10,3.3075532582760264e-10,2.379223843852709e-10,1.496555874683069e-10,1.1361329377395178e-10,7.359308779807737e-11,4.959696230325071e-11,3.1504706355890526e-11
0.0,14,14.0,0.0,30.0,0.0,0.0,0.0,0.0,-13.0,0.0,2.0,0.0,0.0,0.0,1.117693731175163e-09,8.528217423178769e-10,6.129685468054269e-10,4.352585358147095e-10,3.182481801086705e-10,2.2815357059403558e-10,1.5710844422901138e-10,1.169509104028486e-10,8.486554611429911e-11,6.096066961824926e-11,3.8584898321212444e-11,2.576669904027872e-11,1.6291516779361003e-11,1.0014299683258753e-11,5.561572413049178e-12,3.214983291936281e-12,1.6868272132305059e-12,6.470360176471446e-09,6.095379074289583e-09,5.1627561996465926e-09,4.555422863034838e-09,3.6018332298063106e-09,3.0358345360358012e-09,2.620661419298205e-09,2.027913778778131e-09,1.6927614000392744e-09,1.3826804798562483e-09,1.0294950022366549e-09,8.053541681969129e-10,5.749658542781494e-10,4.5569810628547106e-10,3.309035063797063e-10,2.2942703671176842e-10,1.6512680054172954e-10,1.0677331690639296e-10,7.738610558530464e-11,4.538960266256689e-11,3.032514010470592e-11
0.0,15,15.0,0.0,30.0,0.0,0.0,0.0,0.0,-13.0,0.0,2.0,0.0,0.0,0.0,1.0680309956985611e-09,8.081854046416992e-10,5.690531700763892e-10,4.401585559110035e-10,3.3422745001939036e-10,2.388243472214699e-10,1.694778638494609e-10,1.1467529747552347e-10,7.99780122425026e-11,5.927602098492382e-11,3.9693416366943855e-11,2.6800139747943117e-11,1.598216720226393e-11,9.73182809239927e-12,5.327257673658982e-12,3.2591974222852835e-12,1.5595078285290573e-12,6.675391564926833e-09,6.194018415385292e-09,5.231417896223307e-09,4.28141217057462e-09,3.7077412753354787e-09,3.076074049246483e-09,2.5427682245982435e-09,2.1681282864252667e-09,1.7111492570459284e-09,1.3694579055451176e-09,1.0251878867008277e-09,8.12556781128285e-10,5.999747382973128e-10,4.4390855427467375e-10,3.441397395493571e-10,2.2766544053400467e-10,1.6948477805453325e-10,1.1072403771252104e-10,7.369621403086763e-11,5.037006162657278e-11,3.29774465546278e-11
0.0,16,16.0,0.0,30.0,0.0,0.0,0.0,0.0,-13.0,0.0,2.0,0.0,0.0,0.0,1.1019687813633062e-09,7.882491120349335e-10,5.893189708526783e-10,4.4103697690933456e-10,2.943965866803566e-10,2.3822703985678723e-10,1.7109486076300922e-10,1.161918729005409e-10,8.094210355325586e-11,5.71613463296645e-11,3.792578235780635e-11,2.488840662193324e-11,1.641720047346938e-11,9.819607025930402e-12,5.3961186290380145e-12,3.098586943765836e-12,1.6408672668188322e-12,6.9301604282928754e-09,6.01042820984807e-09,5.210223973578497e-09,4.33689867296455e-09,3.6360222598517607e-09,2.895954630677221e-09,2.4874549452590305e-09,2.100289388369646e-09,1.612811610618828e-09,1.294435235588709e-09,1.0471250724537397e-09,8.178886335188104e-10,6.132878340065493e-10,4.731401128442228e-10,3.208822500759122e-10,2.287435270080173e-10,1.5346801331098824e-10,1.1020175719151726e-10,7.707421980444842e-11,5.036067799184963e-11,3.417757891766753e-11
0.0,17,17.0,0.0,30.0,0.0,0.0,0.0,0.0,-13.0,0.0,2.0,0.0,0.0,0.0,1.04955382011744e-09,8.221567067027122e-10,5.957569677953255e-10,4.3117603070275595e-10,3.2296881231805874e-10,2.3751436763068684e-10,1.6438074083941399e-10,1.1623922936580636e-10,7.98561001196314e-11,5.785436618909705e-11,3.941412665154275e-11,2.576752382443374e-11,1.6513425011079887e-11,9.836631548997564e-12,5.4440151413423736e-12,3.0134463046330153e-12,1.5262289624167806e-12,6.953972042114867e-09,6.153752224353438e-09,5.094591611085506e-09,4.608696679851609e-09,3.867759658713466e-09,2.9900754844858975e-09,2.5004924836853115e-09,2.147817283124943e-09,1.5611842724790934e-09,1.3388539230352595e-09,1.090556267085235e-09,8.211462768961072e-10,6.202629305277549e-10,4.575992228463631e-10,3.433338002304028e-10,2.24085481133715e-10,1.6240445145495047e-10,1.1517662217152918e-10,7.438335025856362e-11,5.022904233831881e-11,3.344442707586878e-11
0.0,18,18.0,0.0,30.0,0.0,0.0,0.0,0.0,-13.0,0.0,2.0,0.0,0.0,0.0,1.004991501340658e-09,8.059717241828589e-10,5.907361142220154e-10,4.2668694633957887e-10,3.220944642920447e-10,2.2882198286779294e-10,1.605684335437977e-10,1.2182713529684854e-10,8.183161289627553e-11,5.934313050407786e-11,3.976024190632489e-11,2.5013568784307416e-11,1.659363077003487e-11,9.729422296984895e-12,5.762254058368312e-12,3.157300860618087e-12,1.5676083492150354e-12,6.860687430266271e-09,6.123657546905609e-09,5.2842269138789185e-09,4.611804928477709e-09,3.867291913004803e-09,3.130474569199931e-09,2.5031468906244262e-09,1.9634488302503527e-09,1.6529398612766667e-09,1.327244942185857e-09,1.0155382709634734e-09,8.122754971660423e-10,6.24484072996997e-10,4.664286606110523e-10,3.2050340080293556e-10,2.261345429732883e-10,1.6560228190202194e-10,1.1030514930826844e-10,7.60576651071728e-11,4.977095756407527e-11,3.2283290576929716e-11
0.0,19,19.0,0.0,30.0,0.0,0.0,0.0,0.0,-13.0,0.0,2.0,0.0,0.0,0.0,1.0985870551636108e-09,8.159868818836362e-10,5.888720502140127e-10,4.29550723985099e-10,3.3184208995145873e-10,2.4096409559738674e-10,1.7061409607226504e-10,1.2114158437214129e-10,8.46849997006458e-11,5.6911237389883675e-11,3.951247477464178e-11,2.552043728782974e-11,1.6192320790085093e-11,1.0149287221418877e-11,5.867472133128342e-12,2.9885470470380106e-12,1.6664197583084084e-12,6.519870426487531e-09,6.007883050364391e-09,4.9182980916308245e-09,4.484868182349992e-09,3.573088823960829e-09,3.1674499765978274e-09,2.5433547181522934e-09,2.073106419794417e-09,1.715697199299321e-09,1.3225282718098074e-09,1.0341320206387697e-09,8.401314359619847e-10,6.178228871425914e-10,4.5315385504384563e-10,3.296722462590479e-10,2.366954077954333e-10,1.66093924305248e-10,1.1500326720364022e-10,7.62279273594287e-11,5.0322958825067155e-11,3.47205132839793e-11
0.0,20,20.0,0.0,30.0,0.0,0.0,0.0,0.0,-13.0,0.0,2.0,0.0,0.0,0.0,1.0726783942521593e-09,8.136879017887516e-10,5.787488362218597e-10,4.4898768783214606e-10,3.185056814283571e-10,2.2435928249674672e-10,1.6134970418258366e-10,1.2192145764879339e-10,8.588104359667959e-11,6.186614700757511e-11,3.8216288939735894e-11,2.5705709700730742e-11,1.616481688508392e-11,9.887968149808593e-12,5.468354166415082e-12,3.0133237046264313e-12,1.5546062905551351e-12,6.581889556451337e-09,5.84190573887032e-09,5.416816382967563e-09,4.328271298670129e-09,3.68530805785919e-09,3.020299641311702e-09,2.6478043297079423e-09,2.0056565699752186e-09,1.6676907672210753e-09,1.3498070013951406e-09,1.0524043477442007e-09,8.052983987312161e-10,6.158019030967348e-10,4.668501332782239e-10,3.3511739141241413e-10,2.379544295103537e-10,1.4868538241882423e-10,1.0678435244996327e-10,7.25657630241664e-11,5.02054868018274e-11,3.313806193319315e-11
0.0,21,21.0,0.0,30.0,0.0,0.0,0.0,0.0,-13.0,0.0,2.0,0.0,0.0,0.0,1.0612711072368402e-09,7.612857725391821e-10,5.890752257782898e-10,4.326062842377949e-10,3.003183671854189e-10,2.364622296851664e-10,1.7118687572919375e-10,1.1507382497427878e-10,8.256725289636362e-11,6.065672547364166e-11,3.981543264430937e-11,2.6191621253707323e-11,1.5343355266008018e-11,9.57752413415808e-12,5.594958247257489e-12,3.1429042531124867e-12,1.5187979769491344e-12,6.759093797635135e-09,5.723453275643143e-09,5.091270777075926e-09,4.345494428618083e-09,3.690949077898218e-09,3.00773466007908e-09,2.4898406542307012e-09,1.9345039031412596e-09,1.6456469027956976e-09,1.2688775331985319e-09,1.0578179356342924e-09,7.726893667350333e-10,6.015486949482142e-10,4.550090179328405e-10,3.2270670407099864e-10,2.329988325293258e-10,1.6178532893597173e-10,1.1622439603388163e-10,7.888766085664788e-11,5.0576738407031984e-11,3.4788554403745315e-11
0.0,22,22.0,0.0,30.0,0.0,0.0,0.0,0.0,-13.0,0.0,2.0,0.0,0.0,0.0,1.0794407962299515e-09,8.027354869688833e-10,6.000883148968386e-10,4.0867508123473827e-10,3.150585317265819e-10,2.193327810910055e-10,1.7008427028148643e-10,1.1657021369354628e-10,8.666436861357424e-11,6.189064850448675e-11,3.9641072346266415e-11,2.6393320462385616e-11,1.6672019230340288e-11,9.063179322757668e-12,5.170136122041973e-12,3.0461732723974753e-12,1.5537752164676802e-12,6.669682063167097e-09,6.358013873369692e-09,5.250721825865113e-09,4.579674536644646e-09,3.738502936484426e-09,3.0347935282479465e-09,2.487493209691952e-09,2.056201152580546e-09,1.6452229219745163e-09,1.2859253555278128e-09,1.0960263636937226e-09,8.400858774114601e-10,6.116953476326397e-10,4.309998318939282e-10,3.4338964851892043e-10,2.1945042325676968e-10,1.6785501886723739e-10,1.0514374249940544e-10,7.988628476653399e-11,5.0477206633830575e-11,3.401597471427873e-11
0.0,23,23.0,0.0,30.0,0.0,0.0,0.0,0.0,-13.0,0.0,2.0,0.0,0.0,0.0,1.0529255799508702e-09,8.027098047674365e-10,6.068186834226558e-10,4.3735018372638793e-10,3.1130432374489547e-10,2.4315776097675075e-10,1.6591994692082634e-10,1.2394734698027983e-10,8.774592702243662e-11,5.7746339952419164e-11,3.921246551381312e-11,2.5553047544636488e-11,1.6315984021149813e-11,9.464179570238896e-12,5.260698300493793e-12,2.9203226907766625e-12,1.5230506845749418e-12,6.661919605703835e-09,5.876448979555439e-09,5.287320800264788e-09,4.35790815470092e-09,3.606700293189867e-09,3.0526514753456542e-09,2.4073655168994334e-09,2.111980421475199e-09,1.683626575491704e-09,1.3226929008061589e-09,1.0695081529358815e-09,8.221162408825682e-10,5.630781544189657e-10,4.922044814245417e-10,3.1947524854277954e-10,2.4484492743704906e-10,1.7153222697435978e-10,1.0999657614034366e-10,7.742259359137799e-11,4.832145094245997e-11,3.439131592229628e-11
0.0,24,24.0,0.0,30.0,0.0,0.0,0.0,0.0,-13.0,0.0,2.0,0.0,0.0,0.0,1.1417807111219837e-09,7.838200222374782e-10,6.120283993117015e-10,4.5013951959726167e-10,3.178719502587015e-10,2.4218931019130955e-10,1.684337362396605e-10,1.2667620527313705e-10,8.563330300901183e-11,5.915490284006268e-11,3.814080998127657e-11,2.5291091936065017e-11,1.5504563302679027e-11,9.183725723622496e-12,5.31209097179618e-12,3.0548401930606833e-12,1.5244125878684405e-12,7.032204227103435e-09,6.148556355039126e-09,5.4125112663753066e-09,4.526416731066566e-09,3.6747587824790936e-09,2.994644365366516e-09,2.498809692833859e-09,1.9923833386765554e-09,1.669684389616235e-09,1.3685843172419686e-09,1.0146710843878886e-09,7.859748039965239e-10,6.288960040613359e-10,4.603436324775135e-10,3.2149947916366657e-10,2.2669290304117893e-10,1.6900319216527856e-10,1.0817486685815446e-10,8.206029923255153e-11,5.280397925087866e-11,3.4316866927414544e-11
0.0,25,25.0,0.0,30.0,0.0,0.0,0.0,0.0,-13.0,0.0,2.0,0.0,0.0,0.0,1.0839767243099647e-09,8.144694312697496e-10,5.886514973400289e-10,4.474061521514287e-10,2.9715742153437405e-10,2.4228551073961404e-10,1.6552747615721355e-10,1.2888620035996627e-10,8.787954413286382e-11,6.114514170797984e-11,3.981345715386407e-11,2.507835028512772e-11,1.5014507908217532e-11,9.56942406045388e-12,5.501323675904997e-12,2.9038219387733573e-12,1.5276030766293083e-12,6.598972195102623e-09,6.146002852986715e-09,5.340191377075575e-09,4.542959363652942e-09,3.7127041157225266e-09,2.975565013471985e-09,2.556440869142467e-09,2.0410018971596653e-09,1.651881679776213e-09,1.3343659331627812e-09,1.039963498582414e-09,8.273390173113624e-10,6.100765809373764e-10,4.801692261394794e-10,3.258423971670148e-10,2.3481723622976534e-10,1.7267470731516478e-10,1.194341188891759e-10,8.060715416609688e-11,5.080296018602438e-11,3.4296902510670416e-11
0.0,26,26.0,0.0,30.0,0.0,0.0,0.0,0.0,-13.0,0.0,2.0,0.0,0.0,0.0,1.0383319449947165e-09,8.197057914242502e-10,5.941543771354808e-10,4.1532278488681534e-10,3.1125482684335997e-10,2.3979533046304435e-10,1.6889910919390285e-10,1.2343007612026596e-10,8.693334846446279e-11,5.852169917170494e-11,3.871268075386847e-11,2.5420160738702676e-11,1.608336896209235e-11,9.44158402467247e-12,5.466421770154831e-12,2.8479059631016053e-12,1.5337224344208449e-12,6.93190661957338e-09,6.090515390636816e-09,5.107381387492605e-09,4.5664133295644595e-09,3.6035666233259642e-09,2.818828182784749e-09,2.5329847223994272e-09,2.0537166187206035e-09,1.7727939816994376e-09,1.3013719497140141e-09,1.0381415966733426e-09,7.915203889073294e-10,6.27546820386e-10,4.524469360560392e-10,3.2331296535253555e-10,2.1940794465639762e-10,1.665280266538891e-10,1.1076056158519608e-10,7.717754496276684e-11,5.083522563370106e-11,3.4233112832671445e-11
0.0,27,27.0,0.0,30.0,0.0,0.0,0.0,0.0,-13.0,0.0,2.0,0.0,0.0,0.0,1.0901989245445284e-09,7.9211862042578e-10,5.785963160463333e-10,4.5652379686930467e-10,3.25098503420026e-10,2.4221062177095854e-10,1.7221831882176416e-10,1.1696344520762504e-10,8.725779472313734e-11,5.6664594565080794e-11,3.8390906644746344e-11,2.5725850481319102e-11,1.6111161361521472e-11,8.975441535898286e-12,5.304464124052449e-12,2.9299128911767686e-12,1.4185426424680518e-12,6.540266528076519e-09,6.325964297084906e-09,5.481525786114066e-09,4.2591182910132236e-09,3.811556726304132e-09,2.945750047921924e-09,2.604132050876757e-09,2.0197156845429643e-09,1.7373863244787482e-09,1.3008405402142908e-09,1.0006290232820215e-09,7.980519734139213e-10,5.802901295716743e-10,4.321263670250285e-10,3.1673718990834004e-10,2.3659541960564005e-10,1.6286432807893933e-10,1.2233934946158947e-10,7.994569340460263e-11,5.10878095613256e-11,3.332647397352037e-11
0.0,28,28.0,0.0,30.0,0.0,0.0,0.0,0.0,-13.0,0.0,2.0,0.0,0.0,0.0,1.1055244347571087e-09,7.96182017798304e-10,5.76188055921943e-10,4.3500926840825147e-10,3.1880568030098595e-10,2.1888045587667164e-10,1.6580645371091684e-10,1.2230025913694537e-10,8.593423482942183e-11,5.825658355719444e-11,4.099626769917701e-11,2.481155176283244e-11,1.6758207923500933e-11,9.516801909340878e-12,5.113205246567384e-12,2.560634038771195e-12,1.4812607696755036e-12,6.568648350495328e-09,5.811198439121361e-09,5.030799789114153e-09,4.610134671863189e-09,3.638991659654151e-09,3.009677974116375e-09,2.6022682762481996e-09,2.124026433793027e-09,1.6451138449461168e-09,1.340520028785437e-09,1.0033557858270643e-09,8.190166212251747e-10,6.015053667310666e-10,4.371746185198877e-10,3.3240315597531817e-10,2.3349286671898205e-10,1.6345103942073686e-10,1.1310101361492022e-10,7.769166401492347e-11,5.3090217864167674e-11,3.4393939828045135e-11
0.0,29,29.0,0.0,30.0,0.0,0.0,0.0,0.0,-13.0,0.0,2.0,0.0,0.0,0.0,1.0449777513876999e-09,8.071334019530273e-10,6.071548430933777e-10,4.3073283993170027e-10,3.4072956567170524e-10,2.498496345088539e-10,1.734188784635636e-10,1.2490166998299903e-10,8.772369868455605e-11,6.110273617055733e-11,4.055062950289983e-11,2.556266674095071e-11,1.5727931761800682e-11,9.76685086303662e-12,5.256221220293125e-12,2.975394600652808e-12,1.4462263638019889e-12,6.421569346406748e-09,5.873099469309439e-09,5.5786364703857915e-09,4.294159974132434e-09,3.7252272960988747e-09,3.168378323238759e-09,2.5557377239476697e-09,2.1504453109011307e-09,1.6837196809258453e-09,1.262065817250865e-09,1.0177219304273624e-09,7.890199451407012e-10,6.031199301707168e-10,4.117485677167389e-10,3.151267674816741e-10,2.3333272932272475e-10,1.5684293322965962e-10,1.1306995839484504e-10,7.947938232736409e-11,5.204724807139974e-11,3.521268759779788e-11
0.0,30,30.0,0.0,30.0,0.0,0.0,0.0,0.0,-13.0,0.0,2.0,0.0,0.0,0.0,1.0142877811737935e-09,7.932179267056133e-10,6.102853599119092e-10,4.535261487883831e-10,3.3603105813883545e-10,2.2512553543626027e-10,1.6919095697506357e-10,1.212606838651626e-10,8.765269632764629e-11,5.876120468780003e-11,4.024067023212688e-11,2.6703386242363004e-11,1.5813221168406424e-11,9.713894841903274e-12,5.206270832849138e-12,2.6830109459287685e-12,1.4204197886196629e-12,6.7963632468647416e-09,6.16256332274716e-09,5.2031237313867e-09,4.268261257361959e-09,3.5795781019199213e-09,2.96479398522663e-09,2.5140513702824285e-09,2.09732345162197e-09,1.6089755948403724e-09,1.3032793479099012e-09,1.0801493131345861e-09,8.105379944071298e-10,5.975754826567659e-10,4.379253792727447e-10,3.1046991820339956e-10,2.421362362019737e-10,1.6286212300976198e-10,1.1730545793195135e-10,7.891870814422524e-11,5.5088887925379454e-11,3.737357076522901e-11
0.0,31,31.0,0.0,30.0,0.0,0.0,0.0,0.0,-13.0,0.0,2.0,0.0,0.0,0.0,1.0809287017788365e-09,8.096985681946744e-10,5.789217626063123e-10,4.2504684028085784e-10,3.330590376611332e-10,2.3728936665990187e-10,1.7473905973213628e-10,1.2235652457327756e-10,8.352008708135151e-11,6.095212382679327e-11,3.836022171013521e-11,2.5177990981833525e-11,1.576350365100485e-11,9.178125852739588e-12,5.1108530241274896e-12,2.7824343097369247e-12,1.3948468331974995e-12,6.729379755073094e-09,6.038975486864764e-09,5.094792175876301e-09,4.324529648558229e-09,3.5924639194756712e-09,3.175086053542399e-09,2.5811882728276567e-09,1.9841651181295626e-09,1.6375798550779733e-09,1.300300737808951e-09,1.0528973559207429e-09,7.809724993346204e-10,5.829655873047202e-10,4.2424511919353156e-10,3.405389998814201e-10,2.3954986385256425e-10,1.687000980140013e-10,1.1630349375644802e-10,7.701527595170246e-11,5.181582638541258e-11,3.475784359770201e-11
0.0,32,32.0,0.0,30.0,0.0,0.0,0.0,0.0,-13.0,0.0,2.0,0.0,0.0,0.0,1.0646708656295254e-09,7.985180764711434e-10,5.961253369602466e-10,4.5800701413135737e-10,3.087023800001673e-10,2.2570376840158175e-10,1.738537710985726e-10,1.231923468228343e-10,9.09763675319206e-11,6.255490684553113e-11,4.128101960214746e-11,2.5625978419647538e-11,1.5813502534529373e-11,8.831829054723616e-12,4.959288908187404e-12,2.766642496903417e-12,1.4445570647977294e-12,6.727772701421012e-09,5.933985588688472e-09,5.43666804954327e-09,4.287344533548645e-09,3.4816144325886332e-09,2.995789832819113e-09,2.3591010892460012e-09,2.019043497435582e-09,1.6835785382228802e-09,1.3439939954372602e-09,9.786512598357672e-10,8.044355749839758e-10,5.916005434323768e-10,4.5465473881031276e-10,3.308972258171732e-10,2.4081891929131983e-10,1.688057511078587e-10,1.1280953417607611e-10,8.179253689561547e-11,5.568208369939071e-11,3.73214894425639e-11
0.0,33,33.0,0.0,30.0,0.0,0.0,0.0,0.0,-13.0,0.0,2.0,0.0,0.0,0.0,1.0814074676231933e-09,8.18914169489902e-10,6.066707881024557e-10,4.358382723667513e-10,3.213058954902936e-10,2.390178332723437e-10,1.6809447512874179e-10,1.2649309312936695e-10,8.938790064006479e-11,5.768463410857415e-11,3.9846722021199306e-11,2.535637432405888e-11,1.5441642672301006e-11,9.243246157014511e-12,5.083942666038125e-12,2.7196880349344813e-12,1.3942347564336633e-12,6.721231948966561e-09,5.677341553134059e-09,5.304656112659155e-09,4.3858185114056704e-09,3.7018077279438073e-09,3.0377610177900014e-09,2.5686224017018936e-09,2.019510560605271e-09,1.6375093874263934e-09,1.3622854316834376e-09,1.062620323954408e-09,7.837376052954589e-10,5.793986488646248e-10,4.617677393124589e-10,3.439578765673634e-10,2.2659237257070568e-10,1.6387740691494713e-10,1.1829760139041943e-10,8.291863811295317e-11,5.560399947013777e-11,3.506463990221897e-11
0.0,34,34.0,0.0,30.0,0.0,0.0,0.0,0.0,-13.0,0.0,2.0,0.0,0.0,0.0,1.0494219527006854e-09,7.702360373470478e-10,5.721704904627388e-10,4.432157586474951e-10,3.36545847363617e-10,2.1670683980336007e-10,1.7392692482271264e-10,1.2621199395650607e-10,8.470156995366537e-11,6.082316815260065e-11,4.070567187146612e-11,2.4697389728069022e-11,1.5588929887207294e-11,8.946108808895733e-12,4.854589256474037e-12,2.653152750150052e-12,1.424563097039875e-12,6.788781322411047e-09,6.1101599470289305e-09,5.328294834980766e-09,4.35965938313022e-09,3.6646938549631342e-09,3.2224979412822684e-09,2.5626148234923177e-09,2.106020937703452e-09,1.6373462710252884e-09,1.3779725098526402e-09,1.0399736792283436e-09,7.827242889439264e-10,6.120079843186823e-10,4.343152698753773e-10,3.301380430664621e-10,2.5082332380261066e-10,1.6712570126220862e-10,1.191683206648227e-10,8.126096766069194e-11,5.3657041715465654e-11,3.691513476671158e-11
0.0,35,35.0,0.0,30.0,0.0,0.0,0.0,0.0,-13.0,0.0,2.0,0.0,0.0,0.0,1.0936997416073845e-09,7.971341091901705e-10,5.836605369092607e-10,4.36548319922061e-10,3.233932328745926e-10,2.444093492800335e-10,1.7840305031308043e-10,1.2525345246572087e-10,8.787419891217092e-11,5.987326888768422e-11,4.102148671608949e-11,2.5821500672219787e-11,1.5736622394613032e-11,8.438934626520738e-12,4.6975599491878355e-12,2.562187110857022e-12,1.3342675935132195e-12,6.1908928103004165e-09,5.876740074395856e-09,5.338179099282497e-09,4.474847312995461e-09,3.788574987301074e-09,2.989738697546532e-09,2.6587582847806207e-09,2.0775693707511236e-09,1.6586367082517436e-09,1.3512384380617238e-09,1.0681986199253769e-09,7.747467019400892e-10,6.144142053316378e-10,4.6537392783104827e-10,3.3288450626277527e-10,2.4350850923081323e-10,1.6318644767500513e-10,1.214984939563938e-10,8.630808258036318e-11,5.474327667495346e-11,3.3158197416933083e-11
0.0,36,36.0,0.0,30.0,0.0,0.0,0.0,0.0,-13.0,0.0,2.0,0.0,0.0,0.0,1.1178250252099127e-09,8.179506979868626e-10,5.590608943262109e-10,4.3506364240593787e-10,3.105754170501188e-10,2.3737223331389914e-10,1.7280849080709446e-10,1.2823873480994772e-10,9.160438860308707e-11,6.023854315778484e-11,3.9247487062234313e-11,2.509054108640457e-11,1.3814069926569964e-11,8.800971421904849e-12,4.837317620006682e-12,2.5515153776812985e-12,1.3500046763219638e-12,6.916333164965484e-09,6.435492570783356e-09,4.961618446412426e-09,4.812627957187479e-09,3.729522182962995e-09,3.0419427295745615e-09,2.434382074774939e-09,2.0690325531161033e-09,1.667187276712292e-09,1.3335144365485866e-09,1.0613522722528858e-09,7.98317033030973e-10,5.829824811706277e-10,4.945944080387428e-10,3.004688449372254e-10,2.4376209987254707e-10,1.681553911857817e-10,1.1744226503669305e-10,7.800349239492126e-11,5.628732082335777e-11,3.7296203560167656e-11
0.0,37,37.0,0.0,30.0,0.0,0.0,0.0,0.0,-13.0,0.0,2.0,0.0,0.0,0.0,1.0181901478982557e-09,7.723418921608952e-10,5.829934072868621e-10,4.315404028386743e-10,3.442426932503827e-10,2.3901981337225287e-10,1.865864718918978e-10,1.274188985706578e-10,8.950083535794263e-11,6.09191759847077e-11,4.0556861901258085e-11,2.5019320507478443e-11,1.503499852226754e-11,8.734001812898621e-12,4.722124810307345e-12,2.503321811218258e-12,1.286126679521362e-12,6.429790992803014e-09,6.042807872322942e-09,5.1965995318268815e-09,4.346491501944398e-09,3.5104594427852353e-09,3.1297795806727676e-09,2.5382679917165616e-09,2.0294190112646356e-09,1.577845214681208e-09,1.3520620257492575e-09,1.0517757886581132e-09,8.037062592040559e-10,6.306948669282884e-10,4.4440634888222825e-10,3.4051055857625994e-10,2.345060415367395e-10,1.7820692959207624e-10,1.1899989027694703e-10,8.356856930721391e-11,5.573845475743467e-11,3.47934621174763e-11
0.0,38,38.0,0.0,30.0,0.0,0.0,0.0,0.0,-13.0,0.0,2.0,0.0,0.0,0.0,1.0492029852863596e-09,8.177432721023657e-10,5.918117275137135e-10,4.6561475123723133e-10,3.246606376411541e-10,2.430817294904871e-10,1.8226543337294332e-10,1.2695576829112144e-10,8.577360018492397e-11,6.003438667629006e-11,4.0004295816500633e-11,2.5781112492926804e-11,1.5581936252010767e-11,8.380546075908758e-12,4.583532895048944e-12,2.4915772263074355e-12,1.2756841823909255e-12,6.856415711821769e-09,6.082230112741588e-09,5.068415985070327e-09,4.5150111678167694e-09,3.6971779230383763e-09,2.971863632248848e-09,2.5699968663311222e-09,1.982355227284051e-09,1.6821961745768734e-09,1.2559879578684035e-09,9.771045823037148e-10,8.198572387657308e-10,6.21017316294587e-10,4.61355447284471e-10,3.3799173206729335e-10,2.352676222470355e-10,1.691826142931323e-10,1.2516782686532795e-10,8.220172374839095e-11,5.6350122403181244e-11,3.502663223556597e-11
0.0,39,39.0,0.0,30.0,0.0,0.0,0.0,0.0,-13.0,0.0,2.0,0.0,0.0,0.0,1.0635185453561764e-09,7.924643960768598e-10,6.178274692842855e-10,4.609375069699117e-10,3.312475774661708e-10,2.2664438418668536e-10,1.7598000226894365e-10,1.2801239302937283e-10,8.85414218811997e-11,6.157768935543551e-11,3.977739286469808e-11,2.440670547306337e-11,1.4163821852972846e-11,8.441024605467805e-12,4.852568675118925e-12,2.4566701554129318e-12,1.1846726296195462e-12,6.8219395486608024e-09,6.091688178142161e-09,5.478956611186612e-09,4.36779150572825e-09,3.5680033901535347e-09,3.0717109072092014e-09,2.4997071503425907e-09,2.0509152331359594e-09,1.6620862920938332e-09,1.370471272266352e-09,1.0310912237955255e-09,7.904950996204597e-10,6.077029462564489e-10,4.2824183249570503e-10,3.445119700326838e-10,2.3888587603338456e-10,1.7149775999622012e-10,1.1559440107277861e-10,8.239602936411412e-11,5.958316285480188e-11,3.562654705015641e-11
0.0,40,40.0,0.0,30.0,0.0,0.0,0.0,0.0,-13.0,0.0,2.0,0.0,0.0,0.0,1.078100033806132e-09,7.891142991904332e-10,6.095442245873977e-10,4.5614562236376006e-10,3.2995756628688156e-10,2.466630539915978e-10,1.767789996990785e-10,1.3414049271467075e-10,8.423869929229606e-11,5.62814968293259e-11,3.747442323298806e-11,2.288436687823943e-11,1.5483838668734147e-11,8.555096555876524e-12,4.527106806077824e-12,2.3509915508153327e-12,1.206837132049394e-12,6.587824801974469e-09,6.262169685569975e-09,5.171360995390372e-09,4.377095046504018e-09,3.7428089882786864e-09,3.018990948658223e-09,2.551342340343606e-09,2.0712460318859695e-09,1.6778077501111027e-09,1.2833136652015143e-09,1.0227798753091335e-09,7.842534045252065e-10,6.221121614011388e-10,4.708602751630706e-10,3.2837884409979064e-10,2.4474168664591575e-10,1.619065401355433e-10,1.1930362111700993e-10,8.248450511451795e-11,5.80202798778457e-11,3.555498294818061e-11
0.0,41,41.0,0.0,30.0,0.0,0.0,0.0,0.0,-13.0,0.0,2.0,0.0,0.0,0.0,1.036783565741083e-09,7.623987781929759e-10,6.035236906810918e-10,4.1327199619247464e-10,3.114501036532896e-10,2.4923854720821457e-10,1.8652155514732166e-10,1.2831995694450445e-10,8.627728364770474e-11,5.857798889236696e-11,3.934082606316895e-11,2.4877412022629472e-11,1.4678008712147172e-11,8.375361852213208e-12,4.655385148296595e-12,2.3618117722592633e-12,1.227651381064644e-12,6.702706573952675e-09,6.033274652892397e-09,5.110653761347094e-09,4.545029191547596e-09,3.6960323837296316e-09,3.0985181701583146e-09,2.5418198307223e-09,2.078641906249706e-09,1.6550690564369335e-09,1.3798471652318035e-09,1.0308350294918494e-09,8.502648723743289e-10,5.87244542804615e-10,4.6151922314868344e-10,3.2132975864286626e-10,2.360685101980262e-10,1.845737608816805e-10,1.2624131466481273e-10,8.44321988012964e-11,5.851093217367396e-11,3.8470439837023576e-11
0.0,42,42.0,0.0,30.0,0.0,0.0,0.0,0.0,-13.0,0.0,2.0,0.0,0.0,0.0,1.1139820717961884e-09,7.498324731193916e-10,5.90134458752709e-10,4.3131108637482676e-10,3.2514138837302064e-10,2.470127753580097e-10,1.842380420709831e-10,1.3159267733257778e-10,8.750721768293724e-11,6.034519643263895e-11,3.7618232572166616e-11,2.4881397969458202e-11,1.469920528804629e-11,8.51664548636008e-12,4.427888231535882e-12,2.2659602257756126e-12,1.2287592114369714e-12,6.383370295011135e-09,5.9680605674023485e-09,5.283243993490354e-09,4.574037777777703e-09,3.8720538364270254e-09,2.9434797888331376e-09,2.5155089336749667e-09,2.092758898091495e-09,1.644998639699457e-09,1.275803341993518e-09,1.0364149328415974e-09,7.881139714089776e-10,6.208856899499546e-10,4.4965552844920615e-10,3.2180561044316324e-10,2.443878684389421e-10,1.7353106919290603e-10,1.1412795289365315e-10,8.22856899199399e-11,5.831911679642529e-11,3.46739634808029e-11
0.0,43,43.0,0.0,30.0,0.0,0.0,0.0,0.0,-13.0,0.0,2.0,0.0,0.0,0.0,1.1264606289138144e-09,7.905120876517784e-10,5.871645352968268e-10,4.4702373308393177e-10,3.2829306192674264e-10,2.507699235907199e-10,1.7958347924722933e-10,1.2949681075384218e-10,9.14404297944167e-11,5.9648702049411e-11,3.902956223931945e-11,2.504888093037838e-11,1.500110625937009e-11,8.415881846014827e-12,4.767730393362576e-12,2.321857270643196e-12,1.148489087587295e-12,6.815764816612376e-09,5.9242529986979625e-09,5.15176891212102e-09,4.352213134245453e-09,3.738797520933251e-09,2.9767503729094807e-09,2.6500288821686212e-09,2.0303395679558363e-09,1.679769958547048e-09,1.3201379837057636e-09,9.947515671096035e-10,7.792634040368442e-10,5.702550270744208e-10,4.279867969378641e-10,3.2799889069809553e-10,2.4528618595751693e-10,1.775424728243742e-10,1.2416285556534128e-10,8.371004098941419e-11,5.619700736984913e-11,3.509357663426733e-11
0.0,44,44.0,0.0,30.0,0.0,0.0,0.0,0.0,-13.0,0.0,2.0,0.0,0.0,0.0,1.09089468331304e-09,7.814971780351866e-10,5.813856223113158e-10,4.3083649765902655e-10,3.2861685999212604e-10,2.459507919680633e-10,1.790146993007108e-10,1.2879729675828908e-10,8.93577977334873e-11,6.3144344587266e-11,3.979844244814644e-11,2.561359944733446e-11,1.4794644877370643e-11,8.209990629269428e-12,4.487044798787025e-12,2.2949770584549352e-12,1.1714378078742298e-12,6.708831374807712e-09,5.857214107528757e-09,5.264183299879184e-09,4.6588985778861375e-09,3.7056571437630165e-09,3.1279878661504262e-09,2.4229746797798526e-09,2.0525300318249574e-09,1.694151467689856e-09,1.254597771389106e-09,1.0162536024883681e-09,8.118937250675066e-10,5.96896147488623e-10,4.817798997268086e-10,3.239168931181019e-10,2.3972987505866765e-10,1.73121787855861e-10,1.2964286456515787e-10,8.637385480183197e-11,5.714732086412119e-11,3.885811763550579e-11
0.0,45,45.0,0.0,30.0,0.0,0.0,0.0,0.0,-13.0,0.0,2.0,0.0,0.0,0.0,1.054736023484843e-09,7.685891893499826e-10,5.81526444060763e-10,4.328514754429142e-10,3.188178286211385e-10,2.510393903544733e-10,1.841837646923497e-10,1.3463107609305498e-10,9.222631848220987e-11,5.961373308201482e-11,3.9136847529578e-11,2.4781589605238196e-11,1.4426002894044266e-11,7.874855104974993e-12,4.339139584556278e-12,2.302715054394548e-12,1.121365284748995e-12,6.58027260576759e-09,5.969278937027707e-09,5.262801328118773e-09,4.276247085427851e-09,3.6064179292099086e-09,3.0196182004673204e-09,2.5834028683304304e-09,2.0715836632325393e-09,1.7257866700095766e-09,1.3154023771570498e-09,1.0273245998382632e-09,8.072642723728768e-10,5.98087254202517e-10,4.705130306314743e-10,3.3258265114551117e-10,2.3044686520076535e-10,1.756724307544656e-10,1.2022288960068143e-10,9.049219174650743e-11,5.538314870186084e-11,3.9205157422239955e-11
0.0,46,46.0,0.0,30.0,0.0,0.0,0.0,0.0,-13.0,0.0,2.0,0.0,0.0,0.0,1.1450360699322815e-09,7.782940948283666e-10,6.013568221141486e-10,4.592711019371652e-10,3.494681455430685e-10,2.544785166502755e-10,1.7350566483479632e-10,1.33476175117873e-10,8.7148992237104e-11,5.798240166833291e-11,3.899846792690706e-11,2.4273648012576648e-11,1.4236450214928193e-11,7.74546138694118e-12,4.264982163193072e-12,2.168845388872319e-12,1.0463877938662026e-12,6.772542976767119e-09,5.8062193051349855e-09,5.547459572455156e-09,4.367236894054004e-09,3.6856927901884228e-09,2.9885840360756536e-09,2.4799483535747605e-09,2.182325397062881e-09,1.702906942563149e-09,1.2635444129298063e-09,1.0272603706720936e-09,8.218693237956679e-10,6.200406121064523e-10,4.676138224879262e-10,3.6170205579104006e-10,2.577483660214358e-10,1.7106128501221256e-10,1.306274629255546e-10,8.619298792686542e-11,5.5129123840988175e-11,3.722347287258446e-11
0.0,47,47.0,0.0,30.0,0.0,0.0,0.0,0.0,-13.0,0.0,2.0,0.0,0.0,0.0,1.0608852883834099e-09,8.581830975704345e-10,6.023725598830989e-10,4.421413299611085e-10,3.2915726205942327e-10,2.5572959785790944e-10,1.8251910191162916e-10,1.2794873713264867e-10,9.238592870881684e-11,5.8114711337898407e-11,3.884376254651406e-11,2.5034926491209274e-11,1.4110402176263348e-11,7.67065646280301e-12,4.569830216000178e-12,2.2483197549702e-12,1.1263560295864004e-12,6.825411228721967e-09,5.792454259955713e-09,5.413623990995589e-09,4.496633373267502e-09,3.686727344008915e-09,2.942575154937836e-09,2.4962386148227234e-09,1.9811629914448216e-09,1.7052551818474516e-09,1.3216321098683457e-09,1.0469723983661982e-09,7.552932320012032e-10,5.816263708206179e-10,4.494161563216652e-10,3.402941692440181e-10,2.4671053504667317e-10,1.824626398263708e-10,1.2179303723512135e-10,8.583078154823715e-11,6.124271687101248e-11,3.736411179107463e-11
0.0,48,48.0,0.0,30.0,0.0,0.0,0.0,0.0,-13.0,0.0,2.0,0.0,0.0,0.0,1.1243042803018204e-09,7.802460469064117e-10,5.776067801711502e-10,4.298026772114307e-10,3.474765836960173e-10,2.539683211931067e-10,1.775925305273392e-10,1.3444890147946595e-10,9.024606654811187e-11,6.117540616057834e-11,3.793148621157197e-11,2.4017929068789882e-11,1.4067840108995449e-11,8.103285096605609e-12,3.999873861037539e-12,2.092870090654985e-12,1.0361511422902888e-12,6.838266490311888e-09,5.663119057680033e-09,5.258480786046033e-09,4.6450583575196086e-09,3.4639145610960184e-09,3.0889789706109105e-09,2.5843824388900856e-09,2.0843538196586157e-09,1.6583927708217663e-09,1.2997699160794437e-09,9.734055848886434e-10,7.910971683543687e-10,6.272784286520985e-10,4.3503379261487614e-10,3.6247218981155107e-10,2.4796021699000766e-10,1.7570039178525057e-10,1.3151922780071407e-10,8.930895434264364e-11,5.886787675687705e-11,3.7832483037461975e-11
0.0,49,49.0,0.0,30.0,0.0,0.0,0.0,0.0,-13.0,0.0,2.0,0.0,0.0,0.0,1.0535460877336807e-09,7.835835705703097e-10,6.121385712246478e-10,4.6262443911763773e-10,3.1169375891758644e-10,2.533589740389861e-10,1.811039572739814e-10,1.3185614703624623e-10,9.425826877744728e-11,6.268900950116415e-11,3.902694928954263e-11,2.4218357649722725e-11,1.413820712028853e-11,7.093895924312364e-12,3.744949708639165e-12,2.0763246186232812e-12,1.0680723557529721e-12,6.2259263467620035e-09,6.467230272563842e-09,5.019083357897364e-09,4.388513651670402e-09,3.80090547483282e-09,2.8428043377846793e-09,2.5619721839890233e-09,2.1374517809077616e-09,1.6956164278236622e-09,1.1971687374474775e-09,1.1082867488460912e-09,7.605109323658107e-10,5.634382584268336e-10,4.654223045803725e-10,3.1373019377383673e-10,2.574977251566732e-10,1.8883811636821561e-10,1.280406333911634e-10,8.911637520828114e-11,5.962670980367307e-11,3.7386246126937764e-11
0.0,50,50.0,0.0,30.0,0.0,0.0,0.0,0.0,-13.0,0.0,2.0,0.0,0.0,0.0,1.0990027365275136e-09,8.133676416364714e-10,6.076039083396975e-10,4.319903395929603e-10,3.424547594477426e-10,2.6510130947724495e-10,1.8564257016490604e-10,1.3666165485563072e-10,9.087888585117358e-11,5.981429656648536e-11,3.8279248344019694e-11,2.3559662566006366e-11,1.3533095197365342e-11,7.410612748206842e-12,4.088172143673916e-12,2.0792523924226215e-12,1.008658173461787e-12,6.665628234280043e-09,5.90833539974206e-09,5.404351847178893e-09,4.484627355315793e-09,3.388693103650592e-09,2.9305794083756585e-09,2.50408822894637e-09,2.0332766495929515e-09,1.5806440462631403e-09,1.3678790461149715e-09,1.0096389947299506e-09,8.055082280431531e-10,6.143088304450721e-10,4.773879230200651e-10,3.510184690730876e-10,2.5798030512657165e-10,1.8418636223646004e-10,1.2562078919374505e-10,9.06564387530358e-11,6.225828409204977e-11,3.916893521671717e-11
0.0,51,51.0,0.0,30.0,0.0,0.0,0.0,0.0,-13.0,0.0,2.0,0.0,0.0,0.0,1.1197480992913748e-09,8.462418275101077e-10,6.008757301957263e-10,4.4748090721568453e-10,3.410099453882915e-10,2.426234789785847e-10,1.8916046009129818e-10,1.3570823400132454e-10,9.435325535482953e-11,6.212516042565043e-11,3.708689067724143e-11,2.2974437284620585e-11,1.3049677793702846e-11,7.415743991129122e-12,4.174057755471404e-12,1.978602027406536e-12,9.620216347876678e-13,6.579354215834748e-09,6.156342556884145e-09,5.191683982355043e-09,4.547073630681253e-09,3.806328924674871e-09,2.9862537934432917e-09,2.557290520628635e-09,2.172299729782979e-09,1.6472170926201642e-09,1.3006091852854204e-09,1.0369670246520521e-09,7.918488948783407e-10,6.20255760256996e-10,4.532160324207564e-10,3.4721050385670064e-10,2.39665072963741e-10,1.789089553836192e-10,1.2906928062795163e-10,9.120017498436312e-11,5.923120654170797e-11,3.5221536933246387e-11
0.0,52,52.0,0.0,30.0,0.0,0.0,0.0,0.0,-13.0,0.0,2.0,0.0,0.0,0.0,1.0486781051817455e-09,8.290105864095288e-10,5.961457280294145e-10,4.2856802561245925e-10,3.359404495771472e-10,2.637079093815926e-10,1.8330512710105988e-10,1.296025580586935e-10,9.079490181630528e-11,6.044467674326601e-11,3.761577375112873e-11,2.2600728306596622e-11,1.3125535689459745e-11,7.359742466555182e-12,3.980928406665225e-12,2.030815056408785e-12,9.645484526711816e-13,6.423635301431871e-09,6.132197574282821e-09,5.308664707863103e-09,4.304323087270074e-09,3.5651372511448725e-09,3.103926182173258e-09,2.5985787789431476e-09,2.096448201922211e-09,1.7585694521151344e-09,1.3396383748423975e-09,1.0191243551093708e-09,8.370018599102907e-10,6.134132623273474e-10,4.558821072702252e-10,3.4218761939516717e-10,2.519687963332793e-10,1.7952070123406823e-10,1.3219281760219964e-10,9.319746846534635e-11,5.810506931503983e-11,3.641482655139639e-11
0.0,53,53.0,0.0,30.0,0.0,0.0,0.0,0.0,-13.0,0.0,2.0,0.0,0.0,0.0,1.0470390235514085e-09,8.347167554824509e-10,6.05375661196028e-10,4.671029639363702e-10,3.363690914219297e-10,2.68900571542208e-10,1.8314382273283882e-10,1.3530633749368346e-10,9.065837413740727e-11,6.154341406513713e-11,3.88894306613043e-11,2.2783472244437864e-11,1.3667231344202912e-11,6.984311441248255e-12,3.8723037951382e-12,1.912535489546555e-12,9.679360079609156e-13,6.73583920772385e-09,5.8916733904778426e-09,5.049641681149677e-09,4.586907576909388e-09,3.591730493803492e-09,3.1389335728253103e-09,2.4539906690761824e-09,2.04511233193752e-09,1.6198321194505963e-09,1.338995485935035e-09,1.042708124097998e-09,7.703646013947778e-10,5.853362655603333e-10,4.658273951296549e-10,3.363109501262276e-10,2.542952620310677e-10,1.8603630546774263e-10,1.274131550910815e-10,9.716870752810159e-11,5.85062695356089e-11,3.560682891066062e-11
0.0,54,54.0,0.0,30.0,0.0,0.0,0.0,0.0,-13.0,0.0,2.0,0.0,0.0,0.0,1.0664508371426152e-09,8.410817089132595e-10,6.154250240044439e-10,4.516775063970733e-10,3.2929195972641834e-10,2.501316677644913e-10,1.8502311983783092e-10,1.3424994726176428e-10,8.915794306413448e-11,5.820114699232667e-11,3.559842644703787e-11,2.156969924098863e-11,1.2456216845948226e-11,6.9986406313281285e-12,3.693666378594647e-12,1.8611527981922226e-12,8.566200971449737e-13,6.894775591400021e-09,5.977657452079831e-09,5.144663858335292e-09,4.512990180590199e-09,3.745388596867955e-09,3.0674712925619154e-09,2.419689589392022e-09,2.1210702817975156e-09,1.6595064327396489e-09,1.3444869068849843e-09,1.0076688719989664e-09,8.388430349757371e-10,6.39441712310206e-10,4.4899756745432223e-10,3.4556272069894954e-10,2.5812729845456743e-10,1.8129995081276386e-10,1.3069166604759267e-10,9.22087191353785e-11,5.973969150313289e-11,3.6542621602388896e-11
0.0,55,55.0,0.0,30.0,0.0,0.0,0.0,0.0,-13.0,0.0,2.0,0.0,0.0,0.0,1.0485176003257328e-09,8.208302435567973e-10,6.116334685215708e-10,4.5815942761158473e-10,3.5207647234203186e-10,2.7349046157782824e-10,1.7529747836915477e-10,1.3184162455641973e-10,8.973928675280598e-11,5.70333350690568e-11,3.7993918949053245e-11,2.1831015545860808e-11,1.1935330035209762e-11,7.629557774363466e-12,3.6003338791705753e-12,1.8178718854271479e-12,9.386145248545646e-13,6.595102683299369e-09,6.055181235143538e-09,5.307562803311064e-09,4.288657663410369e-09,3.664992232138114e-09,3.0423986095496043e-09,2.48414476554735e-09,2.0842207457417754e-09,1.6151782688429269e-09,1.2977806630535727e-09,1.0570570985465115e-09,8.043677007033607e-10,6.142631797974788e-10,4.71129416245462e-10,3.565297188027333e-10,2.69310213815092e-10,1.8849079504700197e-10,1.3528342484061083e-10,8.97748136704537e-11,5.840326090782179e-11,3.623283786602791e-11
0.0,56,56.0,0.0,30.0,0.0,0.0,0.0,0.0,-13.0,0.0,2.0,0.0,0.0,0.0,1.0644553291560631e-09,8.127908481231281e-10,6.15749026121954e-10,4.689442168068341e-10,3.4402711215107775e-10,2.6515371252174415e-10,1.9900555249042195e-10,1.3617618424123036e-10,9.154557227954773e-11,5.828983376281243e-11,3.687327797294237e-11,2.2139070739853142e-11,1.2551824751204518e-11,6.903536686727249e-12,3.4358935749374617e-12,1.8173451417201874e-12,8.388113061105236e-13,6.825389435738296e-09,5.982211552042298e-09,5.384867543767114e-09,4.4532155390928555e-09,3.823379692070195e-09,3.0491152721454027e-09,2.4866891405096948e-09,1.9535836304516328e-09,1.6784701389919062e-09,1.260467235786527e-09,1.0562903185730018e-09,8.211801030284382e-10,6.133900583580626e-10,4.5752343776709093e-10,3.6168511934830647e-10,2.591736837066018e-10,1.9608187176987957e-10,1.4216943664785643e-10,9.231474594417962e-11,6.347320646483308e-11,3.8303771413219024e-11
0.0,57,57.0,0.0,30.0,0.0,0.0,0.0,0.0,-13.0,0.0,2.0,0.0,0.0,0.0,1.0880001026750926e-09,8.177516730115135e-10,6.11663157149708e-10,4.3816868943412766e-10,3.294512425104703e-10,2.7622049710294586e-10,1.8764755332269582e-10,1.3206447505785892e-10,8.923544294463592e-11,5.69578750385199e-11,3.879685333669889e-11,2.195005267881657e-11,1.2277849523477878e-11,6.567763204843523e-12,3.294649408814363e-12,1.7767323398293466e-12,8.362664208702473e-13,6.451452724332913e-09,6.120421301538443e-09,5.005981572028968e-09,4.325542487161772e-09,3.7109426556182844e-09,3.012409076311254e-09,2.521044972001352e-09,2.0036803288126855e-09,1.7032434294998874e-09,1.4063802033871259e-09,1.0229547903385132e-09,7.504447947381013e-10,5.979708071111184e-10,4.6425299919792964e-10,3.511668296645489e-10,2.6438298499297453e-10,1.8534408707621484e-10,1.330361438652037e-10,8.935083153548938e-11,6.34219850510138e-11,3.8358267446502497e-11
0.0,58,58.0,0.0,30.0,0.0,0.0,0.0,0.0,-13.0,0.0,2.0,0.0,0.0,0.0,1.0687961119099858e-09,8.419000610581829e-10,5.918019088982064e-10,4.70392079057449e-10,3.5543456370507393e-10,2.624975213431877e-10,1.971907753485624e-10,1.384166007945133e-10,8.908413419173798e-11,5.7848334558940455e-11,3.603926425632467e-11,2.2251910600791378e-11,1.1941449343051469e-11,6.528510237122611e-12,3.380427063314157e-12,1.7678606733646584e-12,8.37534591203411e-13,6.751378545708711e-09,6.252182884062012e-09,4.8963971069774675e-09,4.46302274520952e-09,3.892644666864573e-09,2.955387481008042e-09,2.619595145453997e-09,1.9484458299874203e-09,1.7265538150235458e-09,1.3315791788117939e-09,1.0618251125334385e-09,7.752179737766795e-10,5.932797968185344e-10,4.4456027945945574e-10,3.4513581805603204e-10,2.7240967643287834e-10,2.031235672354375e-10,1.3450125724520683e-10,9.373586856530904e-11,5.892261334171466e-11,3.630377026913385e-11
0.0,59,59.0,0.0,30.0,0.0,0.0,0.0,0.0,-13.0,0.0,2.0,0.0,0.0,0.0,1.050635846358002e-09,8.302255516591985e-10,5.773624240314386e-10,4.601569055198501e-10,3.4914388092205566e-10,2.6820818384369795e-10,1.9905399970227863e-10,1.3167712335609436e-10,9.444088634774997e-11,5.825116774812341e-11,3.454843268279844e-11,2.0110085517349276e-11,1.1878714752983655e-11,6.287182823327401e-12,3.263614740151005e-12,1.7078887059346224e-12,8.392562897193173e-13,6.652414633839116e-09,6.03879990341862e-09,5.196746635924778e-09,4.498796300994866e-09,3.6197914183998577e-09,3.0938838559119236e-09,2.6008842228041162e-09,2.0556337822282394e-09,1.648775733627768e-09,1.3723074460043864e-09,1.062342366129879e-09,8.207581877921819e-10,6.25554736738819e-10,4.764717226380771e-10,3.6143743515601215e-10,2.744736813955224e-10,2.0013816831382868e-10,1.375499149134499e-10,9.462086973624368e-11,6.304433474922562e-11,3.9150846837663245e-11
0.0,60,60.0,0.0,30.0,0.0,0.0,0.0,0.0,-13.0,0.0,2.0,0.0,0.0,0.0,1.134362684982506e-09,7.691227330653212e-10,6.380622074032905e-10,4.765195882015574e-10,3.50192892658888e-10,2.755787384375219e-10,1.861672042800956e-10,1.324869849293498e-10,8.907227375965381e-11,5.7703464482776185e-11,3.588367282370718e-11,2.042957548378999e-11,1.1325706136409635e-11,6.6768415516090744e-12,3.5300594757072266e-12,1.668409193210619e-12,7.788182112134705e-13,6.483712200812441e-09,5.985654268667312e-09,5.38854512366476e-09,4.587093859491483e-09,3.734408849011613e-09,2.956639590311735e-09,2.4445558917140317e-09,2.0198593201037197e-09,1.6479716826455135e-09,1.4058242702324024e-09,1.0799424354385212e-09,7.781869280188948e-10,6.145198366858545e-10,4.5657217056174136e-10,3.6076280409650964e-10,2.7569944604369436e-10,1.9579130178748408e-10,1.391154550537523e-10,9.451797736555549e-11,5.919469695816771e-11,3.748855595123462e-11
0.0,61,61.0,0.0,30.0,0.0,0.0,0.0,0.0,-13.0,0.0,2.0,0.0,0.0,0.0,1.072032485553867e-09,8.112948307728461e-10,6.006954746437487e-10,4.678222558263381e-10,3.7897129089588716e-10,2.629693840301257e-10,1.907837613454187e-10,1.2677672721509152e-10,8.988786406740798e-11,5.792951159070382e-11,3.673183701508366e-11,2.1447392187193055e-11,1.1507572017947136e-11,6.074392808515058e-12,3.1046272824325275e-12,1.614171049377123e-12,7.31085370912249e-13,6.833562059737956e-09,5.620517530052653e-09,5.272684085725309e-09,4.185869146454169e-09,3.918503405587125e-09,3.0650202107926766e-09,2.541833277143085e-09,2.1097590062566648e-09,1.6611993572923095e-09,1.2990532093606086e-09,1.0593286066350255e-09,8.890658261420006e-10,6.382072925879605e-10,4.875236444722871e-10,3.469135503225788e-10,2.6877307989250743e-10,2.0420641641879207e-10,1.364850654224016e-10,9.546472349752795e-11,6.349146478993754e-11,3.759376712629583e-11
0.0,62,62.0,0.0,30.0,0.0,0.0,0.0,0.0,-13.0,0.0,2.0,0.0,0.0,0.0,1.0702683933450151e-09,8.05030706000569e-10,6.043663596040535e-10,5.041847891414113e-10,3.6315061953080755e-10,2.6200753081213494e-10,1.902481970266822e-10,1.3202718922469527e-10,8.617866146787475e-11,5.7026956399836364e-11,3.410076290274475e-11,2.0029745265950037e-11,1.1374171791860508e-11,6.108218191132394e-12,3.0197553339848223e-12,1.5342516269801393e-12,7.470687538166183e-13,6.968301609327929e-09,5.9807465212066256e-09,5.322136554333127e-09,4.583189748498288e-09,3.7661907601020285e-09,3.1008678992492257e-09,2.457683718469821e-09,2.044265145149783e-09,1.6569466077334601e-09,1.3315594738581859e-09,1.0341610190948395e-09,8.151263989798491e-10,6.47640954166093e-10,4.840235705768927e-10,3.4757112508810545e-10,2.771070212772618e-10,2.0424335950053435e-10,1.465213364048998e-10,9.53887017451093e-11,5.981940912880216e-11,3.818552283630264e-11
0.0,63,63.0,0.0,30.0,0.0,0.0,0.0,0.0,-13.0,0.0,2.0,0.0,0.0,0.0,1.0763421325516396e-09,8.674525311298744e-10,6.174255934670403e-10,4.783930018663139e-10,3.863057327158872e-10,2.768451587611226e-10,2.0003569511726657e-10,1.3378574080926658e-10,8.830599936896844e-11,5.6969844378404833e-11,3.612526597710335e-11,1.9631349572837077e-11,1.161119102593277e-11,5.9395957213390644e-12,3.1646672870869026e-12,1.455027144081774e-12,7.369285424965688e-13,6.803409670553057e-09,6.08789065745167e-09,5.085661736911416e-09,4.423749308571678e-09,3.625782856745362e-09,3.099171749189399e-09,2.452554165988766e-09,2.032252832938486e-09,1.5900913969824628e-09,1.355748879586078e-09,9.849165311574401e-10,8.115160601463894e-10,6.186576740795428e-10,4.967259792343685e-10,3.9286219922679463e-10,2.7614796285384465e-10,2.0279194829624718e-10,1.4530042270719745e-10,9.15842596980533e-11,6.30726885084805e-11,3.7401663741319864e-11
