Line_number,Fiducial,Easting,Northing,Height,Elevation,tx_pitch,tx_roll,tx_yaw,txrx_dx,txrx_dy,txrx_dz,rx_pitch,rx_roll,rx_yaw,S0Z_time_1.431e-04,S0Z_time_1.801e-04,S0Z_time_2.266e-04,S0Z_time_2.846e-04,S0Z_time_3.581e-04,S0Z_time_4.506e-04,S0Z_time_5.671e-04,S0Z_time_7.136e-04,S0Z_time_8.981e-04,S0Z_time_1.131e-03,S0Z_time_1.423e-03,S0Z_time_1.791e-03,S0Z_time_2.255e-03,S0Z_time_2.838e-03,S0Z_time_3.573e-03,S0Z_time_4.498e-03,S0Z_time_5.662e-03,S1Z_time_1.409e-05,S1Z_time_1.610e-05,S1Z_time_1.909e-05,S1Z_time_2.360e-05,S1Z_time_2.960e-05,S1Z_time_3.709e-05,S1Z_time_4.609e-05,S1Z_time_5.759e-05,S1Z_time_7.209e-05,S1Z_time_9.060e-05,S1Z_time_1.141e-04,S1Z_time_1.431e-04,S1Z_time_1.801e-04,S1Z_time_2.266e-04,S1Z_time_2.846e-04,S1Z_time_3.581e-04,S1Z_time_4.506e-04,S1Z_time_5.671e-04,S1Z_time_7.136e-04,S1Z_time_8.981e-04,S1Z_time_1.131e-03
0.0,0,0.0,0.0,30.0,0.0,0.0,0.0,0.0,-13.0,0.0,2.0,0.0,0.0,0.0,1.9832985475876546e-11,1.6196746374774444e-11,1.3189221627003369e-11,1.0847256717426553e-11,8.851992559750082e-12,7.174546118843435e-12,5.763348865806393e-12,4.585508582983964e-12,3.6098677537617643e-12,2.797019131831218e-12,2.1396262145790636e-12,1.6052574240150398e-12,1.1824504887347457e-12,8.520704899027761e-13,5.997984891420805e-13,4.1161982487982033e-13,2.749317766825157e-13,1.4955844863309657e-10,1.118475983954464e-10,8.456517133209647e-11,6.443154735651804e-11,5.139560672547134e-11,4.2170698374551347e-11,3.518940724964299e-11,2.938534768534347e-11,2.447308836300259e-11,2.0267394879181444e-11,1.666938932480936e-11,1.3655484730544871e-11,1.1062405659702681e-11,8.860102186540235e-12,7.0224422680722346e-12,5.4744874903733954e-12,4.19678706014999e-12,3.158096092035426e-12,2.329469549342471e-12,1.6827715895266363e-12,1.1893171048799267e-12
0.0,1,1.0,0.0,30.0,0.0,0.0,0.0,0.0,-13.0,0.0,2.0,0.0,0.0,0.0,1.7748147228599844e-11,1.4479905188798907e-11,1.178203117327558e-11,9.696933634836395e-12,7.918234668259664e-12,6.425055668212397e-12,5.170248017005622e-12,4.121150865174785e-12,3.2517693741636635e-12,2.525888368991767e-12,1.9379496195323305e-12,1.4582603013433618e-12,1.0777959893772719e-12,7.793273761000962e-13,5.505887565935339e-13,3.7929922756249867e-13,2.543325109235021e-13,2.0484256736539657e-10,1.4419621301773742e-10,9.853494125063833e-11,6.675695347902159e-11,4.939169760846586e-11,3.911856223975336e-11,3.213287447093714e-11,2.6607191133549518e-11,2.2017673886088328e-11,1.8165880808826386e-11,1.4898994407442948e-11,1.218048010151984e-11,9.856930878323782e-12,7.887889741683261e-12,6.25087129832329e-12,4.873431657898492e-12,3.737979140078412e-12,2.8152988999707693e-12,2.079197461762323e-12,1.504406349367526e-12,1.0652883985311929e-12
0.0,2,2.0,0.0,30.0,0.0,0.0,0.0,0.0,-13.0,0.0,2.0,0.0,0.0,0.0,1.596275624699714e-11,1.3003354817204224e-11,1.056769321269285e-11,8.701432853274846e-12,7.10788357746941e-12,5.772650628317617e-12,4.652374449647533e-12,3.714304113295908e-12,2.936897478151899e-12,2.2865549606884246e-12,1.7591851182807316e-12,1.3273972161414294e-12,9.841985630421658e-13,7.13961417957365e-13,5.061526829953618e-13,3.4996743638980074e-13,2.355432318825582e-13,2.770139286032803e-10,1.9293988791126706e-10,1.25053718842495e-10,7.621340201897448e-11,5.057424467869817e-11,3.7404835376422394e-11,2.980723405661441e-11,2.4333012058547102e-11,1.9961865030141468e-11,1.6389668431815438e-11,1.3390721696283544e-11,1.0921289216857546e-11,8.824754001430759e-12,7.0534124319504365e-12,5.5874978403418724e-12,4.355415274860773e-12,3.3417758520480697e-12,2.5185091109890236e-12,1.86198625934659e-12,1.3491325404493181e-12,9.57096983875315e-13
0.0,3,3.0,0.0,30.0,0.0,0.0,0.0,0.0,-13.0,0.0,2.0,0.0,0.0,0.0,1.4428957079104404e-11,1.172827209001288e-11,9.515386064211734e-12,7.836553873232618e-12,6.40189027512258e-12,5.20266982566701e-12,4.198638650741148e-12,3.3566936123818997e-12,2.659210737598654e-12,2.074707591247832e-12,1.6003363566851913e-12,1.2106328620015404e-12,9.003210150582847e-13,6.551182315565339e-13,4.659629808454186e-13,3.2331094776191544e-13,2.183841046913535e-13,3.550859308266386e-10,2.512959478282106e-10,1.6169337083536402e-10,9.325519919809103e-11,5.593050298409633e-11,3.7578109407897916e-11,2.8353232298269062e-11,2.253829574936291e-11,1.8252975803090014e-11,1.488702663703346e-11,1.2101928155369225e-11,9.84225779624094e-12,7.936765669937917e-12,6.334161254008211e-12,5.0146940748186974e-12,3.907090763002765e-12,2.998279986163486e-12,2.2605585003063405e-12,1.6728017116632437e-12,1.2135120993640344e-12,8.62347740571516e-13
0.0,4,4.0,0.0,30.0,0.0,0.0,0.0,0.0,-13.0,0.0,2.0,0.0,0.0,0.0,1.3108825385450606e-11,1.0623356899052252e-11,8.599965691916386e-12,7.082406807232698e-12,5.784553845206526e-12,4.7029776941147744e-12,3.7997995674409745e-12,3.0413917457171795e-12,2.4136212561734895e-12,1.886693299835287e-12,1.458846960255599e-12,1.1062197385835955e-12,8.250067785465793e-13,6.020537362174843e-13,4.2955717735692607e-13,2.990526901850425e-13,2.026950457727776e-13,4.302141252770597e-10,3.1210462684979765e-10,2.0418764994888313e-10,1.1660725298038084e-10,6.572144061527464e-11,4.013740390245162e-11,2.803028240576078e-11,2.1278235270018582e-11,1.6864842029145645e-11,1.3618404138488194e-11,1.0999537602982368e-11,8.914737913760215e-12,7.169575539184849e-12,5.711856769437644e-12,4.518053566992112e-12,3.5175690036900666e-12,2.6993602832098904e-12,2.0355357578518617e-12,1.5074735048746622e-12,1.0946799860827962e-12,7.790285473767996e-13
0.0,5,5.0,0.0,30.0,0.0,0.0,0.0,0.0,-13.0,0.0,2.0,0.0,0.0,0.0,1.1972545890494979e-11,9.663289719218656e-12,7.80089857893418e-12,6.422519803199531e-12,5.242862874358508e-12,4.263484813996678e-12,3.448121269184941e-12,2.762574647100178e-12,2.1958274087735102e-12,1.719406742672592e-12,1.3325289668636207e-12,1.0126533728435727e-12,7.572530407668762e-13,5.541185676247745e-13,3.965289117290398e-13,2.7694741045049445e-13,1.8833336277820975e-13,4.971061774993509e-10,3.699681675578312e-10,2.4829828815963346e-10,1.440645841178842e-10,7.941921031071908e-11,4.527672004675914e-11,2.9088122979589198e-11,2.066862862198907e-11,1.5807638791360682e-11,1.2559015618274816e-11,1.0057408431324099e-11,8.11557994767328e-12,6.504510759174095e-12,5.17153469896411e-12,4.085734847972552e-12,3.1779182601143865e-12,2.438300968235584e-12,1.8385450623793327e-12,1.3625281731385896e-12,9.902406123021645e-13,7.055169395872595e-13
0.0,6,6.0,0.0,30.0,0.0,0.0,0.0,0.0,-13.0,0.0,2.0,0.0,0.0,0.0,1.099826446551964e-11,8.827453191782925e-12,7.101366878627718e-12,5.8432096023129705e-12,4.765982681313479e-12,3.875757949293729e-12,3.1371015915980726e-12,2.5153278754185816e-12,2.002178546511435e-12,1.5701993011510654e-12,1.2195043226789206e-12,9.28635063041719e-13,6.9618831826477e-13,5.107448560435205e-13,3.665204708519256e-13,2.5677769370624437e-13,1.751716989270002e-13,5.535574135616808e-10,4.2168714880957144e-10,2.90765646711367e-10,1.7331042773102266e-10,9.599648633304947e-11,5.282771881983596e-11,3.16542878089788e-11,2.0833819492486685e-11,1.5123173379865576e-11,1.1702163927831735e-11,9.256257666981753e-12,7.426017206867288e-12,5.926573053691993e-12,4.7009055336275825e-12,3.707992225801758e-12,2.88075990226588e-12,2.2095250354513565e-12,1.6655178451091558e-12,1.2350587534764378e-12,8.981810262771437e-13,6.404752465745287e-13
0.0,7,7.0,0.0,30.0,0.0,0.0,0.0,0.0,-13.0,0.0,2.0,0.0,0.0,0.0,1.0172481894605875e-11,8.099221984586452e-12,6.4874867926871055e-12,5.333098075446749e-12,4.344862144365964e-12,3.5327073513704503e-12,2.8612538185227613e-12,2.2954899808474298e-12,1.8295654288010448e-12,1.4368044814653996e-12,1.1181565419725084e-12,8.530408354232299e-13,6.410536086767582e-13,4.714349944798296e-13,3.392163938652748e-13,2.383505198052017e-13,1.6309623865261977e-13,5.994815714670827e-10,4.659052424974139e-10,3.29521071654411e-10,2.024000987136995e-10,1.1426827073538066e-10,6.23500930790115e-11,3.569334835644946e-11,2.1856452960559176e-11,1.486625828835355e-11,1.1058063204264446e-11,8.584832515054828e-12,6.83132451449514e-12,5.423537125272843e-12,4.289839243069836e-12,3.3768146868834284e-12,2.6199580881734076e-12,2.00837712254088e-12,1.5130610685498754e-12,1.1226226321463912e-12,8.167971627712631e-13,5.827724260886817e-13
0.0,8,8.0,0.0,30.0,0.0,0.0,0.0,0.0,-13.0,0.0,2.0,0.0,0.0,0.0,9.489569309483137e-12,7.465759391647368e-12,5.9477212012747135e-12,4.882698844046506e-12,3.9719225130497776e-12,3.2283430616394714e-12,2.61593021201342e-12,2.0995247388893615e-12,1.6753311269327767e-12,1.3172767337488433e-12,1.0270905146870222e-12,7.848954910945676e-13,5.911864705630662e-13,4.3575208479240105e-13,3.1433798901558805e-13,2.2149427660191383e-13,1.5200513886583043e-13,6.360118532094158e-10,5.025529184170337e-10,3.635361475001371e-10,2.2993468745233666e-10,1.3313518902424017e-10,7.326882639711189e-11,4.10287213823192e-11,2.3751085494359296e-11,1.5083170369837333e-11,1.064746234650858e-11,8.040178568098305e-12,6.321006351132032e-12,4.985420746730554e-12,3.92993484830132e-12,3.0856107289573886e-12,2.3903871857245657e-12,1.8309562782755096e-12,1.3783327344430242e-12,1.0231591499834792e-12,7.446367906294073e-13,5.314488742466489e-13
0.0,9,9.0,0.0,30.0,0.0,0.0,0.0,0.0,-13.0,0.0,2.0,0.0,0.0,0.0,8.94993079581618e-12,6.917948391656906e-12,5.472531190374792e-12,4.484065718385581e-12,3.640797992596887e-12,2.957586227991581e-12,2.3971799807859402e-12,1.924415965955681e-12,1.537198049291757e-12,1.209941176443851e-12,9.450989864993618e-13,7.233508397802741e-13,5.460075262299772e-13,4.033117966504862e-13,2.9163862593576495e-13,2.060561650215257e-13,1.4180715564732605e-13,6.648266304999213e-10,5.323359910404106e-10,3.925580489611217e-10,2.5505100955613433e-10,1.5170704875520167e-10,8.499227568314608e-11,4.739390569271451e-11,2.6463247994365384e-11,1.579640189140669e-11,1.0492955150585011e-11,7.626071110197695e-12,5.888905737933567e-12,4.604315476452301e-12,3.6142061532742062e-12,2.8289257765934178e-12,2.1877516007899413e-12,1.6739868847870211e-12,1.2589407833105892e-12,9.349218408792861e-13,6.804596587643126e-13,4.856963684304635e-13
0.0,10,10.0,0.0,30.0,0.0,0.0,0.0,0.0,-13.0,0.0,2.0,0.0,0.0,0.0,8.557268660899225e-12,6.450112227619646e-12,5.05420781673016e-12,4.130520935317968e-12,3.346115759590133e-12,2.716119272436464e-12,2.2016349881223228e-12,1.767581117011501e-12,1.413207782780279e-12,1.113352037398082e-12,8.71134553073399e-13,6.676674035743251e-13,5.05008989934843e-13,3.7377541369050523e-13,2.708996854007276e-13,1.9189994184127805e-13,1.3242044045831577e-13,6.8770333064706e-10,5.5634011020555e-10,4.1684724039797874e-10,2.773312572412983e-10,1.693388017796827e-10,9.698865146946171e-11,5.4485715226309564e-11,2.9884757880214183e-11,1.6998763774964936e-11,1.061128448678133e-11,7.350060810953881e-12,5.5328026048750446e-12,4.27437793154402e-12,3.3368970605882684e-12,2.6022087791704514e-12,2.0084387740772655e-12,1.5347153858398856e-12,1.152862652565546e-12,8.564232276372748e-13,6.232098697309082e-13,4.448359796250562e-13
0.0,11,11.0,0.0,30.0,0.0,0.0,0.0,0.0,-13.0,0.0,2.0,0.0,0.0,0.0,8.31574585563417e-12,6.059399103078931e-12,4.686770303086789e-12,3.816467631412638e-12,3.083315331067778e-12,2.500262500228157e-12,2.0264167607130394e-12,1.6268007783329786e-12,1.301671335198335e-12,1.0262580387780538e-12,8.042862110724833e-13,6.171990086010101e-13,4.677449024231136e-13,3.4684387790413084e-13,2.519270662783701e-13,1.789039543902131e-13,1.2377148352624624e-13,7.062605492283982e-10,5.757560826317814e-10,4.369594660959987e-10,2.966913340027369e-10,1.8561676643773057e-10,1.0882383292558828e-10,6.200570982327593e-11,3.387492856748188e-11,1.8655304512949044e-11,1.1008528892152397e-11,7.220167166759696e-12,5.253454493180452e-12,3.99176858451248e-12,3.093391419622483e-12,2.401642973616832e-12,1.8493973687739705e-12,1.410823607838771e-12,1.0583818340057882e-12,7.863910973881589e-13,5.71993778225714e-13,4.0829203541329174e-13
0.0,12,12.0,0.0,30.0,0.0,0.0,0.0,0.0,-13.0,0.0,2.0,0.0,0.0,0.0,8.227690777887008e-12,5.7449097749986395e-12,4.365832087350159e-12,3.537267780480803e-12,2.848508922359806e-12,2.306870467451163e-12,1.8690594230068806e-12,1.5001613249502008e-12,1.2011279438108442e-12,9.475733864680523e-13,7.437596670025607e-13,5.713797789371512e-13,4.3382280845640994e-13,3.222526764715113e-13,2.345481655408127e-13,1.6695942762544367e-13,1.1579418516841007e-13,7.218389285338988e-10,5.917092229279757e-10,4.5358161712146894e-10,3.132752452505607e-10,2.0032234821456853e-10,1.2017198009737331e-10,6.968657235844355e-11,3.8280590207766697e-11,2.070978851995931e-11,1.1678470338651925e-11,7.2421139240865805e-12,5.053308078910323e-12,3.7544243454097265e-12,2.8801566046709162e-12,2.2240383913767004e-12,1.708039595059526e-12,1.300354091254164e-12,9.74037232873468e-13,7.23734702287921e-13,5.260587426266662e-13,3.7556682300355013e-13
0.0,13,13.0,0.0,30.0,0.0,0.0,0.0,0.0,-13.0,0.0,2.0,0.0,0.0,0.0,8.292155084671453e-12,5.506742256009868e-12,4.088387931957186e-12,3.2891546501874192e-12,2.6383797646878784e-12,2.133245533960129e-12,1.7274448234586708e-12,1.3860081000816623e-12,1.1103109429496237e-12,8.763533785703027e-13,6.888607479165977e-13,5.297131240734242e-13,4.0289665492293933e-13,2.9976744307557955e-13,2.1860926130612757e-13,1.55968969198603e-13,1.0842903852372557e-13,7.354737272217595e-10,6.051695356654906e-10,4.674184434912653e-10,3.2736611957034255e-10,2.1338908739790794e-10,1.3081012091613407e-10,7.73055397805454e-11,4.2951588684517706e-11,2.309271639045966e-11,1.2603461259033467e-11,7.417565665614376e-12,4.935187769101602e-12,3.5616636943848085e-12,2.6946676448593978e-12,2.0667683638966035e-12,1.582167399398858e-12,1.201646357829368e-12,8.985816904230307e-13,6.675186282526419e-13,4.847712511079749e-13,3.462207344983082e-13
0.0,14,14.0,0.0,30.0,0.0,0.0,0.0,0.0,-13.0,0.0,2.0,0.0,0.0,0.0,8.504335087022229e-12,5.345122964555814e-12,3.852526004566044e-12,3.0691512402275816e-12,2.4501101312371466e-12,1.9770675267409005e-12,1.5997476552684282e-12,1.28290678524597e-12,1.028119390728719e-12,8.117738856150735e-13,6.389813844790705e-13,4.917623794466785e-13,3.746607199223343e-13,2.791801676769633e-13,2.0397324065471395e-13,1.4584526271434133e-13,1.0162240948038473e-13,7.479200339218435e-10,6.169190568882066e-10,4.791222302622001e-10,3.393166807445565e-10,2.248610723387486e-10,1.406047781703702e-10,8.46886107830278e-11,4.775107156156429e-11,2.5728872617641904e-11,1.3756786397048144e-11,7.743417222006378e-12,4.901204082358168e-12,3.4136932784666296e-12,2.53528481162555e-12,1.9277269165096515e-12,1.4699197155715564e-12,1.1132844310278774e-12,8.309472267791882e-13,6.169418892962628e-13,4.475952556843862e-13,3.198597997383306e-13
0.0,15,15.0,0.0,30.0,0.0,0.0,0.0,0.0,-13.0,0.0,2.0,0.0,0.0,0.0,8.855686661864853e-12,5.2597357288692746e-12,3.657099311798049e-12,2.8749771990340307e-12,2.281328349034967e-12,1.836338117351975e-12,1.4843893644823078e-12,1.1896111265655981e-12,9.535943396331506e-13,7.531140967637728e-13,5.935877404798296e-13,4.57142821483413e-13,3.4884441161941174e-13,2.6030592566876457e-13,1.9051762349139682e-13,1.36509923560312e-13,9.532590153733905e-14,7.597019422086883e-10,6.275553595680821e-10,4.892558897682926e-10,3.4949854170137827e-10,2.348563628612617e-10,1.494956206278336e-10,9.170898975740209e-11,5.2561235782135186e-11,2.8543401385006047e-11,1.5105611442592903e-11,8.211937416917613e-12,4.952008150411249e-12,3.311104434454259e-12,2.4010844218464093e-12,1.8052875804500783e-12,1.3697353534621628e-12,1.0340556374842083e-12,7.70215712883892e-13,5.713202138224181e-13,4.1407237170614946e-13,2.961297370615091e-13
0.0,16,16.0,0.0,30.0,0.0,0.0,0.0,0.0,-13.0,0.0,2.0,0.0,0.0,0.0,9.334498492488661e-12,5.249292034682799e-12,3.5013992967640456e-12,2.704939156994631e-12,2.130064800051232e-12,1.7093375961738152e-12,1.3800000328823046e-12,1.1050357084699909e-12,8.858988325782505e-13,6.997420117597724e-13,5.522101422185135e-13,4.2551483250514564e-13,3.25207801027434e-13,2.429800506827084e-13,1.7813284134233025e-13,1.2789249542573834e-13,8.949579497180311e-14,7.711671339400521e-10,6.375145963849927e-10,4.982799518599147e-10,3.5826809359214763e-10,2.4353680353118806e-10,1.5747892740992521e-10,9.828234826733305e-11,5.7285671663534036e-11,3.1466139247359214e-11,1.6613877865973186e-11,8.811475478360818e-12,5.086411816706663e-12,3.2544330323172357e-12,2.291660250704331e-12,1.6982522261383286e-12,1.2803250687927172e-12,9.629196998626918e-13,7.155944039373128e-13,5.30070211078281e-13,3.8380530113425614e-13,2.747140841878064e-13
0.0,17,17.0,0.0,30.0,0.0,0.0,0.0,0.0,-13.0,0.0,2.0,0.0,0.0,0.0,9.926700453195845e-12,5.311332118306341e-12,3.384867682196361e-12,2.5578087192253896e-12,1.994709702465308e-12,1.5945910629467076e-12,1.2853874132797572e-12,1.0282328934663716e-12,8.243009064729645e-13,6.511022217283935e-13,5.14434520304719e-13,3.9657803503473943e-13,3.035377753219211e-13,2.2705568632471517e-13,1.667207361045096e-13,1.1992956886904684e-13,8.40925510656822e-14,7.82536602439467e-10,6.471022845375959e-10,5.065550281622113e-10,3.6594603317634875e-10,2.5108444952922556e-10,1.6459231486765774e-10,1.0436061206164867e-10,6.184940820638667e-11,3.443434490714099e-11,1.824478201632921e-11,9.527450602545269e-12,5.301322077416423e-12,3.2438264541389415e-12,2.206919444879003e-12,1.6057867668946128e-12,1.200647055128128e-12,8.989861853730485e-13,6.663960202835356e-13,4.926948216586167e-13,3.564450592214033e-13,2.553337956069473e-13
0.0,18,18.0,0.0,30.0,0.0,0.0,0.0,0.0,-13.0,0.0,2.0,0.0,0.0,0.0,1.0616733246311617e-11,5.442214567242161e-12,3.306869122043429e-12,2.43269709635829e-12,1.873968866315301e-12,1.4908409707854046e-12,1.1995121250600633e-12,9.583733261171417e-13,7.681590666350151e-13,6.067055818106938e-13,4.798951215335677e-13,3.7006624933272325e-13,2.8364471757535566e-13,2.1240166157805746e-13,1.5619324878956238e-13,1.1256400603198497e-13,7.90803733275196e-14,7.939451134277818e-10,6.565244151462107e-10,5.143529993078529e-10,3.728073638386255e-10,2.5768420507196027e-10,1.7090141841960738e-10,1.0992532201075148e-10,6.619754277009652e-11,3.739413872634865e-11,1.9962693821571603e-11,1.0343408033504214e-11,5.591905851066394e-12,3.2788320352936715e-12,2.1468948584133186e-12,1.5273465765252968e-12,1.129881869854918e-12,8.414979006486742e-13,6.22022999474264e-13,4.587699681807626e-13,3.316818297520331e-13,2.3774641601017755e-13
0.0,19,19.0,0.0,30.0,0.0,0.0,0.0,0.0,-13.0,0.0,2.0,0.0,0.0,0.0,1.1388363577726452e-11,5.6372397950453245e-12,3.2665332060106284e-12,2.3289361168471134e-12,1.7668165748324375e-12,1.3970233994736463e-12,1.1214678713385273e-12,8.947295444262258e-13,7.169098399088434e-13,5.661204402675533e-13,4.48268285112146e-13,3.457431537018804e-13,2.653596348657073e-13,1.9890064291237208e-13,1.4647127251630942e-13,1.0574425787065818e-13,7.442681867660817e-14,8.054716163211445e-10,6.659149079419823e-10,5.218720032232729e-10,3.790788640751829e-10,2.6351192598024904e-10,1.7648880012847018e-10,1.1498118145684537e-10,7.029308770596151e-11,4.0300992684348244e-11,2.1734510377730083e-11,1.1241999812812453e-11,5.951896719738685e-12,3.358299212249232e-12,2.1115892616827345e-12,1.4625975474587578e-12,1.067404854582935e-12,7.898178751133343e-13,5.819553600533751e-13,4.2793257717761087e-13,3.092387882616727e-13,2.2174394397029076e-13
0.0,20,20.0,0.0,30.0,0.0,0.0,0.0,0.0,-13.0,0.0,2.0,0.0,0.0,0.0,1.222538057520533e-11,5.890854101142911e-12,3.262663264388308e-12,2.2459735757786044e-12,1.6724467474805146e-12,1.312246166049554e-12,1.0504655052018318e-12,8.366622965717971e-13,6.700571160765384e-13,5.28965149805111e-13,4.192671091821452e-13,3.233985462751449e-13,2.4853166975138256e-13,1.8644752341303823e-13,1.3748364760698231e-13,9.942376215392308e-14,7.01024524588748e-14,8.171606997926011e-10,6.753578198533475e-10,5.292519809294915e-10,3.8494141714711955e-10,2.6872706105863794e-10,1.8144510740439224e-10,1.1955013374825852e-10,7.411445697243573e-11,4.31195696395219e-11,2.3530513826053993e-11,1.2205813947801247e-11,6.373967517187232e-12,3.4803747352644935e-12,2.1008592477846423e-12,1.4113393214015914e-12,1.0127558612940541e-12,7.434180067849777e-13,5.457414590565974e-13,3.9987018421911093e-13,2.888680511332774e-13,2.0714934639115337e-13
0.0,21,21.0,0.0,30.0,0.0,0.0,0.0,0.0,-13.0,0.0,2.0,0.0,0.0,0.0,1.3112147728528784e-11,6.196889843391273e-12,3.293702354044231e-12,2.1832879515722523e-12,1.5902245329949802e-12,1.2357676706936615e-12,9.85819863031011e-13,7.836091723621865e-13,6.271630504072006e-13,4.949016429193485e-13,3.9263686195511127e-13,3.0284512171293473e-13,2.330259405440219e-13,1.7494801552914352e-13,1.2916627975234963e-13,9.356041204796278e-14,6.608054195816402e-14,8.290369129629638e-10,6.849041790212942e-10,5.365888963603059e-10,3.9053511729089856e-10,2.734688562433518e-10,1.858623562316631e-10,1.2366615109148352e-10,7.765286339293601e-11,4.582314603887803e-11,2.5324831079005164e-11,1.3218024178802737e-11,6.85011171653442e-12,3.642565344647282e-12,2.114339980648007e-12,1.3734362117975182e-12,9.656072745632127e-13,7.018680549425351e-13,5.129908627352998e-13,3.743122443634607e-13,2.703479557127486e-13,1.938121851459108e-13
0.0,22,22.0,0.0,30.0,0.0,0.0,0.0,0.0,-13.0,0.0,2.0,0.0,0.0,0.0,1.4034009975062708e-11,6.5488087944719915e-12,3.357743479206085e-12,2.14032451006126e-12,1.5196406554189088e-12,1.1669760566389182e-12,9.269384649946457e-13,7.350751621502211e-13,5.878403349007941e-13,4.636299004301046e-13,3.681510172106545e-13,2.8391568812429594e-13,2.187216641637001e-13,1.6431741935879405e-13,1.2146136490588068e-13,8.811608643289001e-14,6.233678376205546e-14,8.411138346600402e-10,6.945840785742004e-10,5.43946739505786e-10,3.9596561054446146e-10,2.7785518943353916e-10,1.89829116633932e-10,1.2737081457712232e-10,8.090979485658508e-11,4.8392789237246374e-11,2.709559383800615e-11,1.426286353965729e-11,7.371996108023012e-12,3.841842878019223e-12,2.1514071313668483e-12,1.348759557622399e-12,9.257318966848189e-13,6.648242799692968e-13,4.833685935562531e-13,3.5102313027942926e-13,2.534810475283956e-13,1.8160397952962289e-13
0.0,23,23.0,0.0,30.0,0.0,0.0,0.0,0.0,-13.0,0.0,2.0,0.0,0.0,0.0,1.497756995317461e-11,6.9399270147620354e-12,3.4525705982895432e-12,2.116452319365249e-12,1.4602704778145306e-12,1.105368752000152e-12,8.733114087618335e-13,6.906247706948367e-13,5.517456631008504e-13,4.3488317952453697e-13,3.4560781618920133e-13,2.664607596811228e-13,2.055105221260869e-13,1.5447954281168335e-13,1.143167068942947e-13,8.305623423764756e-14,5.884906094670385e-14,8.533995142575863e-10,7.044149590727125e-10,5.513670766621828e-10,4.0131062161185386e-10,2.8198321188033965e-10,1.934273232204661e-10,1.3070969851914763e-10,8.389467155327832e-11,5.081640917424772e-11,2.88248848748342e-11,1.5325941760556933e-11,7.931263880708115e-12,4.074770487690861e-12,2.211169561494575e-12,1.3371433413625203e-12,8.9297234790981e-13,6.320175410600215e-13,4.565901401303245e-13,3.29796669104248e-13,2.38092356677794e-13,1.7041385521677935e-13
0.0,24,24.0,0.0,30.0,0.0,0.0,0.0,0.0,-13.0,0.0,2.0,0.0,0.0,0.0,1.5930853949965808e-11,7.363609012940769e-12,3.5757182607445315e-12,2.1109399590131787e-12,1.4117391262404941e-12,1.0505327455585776e-12,8.245020089704159e-13,6.498753457717781e-13,5.185742227473934e-13,4.0842389493257304e-13,3.248272767603124e-13,2.50346469415289e-13,1.9329523580392366e-13,1.4536575361165363e-13,1.0768511572919378e-13,7.834950607271372e-14,5.559722656953735e-14,8.658995434943772e-10,7.144070269507297e-10,5.588762945283156e-10,4.066260242221309e-10,2.859311145890753e-10,1.9673041161422504e-10,1.337295262579348e-10,8.662274351706576e-11,5.3087766015481865e-11,3.049853961914296e-11,1.639443343859344e-11,8.519779700732262e-12,4.337633634532024e-12,2.2924852217523663e-12,1.338353257395471e-12,8.672133923741409e-13,6.032410187427267e-13,4.324167817705599e-13,3.104519776379148e-13,2.240277302335306e-13,1.6014484375020597e-13
0.0,25,25.0,0.0,30.0,0.0,0.0,0.0,0.0,-13.0,0.0,2.0,0.0,0.0,0.0,1.6883389503770644e-11,7.813426060494069e-12,3.7245399223448405e-12,2.1229467228585175e-12,1.3736933358007021e-12,1.002126056723991e-12,7.801379318167782e-13,6.124913287922244e-13,4.88055058550729e-13,3.840400659289578e-13,3.0564858608352657e-13,2.3545275482259787e-13,1.8198832183683744e-13,1.3691414605341012e-13,1.0152387630721667e-13,7.396742731068324e-14,5.256291040964687e-14,8.786186646759675e-10,7.245666366675787e-10,5.664908720980434e-10,4.11951119458955e-10,2.8976049057816606e-10,1.9980248571358946e-10,1.3647603294502163e-10,8.911325912777405e-11,5.520548857228152e-11,3.2105855581208245e-11,1.7457164580633128e-11,9.129816765255095e-12,4.626564551068651e-12,2.3939928648953955e-12,1.352068203728022e-12,8.483581903228543e-13,5.783379292692586e-13,4.106509500127553e-13,2.9283031288090905e-13,2.111521255726074e-13,1.5071099170832732e-13
0.0,26,26.0,0.0,30.0,0.0,0.0,0.0,0.0,-13.0,0.0,2.0,0.0,0.0,0.0,1.7826215192070457e-11,8.283278360679249e-12,3.8962774597004195e-12,2.1515257596032044e-12,1.3457800714341938e-12,9.598608400296366e-13,7.399027257101141e-13,5.781791908668678e-13,4.599471575431661e-13,3.6154225483093246e-13,2.879278249980206e-13,2.216717762000926e-13,1.7151100264455916e-13,1.2906880783531738e-13,9.579427862886105e-14,6.98841075295441e-14,4.9729346282928565e-14,8.915615267830782e-10,7.348982949585257e-10,5.74221073803479e-10,4.173130004483022e-10,2.935189079775581e-10,2.026982441072393e-10,1.389924506380574e-10,9.13879151043849e-11,5.7172139929066325e-11,3.363924818867879e-11,1.8504622492759423e-11,9.754190781115214e-12,4.93765324492471e-12,2.5141530491973483e-12,1.3778724160211334e-12,8.363090232352448e-13,5.571896672333138e-13,3.911314999255806e-13,2.7679265589876433e-13,1.9934785692886096e-13,1.4203527175168374e-13
0.0,27,27.0,0.0,30.0,0.0,0.0,0.0,0.0,-13.0,0.0,2.0,0.0,0.0,0.0,1.8751840373846442e-11,8.767483721683715e-12,4.088126738474149e-12,2.1956356934093436e-12,1.3276315041123336e-12,9.234884665045967e-13,7.035277516863538e-13,5.466828755543601e-13,4.340361229856264e-13,3.407609316159718e-13,2.715359814936019e-13,2.089065340888795e-13,1.617922505617203e-13,1.2177917427440578e-13,9.046120188493636e-14,6.607598190350031e-14,4.708121759113556e-14,9.04732979587637e-10,7.454057763711762e-10,5.820734424788493e-10,4.2273001781814914e-10,2.972424338696915e-10,2.0546342950397624e-10,1.413185205369298e-10,9.34695838104407e-11,5.899335401946241e-11,3.509388076325337e-11,1.9528910000240148e-11,1.038634824246218e-11,5.267041559546876e-12,2.651293146252227e-12,1.415256109669105e-12,8.309526227136749e-13,5.397047878996598e-13,3.737288803123847e-13,2.622177792944829e-13,1.885128321411697e-13,1.3404818009739693e-13
0.0,28,28.0,0.0,30.0,0.0,0.0,0.0,0.0,-13.0,0.0,2.0,0.0,0.0,0.0,1.9654169518521677e-11,9.260836912329116e-12,4.297296070467085e-12,2.254157650381241e-12,1.3188556065423055e-12,8.927867906051055e-13,6.707845756989316e-13,5.177796230954207e-13,4.101313192916188e-13,3.2154420592690687e-13,2.5635721737122304e-13,1.9706965775765578e-13,1.527679472354711e-13,1.1499945886857168e-13,8.549274578834281e-14,6.252158071071073e-14,4.4604519049395164e-14,9.181381406100562e-10,7.560926938310914e-10,5.900524191003364e-10,4.282144368191037e-10,3.0095794957617564e-10,2.0813560639754592e-10,1.434899347710555e-10,9.538130285319181e-11,6.06770578674704e-11,3.646728833173968e-11,2.052366080108092e-11,1.102041709028616e-11,5.610999294394504e-12,2.8036523855404736e-12,1.4636224488958233e-12,8.321499008411836e-13,5.258091585691061e-13,3.583402697910637e-13,2.4900059850302336e-13,1.7855883082782475e-13,1.266868548033932e-13
0.0,29,29.0,0.0,30.0,0.0,0.0,0.0,0.0,-13.0,0.0,2.0,0.0,0.0,0.0,2.0528402769900637e-11,9.758644427246775e-12,4.521055944439619e-12,2.32591514373222e-12,1.3190314601129901e-12,8.675496733855731e-13,6.414779077842665e-13,4.912760963982438e-13,3.8806338870016607e-13,3.037558732807342e-13,2.422873571693434e-13,1.8608234135022186e-13,1.4438014265728133e-13,1.0868815058309818e-13,8.085990339925179e-14,5.920132363303095e-14,4.228643278259476e-14,9.317823672945816e-10,7.669627539240614e-10,5.981613520856508e-10,4.3377441145081006e-10,3.0468517431649603e-10,2.1074511426333823e-10,1.4553811404314487e-10,9.714550426896665e-11,6.223278751105432e-11,3.7759009174768313e-11,2.148392898757519e-11,1.165122750672054e-11,5.965983023572481e-12,2.9694241934905822e-12,1.5222988218464862e-12,8.397296446096834e-13,5.154374999689614e-13,3.448847879804793e-13,2.3705066281077476e-13,1.6940987107913427e-13,1.1989454319310778e-13
0.0,30,30.0,0.0,30.0,0.0,0.0,0.0,0.0,-13.0,0.0,2.0,0.0,0.0,0.0,2.1370921804180915e-11,1.0256739321035769e-11,4.756779541981015e-12,2.4096948373440744e-12,1.3277083103594632e-12,8.475787102222842e-13,6.154391705502502e-13,4.670047645764969e-13,3.676820590783926e-13,2.8727372748765227e-13,2.292325721347487e-13,1.7587340818269055e-13,1.3657640056633413e-13,1.0280756945856379e-13,7.653627043227921e-14,5.609733595994242e-14,4.011521719463622e-14,9.456712029582453e-10,7.780198429369106e-10,6.064030961331131e-10,4.3941540812134657e-10,3.0843836813631364e-10,2.1331608277607912e-10,1.4749023580851385e-10,9.87834556396795e-11,6.367110046546695e-11,3.897023385739434e-11,2.2406062648351054e-11,1.2274309727531923e-11,6.328679210956475e-12,3.146794124150499e-12,1.590550680052425e-12,8.534855964288041e-13,5.08526427091771e-13,3.3329890419398814e-13,2.262906947580324e-13,1.6100069879405942e-13,1.1362026841858385e-13
0.0,31,31.0,0.0,30.0,0.0,0.0,0.0,0.0,-13.0,0.0,2.0,0.0,0.0,0.0,2.217916791350188e-11,1.075148036099722e-11,5.001974306885117e-12,2.5042667457189788e-12,1.344407440392171e-12,8.32677015104462e-13,5.925207609994092e-13,4.4482052525384607e-13,3.4885417999414673e-13,2.719880964783942e-13,2.171082348914328e-13,1.6637848680000629e-13,1.293092189916753e-13,9.732347320537165e-14,7.249778666713903e-14,5.3193284181917687e-14,3.808010719965155e-14,9.598103276744264e-10,7.89268031656492e-10,6.147803459998334e-10,4.4514120258640755e-10,3.122277204427347e-10,2.1586742967438033e-10,1.49369438774146e-10,1.003148829370805e-10,6.500308354274896e-11,4.010347844992049e-11,2.3287569009593172e-11,1.2885874682862442e-11,6.696033680008596e-12,3.3339724986336463e-12,1.6675965311545139e-12,8.731762824895031e-13,5.050089989353695e-13,3.23532158196665e-13,2.1665513115472426e-13,1.5327541853317428e-13,1.0781858004593091e-13
0.0,32,32.0,0.0,30.0,0.0,0.0,0.0,0.0,-13.0,0.0,2.0,0.0,0.0,0.0,2.2951517554918452e-11,1.1239739184831446e-11,5.254305297114239e-12,2.608402898941401e-12,1.3686260205898574e-12,8.226448466055727e-13,5.725910433046589e-13,4.2459756307801697e-13,3.314619401220063e-13,2.5780056401458643e-13,2.058379228368795e-13,1.575392848942612e-13,1.2253551641976654e-13,9.220470839247738e-14,6.872250563140525e-14,5.0474228779186284e-14,3.6171224567485096e-14,9.742055248969644e-10,8.007115486376008e-10,6.232958066674381e-10,4.5095455719460907e-10,3.1606045150843414e-10,2.1841378999886568e-10,1.511951418297077e-10,1.0175774436784785e-10,6.623995171360793e-11,4.1162286360996946e-11,2.4126976704956467e-11,1.3482782203010975e-11,7.065269617218909e-12,3.5292214755491795e-12,1.7526230072153585e-12,8.98526952332462e-13,5.04810706134601e-13,3.155432865024514e-13,2.080886529468462e-13,1.461862710155435e-13,1.0244931103868499e-13
0.0,33,33.0,0.0,30.0,0.0,0.0,0.0,0.0,-13.0,0.0,2.0,0.0,0.0,0.0,2.3687159283013215e-11,1.1718878553410997e-11,5.511611286928422e-12,2.720893887060159e-12,1.3998422130223852e-12,8.172768217803032e-13,5.555300817536641e-13,4.0622645050975136e-13,3.1540123256056913e-13,2.4462284504349535e-13,1.9535255039564273e-13,1.4930294916416092e-13,1.1621617551289032e-13,8.742290066939566e-14,6.51903891974463e-14,4.7926492284531796e-14,3.437949727817695e-14,9.888626646385477e-10,8.123547476469997e-10,6.319522679004924e-10,4.5685766607094154e-10,3.1994166479952343e-10,2.209663473937069e-10,1.5298342788881445e-10,1.0312812557741708e-10,6.73927313706051e-11,4.2150961420534446e-11,2.4923699358995525e-11,1.4062500560774394e-11,7.433896198156393e-12,3.73087669016251e-12,1.844799236956687e-12,9.292330375828596e-13,5.078467673053588e-13,3.092968200276672e-13,2.0054471440376665e-13,1.396925519360914e-13,9.747729710330489e-14
0.0,34,34.0,0.0,30.0,0.0,0.0,0.0,0.0,-13.0,0.0,2.0,0.0,0.0,0.0,2.4385974957091048e-11,1.2186724228024475e-11,5.771914669647966e-12,2.840562997032985e-12,1.437520940980317e-12,8.163604493657404e-13,5.412260966733896e-13,3.896114997650584e-13,3.0058014551048864e-13,2.323757876075235e-13,1.855896122250202e-13,1.416215007676506e-13,1.1031563749676671e-13,8.295217919637796e-14,6.188312415055868e-14,4.553754093246147e-14,3.269658690652576e-14,1.0037876999297548e-09,8.242020807738039e-10,6.407526269152633e-10,4.6285243695828744e-10,3.2387499126546106e-10,2.235335544583035e-10,1.5474745468275684e-10,1.0444022883141048e-10,6.847201975285953e-11,4.3074333416921324e-11,2.5677903610018566e-11,1.4623060308449614e-11,7.799709720465079e-12,3.937363860731833e-12,1.9432900124811436e-12,9.649646087376758e-13,5.140205682919056e-13,3.0476018973534944e-13,1.939840956625993e-13,1.3375965999338694e-13,9.287204088136141e-14
0.0,35,35.0,0.0,30.0,0.0,0.0,0.0,0.0,-13.0,0.0,2.0,0.0,0.0,0.0,2.5048427311987515e-11,1.2641532509235829e-11,6.033426193353895e-12,2.966277873900998e-12,1.4811198637808409e-12,8.196757176109437e-13,5.295726041133169e-13,3.746683735732602e-13,2.869175640414352e-13,2.2098847906723965e-13,1.7649252136277886e-13,1.3445133728527647e-13,1.0480154131489784e-13,7.876893110287637e-14,5.878395814872374e-14,4.329587840769813e-14,3.111482316933547e-14,1.0189866722918983e-09,8.36258080854088e-10,6.496998859612866e-10,4.689406616663844e-10,3.278630654447643e-10,2.2612174055324544e-10,1.5649786478817593e-10,1.0570643181875519e-10,6.948781134773884e-11,4.393755612783455e-11,2.6390383885637706e-11,1.5163004710747324e-11,8.160788875291838e-12,4.1472109025265826e-12,2.047267453427543e-12,1.0053713926359658e-12,5.232230606774639e-13,3.019013497168716e-13,1.8837350841760232e-13,1.283582585621386e-13,8.860732212827347e-14
0.0,36,36.0,0.0,30.0,0.0,0.0,0.0,0.0,-13.0,0.0,2.0,0.0,0.0,0.0,2.56754553489619e-11,1.3081955060848079e-11,6.294545484328639e-12,3.0969597877644797e-12,1.5300952158467816e-12,8.269954894841956e-13,5.204661834610157e-13,3.6132195870075833e-13,2.743418745846623e-13,2.1039743880590627e-13,1.6801002815595894e-13,1.2775279315443878e-13,9.964440244891448e-14,7.485158235813058e-14,5.587755281381706e-14,4.11909503783993e-14,2.962714486652771e-14,1.0344657223893885e-09,8.48527352957739e-10,6.587971403065594e-10,4.751241131191717e-10,3.319078693616686e-10,2.2873561291165876e-10,1.5824317582722377e-10,1.0693739514707016e-10,7.044938170717252e-11,4.47459369429222e-11,2.7062445603102565e-11,1.568133855873135e-11,8.515485530129566e-12,4.3590561465778944e-12,2.1559210347432107e-12,1.0500879996769541e-12,5.353329331401003e-13,3.006869040385793e-13,1.8368428448981986e-13,1.2346353457359353e-13,8.466076643721004e-14
0.0,37,37.0,0.0,30.0,0.0,0.0,0.0,0.0,-13.0,0.0,2.0,0.0,0.0,0.0,2.6268378497790346e-11,1.3507002304370433e-11,6.553858206206032e-12,3.2315906826695374e-12,1.5839072720392499e-12,8.380864840624011e-13,5.138048061536115e-13,3.495045012558883e-13,2.6278976768081564e-13,2.0054588345876167e-13,1.6009570760141073e-13,1.2148975141516247e-13,9.481732695949639e-14,7.118040192725341e-14,5.3149851976037284e-14,3.9213058649603683e-14,2.822704653504103e-14,1.0502311029614807e-09,8.610145730825095e-10,6.68047564868878e-10,4.814045959151645e-10,3.3601097510607114e-10,2.3137866128258853e-10,1.599901387961133e-10,1.0814220113219591e-10,7.136521920672643e-11,4.550479643691771e-11,2.769579794504853e-11,1.6177476749807805e-11,8.862412156267068e-12,4.57165325917988e-12,2.268465963134695e-12,1.0987390920607557e-12,5.502173776101718e-13,3.0108070565207137e-13,1.7989117312158774e-13,1.190545391145561e-13,8.101339057766176e-14
0.0,38,38.0,0.0,30.0,0.0,0.0,0.0,0.0,-13.0,0.0,2.0,0.0,0.0,0.0,2.6828810093188756e-11,1.3916006397320342e-11,6.8101305867594045e-12,3.3692182356591453e-12,1.6420252864668998e-12,8.527106535371216e-13,5.09486652782176e-13,3.391539975591245e-13,2.522051367710849e-13,1.9138305400180583e-13,1.5270750444292031e-13,1.1562930037595352e-13,9.029575684033928e-14,6.773732650637427e-14,5.058796334024505e-14,3.7353283902757894e-14,2.6908530211554507e-14,1.066289192105132e-09,8.737244918356068e-10,6.77454403313151e-10,4.877839688639487e-10,3.401737116188656e-10,2.3405347844861907e-10,1.6174405793687524e-10,1.0932850989590948e-10,7.224299573016643e-11,4.62193556982085e-11,2.8292456926661433e-11,1.6651193709066132e-11,9.200426824672473e-12,4.783873421601773e-12,2.3841499685288583e-12,1.1509442980166335e-12,5.677332880529059e-13,3.0304288287852595e-13,1.7697126673917104e-13,1.1511359627845324e-13,7.764914367352379e-14
0.0,39,39.0,0.0,30.0,0.0,0.0,0.0,0.0,-13.0,0.0,2.0,0.0,0.0,0.0,2.735858037765864e-11,1.4308584590943536e-11,7.0623019315472196e-12,3.508959175597593e-12,1.7039318196129263e-12,8.706267973143223e-13,5.074093443999856e-13,3.302128295010534e-13,2.42538071841062e-13,1.828635967345757e-13,1.4580732697632069e-13,1.1014142949592257e-13,8.605724322525796e-14,6.450580349144511e-14,4.8180052060486086e-14,3.560341610207932e-14,2.5666061768950645e-14,1.0826465057920823e-09,8.866619411103686e-10,6.870209608979698e-10,4.94264151732031e-10,3.44397276104542e-10,2.367620095004783e-10,1.6350906963327948e-10,1.1050272192468194e-10,7.308956797863232e-11,4.6894648836251114e-11,2.8854659103060417e-11,1.7102574484870745e-11,9.528616518539035e-12,4.9947052737805095e-12,2.502258627930426e-12,1.206322739981868e-12,5.877287499571367e-13,3.065292410976392e-13,1.7490306793465593e-13,1.1162576933456284e-13,7.455446171681307e-14
0.0,40,40.0,0.0,30.0,0.0,0.0,0.0,0.0,-13.0,0.0,2.0,0.0,0.0,0.0,2.785966897514568e-11,1.4684603588051557e-11,7.309475641107532e-12,3.650001111635144e-12,1.7691264200219262e-12,8.91592285850371e-13,5.074695158211707e-13,3.2262662920702836e-13,2.3374394686214813e-13,1.7494699232896549e-13,1.3936068198972367e-13,1.0499875940555238e-13,8.208124436327747e-14,6.14706501408322e-14,4.591524489871434e-14,3.395589175001226e-14,2.4494531351985678e-14,1.0993097090992693e-09,8.998318422137128e-10,6.967506010248368e-10,5.008471239859775e-10,3.4868280596177165e-10,2.39505742264839e-10,1.6528838069275528e-10,1.1167013901484923e-10,7.391100198783418e-11,4.7535457864859374e-11,2.9384785955432617e-11,1.7531968157978303e-11,9.846279367325254e-12,5.2032530624640086e-12,2.6221193669647843e-12,1.2644970963275403e-12,6.100447007705237e-13,3.114909836170127e-13,1.7366570346882877e-13,1.0857837588966363e-13,7.171784954133333e-14
0.0,41,41.0,0.0,30.0,0.0,0.0,0.0,0.0,-13.0,0.0,2.0,0.0,0.0,0.0,2.8334146566171948e-11,1.5044145379743626e-11,7.550909159073169e-12,3.791603108058594e-12,1.8371286640759264e-12,9.153647956213772e-13,5.095626632139826e-13,3.163433546950791e-13,2.2578259953774415e-13,1.6759702874180904e-13,1.333363445920746e-13,1.001763015691727e-13,7.834894559974951e-14,5.861792715260096e-14,4.378354380950949e-14,3.240373726335814e-14,2.3389217490944786e-14,1.1162856260259148e-09,9.132392143734385e-10,7.066467448477016e-10,5.075349202498757e-10,3.530314232845724e-10,2.4228585018603806e-10,1.6708446829054804e-10,1.1283511789250818e-10,7.471261440762824e-11,4.814626706752003e-11,2.98852987356383e-11,1.7939944044721625e-11,1.0152906291823628e-11,5.408733370902883e-12,2.743104295435541e-12,1.3250971568788235e-12,6.345166637304594e-13,3.1787469546940483e-13,1.73238284818635e-13,1.0596054611841774e-13,6.912950033076184e-14
0.0,42,42.0,0.0,30.0,0.0,0.0,0.0,0.0,-13.0,0.0,2.0,0.0,0.0,0.0,2.8784125328717145e-11,1.538747492293346e-11,7.786003202965835e-12,3.933095221551808e-12,1.907480582921862e-12,9.41703982075809e-13,5.135832045130199e-13,3.113125561023156e-13,2.1861760109507259e-13,1.607813149691819e-13,1.2770605784724907e-13,9.5651243628763e-14,7.484309888165536e-14,5.5934825096767046e-14,4.1775747936566245e-14,3.0940517822308406e-14,2.234575451973811e-14,1.1335812480034715e-09,9.26889182963345e-10,7.167128731244393e-10,5.143296251449469e-10,3.574442608542787e-10,2.451032975616665e-10,1.688992450092127e-10,1.1400121274442827e-10,7.549902508987153e-11,4.8731233973493635e-11,3.0358683338602346e-11,1.832725104133967e-11,1.0448162457570757e-11,5.610470748213788e-12,2.864632032648459e-12,1.3877628631588867e-12,6.609764785040215e-13,3.2562253623916736e-13,1.7359940953548185e-13,1.0376282017107378e-13,6.678095868872781e-14
0.0,43,43.0,0.0,30.0,0.0,0.0,0.0,0.0,-13.0,0.0,2.0,0.0,0.0,0.0,2.9211717584648224e-11,1.5715009922869234e-11,8.014290566595004e-12,4.073877192772087e-12,1.979748521768723e-12,9.703730391438706e-13,5.194246983606298e-13,3.074848109220355e-13,2.1221561296514432e-13,1.5447083343037054e-13,1.2244425813349703e-13,9.140275696880685e-14,7.154787955618702e-14,5.3409562329563165e-14,3.9883383131353576e-14,2.9560291115375666e-14,2.1360102966097466e-14,1.1512037413204803e-09,9.407869870978218e-10,7.269525295337248e-10,5.212333688643668e-10,3.6192247606444144e-10,2.4795891553597624e-10,1.7073419299312246e-10,1.1517130445020425e-10,7.62742164919887e-11,4.929417418652389e-11,3.0807404607417144e-11,1.8694780342007258e-11,1.0731868859800663e-11,5.807892504263911e-12,2.9861686702437434e-12,1.4521468463555709e-12,6.892539709717999e-13,3.346725921989863e-13,1.7472679361574425e-13,1.0197678245645916e-13,6.466482969353987e-14
0.0,44,44.0,0.0,30.0,0.0,0.0,0.0,0.0,-13.0,0.0,2.0,0.0,0.0,0.0,2.961900200422642e-11,1.6027292902040318e-11,8.235424731261216e-12,4.213416459415959e-12,2.0535244857174303e-12,1.0011401118380154e-12,5.269801748689904e-13,3.0481130642691087e-13,2.0654582629676704e-13,1.486395292791731e-13,1.1752782298855589e-13,8.741182350026903e-14,6.84487584568756e-14,5.103129317512662e-14,3.809863821222172e-14,2.8257565467476906e-14,2.0428522618695352e-14,1.1691604537233875e-09,9.549379864676e-10,7.373693248185007e-10,5.282483240331771e-10,3.664672573133769e-10,2.50853455799796e-10,1.7259047141330215e-10,1.1634771550339222e-10,7.704159629927456e-11,4.9838557488788766e-11,3.123386935502042e-11,1.9043531663800463e-11,1.1003984302774572e-11,6.000522891098559e-12,3.107228008010168e-12,1.5179164909329991e-12,7.191785209185339e-13,3.449593433448844e-13,1.7659702219889248e-13,1.0059473162723454e-13,6.277453342511203e-14
0.0,45,45.0,0.0,30.0,0.0,0.0,0.0,0.0,-13.0,0.0,2.0,0.0,0.0,0.0,3.00079966665817e-11,1.6324965666121812e-11,8.449168480463699e-12,4.351245634400449e-12,2.128427029922942e-12,1.0337795428373882e-12,5.361425390047542e-13,3.0324354791204004e-13,2.015794794553733e-13,1.432639352233767e-13,1.1293583889360186e-13,8.366107908214345e-14,6.553238747798979e-14,4.8790025295152265e-14,3.641430727486852e-14,2.702726189487984e-14,1.9547548007995366e-14,1.1874589204470393e-09,9.693476674287636e-10,7.479669412806457e-10,5.353767039439926e-10,3.7107982596768155e-10,2.537876276116848e-10,1.7446900133285857e-10,1.175323104971811e-10,7.780406047562752e-11,5.036751287018934e-11,3.164039730517197e-11,1.9374583025577707e-11,1.1264587986167379e-11,6.187976854398955e-12,3.2273711839287346e-12,1.5847555610384113e-12,7.505805002044884e-13,3.564142068166774e-13,1.791854041381046e-13,9.960938580849947e-14,6.11041022810985e-14
0.0,46,46.0,0.0,30.0,0.0,0.0,0.0,0.0,-13.0,0.0,2.0,0.0,0.0,0.0,3.038063824753141e-11,1.6608746217043887e-11,8.655382677691856e-12,4.486959571392017e-12,2.2041017518054886e-12,1.0680729450708786e-12,5.468050145307025e-13,3.0273317241605445e-13,1.9728944801261807e-13,1.3832283054533628e-13,1.0864938700314766e-13,8.013467137819171e-14,6.27864970281194e-14,4.667654528360522e-14,3.482373744512534e-14,2.586467968183405e-14,1.8713966066337364e-14,1.2061068698970336e-09,9.840216484367295e-10,7.587491373043194e-10,5.426207620231212e-10,3.757614359522958e-10,2.567621225834879e-10,1.7637053177979863e-10,1.187265826777182e-10,7.856405465786004e-11,5.0883840388471426e-11,3.2029199110123034e-11,1.9689064053487067e-11,1.1513862868523692e-11,6.3699535074655695e-12,3.3462058050909365e-12,1.6523654317033066e-12,7.832925652201914e-13,3.689661242252235e-13,1.8246591516650702e-13,9.901362295474098e-14,5.96480169618176e-14
0.0,47,47.0,0.0,30.0,0.0,0.0,0.0,0.0,-13.0,0.0,2.0,0.0,0.0,0.0,3.073876660326094e-11,1.6879408111680438e-11,8.854015337541925e-12,4.620212121110561e-12,2.2802214404819095e-12,1.1038101005942077e-12,5.588616029667575e-13,3.032318490167746e-13,1.9364990127096935e-13,1.3379693301751967e-13,1.0465134526330327e-13,7.681813028490266e-14,6.01998039291374e-14,4.468235162454817e-14,3.3320781533793676e-14,2.4765465118659956e-14,1.7924795757784543e-14,1.2251122291653823e-09,9.989656849537997e-10,7.697197517121521e-10,5.499827922833358e-10,3.805133722747144e-10,2.5977763067780435e-10,1.7829569044961617e-10,1.1993172748422436e-10,7.932363240913681e-11,5.139002803316136e-11,3.2402360588085715e-11,1.99881327229606e-11,1.175207994073447e-11,6.546229454834481e-12,3.463384672158814e-12,1.7204659684508108e-12,8.171507962748511e-13,3.82542166277247e-13,1.8641121436078303e-13,9.880025627065289e-14,5.840107621756613e-14
0.0,48,48.0,0.0,30.0,0.0,0.0,0.0,0.0,-13.0,0.0,2.0,0.0,0.0,0.0,3.108411403481368e-11,1.7137762221217528e-11,9.045091095523562e-12,4.750712665693108e-12,2.3564859345728104e-12,1.1407896919577826e-12,5.722075378423539e-13,3.046912485133804e-13,1.9063601909166806e-13,1.2966862233378373e-13,1.0092620569007857e-13,7.369824936477945e-14,5.776192848880569e-14,4.2799594239760605e-14,3.1899755112820496e-14,2.372558308173089e-14,1.7177269490651135e-14,1.2444831295193604e-09,1.0141856739673298e-09,7.808827078545547e-10,5.574651305013689e-10,3.853369492713694e-10,2.628348500416438e-10,1.802450220309867e-10,1.2114870424427382e-10,8.00845093448686e-11,5.188827203308814e-11,3.276183233531884e-11,2.0272955395269705e-11,1.1979583509708876e-11,6.716652071797878e-12,3.5786041772622866e-12,1.7887960982807059e-12,8.519956832927563e-13,3.9706813354664433e-13,1.9099271918525574e-13,9.89618444645875e-14,5.735829519568834e-14
0.0,49,49.0,0.0,30.0,0.0,0.0,0.0,0.0,-13.0,0.0,2.0,0.0,0.0,0.0,3.141829854989359e-11,1.7384640810405938e-11,9.228701160482338e-12,4.878222504739524e-12,2.4326217347672242e-12,1.1788198762140252e-12,5.867397195437359e-13,3.0706306717273097e-13,1.8822376269312974e-13,1.2592169356722883e-13,9.745990582299307e-14,7.076297697896303e-14,5.5463319625171687e-14,4.102101993089999e-14,3.055539758289862e-14,2.2741291170734772e-14,1.6468816144660707e-14,1.264227911966444e-09,1.029687658247716e-09,7.922420174003676e-10,5.650701558821675e-10,3.902335090140379e-10,2.6593449263559986e-10,1.8221901671340677e-10,1.2237828731470422e-10,8.084811254628066e-11,5.238049930363175e-11,3.310942390018426e-11,2.0544689965560423e-11,1.2196777563139513e-11,6.881132828880811e-12,3.691602443922096e-12,1.857114112853213e-12,8.876729620967465e-13,4.124691371667481e-13,1.961807254370632e-13,9.949053627961737e-14,5.6514827359374413e-14
0.0,50,50.0,0.0,30.0,0.0,0.0,0.0,0.0,-13.0,0.0,2.0,0.0,0.0,0.0,3.174282048132108e-11,1.7620883827111513e-11,9.404993814817385e-12,5.002551155216651e-12,2.5083814125214722e-12,1.2177187141219005e-12,6.023571203135094e-13,3.1029909113927055e-13,1.863896931463725e-13,1.2254113904630276e-13,9.423967354137258e-14,6.800131603460535e-14,5.329518705729182e-14,3.9339923091193886e-14,2.928283684765759e-14,2.180911615096417e-14,1.5797045562574834e-14,1.2843551329674998e-09,1.0454778304587066e-09,8.038017838411345e-10,5.728002930144311e-10,3.9520442008678043e-10,2.690772870922543e-10,1.8421813102123396e-10,1.236211079872886e-10,8.161562499225869e-11,5.2868390968762186e-11,3.344680175494784e-11,2.0804471908283705e-11,1.2404113260036683e-11,7.0396407358802944e-12,3.802157267804405e-12,1.925197741663192e-12,9.240343089455596e-13,4.286701475298457e-13,2.0194455974190322e-13,1.003779483402731e-13,5.58659053610465e-14
0.0,51,51.0,0.0,30.0,0.0,0.0,0.0,0.0,-13.0,0.0,2.0,0.0,0.0,0.0,3.205906187212669e-11,1.7847327270378226e-11,9.574165511097852e-12,5.123552617812759e-12,2.5835428513652714e-12,1.2573144683360868e-12,6.189611524734644e-13,3.14351290000343e-13,1.8511083148141484e-13,1.195129569255468e-13,9.125388454651398e-14,6.540323145123695e-14,5.124943970244097e-14,3.775010112435421e-14,2.8077557248009128e-14,2.0925832475769274e-14,1.515973437109667e-14,1.3048735703464305e-09,1.061562537212727e-09,8.155662057471847e-10,5.806580139690538e-10,4.0025107680316876e-10,2.7226397983004245e-10,1.8624280273967914e-10,1.2487768844143085e-10,8.238802497983061e-11,5.3353406109867935e-11,3.377549036075402e-11,2.105340298432317e-11,1.2602077568300611e-11,7.192195967738321e-12,3.910083908779413e-12,1.992844029513326e-12,9.609379031616997e-13,4.4559650275058136e-13,2.08252753751885e-13,1.01615074909414e-13,5.5406796815062154e-14
0.0,52,52.0,0.0,30.0,0.0,0.0,0.0,0.0,-13.0,0.0,2.0,0.0,0.0,0.0,3.236828809270117e-11,1.8064793489073853e-11,9.736452598927117e-12,5.241121654290394e-12,2.657908352702534e-12,1.2974457847184437e-12,6.364559957720342e-13,3.1917192980921833e-13,1.843645546169944e-13,1.1682398463535722e-13,8.849193188603945e-14,6.295956460620918e-14,4.9318629532324367e-14,3.6245814065448804e-14,2.6935370444286118e-14,2.0088442688955823e-14,1.4554813009369547e-14,1.3257922294269632e-09,1.0779482831442615e-09,8.275395798261851e-10,5.886458404357996e-10,4.053748988522439e-10,2.7549533513924767e-10,1.8829346136274897e-10,1.2614846894594815e-10,8.316612067891843e-11,5.383680508580348e-11,3.409687568804685e-11,2.1292542361114574e-11,1.2791183049921746e-11,7.33886372375892e-12,4.0152327777042195e-12,2.0598690489897096e-12,9.982488688924813e-13,4.631743717059778e-13,2.1507323076759316e-13,1.031922277133651e-13,5.513277155237129e-14
0.0,53,53.0,0.0,30.0,0.0,0.0,0.0,0.0,-13.0,0.0,2.0,0.0,0.0,0.0,3.26716512130768e-11,1.8274083252518844e-11,9.89212370274206e-12,5.355190113569291e-12,2.731303633848928e-12,1.33796177064824e-12,6.547488819819767e-13,3.247136975486498e-13,1.8412852170016798e-13,1.1446175532734776e-13,8.59441069379345e-14,6.066195414803662e-14,4.74959002427016e-14,3.482174795032186e-14,2.5852388963968258e-14,1.9294159528729542e-14,1.398035385562424e-14,1.3471203494149779e-09,1.0946417350567295e-09,8.397263038385068e-10,5.967663458307355e-10,4.105773313196578e-10,2.7877213472588605e-10,1.903705352034726e-10,1.2743382940590197e-10,8.395058008879908e-11,5.431967193558593e-11,3.4412210625135257e-11,2.1522899891582207e-11,1.2971958776420126e-11,7.479748362139058e-12,4.117487055411597e-12,2.1261074751330326e-12,1.0358396075381045e-12,4.813311689324742e-13,2.2237349706130447e-13,1.0509900360268195e-13,5.503907757605239e-14
0.0,54,54.0,0.0,30.0,0.0,0.0,0.0,0.0,-13.0,0.0,2.0,0.0,0.0,0.0,3.2970194711179995e-11,1.8475969428732988e-11,1.0041472759571803e-11,5.4657233384163434e-12,2.8035767423659996e-12,1.3787219835274178e-12,6.737503365696257e-13,3.3092983054509367e-13,1.843806258723332e-13,1.1241437539612407e-13,8.360149129083035e-14,5.850276267014687e-14,4.577494018095111e-14,3.3472981527619274e-14,2.4825002159298744e-14,1.854038957357108e-14,1.3434560353168047e-14,1.3688674100366254e-09,1.1116497261832071e-09,8.521308794214797e-10,6.050221573362099e-10,4.1585984501374043e-10,2.820951770308442e-10,1.924744560620936e-10,1.2873410623134232e-10,8.474195674215097e-11,5.480293551716109e-11,3.472262177879129e-11,2.1745431298782667e-11,1.3144942341806334e-11,7.614987843169245e-12,4.2167602763512715e-12,2.1914120462107327e-12,1.0735900323351122e-12,4.999959206029345e-13,2.30120831661739e-13,1.0732427748361858e-13,5.512092353220492e-14
0.0,55,55.0,0.0,30.0,0.0,0.0,0.0,0.0,-13.0,0.0,2.0,0.0,0.0,0.0,3.3264859154142144e-11,1.8671192104365825e-11,1.018481271548034e-11,5.572716679521318e-12,2.8745969075595843e-12,1.4195963417503079e-12,6.933743785064089e-13,3.3777424570451965e-13,1.8509896694216252e-13,1.1067042115330283e-13,8.145585896210772e-14,5.6475008819923716e-14,4.4149939055759e-14,3.219495595047558e-14,2.384985434306589e-14,1.782471828733619e-14,1.2915757046361368e-14,1.3910431384378327e-09,1.1289792605896528e-09,8.647579148694018e-10,6.134159578568457e-10,4.2122393702434606e-10,2.8546527652125405e-10,1.9460566214512137e-10,1.300496053823331e-10,8.554071154684918e-11,5.5287389153824163e-11,3.502911724028901e-11,2.196103501960938e-11,1.3310672927651252e-11,7.744748506632048e-12,4.31299390502953e-12,2.255652931511412e-12,1.1113877161801092e-12,5.190995822870493e-13,2.382824697289821e-13,1.0985621770644279e-13,5.5373466034078415e-14
0.0,56,56.0,0.0,30.0,0.0,0.0,0.0,0.0,-13.0,0.0,2.0,0.0,0.0,0.0,3.355648854320376e-11,1.8860454982431205e-11,1.0322469870495507e-11,5.676192139214834e-12,2.9442533472456736e-12,1.4604649693486042e-12,7.135386801728332e-13,3.452016646266975e-13,1.862618409209435e-13,1.0921885275293477e-13,7.949958839124354e-14,5.457230448207607e-14,4.2615548022662805e-14,3.098344712443998e-14,2.292382489215434e-14,1.7144896335438013e-14,1.2422380445904827e-14,1.4136575163480799e-09,1.1466375177400112e-09,8.776121279093354e-10,6.219504878902676e-10,4.26671131448986e-10,2.8888326306742284e-10,1.9676459976292682e-10,1.3138061232519945e-10,8.63472311737162e-11,5.577370865614201e-11,3.533259495649766e-11,2.217055047170706e-11,1.3469685364680072e-11,7.869220201767195e-12,4.406154929669964e-12,2.3187170244344394e-12,1.1491279631334756e-12,5.385753102761054e-13,2.468257758732239e-13,1.1268232093149044e-13,5.5791800618385134e-14
0.0,57,57.0,0.0,30.0,0.0,0.0,0.0,0.0,-13.0,0.0,2.0,0.0,0.0,0.0,3.384583706252068e-11,1.9044422898939128e-11,1.0454778854190619e-11,5.776195163028454e-12,3.0124540455235102e-12,1.5012179844232692e-12,7.341646898856399e-13,3.531677316740978e-13,1.878477428516536e-13,1.080489435189744e-13,7.77255836392522e-14,5.278879672467899e-14,4.116684279971334e-14,2.983454042451632e-14,2.2044010127982572e-14,1.649882705675578e-14,1.1952970650183739e-14,1.4367207875105464e-09,1.1646318572360971e-09,8.906983485056327e-10,6.306285473209825e-10,4.322029802311121e-10,2.9234998146219946e-10,1.989517242011208e-10,1.327273995229264e-10,8.716184339704267e-11,5.6262468663801925e-11,3.5633851407188514e-11,2.2374757521838773e-11,1.3622505127552834e-11,7.98861178164279e-12,4.496233494233405e-12,2.380507176819953e-12,1.1867138132680347e-12,5.583586890078199e-13,2.5571840484734663e-13,1.157894634142385e-13,5.6370955467455416e-14
0.0,58,58.0,0.0,30.0,0.0,0.0,0.0,0.0,-13.0,0.0,2.0,0.0,0.0,0.0,3.4133576017709135e-11,1.9223720306842814e-11,1.0582078207727415e-11,5.872791593612424e-12,3.079124515266542e-12,1.5417552403955449e-12,7.551777199222736e-13,3.6162912292795063e-13,1.898353798222169e-13,1.071502228968776e-13,7.612720421709383e-14,5.111911423318408e-14,3.979928951919161e-14,2.874460752653007e-14,2.1207706800748678e-14,1.5884554987777558e-14,1.1506163656561689e-14,1.4602434653808103e-09,1.1829698237404786e-09,9.040215217194227e-10,6.394529971515175e-10,4.378210640669644e-10,2.9586629110305005e-10,2.0116750005638538e-10,1.3409023198057943e-10,8.79848297794761e-11,5.675415731109176e-11,3.593359034585798e-11,2.2574376950394847e-11,1.3769644193977398e-11,8.103146967841157e-12,4.5832405870001144e-12,2.4409413884559186e-12,1.224055989682739e-12,5.783879175994332e-13,2.649284479525869e-13,1.1916396565247994e-13,5.710588730427951e-14
0.0,59,59.0,0.0,30.0,0.0,0.0,0.0,0.0,-13.0,0.0,2.0,0.0,0.0,0.0,3.4420300790925475e-11,1.9398930584801337e-11,1.0704706543016303e-11,5.966064798157354e-12,3.1442065572943505e-12,1.5819860280905214e-12,7.765070030799036e-13,3.705436446739306e-13,1.9220369149178096e-13,1.0651243134404066e-13,7.469820296121097e-14,4.955831798438747e-14,3.8508713065172277e-14,2.771028512795296e-14,2.0412397020158103e-14,1.5300255344732916e-14,1.1080684302188826e-14,1.4842363410969685e-09,1.2016591520876073e-09,9.175867106433609e-10,6.484267611876145e-10,4.435269933484745e-10,2.994330658347041e-10,2.0341240124610736e-10,1.3546937127574516e-10,8.881643606834229e-11,5.724918926411818e-11,3.6232431411614826e-11,2.2770071724700665e-11,1.3911597695845296e-11,8.213060586047639e-12,4.667205801243531e-12,2.499951963964554e-12,1.261072795660192e-12,5.986039587659254e-13,2.744245642615264e-13,1.2279166741575995e-13,5.79914790724438e-14
0.0,60,60.0,0.0,30.0,0.0,0.0,0.0,0.0,-13.0,0.0,2.0,0.0,0.0,0.0,3.470653767556955e-11,1.957059603859447e-11,1.082299924564688e-11,6.056112977375967e-12,3.2076570266707627e-12,1.621828745732153e-12,7.980857208340608e-13,3.7987032063365783e-13,1.949318758635978e-13,1.0612548557712018e-13,7.343267137293661e-14,4.8101855932532846e-14,3.729126768432542e-14,2.672845536003201e-14,1.9655734490531996e-14,1.4744224379254314e-14,1.0675339779899343e-14,1.5087104917252433e-09,1.2207077725867617e-09,9.313990994269425e-10,6.575528276947092e-10,4.493224091193649e-10,3.030511939376396e-10,2.0568691083898125e-10,1.3686507842467903e-10,8.96568806402655e-11,5.7747917209753326e-11,3.6530918463903175e-11,2.2962448912504614e-11,1.404884128843595e-11,8.318595168404055e-12,4.748175181067161e-12,2.557484647775954e-12,1.2976899691272978e-12,6.189506534919721e-13,2.8417609637147135e-13,1.2665801031721617e-13,5.902253915309497e-14
0.0,61,61.0,0.0,30.0,0.0,0.0,0.0,0.0,-13.0,0.0,2.0,0.0,0.0,0.0,3.499275048538205e-11,1.973921847414862e-11,1.0937285685310948e-11,6.143046661277129e-12,3.2694466152409854e-12,1.6612105430869657e-12,8.198510060929056e-13,3.895694676154848e-13,1.9799941841275765e-13,1.0597945271006277e-13,7.232499184122001e-14,4.6745521492162406e-14,3.6143409687629714e-14,2.5796227717203796e-14,1.893553192146951e-14,1.4214870530185422e-14,1.0289013679325868e-14,1.533677288786249e-09,1.2401238165194224e-09,9.454639964036968e-10,6.668342510422831e-10,4.552089840296983e-10,3.067215782416572e-10,2.0799152080681907e-10,1.3827761586671598e-10,9.050636129779663e-11,5.82506418978129e-11,3.682952753012387e-11,2.31520620859472e-11,1.4181829163699684e-11,8.419997914384733e-12,4.826209163189867e-12,2.613497746609317e-12,1.3338405008133807e-12,6.393748048042103e-13,2.941531708869456e-13,1.307481252794742e-13,6.019380197158626e-14
0.0,62,62.0,0.0,30.0,0.0,0.0,0.0,0.0,-13.0,0.0,2.0,0.0,0.0,0.0,3.527934685997544e-11,1.990526023266201e-11,1.104788689548892e-11,6.2269863943868536e-12,3.3295586583315685e-12,1.700066945248494e-12,8.417439234078151e-13,3.9960275961039777e-13,2.0138612301134928e-13,1.060645319367783e-13,7.136979617709262e-14,4.548541561289703e-14,3.5061872086942804e-14,2.491092235120363e-14,1.8249749497732718e-14,1.3710706301712315e-14,9.920660508066554e-15,1.559148407068428e-09,1.2599156218335563e-09,9.597868373284025e-10,6.762741533509181e-10,4.61188423280429e-10,3.104451363421413e-10,2.1032673176322866e-10,1.3970724879191298e-10,9.136506068775054e-11,5.875762085109388e-11,3.71286742887997e-11,2.3339414084869954e-11,1.4310992634925127e-11,8.517517998432115e-12,4.901380623337324e-12,2.667961247761583e-12,1.3694644218065188e-12,6.59826233870004e-13,3.043267841873369e-13,1.350469224787609e-13,6.149992990199686e-14
0.0,63,63.0,0.0,30.0,0.0,0.0,0.0,0.0,-13.0,0.0,2.0,0.0,0.0,0.0,3.556668421195444e-11,2.006914558989726e-11,1.1155113683094338e-11,6.308060610742953e-12,3.3879879724670954e-12,1.7383414609062969e-12,8.637094293273721e-13,4.0993328062438037e-13,2.0507214339258326e-13,1.0637104253517115e-13,7.056192990044247e-14,4.431791224683337e-14,3.40436410307287e-14,2.407005459634148e-14,1.7596484303426298e-14,1.3230340804032828e-14,9.569300651638206e-15,1.5851358337363178e-09,1.2800917390374682e-09,9.743731887302084e-10,6.858757261550312e-10,4.672624655542673e-10,3.1422280089737985e-10,2.1269305272960974e-10,1.4115424598879928e-10,9.223315057756577e-11,5.926907586439605e-11,3.7428721038221934e-11,2.352496002617914e-11,1.443673922252042e-11,8.611404209684276e-12,4.9737730339103914e-12,2.7208559405172575e-12,1.4045085655781673e-12,6.802578114771404e-13,3.14668874300176e-13,1.3953918161335725e-13,6.293551641226539e-14
