Line_number,Fiducial,Easting,Northing,Height,Elevation,tx_pitch,tx_roll,tx_yaw,txrx_dx,txrx_dy,txrx_dz,rx_pitch,rx_roll,rx_yaw,S0Z_time_7.292e-05,S0Z_time_7.642e-05,S0Z_time_8.092e-05,S0Z_time_8.642e-05,S0Z_time_9.341e-05,S0Z_time_1.024e-04,S0Z_time_1.139e-04,S0Z_time_1.284e-04,S0Z_time_1.464e-04,S0Z_time_1.689e-04,S0Z_time_1.969e-04,S0Z_time_2.324e-04,S0Z_time_2.779e-04,S0Z_time_3.349e-04,S0Z_time_4.069e-04,S0Z_time_4.979e-04,S0Z_time_6.119e-04,S0Z_time_7.559e-04,S0Z_time_9.373e-04,S0Z_time_1.166e-03,S0Z_time_1.454e-03,S0Z_time_1.818e-03,S0Z_time_2.276e-03,S0Z_time_2.855e-03,S0Z_time_3.574e-03,S0Z_time_4.454e-03,S0Z_time_5.530e-03,S0Z_time_6.849e-03,S0Z_time_8.463e-03,S0Z_time_1.044e-02,S1Z_time_1.273e-05,S1Z_time_1.623e-05,S1Z_time_2.073e-05,S1Z_time_2.623e-05,S1Z_time_3.323e-05,S1Z_time_4.222e-05,S1Z_time_5.373e-05,S1Z_time_6.822e-05,S1Z_time_8.622e-05,S1Z_time_1.087e-04,S1Z_time_1.367e-04,S1Z_time_1.722e-04,S1Z_time_2.177e-04,S1Z_time_2.747e-04,S1Z_time_3.467e-04,S1Z_time_4.377e-04,S1Z_time_5.517e-04,S1Z_time_6.957e-04,S1Z_time_8.772e-04,S1Z_time_1.106e-03,S1Z_time_1.394e-03
0.0,0,0.0,0.0,30.0,0.0,0.0,0.0,0.0,-13.0,0.0,2.0,0.0,0.0,0.0,2.2972603263801944e-09,2.196121216635914e-09,2.047851408338773e-09,1.8744654338363604e-09,1.7052677153997651e-09,1.5267435061695096e-09,1.3361867985321789e-09,1.153960452427945e-09,9.814244780897926e-10,8.239692858708008e-10,6.779324298057501e-10,5.485102600141554e-10,4.330935234197291e-10,3.3589772077120517e-10,2.559358044045884e-10,1.9089441584971851e-10,1.4018683900681385e-10,1.0130157859858391e-10,7.238759043284219e-11,5.099902390895773e-11,3.515853276375127e-11,2.3515032648449702e-11,1.5157446103360216e-11,9.365793232515062e-12,5.5625227439349344e-12,3.197723364325675e-12,1.781631281784526e-12,9.579988900497371e-13,5.022025211978907e-13,2.5302304659256433e-13,7.347875706805111e-09,5.855054700417046e-09,4.6772356109334245e-09,3.775721035845858e-09,3.0435817100459382e-09,2.4253000103305097e-09,1.9192950668814533e-09,1.5036777573481035e-09,1.1695326753926556e-09,8.992175689486207e-10,6.826809670147161e-10,5.084530886561487e-10,3.6919952461124277e-10,2.624851904012953e-10,1.8209126901554109e-10,1.2272566540565428e-10,8.076525832363014e-11,5.1933855267585055e-11,3.2848083210893064e-11,2.0557186788398158e-11,1.2663399410705413e-11
0.0,1,1.0,0.0,30.0,0.0,0.0,0.0,0.0,-13.0,0.0,2.0,0.0,0.0,0.0,2.2972819295685933e-09,2.196142822651936e-09,2.0478730193983557e-09,1.8744870507190955e-09,1.7052893241557547e-09,1.5267650640826568e-09,1.3362082158553071e-09,1.1539816885173665e-09,9.814456758185089e-10,8.239907897243264e-10,6.779543607534377e-10,5.485320230252312e-10,4.331149361688898e-10,3.359232691134541e-10,2.559788965275005e-10,1.909745765023612e-10,1.4031588250114208e-10,1.0147025813049161e-10,7.256482313313365e-11,5.114919797658913e-11,3.5259766000530414e-11,2.356614812411899e-11,1.5171744578663513e-11,9.359862701071584e-12,5.549422501205657e-12,3.184530703392243e-12,1.771010557036138e-12,9.504833644013457e-13,4.974002144288175e-13,2.5025439178208045e-13,7.34779940856593e-09,5.8549777811176956e-09,4.677157883623241e-09,3.7756423506278825e-09,3.0435018076853345e-09,2.4252184583922287e-09,1.9192114974351335e-09,1.5035917855299804e-09,1.1694435390453294e-09,8.991242582468054e-10,6.825830564861988e-10,5.083501288347886e-10,3.6908943395621985e-10,2.623669928342699e-10,1.8197362334033795e-10,1.226314207783158e-10,8.072006985057658e-11,5.1946792096797007e-11,3.290272181679609e-11,2.0623475859630887e-11,1.2717318171676428e-11
0.0,2,2.0,0.0,30.0,0.0,0.0,0.0,0.0,-13.0,0.0,2.0,0.0,0.0,0.0,2.297303873311256e-09,2.196164768477864e-09,2.047894968827865e-09,1.8745090024849296e-09,1.7053112606939034e-09,1.5267869382601024e-09,1.336229935769103e-09,1.1540032269246617e-09,9.814672028681394e-10,8.240126563791304e-10,6.779766323848804e-10,5.485540421373676e-10,4.331367192342889e-10,3.3595004453403986e-10,2.5602512218723746e-10,1.9106022269368221e-10,1.404517381461973e-10,1.0164493314062968e-10,7.274542137772712e-11,5.129977450543038e-11,3.535945509008578e-11,2.3615154417386347e-11,1.518429252738283e-11,9.352810213613209e-12,5.535722980007601e-12,3.1710599045296087e-12,1.7602779811126526e-12,9.429453772059377e-13,4.925969060872738e-13,2.475050140354904e-13,7.347720066157145e-09,5.8548978007285e-09,4.6770770751944235e-09,3.7755605621442934e-09,3.043418769306075e-09,2.4251337293878997e-09,1.9191247166224704e-09,1.503502555396566e-09,1.1693510592184354e-09,8.990275325636171e-10,6.824817274134399e-10,5.082437087918858e-10,3.6897573896871526e-10,2.6224545515934726e-10,1.8185421943522758e-10,1.2253841866616999e-10,8.067911706795435e-11,5.196519094819831e-11,3.296181901200629e-11,2.069212540938703e-11,1.2771926976853759e-11
0.0,3,3.0,0.0,30.0,0.0,0.0,0.0,0.0,-13.0,0.0,2.0,0.0,0.0,0.0,2.2973261997643098e-09,2.1961870961233212e-09,2.0479172983761817e-09,1.874531330379788e-09,1.7053335655576393e-09,1.5268091686460392e-09,1.3362519985665785e-09,1.1540251101830041e-09,9.814891048330253e-10,8.240349305661801e-10,6.779992821689825e-10,5.485763545819401e-10,4.331589541864752e-10,3.359782496107264e-10,2.56074858402645e-10,1.9115187149390748e-10,1.4059494080228086e-10,1.0182602797429609e-10,7.29296444952864e-11,5.1450870309813557e-11,3.545762653090679e-11,2.36620303083191e-11,1.5195047612571576e-11,9.344588300377974e-12,5.5213822772336015e-12,3.1572800295662297e-12,1.7494135223220681e-12,9.353731832485605e-13,4.87786396037748e-13,2.447718511709201e-13,7.3476374032627685e-09,5.854814481972363e-09,4.67699290738669e-09,3.77547539076465e-09,3.043332313113848e-09,2.425045539718388e-09,1.919034439354191e-09,1.5034097774896885e-09,1.1692549406971786e-09,8.989270961721618e-10,6.823766846018358e-10,5.081335215175023e-10,3.6885812691112846e-10,2.621203322827558e-10,1.817329925748543e-10,1.2244681862900516e-10,8.064269842313995e-11,5.198934814645666e-11,3.302558114810599e-11,2.0763248233041716e-11,1.2827284894119215e-11
0.0,4,4.0,0.0,30.0,0.0,0.0,0.0,0.0,-13.0,0.0,2.0,0.0,0.0,0.0,2.297348948049921e-09,2.1962098445398533e-09,2.047940046697414e-09,1.874554072503491e-09,1.7053562761149636e-09,1.5268317920687242e-09,1.336274441676055e-09,1.1540473783024305e-09,9.815114247745675e-10,8.240576536532942e-10,6.780223433155361e-10,5.485989953278139e-10,4.3318172842525475e-10,3.3600810430231983e-10,2.561285042923656e-10,1.912500495678649e-10,1.4074600700020233e-10,1.0201392077312881e-10,7.311769505098277e-11,5.160255602842372e-11,3.555428203537302e-11,2.3706748017693446e-11,1.5203970214121405e-11,9.335155130279147e-12,5.506364096991096e-12,3.1431644849207142e-12,1.7383999284111675e-12,9.277565984172234e-13,4.829633015772556e-13,2.4205238471219573e-13,7.3475511517633934e-09,5.854727555976866e-09,4.676905110632052e-09,3.7753865658351724e-09,3.043242166664097e-09,2.4249536157922087e-09,1.9189403912363363e-09,1.5033131735569016e-09,1.169154900573542e-09,8.988226677106386e-10,6.822676485943867e-10,5.080192761218513e-10,3.6873630599755887e-10,2.619914145494589e-10,1.8160993043847495e-10,1.2235683482970447e-10,8.061114638530701e-11,5.2019562567024003e-11,3.3094194394783563e-11,2.0836931673787262e-11,1.2883432275885863e-11
0.0,5,5.0,0.0,30.0,0.0,0.0,0.0,0.0,-13.0,0.0,2.0,0.0,0.0,0.0,2.2973721507608322e-09,2.196233046132985e-09,2.047963245874709e-09,1.874577260354827e-09,1.7053794231385096e-09,1.5268548388748538e-09,1.336297296376024e-09,1.154070065555874e-09,9.81534200041831e-10,8.240808605230618e-10,6.780458419687051e-10,5.486219951599324e-10,4.3320513474458895e-10,3.3603984707194174e-10,2.561864834648496e-10,1.9135529716739108e-10,1.4090544193587693e-10,1.0220895426931585e-10,7.330973085155114e-11,5.175486415395801e-11,3.56493999826331e-11,2.3749270992758878e-11,1.5211021606735573e-11,9.324473705299227e-12,5.49063695360199e-12,3.1286901946932625e-12,1.7272222575115428e-12,9.200867708667412e-13,4.781229609616162e-13,2.393442469247664e-13,7.347461048460941e-09,5.8546367589753854e-09,4.676813420721691e-09,3.77529382230026e-09,3.0431480634407324e-09,2.4248576905477144e-09,1.9188423049846337e-09,1.5032124728508305e-09,1.169050664483067e-09,8.987139762767883e-10,6.821543514311554e-10,5.079006934044483e-10,3.686100014330273e-10,2.6185852467806323e-10,1.8148507064198412e-10,1.2226873401592298e-10,8.058482671867759e-11,5.2056137198652334e-11,3.31678282461824e-11,2.0913241439001895e-11,1.2940393381190845e-11
0.0,6,6.0,0.0,30.0,0.0,0.0,0.0,0.0,-13.0,0.0,2.0,0.0,0.0,0.0,2.297395836303938e-09,2.196256729100562e-09,2.047986923752601e-09,1.8746009211591936e-09,1.7054030331346514e-09,1.5268783352659627e-09,1.336320590129281e-09,1.1540932027601463e-09,9.815574644147274e-10,8.241045815783302e-10,6.780697993080984e-10,5.486453833210803e-10,4.3322927477647133e-10,3.360737387647556e-10,2.562492476577086e-10,1.914681713344984e-10,1.4107374263358342e-10,1.0241143919136748e-10,7.350586843603674e-11,5.190779233255321e-11,3.5742938026944756e-11,2.3789554981000186e-11,1.521616331541978e-11,9.312510522729971e-12,5.474173167889292e-12,3.1138370678534038e-12,1.7158675681197005e-12,9.123560179684071e-13,4.732613501199221e-13,2.3664531096482985e-13,7.347366832515457e-09,5.854541829726853e-09,4.6767175761995715e-09,3.775196898060132e-09,3.0430497401843556e-09,2.4247575007413836e-09,1.918739917621156e-09,1.5031074092348944e-09,1.1689419636862586e-09,8.986007584007455e-10,6.820365333085194e-10,5.077775023884374e-10,3.6847895258440586e-10,2.6172151598827676e-10,1.813584994565389e-10,1.2218283414774935e-10,8.056413758668913e-11,5.2099379845246996e-11,3.3246637926188037e-11,2.0992224526581864e-11,1.2998178494916422e-11
0.0,7,7.0,0.0,30.0,0.0,0.0,0.0,0.0,-13.0,0.0,2.0,0.0,0.0,0.0,2.297420029533821e-09,2.1962809180648893e-09,2.0480111045687296e-09,1.874625078504364e-09,1.705427128992789e-09,1.526902303971463e-09,1.3363443472780421e-09,1.1541168179459662e-09,9.815812486696911e-10,8.24128843222593e-10,6.780942322342879e-10,5.486691889480598e-10,4.3325426152707853e-10,3.3611006581996447e-10,2.56317279739928e-10,1.915892483605862e-10,1.4125140052185164e-10,1.0262165772234662e-10,7.370618715107606e-11,5.2061306886138276e-11,3.583483508411526e-11,2.3827548407520403e-11,1.5219356515060704e-11,9.299234708788996e-12,5.456948147026626e-12,3.0985875216732434e-12,1.7043246382282972e-12,9.045576785343105e-13,4.683750110814793e-13,2.339536589549451e-13,7.347268243420961e-09,5.854442507479662e-09,4.676617316306241e-09,3.775095531886062e-09,3.0429469347892532e-09,2.424652784817375e-09,1.918632968263706e-09,1.5029977189023717e-09,1.1688285327951997e-09,8.984827556852368e-10,6.819139399199793e-10,5.076494376058606e-10,3.683429110681124e-10,2.615802716906744e-10,1.8123035149927133e-10,1.220995035681654e-10,8.054950857314843e-11,5.214960321163688e-11,3.333076597061697e-11,2.1073911459879447e-11,1.3056785637837794e-11
0.0,8,8.0,0.0,30.0,0.0,0.0,0.0,0.0,-13.0,0.0,2.0,0.0,0.0,0.0,2.297444752272882e-09,2.1963056345919406e-09,2.0480358094734843e-09,1.874649752865898e-09,1.7054517305269118e-09,1.5269267648167114e-09,1.336368589634331e-09,1.1541409369170093e-09,9.816055810245937e-10,8.241536682269246e-10,6.781191539946355e-10,5.486934425514083e-10,4.332802220441776e-10,3.3614914356773955e-10,2.5639109655159127e-10,1.9171912568994115e-10,1.4143890308301603e-10,1.0283986586210912e-10,7.391073225011251e-11,5.2215345701349493e-11,3.5925013082554605e-11,2.3863192812331722e-11,1.522056162038958e-11,9.284617345811914e-12,5.4389398037529295e-12,3.0829260882409117e-12,1.6925837293668116e-12,8.966859862290816e-13,4.634609901388627e-13,2.312675531976003e-13,7.347165019394661e-09,5.8543385303531215e-09,4.676512379344469e-09,3.774989461763151e-09,3.04283938463705e-09,2.4245432812228183e-09,1.9185211963689535e-09,1.5028831385673492e-09,1.1687101079988907e-09,8.98359712956751e-10,6.817863203164189e-10,5.075162369777136e-10,3.682016396014106e-10,2.614347050708856e-10,1.8110081022761988e-10,1.220191606177142e-10,8.054139965978243e-11,5.220712454004201e-11,3.342034319170998e-11,2.1158317986322484e-11,1.3116201944967002e-11
0.0,9,9.0,0.0,30.0,0.0,0.0,0.0,0.0,-13.0,0.0,2.0,0.0,0.0,0.0,2.2974700237382017e-09,2.1963308976178512e-09,2.0480610569579207e-09,1.8746749620427865e-09,1.7054768549301594e-09,1.526951735206474e-09,1.336393336984541e-09,1.1541655837147638e-09,9.81630487479413e-10,8.24179076005472e-10,6.781445747825869e-10,5.487181775800148e-10,4.333073002518746e-10,3.3619131963626086e-10,2.5647125162063865e-10,1.9185842336891004e-10,1.4163673476213757e-10,1.0306629492625154e-10,7.411951721947807e-11,5.236982060023237e-11,3.6013378501115307e-11,2.389642331206508e-11,1.5219738014884722e-11,9.268630950392375e-12,5.420128087999521e-12,3.066839089446444e-12,1.6806363881870219e-12,8.887359610731338e-13,4.585167842521595e-13,2.285854103061122e-13,7.347056896086912e-09,5.854229634042849e-09,4.676402501372004e-09,3.7748784235648e-09,3.042726825269886e-09,2.424428727069024e-09,1.918404340326435e-09,1.5027634040231004e-09,1.1685864256789193e-09,8.982313768106685e-10,6.816534251647665e-10,5.073776401757765e-10,3.680549115098796e-10,2.612847604464008e-10,1.809701091048061e-10,1.219422736034659e-10,8.054030017177717e-11,5.227226491087354e-11,3.351548917712268e-11,2.124544636051923e-11,1.3176404775705761e-11
0.0,10,10.0,0.0,30.0,0.0,0.0,0.0,0.0,-13.0,0.0,2.0,0.0,0.0,0.0,2.2974958608915714e-09,2.1963567237992293e-09,2.0480868632066535e-09,1.874700721520206e-09,1.705502517159298e-09,1.5269772305402688e-09,1.3364186075231725e-09,1.1541907810022446e-09,9.816559920659481e-10,8.242050828190564e-10,6.78170502341959e-10,5.487434321107529e-10,4.333356599869176e-10,3.3623697748826603e-10,2.565583377796671e-10,1.9200778510762695e-10,1.4184537726912714e-10,1.0330115235796323e-10,7.433252549119334e-11,5.252461928866396e-11,3.6099823717718204e-11,2.3927169063055657e-11,1.521684388044838e-11,9.251249069382237e-12,5.4004946093900775e-12,3.0503143685171257e-12,1.668475279499632e-12,8.807033164153787e-13,4.535402944522665e-13,2.259057780397788e-13,7.3469436055431885e-09,5.854115550780657e-09,4.676287415151128e-09,3.774762149987844e-09,3.0426089893307583e-09,2.4243088570637576e-09,1.9182821363266035e-09,1.5026382489903193e-09,1.1684572213345181e-09,8.980974944617417e-10,6.815150053140852e-10,5.072333873855768e-10,3.679025108179879e-10,2.61130414808486e-10,1.8083853333158757e-10,1.218693610418825e-10,8.054672768662603e-11,5.234534828525713e-11,3.361631243665128e-11,2.133528630593428e-11,1.3237362607553596e-11
0.0,11,11.0,0.0,30.0,0.0,0.0,0.0,0.0,-13.0,0.0,2.0,0.0,0.0,0.0,2.2975222787261985e-09,2.1963831278008823e-09,2.0481132423894392e-09,1.874727044773311e-09,1.705528730263093e-09,1.5270032645731014e-09,1.3364444182277143e-09,1.1542165503766541e-09,9.816821170173606e-10,8.242317019248223e-10,6.781969426070256e-10,5.487692507027946e-10,4.3336548826928617e-10,3.362865401018162e-10,2.56652989693819e-10,1.921678789969305e-10,1.420653093708713e-10,1.035446219872321e-10,7.454971166886096e-11,5.2679606961894625e-11,3.6184228192410136e-11,2.3955353711275994e-11,1.521183609958072e-11,9.232445968054188e-12,5.380022333377599e-12,3.0333410683516807e-12,1.6560940457093695e-12,8.725843791508712e-13,4.485297852048511e-13,2.2322731464623035e-13,7.346824875366661e-09,5.8539960084970534e-09,4.676166849302277e-09,3.774640369695089e-09,3.0424856057171045e-09,2.4241834026587124e-09,1.918154317445158e-09,1.502507404197091e-09,1.168322228755973e-09,8.9795781283199e-10,6.813708106007336e-10,5.070832184147086e-10,3.6774423287578944e-10,2.6097168008708063e-10,1.8070642206023982e-10,1.2180099210401167e-10,8.056122689232552e-11,5.24267003419222e-11,3.372291028144197e-11,2.1427815728483544e-11,1.3299035755409848e-11
0.0,12,12.0,0.0,30.0,0.0,0.0,0.0,0.0,-13.0,0.0,2.0,0.0,0.0,0.0,2.297549290501113e-09,2.196410122532121e-09,2.048140206902815e-09,1.8747539435236324e-09,1.7055555056661608e-09,1.5270298497325795e-09,1.3364707851839781e-09,1.1542429126185464e-09,9.817088828664957e-10,8.242589436892719e-10,6.782239004096319e-10,5.48795686456529e-10,4.33396998838441e-10,3.3634047380579805e-10,2.567558863016635e-10,1.9233939790577674e-10,1.4229700624359536e-10,1.037968638409126e-10,7.477100236707256e-11,5.2834627632713315e-11,3.6266459506966014e-11,2.3980895820376115e-11,1.5204670209143274e-11,9.212196390455872e-12,5.358695337208654e-12,3.015909448667566e-12,1.6434871884491377e-12,8.643760212917166e-13,4.434838488652326e-13,2.2054877053404052e-13,7.3467004280426735e-09,5.853870730147401e-09,4.676040527622169e-09,3.774512806624953e-09,3.042356398906457e-09,2.424052091369286e-09,1.9180206128998884e-09,1.5023705966472674e-09,1.1681811794001006e-09,8.978120778231516e-10,6.812205888410792e-10,5.069268721101249e-10,3.675798854951291e-10,2.6080860599562327e-10,1.8057417102213276e-10,1.217377871989918e-10,8.058436837599218e-11,5.251664714424951e-11,3.383536849956983e-11,2.1523001239347823e-11,1.3361376950540255e-11
0.0,13,13.0,0.0,30.0,0.0,0.0,0.0,0.0,-13.0,0.0,2.0,0.0,0.0,0.0,2.297576907932543e-09,2.1964377193410043e-09,2.0481677675713065e-09,1.874781427957763e-09,1.705582853417874e-09,1.5270569974012719e-09,1.3364977238689647e-09,1.154269887883003e-09,9.817363084807284e-10,8.242868156821498e-10,6.782513802857208e-10,5.488228033177417e-10,4.33430435985363e-10,3.3639929227678143e-10,2.568677531637263e-10,1.9252305957185577e-10,1.4254093843650677e-10,1.0405801358417462e-10,7.499629674460678e-11,5.298950523618076e-11,3.6346374281039456e-11,2.4003709272968074e-11,1.519530039028783e-11,9.190475376431331e-12,5.336498614633528e-12,2.99801073540477e-12,1.6306499689158965e-12,8.560756012821588e-13,4.3840137449144787e-13,2.178689721194826e-13,7.346569980395816e-09,5.853739433171705e-09,4.675908168535813e-09,3.774379179437808e-09,3.0422210884234326e-09,2.423914646234165e-09,1.9178807474465173e-09,1.5022275490443338e-09,1.1680338019321489e-09,8.976600337320768e-10,6.810640849736201e-10,5.06764086063809e-10,3.6740929058473844e-10,2.606412834267767e-10,1.8044223551147806e-10,1.2168041863796593e-10,8.061674732152544e-11,5.261551366186581e-11,3.3953760876599e-11,2.1620798531882333e-11,1.3424331806819516e-11
0.0,14,14.0,0.0,30.0,0.0,0.0,0.0,0.0,-13.0,0.0,2.0,0.0,0.0,0.0,2.297605141349927e-09,2.1964659281743473e-09,2.0481959338161972e-09,1.8748095069164938e-09,1.7056107824143574e-09,1.5270847181714647e-09,1.3365252493964579e-09,1.1542974958366032e-09,9.817644110402658e-10,8.2431532276943e-10,6.78279387415613e-10,5.488506786690495e-10,4.3346607870938423e-10,3.3646356070001895e-10,2.5698936470717374e-10,1.927196063887604e-10,1.427975704838667e-10,1.0432818165674301e-10,7.52254667960559e-11,5.314404455532819e-11,3.64238189825561e-11,2.402370364286378e-11,1.5183679483227773e-11,9.167258123239579e-12,5.313417920458105e-12,2.979636996996759e-12,1.6175783239909789e-12,8.476809136865222e-13,4.332815203975857e-13,2.1518680771444125e-13,7.346433243156924e-09,5.853601829065365e-09,4.675769484659451e-09,3.774239201075805e-09,3.0420793884242258e-09,2.4237707853893244e-09,1.917734440887903e-09,1.5020779793462274e-09,1.1678798219064403e-09,8.975014227755947e-10,6.809010403226936e-10,5.065945965991198e-10,3.672322862864915e-10,2.604698483804357e-10,1.8031113367563474e-10,1.2162961132529357e-10,8.065898209410534e-11,5.272362216351779e-11,3.40781485985307e-11,2.1721152647889072e-11,1.3487839196636121e-11
0.0,15,15.0,0.0,30.0,0.0,0.0,0.0,0.0,-13.0,0.0,2.0,0.0,0.0,0.0,2.2976339998230376e-09,2.1964947577101054e-09,2.048224713798675e-09,1.874838188061329e-09,1.7056393006002131e-09,1.5271130220778977e-09,1.336553376728827e-09,1.154325755742585e-09,9.817932059666814e-10,8.243444672252563e-10,6.78307928735036e-10,5.488794062521744e-10,4.335042452275042e-10,3.365339000934422e-10,2.5712154634980733e-10,1.9292980488603934e-10,1.4306735919259803e-10,1.0460745215459e-10,7.545835745434688e-11,5.32980320043584e-11,3.649863064774737e-11,2.4040784537637218e-11,1.5169759018579896e-11,9.142519882387695e-12,5.289439647772398e-12,2.9607810430703708e-12,1.6042687957061837e-12,8.391901460789588e-13,4.2812368992383443e-13,2.1250121534231327e-13,7.346289920623e-09,5.853457623043445e-09,4.675624182456523e-09,3.774092578418265e-09,3.0419310073800657e-09,2.4236202217364573e-09,1.9175814076769304e-09,1.501921600432836e-09,1.1677189615638289e-09,8.973359846974244e-10,6.807311919645403e-10,5.064181390414367e-10,3.670487296257928e-10,2.6029448641293193e-10,1.8018145006755903e-10,1.2158614342745005e-10,8.071171268934751e-11,5.284129049293226e-11,3.4208579566333444e-11,2.1823998161045473e-11,1.3551831554638044e-11
0.0,16,16.0,0.0,30.0,0.0,0.0,0.0,0.0,-13.0,0.0,2.0,0.0,0.0,0.0,2.297663491265873e-09,2.196524215467914e-09,2.048254114543267e-09,1.8748674780243524e-09,1.7056684151555292e-09,1.5271419188127494e-09,1.336582120857058e-09,1.1543546864954802e-09,9.818227068086476e-10,8.243742488848387e-10,6.783370142571558e-10,5.489090994666032e-10,4.335452978625617e-10,3.366109917894491e-10,2.572651764816521e-10,1.9315444489310234e-10,1.433507516252987e-10,1.0489588149825227e-10,7.569478654711946e-11,5.345123629942557e-11,3.657063752404451e-11,2.405485391192811e-11,1.5153489259296234e-11,9.116235884390604e-12,5.26455073208141e-12,2.9414363419106663e-12,1.5907184720132786e-12,8.306018421353992e-13,4.22927509979862e-13,2.0981117238840043e-13,7.346139710396559e-09,5.85330651378482e-09,4.675471961972816e-09,3.773939012019072e-09,3.0417756478457736e-09,2.4234626626903343e-09,1.91742135659771e-09,1.501758119872185e-09,1.167550939728251e-09,8.971634564345525e-10,6.805542721839315e-10,5.062344482866638e-10,3.668584996978643e-10,2.6011543760152977e-10,1.8005383941901818e-10,1.2155084697256243e-10,8.077559902555656e-11,5.2968830236152674e-11,3.43450876452194e-11,2.192925929948891e-11,1.3616235124112428e-11
0.0,17,17.0,0.0,30.0,0.0,0.0,0.0,0.0,-13.0,0.0,2.0,0.0,0.0,0.0,2.2976936225219576e-09,2.1965543079025882e-09,2.048284142046516e-09,1.8748973825463987e-09,1.7056981326726207e-09,1.52717141792589e-09,1.3366114969497488e-09,1.1543843066058197e-09,9.818529250927972e-10,8.244046653633748e-10,6.783666586498565e-10,5.489398950923031e-10,4.33589648334932e-10,3.3669558206487265e-10,2.574211882778034e-10,1.933943383738209e-10,1.43648182793411e-10,1.0519349692191848e-10,7.593454464248094e-11,5.360340904174384e-11,3.663965964706698e-11,2.4065810352533997e-11,1.513481924891463e-11,9.088381285803612e-12,5.238738577677828e-12,2.921596953663061e-12,1.5769249371444758e-12,8.219148700718816e-13,4.1769281198513325e-13,2.0711568700925265e-13,7.345982303194156e-09,5.8531481932455265e-09,4.675312516639844e-09,3.773778195915305e-09,3.041613006301968e-09,2.4232978099923395e-09,1.917253990513514e-09,1.5015872397754843e-09,1.1673754717876536e-09,8.969835718237491e-10,6.803700080160773e-10,5.060432596903985e-10,3.6666150141930086e-10,2.5993300202167716e-10,1.7992903059450503e-10,1.2152460833515927e-10,8.085131905846804e-11,5.310654478694839e-11,3.4487691867401113e-11,2.2036850024996134e-11,1.3680970158081967e-11
0.0,18,18.0,0.0,30.0,0.0,0.0,0.0,0.0,-13.0,0.0,2.0,0.0,0.0,0.0,2.297724399435449e-09,2.196585040485102e-09,2.048314801375567e-09,1.874927906608104e-09,1.705728459326262e-09,1.5272015290123507e-09,1.3366415204705316e-09,1.154414634134817e-09,9.818838701488553e-10,8.244357123696634e-10,6.783968831169871e-10,5.48971957486429e-10,4.3363776348048223e-10,3.3678848690487433e-10,2.575905713118542e-10,1.936503179155088e-10,1.4396007307175019e-10,1.0550029481222738e-10,7.617739481379795e-11,5.375428523338221e-11,3.670550936114482e-11,2.407354933668742e-11,1.5113696863142914e-11,9.058931134153818e-12,5.2119910024886525e-12,2.9012574767658124e-12,1.5628862301245895e-12,8.131283956959399e-13,4.124196148862255e-13,2.0441379123863127e-13,7.3458173827161006e-09,5.852982346533208e-09,4.6751455331381e-09,3.7736098174990275e-09,3.0414427730622544e-09,2.4231253595799425e-09,1.9170790061724985e-09,1.501408656733645e-09,1.167192269746589e-09,8.967960613318358e-10,6.8017812087484e-10,5.058443103094895e-10,3.6645766988078384e-10,2.597475457361999e-10,1.7980783068565815e-10,1.2150836856170712e-10,8.093956669902361e-11,5.325472731588907e-11,3.463639560383887e-11,2.2146674082636747e-11,1.3745951085010897e-11
0.0,19,19.0,0.0,30.0,0.0,0.0,0.0,0.0,-13.0,0.0,2.0,0.0,0.0,0.0,2.297755826911707e-09,2.1966164177748188e-09,2.048346096760452e-09,1.8749590545574016e-09,1.7057594010400776e-09,1.5272322618878088e-09,1.3366722072624406e-09,1.1544456865789885e-09,9.819155489202862e-10,8.244673841475374e-10,6.784277176373496e-10,5.490054833062361e-10,4.336901714151472e-10,3.3689059688141747e-10,2.5777437293490424e-10,1.9392323485352193e-10,1.4428682534329797e-10,1.0581623892194579e-10,7.642307234854636e-11,5.39035837424549e-11,3.676799179124086e-11,2.4077963465084545e-11,1.509006886275926e-11,9.027860347396046e-12,5.184296198345525e-12,2.880413005530405e-12,1.5486008102246755e-12,8.04241859442009e-13,4.07108109980216e-13,2.017045357414913e-13,7.345644625571079e-09,5.852808651835951e-09,4.6749706913135384e-09,3.7734335574460435e-09,3.0412646322382176e-09,2.4229450015035102e-09,1.916896094064438e-09,1.5012220618300668e-09,1.1670010423390036e-09,8.966006517955045e-10,6.79978326274469e-10,5.056373405363319e-10,3.6624697534240197e-10,2.595595072959855e-10,1.796911292047088e-10,1.2150312349295458e-10,8.104104951605675e-11,5.3413658648357584e-11,3.4791185718088747e-11,2.2258625031936187e-11,1.3811086647278932e-11
0.0,20,20.0,0.0,30.0,0.0,0.0,0.0,0.0,-13.0,0.0,2.0,0.0,0.0,0.0,2.297787908970765e-09,2.1966484434865158e-09,2.048378031683727e-09,1.874990830236804e-09,1.7057909636512349e-09,1.5272636267519415e-09,1.3367035735967241e-09,1.1544774807046972e-09,9.819479657743867e-10,8.244996740836494e-10,6.78459203620924e-10,5.490407068126097e-10,4.3374746816344e-10,3.370028821214148e-10,2.5797369938098707e-10,1.9421395701095916e-10,1.4462882188181872e-10,1.0614125848097285e-10,7.6671284422537e-11,5.405100773137364e-11,3.682690527274708e-11,2.407894267128931e-11,1.5063880946537655e-11,8.995143705303002e-12,5.155642704203159e-12,2.8590590971418563e-12,1.5340675283361482e-12,7.952549568497998e-13,4.017586473143035e-13,1.9898698617655194e-13,7.345463701250726e-09,5.852626780400293e-09,4.6747876641418344e-09,3.77324908969649e-09,3.0410782617563676e-09,2.4227564198833206e-09,1.916704938323774e-09,1.5010271407263601e-09,1.1668014951905655e-09,8.963970661585516e-10,6.797703336584498e-10,5.054220961750284e-10,3.6602942891798186e-10,2.593694047507755e-10,1.7957990233308774e-10,1.2150992363913947e-10,8.115648620721351e-11,5.3583605056920454e-11,3.49520317136364e-11,2.237258626832368e-11,1.3876280019163068e-11
0.0,21,21.0,0.0,30.0,0.0,0.0,0.0,0.0,-13.0,0.0,2.0,0.0,0.0,0.0,2.2978206487969585e-09,2.1966811205555406e-09,2.04841060897065e-09,1.8750232371131057e-09,1.7058231530745834e-09,1.5272956343383676e-09,1.3367356361827998e-09,1.1545100323332665e-09,9.819811223291381e-10,8.245325755262044e-10,6.784913970479094e-10,5.490779058107045e-10,4.3381032476476754e-10,3.371263973336981e-10,2.5818971655560856e-10,1.9452336603165892e-10,1.449864209792817e-10,1.0647524622521211e-10,7.692170975784204e-11,5.419624505926577e-11,3.6882041744428063e-11,2.4076374409123263e-11,1.5035077803465663e-11,8.960755850818402e-12,5.126019390294566e-12,2.837191746636134e-12,1.5192856034044567e-12,7.861676220199393e-13,3.963717234667556e-13,1.962602211342239e-13,7.345274272150295e-09,5.8524363965542065e-09,4.674596117736189e-09,3.7730560814835585e-09,3.0408833334220798e-09,2.422559292900564e-09,1.9165052166756838e-09,1.5008235738185364e-09,1.1665933310198276e-09,8.961850231963096e-10,6.795538463559669e-10,5.051983310174745e-10,3.65805088998868e-10,2.591778431665185e-10,1.7947521717819304e-10,1.215298737639226e-10,8.128660382303619e-11,5.3764815973979695e-11,3.511888488481129e-11,2.2488431041801288e-11,1.3941428909948353e-11
0.0,22,22.0,0.0,30.0,0.0,0.0,0.0,0.0,-13.0,0.0,2.0,0.0,0.0,0.0,2.2978540487875517e-09,2.1967144512039173e-09,2.0484438308826595e-09,1.8750562784115906e-09,1.7058559754666493e-09,1.5273282960489544e-09,1.336768412135504e-09,1.1545433560784948e-09,9.820150173185584e-10,8.245660828664086e-10,6.785243721627772e-10,5.491174082858577e-10,4.338794948669789e-10,3.372622868573773e-10,2.5842365046002853e-10,1.948523542839793e-10,1.4535995332514655e-10,1.0681805636257901e-10,7.717399828030774e-11,5.433896866748926e-11,3.6933187108744776e-11,2.4070143819608636e-11,1.5003603163935034e-11,8.924671299881453e-12,5.0954154515843064e-12,2.814807368653637e-12,1.504254603194924e-12,7.769800136450627e-13,3.909479705455109e-13,1.9352333162195637e-13,7.345075993632034e-09,5.852237157771035e-09,4.674395711395163e-09,3.772854193407551e-09,3.040679513026284e-09,2.422353292816857e-09,1.9162966004232595e-09,1.5006110364623331e-09,1.1663762498675317e-09,8.959642372191409e-10,6.793285616939964e-10,5.049658099866538e-10,3.655740684710808e-10,2.5898552264243617e-10,1.7937823598724833e-10,1.2156413213248763e-10,8.143213473086661e-11,5.395752163139531e-11,3.529167748042479e-11,2.2606022478268965e-11,1.400642565687201e-11
0.0,23,23.0,0.0,30.0,0.0,0.0,0.0,0.0,-13.0,0.0,2.0,0.0,0.0,0.0,2.2978881106032767e-09,2.196748437010334e-09,2.0484776992167915e-09,1.875089957256425e-09,1.7058894373890315e-09,1.5273616240691342e-09,1.3368019188951804e-09,1.1545774650399066e-09,9.820496465235156e-10,8.246001929425813e-10,6.785582258026804e-10,5.491595997943327e-10,4.3395582281144117e-10,3.374117896871077e-10,2.586767871999423e-10,1.9520182131255187e-10,1.4574971814515926e-10,1.0716950249459168e-10,7.742777079049491e-11,5.447883695531115e-11,3.6980121562897993e-11,2.4060133878970873e-11,1.4969399849915552e-11,8.886864458614406e-12,5.063820409179903e-12,2.7919027849620167e-12,1.4889744287743547e-12,7.676925032693045e-13,3.854881462664042e-13,1.9077542207004423e-13,7.34486851412886e-09,5.852028714772259e-09,4.6741860976880475e-09,3.772643079552663e-09,3.0404664604908096e-09,2.422138086017539e-09,1.9160787544752e-09,1.5003891992666212e-09,1.1661499493425516e-09,8.957344177492012e-10,6.790941713013815e-10,5.047243129239746e-10,3.653365427823705e-10,2.5879324681645954e-10,1.7929022026264412e-10,1.2161390937884607e-10,8.159381330713121e-11,5.416193063471033e-11,3.5470321888555946e-11,2.2725213607683298e-11,1.4071157311878222e-11
0.0,24,24.0,0.0,30.0,0.0,0.0,0.0,0.0,-13.0,0.0,2.0,0.0,0.0,0.0,2.2979228352233704e-09,2.196783078986442e-09,2.0485122154130858e-09,1.875124276818099e-09,1.705923545969786e-09,1.5273956314599577e-09,1.3368361740961763e-09,1.1546123704577051e-09,9.82085002801483e-10,8.246349068359766e-10,6.785930824468643e-10,5.492049316691352e-10,4.3404025220777614e-10,3.3757624442313686e-10,2.5895047252334046e-10,1.9557266981541292e-10,1.4615597910836697e-10,1.0752935551154417e-10,7.768261866015587e-11,5.4615494151193925e-11,3.702261990317264e-11,2.4046225529148345e-11,1.49324098243656e-11,8.847309647061297e-12,5.031224118604919e-12,2.7684752169067284e-12,1.4734453021875775e-12,7.583056654745801e-13,3.799931249952171e-13,1.8801561282870128e-13,7.344651475286192e-09,5.851810711665446e-09,4.673966922574726e-09,3.772422387644677e-09,3.0402438300487356e-09,2.4219133330744373e-09,1.9158513374145344e-09,1.5001577284541474e-09,1.1659141248723454e-09,8.954952691675555e-10,6.788503616507245e-10,5.044736391074908e-10,3.650927589174881e-10,2.5860193184196024e-10,1.7921253471786076e-10,1.2168046694692675e-10,8.177237234865637e-11,5.4378227480721275e-11,3.5654709850346425e-11,2.284584740216778e-11,1.413550572555349e-11
0.0,25,25.0,0.0,30.0,0.0,0.0,0.0,0.0,-13.0,0.0,2.0,0.0,0.0,0.0,2.297958223007769e-09,2.1968183776619484e-09,2.048547380671907e-09,1.8751592404683276e-09,1.7059583090604369e-09,1.527430332221486e-09,1.3368711953792906e-09,1.1546480813383926e-09,9.82121076256322e-10,8.246702321377673e-10,6.786291000815158e-10,5.492539301011661e-10,4.3413383498909295e-10,3.3775709408579716e-10,2.592461108286615e-10,1.9596580112460798e-10,1.4657896001248357e-10,1.0789734147903644e-10,7.793810356483833e-11,5.4748570683728366e-11,3.706045180452919e-11,2.4028297792211186e-11,1.4892574240328037e-11,8.805981128899295e-12,4.997616784030424e-12,2.744522282081923e-12,1.4576677568856175e-12,7.488202697337017e-13,3.744638896581284e-13,1.8524304412463804e-13,7.3444245121394156e-09,5.85158278611536e-09,4.6737378255587255e-09,3.772191759248315e-09,3.04001127045606e-09,2.4216786888241686e-09,1.9156140016099137e-09,1.4999162862886413e-09,1.1656684699445843e-09,8.952464903322615e-10,6.785968148945878e-10,5.042136125981807e-10,3.6484304534084124e-10,2.5841261581180747e-10,1.7914665100738262e-10,1.2176511505977806e-10,8.196853919595204e-11,5.460657002831381e-11,3.5844711710195613e-11,2.2967756826264532e-11,1.4199347631135285e-11
0.0,26,26.0,0.0,30.0,0.0,0.0,0.0,0.0,-13.0,0.0,2.0,0.0,0.0,0.0,2.2979942737687606e-09,2.196854333180461e-09,2.048583196082384e-09,1.8751948519418254e-09,1.705993735385081e-09,1.5274657413212342e-09,1.3369070001444228e-09,1.1546846040644311e-09,9.821578545983808e-10,8.247061857781067e-10,6.786664769823251e-10,5.493072061550631e-10,4.342377409301391e-10,3.3795589072531826e-10,2.595651635808349e-10,1.9638211016953037e-10,1.4701884025955012e-10,1.0827313953362314e-10,7.819375726182967e-11,5.487768355497834e-11,3.709338207685233e-11,2.400622787006166e-11,1.4849833490313056e-11,8.762853146727382e-12,4.962988977718012e-12,2.7200419946267976e-12,1.4416426305309482e-12,7.392372737014574e-13,3.6890152443984065e-13,1.8245688143700161e-13,7.344187253325565e-09,5.851344569545935e-09,4.673498439871333e-09,3.7719508300023775e-09,3.0397684252307016e-09,2.4214338024587137e-09,1.915366393372222e-09,1.4996645315668533e-09,1.165412676325518e-09,8.949877741724289e-10,6.783332100645281e-10,5.03944088522175e-10,3.645878229653899e-10,2.582264685975365e-10,1.7909415115787877e-10,1.2186921017112763e-10,8.21830315639264e-11,5.484708693374967e-11,3.6040175709335154e-11,2.3090764900719764e-11,1.4262554731071586e-11
0.0,27,27.0,0.0,30.0,0.0,0.0,0.0,0.0,-13.0,0.0,2.0,0.0,0.0,0.0,2.2980309868544127e-09,2.196890945407967e-09,2.0486196627628954e-09,1.8752311155036707e-09,1.7060298346769913e-09,1.5275018746804764e-09,1.3369436052407815e-09,1.1547219420066406e-09,9.821953237558655e-10,8.24742797520913e-10,6.787054595249362e-10,5.493654667769815e-10,4.3435326760093204e-10,3.3817429974851565e-10,2.5990914706965413e-10,1.9682247990397202e-10,1.4747575013589805e-10,1.0865637980540114e-10,7.844908142138529e-11,5.500243671788782e-11,3.712117089884252e-11,2.3979891230775988e-11,1.480412725668484e-11,8.717899962676255e-12,4.9273316640550445e-12,2.695032768648137e-12,1.425371059859831e-12,7.295578177470501e-13,3.6330720820468953e-13,1.7965632224309304e-13,7.3439393213272175e-09,5.851095687370686e-09,4.673248392685513e-09,3.771699229891948e-09,3.0395149329149123e-09,2.4211783176251223e-09,1.9151081531600436e-09,1.4994021201732591e-09,1.1651464342394767e-09,8.947188072689419e-10,6.780592247152125e-10,5.036649604078424e-10,3.6432761720510996e-10,2.5804480206189073e-10,1.7905673062144377e-10,1.2199415185375884e-10,8.241655307825142e-11,5.509987506288891e-11,3.6240927329359145e-11,2.3214684780450733e-11,1.4324993788274512e-11
0.0,28,28.0,0.0,30.0,0.0,0.0,0.0,0.0,-13.0,0.0,2.0,0.0,0.0,0.0,2.298068361245758e-09,2.196928214055293e-09,2.048656782013711e-09,1.8752680361198804e-09,1.706066617796874e-09,1.5275387491105808e-09,1.3369810265938807e-09,1.1547600951648968e-09,9.822334688109233e-10,8.247801142419369e-10,6.787463511412287e-10,5.494295268481741e-10,4.3448185071723146e-10,3.384141038740611e-10,2.6027962944209884e-10,1.9728777518011448e-10,1.47949765912786e-10,1.0904664138548294e-10,7.870354751795462e-11,5.5122421458380425e-11,3.7143574030193684e-11,2.394916168296431e-11,1.4755394563869164e-11,8.671095904193029e-12,4.890636227661634e-12,2.6694934243455444e-12,1.4088544773310074e-12,7.197832205532418e-13,3.576822085858465e-13,1.7684060407285228e-13,7.3436803327466355e-09,5.850835759249134e-09,4.672987305358001e-09,3.771436583555925e-09,3.039250427356731e-09,2.4209118725321855e-09,1.9148389158388e-09,1.4991287056938791e-09,1.164869432492707e-09,8.944392694394545e-10,6.777745371112875e-10,5.033761687078198e-10,3.6406307116525027e-10,2.5786908059204294e-10,1.790362008649848e-10,1.221413790798227e-10,8.266978851862842e-11,5.5364996894114845e-11,3.6446768691871264e-11,2.333931984669202e-11,1.4386526723915147e-11
0.0,29,29.0,0.0,30.0,0.0,0.0,0.0,0.0,-13.0,0.0,2.0,0.0,0.0,0.0,2.298106395669414e-09,2.196966138815432e-09,2.048694555481172e-09,1.8753056196276254e-09,1.706104096825565e-09,1.5275763821909992e-09,1.3370192787713488e-09,1.1547990598712584e-09,9.82272275348438e-10,8.248182051229244e-10,6.787895225468163e-10,5.495003223331383e-10,4.3462507483635173e-10,3.38677206617713e-10,2.606782269378624e-10,1.9777883605551658e-10,1.4844090478665614e-10,1.0944345035642582e-10,7.89565967869121e-11,5.523721678185296e-11,3.716034300245171e-11,2.3913911439560582e-11,1.4703573833268968e-11,8.622415414934387e-12,4.852894505132746e-12,2.6434231964846798e-12,1.3920946093292174e-12,7.099149756306196e-13,3.520278766992865e-13,1.740090137940484e-13,7.3434098986080055e-09,5.8505643993670065e-09,4.672714793699025e-09,3.771162510629088e-09,3.0389745380057758e-09,2.420634100062115e-09,1.914558310998994e-09,1.4988439400840566e-09,1.164581358523856e-09,8.941488333540798e-10,6.774788290720346e-10,5.030777106473219e-10,3.637949600199105e-10,2.5770093188845174e-10,1.7903449140297664e-10,1.2231236584926554e-10,8.294339877348932e-11,5.5642477927028805e-11,3.6657478019952247e-11,2.346446381268884e-11,1.4447010723343223e-11
0.0,30,30.0,0.0,30.0,0.0,0.0,0.0,0.0,-13.0,0.0,2.0,0.0,0.0,0.0,2.2981450887269788e-09,2.1970047195160424e-09,2.0487329853319147e-09,1.875343872900344e-09,1.7061422851228403e-09,1.5276147920805738e-09,1.3370583744934514e-09,1.154838828600025e-09,9.823117313221046e-10,8.248571679110246e-10,6.788354233719422e-10,5.495789245641539e-10,4.347846843323501e-10,3.3896563519820216e-10,2.6110659925558816e-10,1.9829647052261128e-10,1.4894911968071048e-10,1.0984627790373404e-10,7.92076402510802e-11,5.534638980293044e-11,3.7171225288775714e-11,2.3874011172511977e-11,1.464860294183797e-11,8.571833110763435e-12,4.8140988200429885e-12,2.6168217449166217e-12,1.3750934757271593e-12,6.999547486136153e-13,3.463456424454326e-13,1.711608980343305e-13,7.343127624685915e-09,5.850281216737726e-09,4.672430468268083e-09,3.770876626116666e-09,3.0386868902181767e-09,2.4203446278864204e-09,1.9142659633401756e-09,1.4985474743829416e-09,1.1642818983630073e-09,8.93847164219045e-10,6.771717896082913e-10,5.02769651551052e-10,3.6352420661961345e-10,2.575421579304658e-10,1.7905365117395775e-10,1.2250861612424946e-10,8.323801551423411e-11,5.593230411318412e-11,3.687280916662887e-11,2.3589900841734196e-11,1.4506298351476846e-11
0.0,31,31.0,0.0,30.0,0.0,0.0,0.0,0.0,-13.0,0.0,2.0,0.0,0.0,0.0,2.2981844390418543e-09,2.1970439562865546e-09,2.0487720744344744e-09,1.875382804001525e-09,1.7061811973427414e-09,1.5276539972542892e-09,1.3370983240996536e-09,1.1548793899421044e-09,9.8235182956147e-10,8.248971364101422e-10,6.788845953338714e-10,5.49666555694839e-10,4.349625945683502e-10,3.392815427434153e-10,2.6156644397619307e-10,1.9884144665430131e-10,1.4947429393243688e-10,1.1025453852653333e-10,7.945605882007962e-11,5.544949613657578e-11,3.717596445273773e-11,2.3829330059921747e-11,1.459041928530336e-11,8.519323840886054e-12,4.774242020894696e-12,2.5896891668913496e-12,1.3578533906373818e-12,6.8990437521996e-13,3.4063701036830547e-13,1.6829567462564208e-13,7.342833111857361e-09,5.849985815522558e-09,4.672133934695483e-09,3.770578540800092e-09,3.038387105565189e-09,2.4200430785859996e-09,1.9139614931277884e-09,1.4982389594647276e-09,1.1639707364810637e-09,8.935339195787683e-10,6.768531195078019e-10,5.024521378117427e-10,3.6325189836261516e-10,2.5739474602442624e-10,1.7909584915434108e-10,1.2273165802977738e-10,8.355423560094734e-11,5.623441932628687e-11,3.709249121494191e-11,2.3715405675796967e-11,1.456423767877939e-11
0.0,32,32.0,0.0,30.0,0.0,0.0,0.0,0.0,-13.0,0.0,2.0,0.0,0.0,0.0,2.2982244454234993e-09,2.1970838497383826e-09,2.0488118265443084e-09,1.875422422319359e-09,1.706220849394701e-09,1.5276940161587063e-09,1.3371391349895105e-09,1.1549207288164046e-09,9.823925710652612e-10,8.249382893895607e-10,6.789376870935763e-10,5.497646053436329e-10,4.351609031656336e-10,3.3962720966536566e-10,2.6205948996941497e-10,1.9941448416400933e-10,1.5001623589470757e-10,1.1066758836531781e-10,7.970120346424518e-11,5.5546080287962274e-11,3.717430027627672e-11,2.377973582729602e-11,1.4528959847066833e-11,8.464862754194029e-12,4.733317521733316e-12,2.562026010949264e-12,1.3403769642107269e-12,6.797658597697971e-13,3.349035560474482e-13,1.6541284493413447e-13,7.342525956475165e-09,5.849677795367125e-09,4.671824794028965e-09,3.7702678616717155e-09,3.0380748021394356e-09,2.4197290697766712e-09,1.913644516730716e-09,1.4979180468137004e-09,1.163647555512518e-09,8.932087493032199e-10,6.765225370491296e-10,5.021254116731709e-10,3.629793053520102e-10,2.572608798231609e-10,1.791633740966256e-10,1.22983037283789e-10,8.389261523563005e-11,5.65487228903111e-11,3.7316228153505264e-11,2.3840743772466177e-11,1.4620672418701294e-11
0.0,33,33.0,0.0,30.0,0.0,0.0,0.0,0.0,-13.0,0.0,2.0,0.0,0.0,0.0,2.298265107048299e-09,2.197124401155653e-09,2.048852246486927e-09,1.875462738672994e-09,1.7062612583391443e-09,1.5277348667816725e-09,1.337180811065531e-09,1.1549628270094661e-09,9.824339692506581e-10,8.249808611144192e-10,6.78995470942371e-10,5.498746484335027e-10,4.353819012491564e-10,3.400050440611764e-10,2.625874897103513e-10,2.000162453839684e-10,1.5057467348115978e-10,1.1108472366432321e-10,7.994239546349023e-11,5.5635676037895056e-11,3.716596886698987e-11,2.3725094784671303e-11,1.4464161273829116e-11,8.408425370894846e-12,4.691319345187999e-12,2.533833292212275e-12,1.3226671053579423e-12,6.695413741720313e-13,3.291469229988633e-13,1.6251200691599876e-13,7.34220575075977e-09,5.849356751751488e-09,4.67150264310503e-09,3.769944192395903e-09,3.0377495948524373e-09,2.419402214243004e-09,1.913314647247751e-09,1.4975843893064112e-09,1.1633120358366885e-09,8.928712958468198e-10,6.761797850505904e-10,5.01789828009225e-10,3.627078998462094e-10,2.571429501874094e-10,1.7925863327303026e-10,1.2326430982394664e-10,8.425366388332115e-11,5.687506718484618e-11,3.7543698630669327e-11,2.3965671447449075e-11,1.4675442077240452e-11
0.0,34,34.0,0.0,30.0,0.0,0.0,0.0,0.0,-13.0,0.0,2.0,0.0,0.0,0.0,2.2983064236547903e-09,2.1971656126922192e-09,2.0488933403319277e-09,1.8755037653793567e-09,1.7063024422057887e-09,1.5277765661352836e-09,1.3372233522173967e-09,1.155005664156529e-09,9.824760553556064e-10,8.25025153722793e-10,6.790588614650574e-10,5.499984642162657e-10,4.356280845271298e-10,3.40417580986255e-10,2.6315221043456506e-10,2.0064732567169938e-10,1.5114924868961179e-10,1.1150517938546925e-10,8.017892673008138e-11,5.57178068200352e-11,3.7150702745073916e-11,2.366527186152446e-11,1.4395959958997265e-11,8.349987659520358e-12,4.648242167726239e-12,2.5051125089219356e-12,1.3047270252886448e-12,6.592332572960807e-13,3.2336882006495847e-13,1.5959286871375445e-13,7.3418720832070485e-09,5.849022276351662e-09,4.6711670749449735e-09,3.76960713379355e-09,3.037411095716767e-09,2.419062120084859e-09,1.912971495231028e-09,1.4972376419801777e-09,1.1629638550065858e-09,8.925211948888273e-10,6.758246394894453e-10,5.014458732877799e-10,3.6243937699256715e-10,2.5704356573986605e-10,1.7938415010008574e-10,1.235770336031425e-10,8.46378379860575e-11,5.721325534768295e-11,3.7774555789490595e-11,2.408993601939457e-11,1.4728382115013196e-11
0.0,35,35.0,0.0,30.0,0.0,0.0,0.0,0.0,-13.0,0.0,2.0,0.0,0.0,0.0,2.2983483957499484e-09,2.1972074875693896e-09,2.0489351155491557e-09,1.875545516268142e-09,1.7063444197233447e-09,1.5278191296563714e-09,1.3372667539019405e-09,1.155049219303166e-09,9.825188852216097e-10,8.250715516942923e-10,6.791289363240417e-10,5.501380564483684e-10,4.359021640384232e-10,3.408674804350871e-10,2.6375542406334065e-10,2.0130824326147e-10,1.517395121402713e-10,1.1192812798997151e-10,8.041006020280947e-11,5.579198608572303e-11,3.7128230910440766e-11,2.360013064152591e-11,1.4324292134933519e-11,8.289526119401629e-12,4.604081366932727e-12,2.4758656600982386e-12,1.286560241775551e-12,6.488440146554218e-13,3.1757101927286156e-13,1.5665526258255585e-13,7.341524539008955e-09,5.8486739574101216e-09,4.670817679176044e-09,3.769256284346453e-09,3.03705891410606e-09,2.4187083908833332e-09,1.9126146695142857e-09,1.4968774627625268e-09,1.1626026870204901e-09,8.921580764929523e-10,6.754569199576178e-10,5.010941869130363e-10,3.6217567681250673e-10,2.5696556294134157e-10,1.7954256051514799e-10,1.2392275953163502e-10,8.504553449934397e-11,5.756303909509286e-11,3.8008427184679054e-11,2.421327595338073e-11,1.4779324121965213e-11
0.0,36,36.0,0.0,30.0,0.0,0.0,0.0,0.0,-13.0,0.0,2.0,0.0,0.0,0.0,2.298391024821261e-09,2.1972500302666578e-09,2.048977581136068e-09,1.875588006631202e-09,1.7063872099506298e-09,1.5278625705361551e-09,1.3373110068919836e-09,1.1550934732170331e-09,9.82562547717995e-10,8.251205386752234e-10,6.792069593035919e-10,5.50295674659375e-10,4.3620707637573043e-10,3.4135752385500345e-10,2.6439889583510307e-10,2.0199942858507912e-10,1.5234491766833384e-10,1.1235267840255383e-10,8.063503030850428e-11,5.5857717651846274e-11,3.7098278890808826e-11,2.3529533399342634e-11,1.4249093975089228e-11,8.227017868694331e-12,4.558833070646705e-12,2.4460952642130942e-12,1.2681705840638945e-12,6.383763183383452e-13,3.1175535414010926e-13,1.5369915890934458e-13,7.341162700484348e-09,5.8483113801135735e-09,4.670454042478104e-09,3.76889124071679e-09,3.03669265698601e-09,2.4183406258950333e-09,1.912243778152405e-09,1.4965035131310617e-09,1.1622282014405297e-09,8.917815669572811e-10,6.750765022535377e-10,5.007355851421458e-10,3.6191900738105825e-10,2.5691201549605285e-10,1.797366079722301e-10,1.2430302155063077e-10,8.547708428568423e-11,5.792411668041914e-11,3.824491478154907e-11,2.4335420999009167e-11,1.4828096004552432e-11
0.0,37,37.0,0.0,30.0,0.0,0.0,0.0,0.0,-13.0,0.0,2.0,0.0,0.0,0.0,2.298434313547569e-09,2.197293246695863e-09,2.0490207477036112e-09,1.875631253091862e-09,1.7064308318018947e-09,1.5279068990008949e-09,1.3373560972902932e-09,1.1551384116546916e-09,9.826071751053019e-10,8.251727169447112e-10,6.792944057438384e-10,5.504738364243665e-10,4.365459931648606e-10,3.41890609009071e-10,2.6508437158503724e-10,2.027212130945369e-10,1.5296481701319474e-10,1.1277787517169464e-10,8.085304348524836e-11,5.591449602694586e-11,3.7060568771921145e-11,2.3453341141870057e-11,1.4170301707051709e-11,8.162440738026203e-12,4.512494207808528e-12,2.415804378790503e-12,1.2495621983552114e-12,6.278330071268645e-13,3.059237184043641e-13,1.507246800628588e-13,7.340786147517423e-09,5.847934126976211e-09,4.670075749056585e-09,3.768511598276516e-09,3.036311929109912e-09,2.4179584202865116e-09,1.911858429477216e-09,1.4961154586682285e-09,1.1618400623748284e-09,8.913912915641062e-10,6.746833334447736e-10,5.003710877705222e-10,3.61671869113993e-10,2.568862428695347e-10,1.799691369223916e-10,1.2471932583022665e-10,8.59327454046474e-11,5.829613101146265e-11,3.84835950357167e-11,2.4456092318695747e-11,1.487452218490407e-11
0.0,38,38.0,0.0,30.0,0.0,0.0,0.0,0.0,-13.0,0.0,2.0,0.0,0.0,0.0,2.29847826599932e-09,2.197337144346827e-09,2.0490646275058843e-09,1.8756752733794473e-09,1.7064753034636284e-09,1.5279521215789362e-09,1.3374020069332992e-09,1.1551840298294392e-09,9.826529556752207e-10,8.252288298241594e-10,6.793929904796663e-10,5.506753505165427e-10,4.369223295512019e-10,3.4246974299631333e-10,2.658135636226943e-10,2.0347381762807482e-10,1.53598454648801e-10,1.1320269783746746e-10,8.106327876004081e-11,5.59618067106262e-11,3.7014819211461e-11,2.3371413656427238e-11,1.4087851737489978e-11,8.0957733698241e-12,4.465062560884856e-12,2.384996620860515e-12,1.230739553802253e-12,6.172170867510752e-13,3.000780651515225e-13,1.4773211378878948e-13,7.34039445800075e-09,5.847541778227958e-09,4.669682381143292e-09,3.7681169516402465e-09,3.03591633317293e-09,2.417561365423524e-09,1.9114582332714047e-09,1.4957129694700045e-09,1.1614379273570806e-09,8.90986878484711e-10,6.742774497729835e-10,5.000019477742976e-10,3.614370800411135e-10,2.56891817678229e-10,1.8024308464333813e-10,1.2517313909389369e-10,8.641269634386871e-11,5.867866794660573e-11,3.872401905088639e-11,2.457500260143965e-11,1.491842381112208e-11
0.0,39,39.0,0.0,30.0,0.0,0.0,0.0,0.0,-13.0,0.0,2.0,0.0,0.0,0.0,2.2985228878165524e-09,2.1973817323903797e-09,2.049109234397521e-09,1.875720085995493e-09,1.7065206417073039e-09,1.5279982404075927e-09,1.3374487143437887e-09,1.1552303383730642e-09,9.827001490470048e-10,8.252897873480436e-10,6.795046983792938e-10,5.509033407762313e-10,4.3733975141377904e-10,3.4309803323115855e-10,2.6658813516703e-10,2.0425734037033981e-10,1.5424496280155103e-10,1.1362606051626126e-10,8.126488837202187e-11,5.5999126461334687e-11,3.696074543871402e-11,2.3283609568620253e-11,1.4001680789948264e-11,8.026995323363076e-12,4.416536819756666e-12,2.353676188206467e-12,1.211707448956716e-12,6.065317302316936e-13,2.942204063129889e-13,1.4472192584140605e-13,7.339987208280656e-09,5.847133912206601e-09,4.669273519525837e-09,3.767706895193971e-09,3.035505469920333e-09,2.417149049233175e-09,1.911042802058796e-09,1.495295720363016e-09,1.1610214461799685e-09,8.905679641462571e-10,6.7385899781043e-10,4.996296840871944e-10,3.6121780190479123e-10,2.5693257168487476e-10,1.805614712842958e-10,1.2566587608221184e-10,8.69170292401915e-11,5.907125478868631e-11,3.8965712810544785e-11,2.4691856157119658e-11,1.495961897749619e-11
0.0,40,40.0,0.0,30.0,0.0,0.0,0.0,0.0,-13.0,0.0,2.0,0.0,0.0,0.0,2.2985681863502536e-09,2.1974270217224153e-09,2.049154583701536e-09,1.875765709760473e-09,1.7065668611125696e-09,1.5280452526563737e-09,1.3374961964333604e-09,1.1552773711380572e-09,9.827491045453627e-10,8.253566955264311e-10,6.796318175501183e-10,5.511612704868747e-10,4.378021809955207e-10,3.437786761797327e-10,2.674096833100051e-10,2.0507174446752615e-10,1.5490335670350874e-10,1.1404681170897034e-10,8.145699843076724e-11,5.6025923527739684e-11,3.689805924257663e-11,2.318978641272795e-11,1.3911726056371184e-11,7.95608718555868e-12,4.366916636972467e-12,2.321847881356426e-12,1.1924710186162494e-12,5.95780278267443e-13,2.8835281249753697e-13,1.4169477152631056e-13,7.339563973602919e-09,5.846710105755069e-09,4.6688487441074665e-09,3.767281023610534e-09,3.035078938206488e-09,2.416721056660363e-09,1.910611752503694e-09,1.494863390880497e-09,1.1605902597684694e-09,8.901342004278883e-10,6.734282593152162e-10,4.99256117671113e-10,3.6101756687787025e-10,2.5701260010876e-10,1.8092738799587395e-10,1.2619888618031512e-10,8.744574314474179e-11,5.947335899420306e-11,3.920817747774835e-11,2.4806348986179106e-11,1.4997922952993212e-11
0.0,41,41.0,0.0,30.0,0.0,0.0,0.0,0.0,-13.0,0.0,2.0,0.0,0.0,0.0,2.298614170750188e-09,2.197473024930761e-09,2.049200691970477e-09,1.8758121632348127e-09,1.706613973229955e-09,1.5280931501728926e-09,1.3375444312053087e-09,1.1553251952473613e-09,9.828002831317453e-10,8.25430889537383e-10,6.797769752442644e-10,5.51452966997105e-10,4.38313800605871e-10,3.4451494364888395e-10,2.6827972049377065e-10,2.0591684536847265e-10,1.5557253012940376e-10,1.1446373433611181e-10,8.163870959760025e-11,5.604165783924211e-11,3.6826468951102944e-11,2.3089800717611983e-11,1.38179253631865e-11,7.883030687509306e-12,4.316202684282884e-12,2.289517126275063e-12,1.1730357410184107e-12,5.849662396277945e-13,2.824774131199319e-13,1.3865150581422978e-13,7.339124328556539e-09,5.84626993462463e-09,4.668407634498464e-09,3.766838932341614e-09,3.0346363350039664e-09,2.4162769702433634e-09,1.9101647069052047e-09,1.4944156649452629e-09,1.160143999216951e-09,8.896852641213916e-10,6.729856802698285e-10,4.988834110142999e-10,3.608403046445738e-10,2.571362639350368e-10,1.8134398302091782e-10,1.2677343924653469e-10,8.799873738996585e-11,5.988438711350299e-11,3.945088975546068e-11,2.491816881949035e-11,1.5033148415952544e-11
0.0,42,42.0,0.0,30.0,0.0,0.0,0.0,0.0,-13.0,0.0,2.0,0.0,0.0,0.0,2.2986608519800055e-09,2.197519756165568e-09,2.049247576625077e-09,1.8758594640156035e-09,1.7066619857316264e-09,1.5281419194950603e-09,1.3375934017676093e-09,1.155373923866606e-09,9.828542834089391e-10,8.255139711891875e-10,6.799431764519738e-10,5.517826462705649e-10,4.3887905401923233e-10,3.453101664251156e-10,2.691996545026388e-10,2.0679229797322001e-10,1.5625125126580643e-10,1.1487554599973084e-10,8.180909777640297e-11,5.604578115166601e-11,3.674567940643911e-11,2.298350811127949e-11,1.3720217352684385e-11,7.807808826775313e-12,4.264396710390812e-12,2.2566899977219456e-12,1.153407445331312e-12,5.740932915153032e-13,2.7659639678083267e-13,1.3559319167741828e-13,7.338667847514068e-09,5.8458129738864745e-09,4.667949770640165e-09,3.766380218074396e-09,3.0341772553650636e-09,2.4158163708366893e-09,1.909701294763739e-09,1.4939522302081588e-09,1.1596822851618944e-09,8.89220869168592e-10,6.725319046227857e-10,4.985141111562288e-10,3.606903695318662e-10,2.573081898834513e-10,1.8181444563162006e-10,1.2739071069389638e-10,8.857580512040512e-11,6.030368397509572e-11,3.9693302298100125e-11,2.5026995123184283e-11,1.506510569244684e-11
0.0,43,43.0,0.0,30.0,0.0,0.0,0.0,0.0,-13.0,0.0,2.0,0.0,0.0,0.0,2.298708242738401e-09,2.1975672308935922e-09,2.049295255458041e-09,1.875907627922181e-09,1.706710901625082e-09,1.5281915424200876e-09,1.3376431020354974e-09,1.155423732249375e-09,9.829118722670743e-10,8.256078509864773e-10,6.801338451164483e-10,5.521549369815617e-10,4.395026451604958e-10,3.4616771506545383e-10,2.701707669895722e-10,2.0769758368102067e-10,1.5693815895989746e-10,1.1528089946794455e-10,8.196721479907389e-11,5.6037737144863934e-11,3.665539193968012e-11,2.2870763447335574e-11,1.36185416803518e-11,7.730405995367721e-12,4.211501599867032e-12,2.223373243242218e-12,1.133592319389398e-12,5.631652798636497e-13,2.7071201185001836e-13,1.325211063002498e-13,7.338194105067492e-09,5.8453387983551e-09,4.6674747334619204e-09,3.765904479139511e-09,3.0337012923422514e-09,2.4153388385121356e-09,1.909221154386358e-09,1.4934727769944113e-09,1.1592047277220952e-09,8.887407822738001e-10,6.720678132850656e-10,4.981511962931733e-10,3.605725673167561e-10,2.5753326767445055e-10,1.8234198781076457e-10,1.2805176589145267e-10,8.917662705204485e-11,6.073053212412286e-11,3.993484416308027e-11,2.513249906336635e-11,1.509360299530883e-11
0.0,44,44.0,0.0,30.0,0.0,0.0,0.0,0.0,-13.0,0.0,2.0,0.0,0.0,0.0,2.298756357264161e-09,2.197615465518348e-09,2.0493437459970325e-09,1.8759566681007206e-09,1.706760718639177e-09,1.5282419973786112e-09,1.3376935445844335e-09,1.1554748776888977e-09,9.82974020785647e-10,8.257147951185647e-10,6.803528678375655e-10,5.525749037050549e-10,4.401895336380257e-10,3.47090977651368e-10,2.711941905778792e-10,2.0863199744007354e-10,1.5763175939320655e-10,1.1567838337350243e-10,8.21120890896571e-11,5.6016961469878274e-11,3.655530435090683e-11,2.2751420956643327e-11,1.3512839228722746e-11,7.650808113404696e-12,4.157521433198881e-12,2.1895743077593948e-12,1.1135969176219252e-12,5.521862195403861e-13,2.648265671963834e-13,1.2943674482143968e-13,7.337702676457973e-09,5.844846983028054e-09,4.6669821055705715e-09,3.765411315855657e-09,3.033208036879306e-09,2.4148439536709477e-09,1.908723934484622e-09,1.4929769968195605e-09,1.1587109273120603e-09,8.882448425847438e-10,6.715945689592925e-10,4.977981259612144e-10,3.6049218126745877e-10,2.5781664421064997e-10,1.829298235912976e-10,1.2875754396868367e-10,8.980076552729362e-11,6.116415152125285e-11,4.0174921289276743e-11,2.5234343425881715e-11,1.511844666034268e-11
0.0,45,45.0,0.0,30.0,0.0,0.0,0.0,0.0,-13.0,0.0,2.0,0.0,0.0,0.0,2.298805211003748e-09,2.1976644768522586e-09,2.0493930647315137e-09,1.8760065941017466e-09,1.7068114289364668e-09,1.5282932619331248e-09,1.3377447712087027e-09,1.1555277240999015e-09,9.830419460497011e-10,8.258374776608131e-10,6.806046398529592e-10,5.530480686740065e-10,4.4094492665562366e-10,3.4808333433063797e-10,2.722708846021552e-10,2.0959463491108588e-10,1.583304232224879e-10,1.1606652311290379e-10,8.22427262902625e-11,5.5982881744428384e-11,3.6445110900404193e-11,2.2625334427564167e-11,1.3403052338203018e-11,7.569002768385185e-12,4.102461547954773e-12,2.1553013587389575e-12,1.0934281691179335e-12,5.41160294424575e-13,2.5894243300571064e-13,1.2634182128273887e-13,7.337193137999876e-09,5.844337103547841e-09,4.6664714719704415e-09,3.764900330795381e-09,3.032697077691422e-09,2.414331298400909e-09,1.908209295704305e-09,1.4924645804534407e-09,1.1582004767248541e-09,8.877329862396425e-10,6.711136673983686e-10,4.974588947225382e-10,3.6045499690337015e-10,2.5816371427484537e-10,1.8358114598877524e-10,1.2950884112326911e-10,9.044765893380505e-11,6.160369950384683e-11,4.041291698747095e-11,2.5332182486704714e-11,1.5139441375783935e-11
0.0,46,46.0,0.0,30.0,0.0,0.0,0.0,0.0,-13.0,0.0,2.0,0.0,0.0,0.0,2.2988548201224452e-09,2.19771428143408e-09,2.049443226223782e-09,1.8760574110168648e-09,1.7068630193631845e-09,1.5283453168062207e-09,1.337796866849639e-09,1.155582772051357e-09,9.831171595762504e-10,8.259790382378278e-10,6.808941129919428e-10,5.535804314962848e-10,4.417742668094946e-10,3.491481284913096e-10,2.734016095781298e-10,2.1058437986576782e-10,1.5903238322536337e-10,1.1644378192741272e-10,8.235810983135094e-11,5.593491749684706e-11,3.632450231780514e-11,2.249235741816914e-11,1.3289125055223441e-11,7.48497936002133e-12,4.046328601067153e-12,2.1205633118872776e-12,1.0730933857697504e-12,5.300918573312995e-13,2.530620416206646e-13,1.232382664857841e-13,7.3366650674981064e-09,5.843808736693122e-09,4.665942420810223e-09,3.764371128955881e-09,3.0321680011604017e-09,2.41380045811104e-09,1.9076769120094614e-09,1.4919352155372385e-09,1.157672964990339e-09,8.872052766908486e-10,6.706269956982051e-10,4.971380891945782e-10,3.6046732488100854e-10,2.58580107333347e-10,1.842991014859604e-10,1.3030629355012677e-10,9.111661655523628e-11,6.204827100613559e-11,4.0648192426040576e-11,2.5425661829076607e-11,1.515639040063636e-11
0.0,47,47.0,0.0,30.0,0.0,0.0,0.0,0.0,-13.0,0.0,2.0,0.0,0.0,0.0,2.2989052008468303e-09,2.1977648946975907e-09,2.0494942421479444e-09,1.8761091188044856e-09,1.706915472520266e-09,1.528398151947826e-09,1.3378499776811995e-09,1.1556406951732354e-09,9.83201523076484e-10,8.261431453377702e-10,6.812268451894561e-10,5.541784861377036e-10,4.4268321525525203e-10,3.502886344371339e-10,2.745869005189135e-10,2.1159989194924126e-10,1.597357324823853e-10,1.1680856214183495e-10,8.24572014287627e-11,5.5872480060185164e-11,3.619316583664139e-11,2.235234350379549e-11,1.3171003397969411e-11,7.398729250570735e-12,3.98913063224869e-12,2.0853698573461667e-12,1.0526002704303467e-12,5.189854297549442e-13,2.4718788833473734e-13,1.2012822249779205e-13,7.336118044659932e-09,5.843261460907765e-09,4.665394544150739e-09,3.763823317819115e-09,3.031620391280535e-09,2.4132510234731623e-09,1.9071264718255285e-09,1.4913885837980941e-09,1.1571279836458366e-09,8.866619418354405e-10,6.701368982235559e-10,4.968409481583883e-10,3.605360213311312e-10,2.5907167002632845e-10,1.8508676205816686e-10,1.3115036012740505e-10,9.180681392040072e-11,6.249689902935765e-11,4.088008709348799e-11,2.5514418104282132e-11,1.5169095767135978e-11
