Line_number,Fiducial,Easting,Northing,Height,Elevation,tx_pitch,tx_roll,tx_yaw,txrx_dx,txrx_dy,txrx_dz,rx_pitch,rx_roll,rx_yaw,S0Z_time_1.431e-04,S0Z_time_1.801e-04,S0Z_time_2.266e-04,S0Z_time_2.846e-04,S0Z_time_3.581e-04,S0Z_time_4.506e-04,S0Z_time_5.671e-04,S0Z_time_7.136e-04,S0Z_time_8.981e-04,S0Z_time_1.131e-03,S0Z_time_1.423e-03,S0Z_time_1.791e-03,S0Z_time_2.255e-03,S0Z_time_2.838e-03,S0Z_time_3.573e-03,S0Z_time_4.498e-03,S0Z_time_5.662e-03,S1Z_time_1.409e-05,S1Z_time_1.610e-05,S1Z_time_1.909e-05,S1Z_time_2.360e-05,S1Z_time_2.960e-05,S1Z_time_3.709e-05,S1Z_time_4.609e-05,S1Z_time_5.759e-05,S1Z_time_7.209e-05,S1Z_time_9.060e-05,S1Z_time_1.141e-04,S1Z_time_1.431e-04,S1Z_time_1.801e-04,S1Z_time_2.266e-04,S1Z_time_2.846e-04,S1Z_time_3.581e-04,S1Z_time_4.506e-04,S1Z_time_5.671e-04,S1Z_time_7.136e-04,S1Z_time_8.981e-04,S1Z_time_1.131e-03
0.0,0,0.0,0.0,30.0,0.0,0.0,0.0,0.0,-13.0,0.0,2.0,0.0,0.0,0.0,2.0008798358521745e-10,1.3307188450424539e-10,8.748526315672791e-11,5.013997096315136e-11,3.20091499439025e-11,2.0379863598291152e-11,1.1687807869198636e-11,7.071687790580757e-12,4.06052794531241e-12,2.1567250699099496e-12,1.2958235126450773e-12,7.326392690573416e-13,3.9845122667562915e-13,2.0286414720032874e-13,1.2473176029635167e-13,6.914631936633861e-14,3.854889067209087e-14,3.1002798478769685e-09,2.2335690825570665e-09,1.977940685114721e-09,1.5395414594911432e-09,1.1244966280068557e-09,8.594110858914297e-10,6.826723110953017e-10,5.238570667814943e-10,4.04204476594809e-10,2.9560200402078445e-10,2.0901498615151375e-10,1.4658717986459786e-10,9.994218653929393e-11,6.509970384804431e-11,4.2122826105221434e-11,2.8337914080640378e-11,1.648409680120624e-11,9.175444489159034e-12,5.201014571015485e-12,2.903279441894169e-12,1.464706306426095e-12
0.0,1,1.0,0.0,30.0,0.0,0.0,0.0,0.0,-13.0,0.0,2.0,0.0,0.0,0.0,1.7939247091690989e-10,1.2329678974591687e-10,7.851890660991804e-11,5.160034924305306e-11,3.303163247961558e-11,1.9589421327897134e-11,1.1969911326532143e-11,6.910699518311942e-12,4.057205370129704e-12,2.2856064723072415e-12,1.3034231838650593e-12,7.355867591365089e-13,4.2015087427689837e-13,2.2444901178738083e-13,1.2491163760680612e-13,5.734744547398618e-14,2.204096432286176e-14,3.061904770172725e-09,2.402614616933796e-09,1.7788014382661226e-09,1.3478279868996708e-09,9.83153680849233e-10,7.79618145920951e-10,5.53688112418436e-10,4.169398402651107e-10,3.226987657789217e-10,2.4511643299422734e-10,1.86694841849729e-10,1.2438715359571255e-10,9.656385657194623e-11,6.225890812065112e-11,4.081273218892703e-11,2.5110857899382247e-11,1.578082243299849e-11,9.347915253452037e-12,5.313491336878601e-12,2.9959316414225097e-12,1.5144203508420668e-12
0.0,2,2.0,0.0,30.0,0.0,0.0,0.0,0.0,-13.0,0.0,2.0,0.0,0.0,0.0,1.4987893770849305e-10,1.0778083665048255e-10,7.112579457927467e-11,4.7541696166387834e-11,3.142395362219991e-11,1.850509865790481e-11,1.1386385921725852e-11,7.235714105978063e-12,3.925036067241395e-12,2.2629515726246542e-12,1.3954395595454204e-12,7.603009553130434e-13,4.2642881267542606e-13,2.2923831429181e-13,1.239844696648811e-13,6.606029339514694e-14,4.880953463994333e-14,3.12010844418711e-09,2.3683265264190697e-09,1.814938527378814e-09,1.2000793818832665e-09,9.124004159584249e-10,6.270950844999606e-10,4.969064226356392e-10,3.458896348422416e-10,2.792934172781519e-10,2.007898784790929e-10,1.6143785982567858e-10,1.1149701595324433e-10,8.318858620833041e-11,5.6424613634259635e-11,3.6794136052632617e-11,2.336543058168224e-11,1.503782510870847e-11,9.674320509751775e-12,5.258157218602186e-12,3.095118811519764e-12,1.5990993701859696e-12
0.0,3,3.0,0.0,30.0,0.0,0.0,0.0,0.0,-13.0,0.0,2.0,0.0,0.0,0.0,1.3623046718229698e-10,8.772920809981684e-11,6.257150513902921e-11,4.440897400249993e-11,2.8290321393124748e-11,1.8142698316063138e-11,1.1201032704763944e-11,7.117161705897417e-12,4.145609820022249e-12,2.3849331915169985e-12,1.4141596455654364e-12,7.878360810829568e-13,4.400478220691304e-13,2.563102371437576e-13,1.26820874351851e-13,7.189355490155657e-14,2.9733311242215033e-14,3.387089161802038e-09,2.608647226710182e-09,1.7081353399983893e-09,1.117403744327984e-09,8.141934838032187e-10,5.614963806141206e-10,4.207188672723714e-10,3.147911293486449e-10,2.388385701007771e-10,1.8457922324454798e-10,1.3152732565680424e-10,9.716884930561856e-11,7.276958743520556e-11,4.854943044760527e-11,3.340981247243008e-11,2.420137683364442e-11,1.4850285648297098e-11,8.85243151984353e-12,5.444370202629103e-12,2.816102681292283e-12,1.5787933660341044e-12
0.0,4,4.0,0.0,30.0,0.0,0.0,0.0,0.0,-13.0,0.0,2.0,0.0,0.0,0.0,1.1734662725927665e-10,8.339533926324066e-11,5.7120517971721894e-11,3.612877041844723e-11,2.5497311109680913e-11,1.7378371215410687e-11,1.0774411511722016e-11,7.223793216402535e-12,4.179718641041895e-12,2.425300339446736e-12,1.3532951507779619e-12,7.85854877424176e-13,4.5039767090633263e-13,2.5742715901371864e-13,1.4045809628472421e-13,8.155946669758777e-14,2.7895559537236107e-14,3.765636143279603e-09,2.5355623761350376e-09,1.7816609140934643e-09,1.1713370663351085e-09,7.524803633149616e-10,5.039612898629299e-10,3.6789662393397657e-10,2.656840409334074e-10,2.1126354845886393e-10,1.6168073385703982e-10,1.1612494797323084e-10,8.584241236680631e-11,6.079488715435192e-11,4.661849843170541e-11,3.364017549970021e-11,1.9950429312118485e-11,1.3164958170789613e-11,8.262485294962618e-12,4.950717578716082e-12,2.9340615722447917e-12,1.7848012237962278e-12
0.0,5,5.0,0.0,30.0,0.0,0.0,0.0,0.0,-13.0,0.0,2.0,0.0,0.0,0.0,1.0400668267284014e-10,7.247658191375665e-11,4.879126240037656e-11,3.4053798675320886e-11,2.3495453354250138e-11,1.6735474623434576e-11,1.0333036651921216e-11,6.3973516468798955e-12,3.964802510445838e-12,2.4269639300943035e-12,1.3491303480605722e-12,8.322154864492034e-13,4.566646705222186e-13,2.4597926782140935e-13,1.3893900386404116e-13,7.504146325940839e-14,3.4677750515295875e-14,3.8139435768860265e-09,2.7402317802299114e-09,1.944895852872254e-09,1.1671390191975398e-09,7.237453837376783e-10,4.945180216716208e-10,3.605833867870463e-10,2.505195576610964e-10,1.8117824773498608e-10,1.3848541796007035e-10,1.0752317671630131e-10,7.243481690981686e-11,5.638580229757414e-11,4.043778698251085e-11,2.9332105944043957e-11,1.9850187566577263e-11,1.2566903260680337e-11,7.536831497709001e-12,4.986222681852954e-12,2.7147135507593436e-12,1.4772544425015196e-12
0.0,6,6.0,0.0,30.0,0.0,0.0,0.0,0.0,-13.0,0.0,2.0,0.0,0.0,0.0,9.252512256846468e-11,6.13514101261085e-11,4.613823401017772e-11,3.1987034337388475e-11,2.2158988955997945e-11,1.4961790968250943e-11,9.283660077748742e-12,5.881718533678538e-12,3.902293736821423e-12,2.3727327070226197e-12,1.4042532385898172e-12,7.782076269412171e-13,4.597422961557789e-13,2.518716008454967e-13,1.2659361645247352e-13,8.484465673086273e-14,2.161882401103668e-14,4.114178105281288e-09,3.0083325647595206e-09,2.0748629574903514e-09,1.197388354924132e-09,7.547912960264416e-10,5.094312922726382e-10,3.324916507813216e-10,2.306840757282675e-10,1.6900101835516663e-10,1.2216610874958578e-10,9.559533830671614e-11,6.851933197603212e-11,4.889500292469928e-11,3.583846714641651e-11,2.505808825579811e-11,1.8127456153066265e-11,1.1134533161079966e-11,7.067246649257186e-12,4.849459788539004e-12,2.999958225429432e-12,1.5965793960899161e-12
0.0,7,7.0,0.0,30.0,0.0,0.0,0.0,0.0,-13.0,0.0,2.0,0.0,0.0,0.0,8.038069030215135e-11,5.731181744734134e-11,3.86818380569644e-11,2.8601990289440295e-11,1.9974173971463554e-11,1.3930146969129747e-11,8.723817887517837e-12,5.822490002161311e-12,3.839105283267117e-12,2.2352318805602623e-12,1.34390234840494e-12,8.518667453024074e-13,4.632048462838512e-13,2.487903068576145e-13,1.2094129601652517e-13,8.340599681733703e-14,4.691586256902437e-14,4.165924768766027e-09,3.0113543443237325e-09,2.1163579845865403e-09,1.2602885727264934e-09,7.507324976775913e-10,4.739982554596806e-10,3.034694243271479e-10,2.1629343961117484e-10,1.548684044357885e-10,1.0713887126707377e-10,7.680210284647272e-11,6.180274763891326e-11,4.2132068906344943e-11,3.090765924221849e-11,2.2799720205268606e-11,1.6082667235493185e-11,1.0579261152063858e-11,7.037793585887064e-12,4.2707298538053126e-12,2.479749917546182e-12,1.6529712010812198e-12
0.0,8,8.0,0.0,30.0,0.0,0.0,0.0,0.0,-13.0,0.0,2.0,0.0,0.0,0.0,7.789946436091423e-11,5.307111092508416e-11,3.5481553193062386e-11,2.7024185004987495e-11,1.830400948836727e-11,1.2386515078861525e-11,8.65632341506629e-12,5.578452804740198e-12,3.486794586578148e-12,2.1583007078540644e-12,1.3980403998339051e-12,7.46080613084849e-13,4.738191461191874e-13,2.376210424506655e-13,1.181300527408357e-13,5.832747367405801e-14,6.045066995852356e-14,4.300298299203684e-09,3.2377794645647863e-09,2.306019779550166e-09,1.3910900762909717e-09,7.671030913059047e-10,4.935190912880565e-10,3.090361151629123e-10,2.0204858407103297e-10,1.4125809006809925e-10,1.0419421605318829e-10,7.037280294955828e-11,5.350567263224685e-11,3.8617362092140056e-11,2.6546300082944028e-11,1.9753390379348834e-11,1.4318371112785301e-11,1.0125588654581774e-11,6.620654270526657e-12,4.155851440557506e-12,2.370736790985351e-12,1.6356868492372693e-12
0.0,9,9.0,0.0,30.0,0.0,0.0,0.0,0.0,-13.0,0.0,2.0,0.0,0.0,0.0,6.665466003477206e-11,4.4371299283918195e-11,3.166373534858831e-11,2.375532262625039e-11,1.6447941466848898e-11,1.183217217006898e-11,8.19713578780294e-12,5.332060873523913e-12,3.3422501562183916e-12,2.1544946258077987e-12,1.3372670325375552e-12,8.32326948452259e-13,4.3447789017088307e-13,2.5763834858884755e-13,1.3622325805193242e-13,8.171707709719796e-14,1.6758152927586123e-14,4.561688713994098e-09,3.3203587814122097e-09,2.164983998151064e-09,1.3957663302596754e-09,8.476399242955447e-10,4.688586995190754e-10,3.066536208094568e-10,1.912927832360984e-10,1.3076164444160334e-10,9.277322607751835e-11,6.628994152550768e-11,4.711082700480556e-11,3.4970285453340793e-11,2.574302510833199e-11,1.798411390368416e-11,1.3390526490912817e-11,9.258464269800735e-12,5.803787616496975e-12,3.6884301381376144e-12,2.1311024739615417e-12,1.362266882601473e-12
0.0,10,10.0,0.0,30.0,0.0,0.0,0.0,0.0,-13.0,0.0,2.0,0.0,0.0,0.0,6.040555849131934e-11,4.2751310548528164e-11,2.75677710819233e-11,2.0806277313980467e-11,1.5388606507802858e-11,1.0330057002223047e-11,7.186937454336312e-12,4.728433647293434e-12,3.519584544464061e-12,2.0182980564307243e-12,1.2486308376017618e-12,7.519960287635946e-13,4.4595652743099427e-13,2.560455033328008e-13,1.524979920861777e-13,7.60690565188444e-14,3.2616375731852275e-14,4.280240558814825e-09,3.387963859276767e-09,2.3597973357249137e-09,1.5305085419090905e-09,8.67690734146578e-10,5.060097427355268e-10,3.001919182755665e-10,1.9250457218192854e-10,1.2549255823997894e-10,8.571456198012762e-11,5.896160433105847e-11,4.4278232336357695e-11,3.125510137981877e-11,2.248523449964263e-11,1.545370866230254e-11,1.1739212714737622e-11,8.158060325257492e-12,5.242311789952474e-12,3.656595907445373e-12,2.029568724410305e-12,1.305867402912071e-12
0.0,11,11.0,0.0,30.0,0.0,0.0,0.0,0.0,-13.0,0.0,2.0,0.0,0.0,0.0,5.637442012442997e-11,3.690673534096274e-11,2.6505111244527694e-11,2.0097522254214084e-11,1.3660916070724762e-11,9.546067279988307e-12,6.899311843705303e-12,4.639884681360534e-12,3.0924418403965352e-12,1.9540171867996076e-12,1.317931887150699e-12,7.68113361810865e-13,4.4526598890159084e-13,2.5725627969390977e-13,1.3590902005840885e-13,7.352583925308677e-14,3.59645959555202e-14,4.361942146733498e-09,3.513623246410185e-09,2.3865083867131353e-09,1.5334408075867063e-09,8.789224686336858e-10,5.237404699085574e-10,3.0948340091487096e-10,1.9787327256723343e-10,1.2244268199365168e-10,8.024615670184291e-11,5.3672129817980446e-11,4.039216867077037e-11,2.8011665658976573e-11,2.04974327843284e-11,1.4511642988451701e-11,1.0762243388441884e-11,7.422880996715824e-12,5.02396136343317e-12,3.163920431050918e-12,2.106264920475203e-12,1.4210720878614027e-12
0.0,12,12.0,0.0,30.0,0.0,0.0,0.0,0.0,-13.0,0.0,2.0,0.0,0.0,0.0,5.205413860190427e-11,3.577860679605347e-11,2.3003684417997048e-11,1.8248473208681205e-11,1.2320813670999082e-11,9.091965632195614e-12,5.970731945079812e-12,4.5518160325718744e-12,2.8868934692213106e-12,1.922395777215464e-12,1.2258212657136492e-12,7.325674101271566e-13,4.758997614438458e-13,2.360944068692533e-13,1.4724658822692086e-13,8.957769302039789e-14,4.253500126181354e-14,4.525390560294424e-09,3.4517554909110874e-09,2.355720838096482e-09,1.5475755223716834e-09,9.402775445797932e-10,5.436401974103801e-10,3.2180131339056614e-10,1.9231862186109917e-10,1.2023434235317386e-10,8.158670835088432e-11,4.969824266904815e-11,3.7172713324980536e-11,2.6030356049049747e-11,1.9542238046040806e-11,1.3405016056560674e-11,9.921436778925972e-12,6.155017964439664e-12,4.5976813364158395e-12,3.037658726409803e-12,2.0730194736136902e-12,9.9340038450263e-13
0.0,13,13.0,0.0,30.0,0.0,0.0,0.0,0.0,-13.0,0.0,2.0,0.0,0.0,0.0,5.038070467073946e-11,3.326734050006354e-11,2.2019401460444532e-11,1.67105436423151e-11,1.1331389513818925e-11,8.66577514850874e-12,6.0087028471464204e-12,4.14126928293521e-12,2.7963520807303917e-12,1.742408888162835e-12,1.1597460948698278e-12,7.323193067642474e-13,4.5096533015895536e-13,2.7080914735241e-13,1.3848299419241212e-13,7.158255146745326e-14,5.181585724392722e-14,4.446732651455341e-09,3.5800618734148257e-09,2.5628023747490435e-09,1.5975002571108389e-09,9.415393295101556e-10,5.606964698699946e-10,3.3976096813876814e-10,1.983116823619883e-10,1.2848721946169051e-10,7.395890655584704e-11,4.8785099709007136e-11,3.3666344072143877e-11,2.3881323059692888e-11,1.6038739492436994e-11,1.1982084891288607e-11,8.444275758129567e-12,6.052218550782545e-12,4.199327349159571e-12,2.6039067296655516e-12,1.880606373744845e-12,1.286734215450717e-12
0.0,14,14.0,0.0,30.0,0.0,0.0,0.0,0.0,-13.0,0.0,2.0,0.0,0.0,0.0,4.813475011692805e-11,3.265730107734077e-11,2.0882103239563166e-11,1.5803102186245166e-11,1.090458246480616e-11,7.172872631339007e-12,5.3940560103150956e-12,3.869778881911769e-12,2.588848135324738e-12,1.7087900325587708e-12,1.174287211147031e-12,6.805567157349285e-13,4.3091746716126625e-13,2.5514649546051593e-13,1.391134262228681e-13,8.023862952336078e-14,5.119019060422103e-14,4.62619097415202e-09,3.4179444685383364e-09,2.4110241763714294e-09,1.5616321747109903e-09,9.73827496570981e-10,5.736730879828175e-10,3.3509609227848054e-10,1.9879202966744828e-10,1.1542610092020499e-10,7.566114199455163e-11,4.8141631555281226e-11,3.143012540546603e-11,2.265974543658226e-11,1.6527947640291636e-11,1.0963669367541202e-11,8.226433649827793e-12,5.449925579288586e-12,3.811711947444149e-12,2.5588224112426103e-12,1.8071229800097658e-12,1.0448148030570592e-12
0.0,15,15.0,0.0,30.0,0.0,0.0,0.0,0.0,-13.0,0.0,2.0,0.0,0.0,0.0,4.517342438838951e-11,2.8334888209834258e-11,1.8490334306205433e-11,1.3146896868521726e-11,9.776138178646957e-12,6.7552148150807924e-12,4.984298529678872e-12,3.419334948050059e-12,2.3728780846169355e-12,1.5978337223367854e-12,1.1063754007911756e-12,6.950528077630266e-13,4.264900209567798e-13,2.3484612202709136e-13,1.4853026841585284e-13,8.73498436260999e-14,4.627127905345128e-14,4.489513147172366e-09,3.5865562741199048e-09,2.5391432184127085e-09,1.4662169657244613e-09,1.0113662788598657e-09,5.574295775297238e-10,3.605568102261231e-10,2.063588906354657e-10,1.2660772191620353e-10,7.375187028873582e-11,4.5396133258741924e-11,3.088778189508231e-11,2.190405737706676e-11,1.4763167799126916e-11,1.0325848222671755e-11,7.426846974300858e-12,5.089609856963356e-12,3.4654562342878415e-12,2.512089052765428e-12,1.7012759162449232e-12,1.02562531890896e-12
0.0,16,16.0,0.0,30.0,0.0,0.0,0.0,0.0,-13.0,0.0,2.0,0.0,0.0,0.0,4.517344214150413e-11,2.935632381581711e-11,1.8838910618971498e-11,1.3215301463688296e-11,8.737476071015332e-12,6.474411209272623e-12,4.534908931814012e-12,3.2392018615331386e-12,2.2969052569097465e-12,1.5394865188740904e-12,1.01978272782933e-12,6.782196050556896e-13,3.827142576411028e-13,2.517010768120383e-13,1.1983776698735447e-13,8.383031012571896e-14,3.459155324835299e-14,4.695870644427205e-09,3.526430910589579e-09,2.535271347016533e-09,1.5810104014982621e-09,9.873936878903355e-10,6.083652436984792e-10,3.6933801627854214e-10,2.312890687065221e-10,1.2500436075559924e-10,7.600205090441637e-11,4.341784144824423e-11,2.851417217441879e-11,1.9807848185531214e-11,1.3275094763090022e-11,1.0072608039653435e-11,6.6009670808054914e-12,4.883707328589686e-12,3.3900927048771644e-12,2.1658565649967585e-12,1.4720614115445386e-12,8.924367126741616e-13
0.0,17,17.0,0.0,30.0,0.0,0.0,0.0,0.0,-13.0,0.0,2.0,0.0,0.0,0.0,4.5464317589475886e-11,2.7341212177905897e-11,1.7104950662888056e-11,1.2310312676610833e-11,8.893100356774791e-12,6.1230315936503525e-12,4.357623825584494e-12,3.0461393337181817e-12,2.073536590198423e-12,1.4047173221240364e-12,9.98525988363595e-13,5.968612061703085e-13,3.8608008796164474e-13,2.5341610316267223e-13,1.588371128725555e-13,6.222806945705368e-14,5.988517406784636e-14,4.547900089298128e-09,3.5189312690896166e-09,2.5140467208886913e-09,1.6937455394925673e-09,9.6997365460714e-10,6.244689927075312e-10,3.6127247284583944e-10,2.2176108757968753e-10,1.3244747433926608e-10,7.420916927411937e-11,4.537334727356248e-11,2.903116397398712e-11,1.8559521803228716e-11,1.3558788472964592e-11,9.462210176819485e-12,6.357113195060113e-12,4.303415313773304e-12,2.8722974218488574e-12,1.9202508304635858e-12,1.4970162960633963e-12,9.838516461533075e-13
0.0,18,18.0,0.0,30.0,0.0,0.0,0.0,0.0,-13.0,0.0,2.0,0.0,0.0,0.0,4.4166799360152017e-11,2.479965980202435e-11,1.4905493271950354e-11,1.1043794148561655e-11,7.881406395517011e-12,5.826482967961965e-12,3.94470817181846e-12,2.8758066120165425e-12,2.086513219545497e-12,1.3751533522589912e-12,9.379882443780035e-13,5.744280323685908e-13,3.675675271005362e-13,2.373409022985891e-13,1.337996114557411e-13,7.990714884207594e-14,4.286342532093915e-14,4.668999605836529e-09,3.439440922421388e-09,2.5010769532360907e-09,1.7412234318689198e-09,1.003800069009663e-09,6.204343974940075e-10,3.7313303014918945e-10,2.2636486342834796e-10,1.3327194585927222e-10,7.385941482639753e-11,4.39533406633895e-11,2.7665377372447448e-11,1.8488080825616587e-11,1.1955641512388842e-11,8.30737336980948e-12,5.310427339081485e-12,3.764633802378113e-12,2.6971129540772953e-12,1.944410330172383e-12,1.2484209197571237e-12,6.684829211352199e-13
0.0,19,19.0,0.0,30.0,0.0,0.0,0.0,0.0,-13.0,0.0,2.0,0.0,0.0,0.0,4.219171797482534e-11,2.5451362328650303e-11,1.4770111578206832e-11,1.113478222939041e-11,7.444261939510715e-12,4.977945212335129e-12,3.651302247187966e-12,2.589674485531742e-12,1.83904749680518e-12,1.23287602137541e-12,8.72078857242357e-13,5.631650122615614e-13,3.6289289254296995e-13,2.4015796252294466e-13,1.3470540559622698e-13,6.759463358201132e-14,3.974418653561898e-14,4.457448086067341e-09,3.491687250927463e-09,2.595368527957911e-09,1.6648586349517055e-09,1.106671464690204e-09,6.4091738447005e-10,3.7640692559238493e-10,2.3407673201389677e-10,1.364765525115569e-10,7.855618197322745e-11,4.302031777820624e-11,2.7225938209842093e-11,1.812464551376104e-11,1.1013453503398018e-11,7.789929862492981e-12,5.142435635799758e-12,3.566447631659337e-12,2.3880728139251316e-12,1.84603776681751e-12,1.1042234059533653e-12,6.400027231900522e-13
0.0,20,20.0,0.0,30.0,0.0,0.0,0.0,0.0,-13.0,0.0,2.0,0.0,0.0,0.0,4.269697400116072e-11,2.4886963114493228e-11,1.4903682122394956e-11,1.0653887815300606e-11,7.105659781332399e-12,4.696616341424793e-12,3.4568596844016174e-12,2.5590859425953096e-12,1.7350154164510672e-12,1.2850861638863336e-12,8.232961237510601e-13,5.635426318263226e-13,3.4828472535201317e-13,2.1438915264342849e-13,1.4277311310478064e-13,7.55005355386379e-14,5.1021441804016563e-14,4.6435311646789035e-09,3.6036803418530913e-09,2.4630137942610645e-09,1.6446719200634271e-09,1.0543299241005319e-09,6.240395285588259e-10,4.1251262674549654e-10,2.27903677386102e-10,1.3392268176509544e-10,7.501770655682508e-11,4.179731748983003e-11,2.8455996343956507e-11,1.687508755072522e-11,1.0948129634619791e-11,7.441804215883758e-12,5.347462707805809e-12,3.325327351429657e-12,2.423875792547358e-12,1.5364151304675704e-12,9.862109334876862e-13,7.370354674587311e-13
0.0,21,21.0,0.0,30.0,0.0,0.0,0.0,0.0,-13.0,0.0,2.0,0.0,0.0,0.0,4.559402970636029e-11,2.402450611938933e-11,1.4049657119574494e-11,9.417937679912565e-12,6.837053418601333e-12,4.538286235136758e-12,3.12516580824522e-12,2.42417492164121e-12,1.592471464842481e-12,1.1781642162509807e-12,8.161770464983796e-13,5.33841051235224e-13,3.3983479793270477e-13,2.1861569478359978e-13,1.1031373661270786e-13,8.172304863568431e-14,5.814665843075922e-14,4.7001320604375865e-09,3.3107934018879816e-09,2.4566020704016407e-09,1.6485752601836201e-09,1.0603738319624633e-09,6.435826965174243e-10,3.9278776812323637e-10,2.420242540866691e-10,1.428806254133126e-10,7.825625613681121e-11,4.6053757287201725e-11,2.4710508879917225e-11,1.608989154011173e-11,1.0557426204580158e-11,7.002783610030529e-12,4.859032704388966e-12,3.392826541401e-12,2.247274408900308e-12,1.4059052162906776e-12,8.172564729639641e-13,6.903637735389717e-13
0.0,22,22.0,0.0,30.0,0.0,0.0,0.0,0.0,-13.0,0.0,2.0,0.0,0.0,0.0,4.21866268040757e-11,2.4629010549189915e-11,1.3869855596273847e-11,9.012315573962799e-12,6.330473359521835e-12,4.357163641286279e-12,3.1128815447298583e-12,2.1789564476169878e-12,1.5839525969421114e-12,1.1166301326851286e-12,7.834562791746286e-13,5.233175776004475e-13,3.34971014063054e-13,2.2696455590736671e-13,1.3134454979404828e-13,6.890206251482429e-14,3.0990411146350634e-14,4.607110244094701e-09,3.3863813267564478e-09,2.4579536198665346e-09,1.6713002272836716e-09,1.0289398588207686e-09,6.316559444843622e-10,4.028531466600314e-10,2.4231191701191694e-10,1.4000995998132016e-10,7.943668052006387e-11,4.6778660195862166e-11,2.7030624115932924e-11,1.6145981268716198e-11,1.1100325377569007e-11,6.838445710891815e-12,4.738085814862803e-12,2.9859483581874314e-12,1.8899097165898877e-12,1.2904942285082607e-12,8.82219259911098e-13,5.413562913114997e-13
0.0,23,23.0,0.0,30.0,0.0,0.0,0.0,0.0,-13.0,0.0,2.0,0.0,0.0,0.0,4.694468085566981e-11,2.3941378279215692e-11,1.3789204961658833e-11,8.967239930438255e-12,5.894269760176212e-12,4.127320897089092e-12,3.0934440611150716e-12,2.0086913223589564e-12,1.5079358510021903e-12,9.91081265197238e-13,7.212762695794629e-13,4.821433018757407e-13,3.275422747114017e-13,2.1874281794797811e-13,1.216491775214183e-13,6.452104870550527e-14,4.807164461428127e-14,4.528937564872564e-09,3.5499118975793014e-09,2.52339167263271e-09,1.5635604267346305e-09,1.0661914771411157e-09,6.645722929302133e-10,4.184243103218683e-10,2.58608157661611e-10,1.3840925827548567e-10,8.320098501077094e-11,4.6833193661412296e-11,2.6488433449782577e-11,1.6239965153646543e-11,1.015914873487475e-11,6.247389834404652e-12,4.3624604209950276e-12,2.772445177127654e-12,1.852979955866051e-12,1.0984799365683211e-12,8.016183017820437e-13,5.327548930699444e-13
0.0,24,24.0,0.0,30.0,0.0,0.0,0.0,0.0,-13.0,0.0,2.0,0.0,0.0,0.0,4.6463976869425245e-11,2.4000716767336645e-11,1.2712009662942628e-11,8.892848910491259e-12,5.681045447538522e-12,3.968071556082044e-12,2.863603744705366e-12,2.024124573245201e-12,1.4737952232121625e-12,9.651149694733979e-13,7.02902393812387e-13,4.4156404417729306e-13,3.2507022809314807e-13,1.8116357236784407e-13,9.985663468220397e-14,8.025475996401696e-14,3.5715376010581254e-14,4.6858976697080754e-09,3.567941266989147e-09,2.4085960142597257e-09,1.525471192830325e-09,1.0170898690875845e-09,6.560079875195327e-10,3.9524067133912586e-10,2.436255493771938e-10,1.396619297522994e-10,8.393971249316239e-11,4.713436507248148e-11,2.6610554646167263e-11,1.659750258143331e-11,1.0225468384975469e-11,6.39568381331336e-12,3.8375958893681415e-12,2.601099410989151e-12,1.866197914735959e-12,1.1437263342193677e-12,7.467183958915533e-13,6.092571258016152e-13
0.0,25,25.0,0.0,30.0,0.0,0.0,0.0,0.0,-13.0,0.0,2.0,0.0,0.0,0.0,4.7057787554751895e-11,2.5004914014334343e-11,1.2955568916746093e-11,8.750582749730802e-12,5.370176385613564e-12,3.8870329274316504e-12,2.646487154698332e-12,1.7855767859498449e-12,1.246614293228128e-12,9.055000422399582e-13,6.552730790847574e-13,4.5277097651008723e-13,2.9686446540705135e-13,1.8338995529466886e-13,1.271985644528981e-13,6.79956145210454e-14,3.456876325612121e-14,4.658118442356606e-09,3.4730939700005353e-09,2.582630996915723e-09,1.631645312310042e-09,1.0457090018000132e-09,6.606265952904211e-10,4.0823723928467193e-10,2.5111571697897e-10,1.5198518080769616e-10,8.611372717509773e-11,4.849698815615239e-11,2.6737023248239716e-11,1.6274665605368804e-11,9.78015244164716e-12,6.280124291071036e-12,3.8365570750121576e-12,2.588506159521411e-12,1.7940907384704526e-12,1.0762569157154761e-12,7.252769609719844e-13,6.808769812580276e-13
0.0,26,26.0,0.0,30.0,0.0,0.0,0.0,0.0,-13.0,0.0,2.0,0.0,0.0,0.0,4.9778856969389924e-11,2.5082214475847116e-11,1.3345870231644387e-11,7.930598846584929e-12,5.329586456305006e-12,3.5077118171383386e-12,2.4263304559871002e-12,1.70941373206245e-12,1.2467024475263385e-12,8.497483212554857e-13,6.164041847229471e-13,4.3080683792521814e-13,2.8831311384808825e-13,1.8451459605605693e-13,1.1369953371216958e-13,6.186838526133173e-14,2.5928751415892152e-14,4.6219439828831825e-09,3.4713664478536775e-09,2.37990518091097e-09,1.6420910304360293e-09,1.0189700339434026e-09,6.729034827443008e-10,4.214603620985033e-10,2.5733739590979764e-10,1.4744092483870458e-10,8.846042463444079e-11,4.910623870838706e-11,2.7241179948851497e-11,1.564640131435727e-11,9.7070938568482e-12,5.804042236583771e-12,3.8416867371803275e-12,2.619913514543826e-12,1.848398228540961e-12,1.2526648677521914e-12,7.969798601048488e-13,3.0510446789202987e-13
0.0,27,27.0,0.0,30.0,0.0,0.0,0.0,0.0,-13.0,0.0,2.0,0.0,0.0,0.0,4.673820304658501e-11,2.3964944576801208e-11,1.3528058735323242e-11,7.828759137706136e-12,5.120544798491053e-12,3.4002494286256714e-12,2.3192367678512994e-12,1.666615114488408e-12,1.1918362802136245e-12,7.858239495301037e-13,6.223419611427218e-13,3.6596919666043195e-13,2.671403031404549e-13,1.8639980158833895e-13,9.665500100777491e-14,7.076793911894803e-14,2.599917767760808e-14,4.5665893305304285e-09,3.280386187616644e-09,2.4687539234226292e-09,1.584914274432901e-09,1.0412955816932034e-09,6.519591373783299e-10,4.0822183281703254e-10,2.616642463172518e-10,1.4826542524016875e-10,8.965354109700755e-11,5.190993496744663e-11,2.8072740680897222e-11,1.5508685747806642e-11,8.97254984591528e-12,5.617252540705667e-12,3.766128289406377e-12,2.4030758486852925e-12,1.6607910852265079e-12,1.1018713161788583e-12,6.800196457167287e-13,4.783368462974838e-13
0.0,28,28.0,0.0,30.0,0.0,0.0,0.0,0.0,-13.0,0.0,2.0,0.0,0.0,0.0,5.1125658596674194e-11,2.5638477741328042e-11,1.2726404469791453e-11,8.080327278146876e-12,4.984510269134648e-12,3.360532435814598e-12,2.323923617902567e-12,1.5189338498886946e-12,1.0606919683134396e-12,7.911219574071308e-13,6.05802467982927e-13,3.68020691404074e-13,2.6113486605364505e-13,1.5745504714197326e-13,1.1825214531348498e-13,4.2091327270811476e-14,1.5552384142583343e-14,4.630972765013041e-09,3.5164462952555652e-09,2.496409862512317e-09,1.646948452691571e-09,1.071335621002372e-09,6.527865509065394e-10,4.0421528362847304e-10,2.500646491252651e-10,1.580916048339066e-10,8.790119388048701e-11,4.823371511812394e-11,2.845240209583725e-11,1.628108410941143e-11,9.681227787384817e-12,5.687396490820222e-12,3.4485585304973486e-12,2.3459639241145097e-12,1.5663942676875103e-12,9.663084925769925e-13,6.257117474968368e-13,4.3270673549855105e-13
0.0,29,29.0,0.0,30.0,0.0,0.0,0.0,0.0,-13.0,0.0,2.0,0.0,0.0,0.0,4.902555680435401e-11,2.5043575483230736e-11,1.2443732881220052e-11,7.461974141787093e-12,4.636554582935161e-12,3.183040931092441e-12,2.1948622748274374e-12,1.53842272229588e-12,1.0559456449073376e-12,7.093851359982467e-13,5.627656236318187e-13,3.6170276020683955e-13,2.6875209508174745e-13,1.6949079851962163e-13,1.2548048900886548e-13,6.170985502280323e-14,4.666100072710792e-14,4.701986490162186e-09,3.466521743651716e-09,2.51982019269745e-09,1.5891684914802437e-09,1.0055918215047208e-09,6.640979402937389e-10,4.289812649473069e-10,2.6356931764097097e-10,1.570419126969759e-10,9.288723595213011e-11,5.025115065146994e-11,2.8562926158900082e-11,1.654146806613492e-11,9.392681436944723e-12,5.513785787839318e-12,3.6343353364317303e-12,2.0484633251236496e-12,1.3665942389936438e-12,8.948924538114723e-13,6.812037339758325e-13,3.848422199295631e-13
0.0,30,30.0,0.0,30.0,0.0,0.0,0.0,0.0,-13.0,0.0,2.0,0.0,0.0,0.0,4.7924693725575674e-11,2.5533755425130562e-11,1.3285866975731486e-11,7.808623012404276e-12,4.7200956833202434e-12,2.8386818472036934e-12,2.0295972172289057e-12,1.4429482581230538e-12,1.009536992473979e-12,7.12698219049557e-13,4.920963850132116e-13,3.4420154287613843e-13,2.2498261370143575e-13,1.3514994735801275e-13,1.0237511973859695e-13,7.086350701014435e-14,3.9302435966567365e-14,4.575059950980369e-09,3.3601027202266307e-09,2.6094481311779396e-09,1.6599312173877681e-09,1.1167680998430901e-09,6.807333875517597e-10,3.94569186878553e-10,2.656596586981295e-10,1.5017008434796325e-10,8.95837858808707e-11,5.1567970005052775e-11,2.9167552790226975e-11,1.6548550309932675e-11,8.96870438629841e-12,5.265263699980149e-12,3.4440448865736994e-12,2.1260854744587223e-12,1.3841726322888086e-12,6.55627823305727e-13,5.512846521826927e-13,2.7508247610231136e-13
0.0,31,31.0,0.0,30.0,0.0,0.0,0.0,0.0,-13.0,0.0,2.0,0.0,0.0,0.0,4.907207163737153e-11,2.6156708172998805e-11,1.2498511240599854e-11,7.325778780672418e-12,4.484461463488093e-12,2.9468216308823995e-12,1.94961565076137e-12,1.4101726455669516e-12,1.0086702030971426e-12,6.468675918346508e-13,4.871538819026062e-13,3.1814499463536583e-13,2.1154895574790384e-13,1.5411959454216233e-13,1.0366349047846821e-13,8.107398500562187e-14,2.7020151216754483e-14,4.7632395011425106e-09,3.6673322058921273e-09,2.5480923436213906e-09,1.6922182361348342e-09,1.0825186506751966e-09,7.01557776711324e-10,4.264777725805338e-10,2.602534305326272e-10,1.5374633887642893e-10,9.355413132166476e-11,5.434972145959423e-11,2.992766803294026e-11,1.6152236864213665e-11,9.329160846225128e-12,5.4144219052285195e-12,3.3239601924941987e-12,1.8652758462881057e-12,1.3723855991172085e-12,9.060570907981608e-13,5.880003991959841e-13,3.4617730690214493e-13
0.0,32,32.0,0.0,30.0,0.0,0.0,0.0,0.0,-13.0,0.0,2.0,0.0,0.0,0.0,4.832288427273515e-11,2.5755334497224042e-11,1.3419107939783818e-11,7.33762865096982e-12,4.1760842148607595e-12,2.685707608144129e-12,1.9460608613288294e-12,1.3149555151155925e-12,9.468774907620621e-13,6.338645584249299e-13,4.4327118502756595e-13,3.027171710482278e-13,2.3227389817292394e-13,1.4654706008415178e-13,9.955888282486247e-14,6.337099884956278e-14,3.31854035697163e-14,4.5558034443391595e-09,3.7218339023060457e-09,2.5646283110087465e-09,1.655835183861086e-09,1.069385612380102e-09,6.669900561265402e-10,3.93687688176695e-10,2.665972544572771e-10,1.6748063246836864e-10,9.144126986037497e-11,5.578882510300633e-11,2.9931856380890356e-11,1.691380165500702e-11,9.675287259660134e-12,5.272111055117208e-12,3.4002476341400764e-12,1.860013361109326e-12,1.172444253393585e-12,7.49042655370117e-13,5.859563355204261e-13,2.957692779283439e-13
0.0,33,33.0,0.0,30.0,0.0,0.0,0.0,0.0,-13.0,0.0,2.0,0.0,0.0,0.0,4.93240143798179e-11,2.5923346998172725e-11,1.2798213030690636e-11,7.674828792555011e-12,4.324311627422231e-12,2.742467322170514e-12,1.8355767027820873e-12,1.2628639139451423e-12,8.754288549803784e-13,6.125229742916309e-13,4.048279189894133e-13,3.0099035680329565e-13,2.181102024760347e-13,1.3725273978270116e-13,9.658298105820004e-14,6.478374580382493e-14,4.754626377148903e-14,4.594161999040209e-09,3.3230630160262687e-09,2.359483176912516e-09,1.5824172635988434e-09,1.0538412051171718e-09,6.595971388515182e-10,4.247896686949956e-10,2.572053664802331e-10,1.5609070445996556e-10,9.604153475540312e-11,5.5201345770160166e-11,3.0379813208035405e-11,1.6972968058967142e-11,9.549799036584803e-12,5.4915976858291166e-12,3.0212368119995116e-12,1.8666705202167615e-12,1.0924413305675672e-12,7.266184195669075e-13,5.792041270547456e-13,3.697915179078435e-13
0.0,34,34.0,0.0,30.0,0.0,0.0,0.0,0.0,-13.0,0.0,2.0,0.0,0.0,0.0,5.051154346947399e-11,2.6821434729483326e-11,1.3258218839536996e-11,7.393822578783014e-12,4.128355562824896e-12,2.6518891563460386e-12,1.8329819110508176e-12,1.115806352079648e-12,8.325645166228259e-13,6.237221269090075e-13,4.3973375156621745e-13,2.8964529315744984e-13,1.9573845881730303e-13,1.2668500592207904e-13,8.569036280287261e-14,7.188285829174885e-14,3.829443814381216e-14,4.459979085475622e-09,3.649986980068549e-09,2.5109840645802825e-09,1.746995722750985e-09,1.0371624479878638e-09,6.428954409434425e-10,4.23785203872195e-10,2.7036544462029845e-10,1.6529913631420508e-10,9.566342424818761e-11,5.314188473026853e-11,3.058348512201853e-11,1.616895586266809e-11,9.239951297609357e-12,5.362245966670983e-12,3.1953447352287958e-12,1.8661872763147e-12,1.1791693517738567e-12,7.093833341538123e-13,5.529045089008049e-13,2.1081853517578342e-13
0.0,35,35.0,0.0,30.0,0.0,0.0,0.0,0.0,-13.0,0.0,2.0,0.0,0.0,0.0,5.406952055275877e-11,2.8306681868658525e-11,1.3543538856086351e-11,7.396685240697453e-12,4.195893051896317e-12,2.6994871166876566e-12,1.6788976852860886e-12,1.1163290057640938e-12,7.782090936231718e-13,5.284750578972926e-13,3.939611243806699e-13,2.837591268478827e-13,2.0877916790760426e-13,1.212972094558755e-13,8.565691225729477e-14,6.168086097912746e-14,3.380082120820865e-14,4.4486471987745665e-09,3.370047500054412e-09,2.6100569266276245e-09,1.6871389331760675e-09,1.0734082069746177e-09,6.409072302597504e-10,4.247606988075321e-10,2.679908153072883e-10,1.6240642447482343e-10,9.371920654572532e-11,5.7038419307459915e-11,3.003120625661301e-11,1.7971210446106128e-11,9.946649338217163e-12,5.7090998645023465e-12,3.067213553544088e-12,1.7523505697375309e-12,1.2348126287274125e-12,6.522776575321848e-13,4.630902381933762e-13,2.5654636038005945e-13
0.0,36,36.0,0.0,30.0,0.0,0.0,0.0,0.0,-13.0,0.0,2.0,0.0,0.0,0.0,5.1775850505576425e-11,2.730528533557628e-11,1.2929635719617668e-11,7.673426502264622e-12,4.106945194609976e-12,2.4169693600632188e-12,1.684579022765626e-12,1.1233879636303312e-12,7.913022686001708e-13,5.450389877924838e-13,3.5707716522962434e-13,2.488296923530993e-13,1.8923320530377965e-13,1.399419850955895e-13,8.862598856895582e-14,7.161422541693965e-14,2.6690413962963134e-14,4.6175964356408964e-09,3.4092663056504255e-09,2.5025782725264422e-09,1.6257644186970117e-09,1.035117763207613e-09,6.551796914885022e-10,4.219811781570976e-10,2.635219843313819e-10,1.6400895580903926e-10,9.684322815246282e-11,5.531415908736505e-11,3.138638250240359e-11,1.755508819452358e-11,9.588657443548991e-12,5.527518739762551e-12,3.2131690785878495e-12,1.979846896443117e-12,1.0359260038443618e-12,7.47932463407761e-13,3.010501210678101e-13,3.141918459782105e-13
0.0,37,37.0,0.0,30.0,0.0,0.0,0.0,0.0,-13.0,0.0,2.0,0.0,0.0,0.0,5.539050404163555e-11,2.7222791098809845e-11,1.4078079665069191e-11,7.315383958923219e-12,4.093151941426674e-12,2.4942939473949168e-12,1.691994558750639e-12,1.055499938139234e-12,7.357346897944503e-13,4.896325420719518e-13,3.806165933841241e-13,2.659734946778326e-13,1.883931661751289e-13,1.263016768256236e-13,7.556066061448687e-14,4.5070389501049684e-14,3.794029899181566e-14,4.575545337154148e-09,3.5072834692250636e-09,2.6016143946381576e-09,1.6526109804142793e-09,1.0287040548588656e-09,6.811454861820305e-10,4.230898600882022e-10,2.5539774524575014e-10,1.5638025782720746e-10,9.721750200521097e-11,6.034285127859256e-11,3.189334531977012e-11,1.778156670636521e-11,1.0320882984267122e-11,5.456472227742213e-12,2.8866749906600326e-12,1.6285157528498002e-12,1.2218224166404016e-12,7.462410376345742e-13,5.094398283804802e-13,2.6019995800934507e-13
0.0,38,38.0,0.0,30.0,0.0,0.0,0.0,0.0,-13.0,0.0,2.0,0.0,0.0,0.0,5.286286632175844e-11,2.7453837936054168e-11,1.384521485363988e-11,7.42710622587052e-12,4.26125006543849e-12,2.3715473919655616e-12,1.5825598492359468e-12,1.0271177650757288e-12,7.027294965845809e-13,4.4814088380205863e-13,3.692580313192968e-13,2.30514545742254e-13,1.881719986401267e-13,1.1065350039965523e-13,6.934369609257378e-14,5.01215873153734e-14,4.089409332596557e-14,4.5025530603967525e-09,3.6330099226369435e-09,2.642848708348706e-09,1.7119050458627275e-09,1.1067503620295293e-09,6.888191233830931e-10,4.4134633259102847e-10,2.764960266183181e-10,1.6313095133527786e-10,9.612100631751264e-11,5.296330938236868e-11,3.1338577134140924e-11,1.795817680592417e-11,9.849727952449548e-12,5.4800677918288155e-12,2.9439014732184085e-12,1.6044853510757422e-12,1.0548932541443336e-12,6.39171435079038e-13,3.3040835175683995e-13,1.8162858693795748e-13
0.0,39,39.0,0.0,30.0,0.0,0.0,0.0,0.0,-13.0,0.0,2.0,0.0,0.0,0.0,5.286246628098867e-11,2.7576339466186214e-11,1.3582562183474094e-11,7.961617955445084e-12,4.213858807330873e-12,2.361347425722105e-12,1.5480479842343425e-12,9.635512712299598e-13,7.167771553098205e-13,4.919170202261189e-13,3.6679968795088183e-13,2.1599388659543672e-13,1.6539265642397383e-13,1.0560042780206176e-13,7.793533194184057e-14,3.747318953644886e-14,2.2714398731859655e-14,4.523221149340035e-09,3.5419263677269194e-09,2.5861717569101834e-09,1.6461504414902451e-09,1.076314175020188e-09,6.794959989362173e-10,4.1953030676561067e-10,2.5409040479054597e-10,1.5668858478057874e-10,9.948828639902314e-11,5.640810721746232e-11,3.127932856342751e-11,1.8787446674729064e-11,1.013989607717121e-11,5.285319413539768e-12,3.243448882428933e-12,1.863009578794352e-12,1.0619287875159804e-12,5.107900695106049e-13,2.572693988385409e-13,2.1608007724950866e-13
0.0,40,40.0,0.0,30.0,0.0,0.0,0.0,0.0,-13.0,0.0,2.0,0.0,0.0,0.0,5.190340926638344e-11,2.8510159878278307e-11,1.3496185251986533e-11,7.768659776481035e-12,4.14763783264583e-12,2.4581886965935225e-12,1.4842000984320845e-12,9.791929969763569e-13,6.38190477651859e-13,4.635340122526063e-13,3.339747058402719e-13,2.2651260937201094e-13,1.4530798178561935e-13,1.1081757206894967e-13,7.269402860436583e-14,4.981771763195326e-14,3.182883250224164e-14,4.5534452648838636e-09,3.6570378061425218e-09,2.521597638956339e-09,1.6257097327171192e-09,1.053465182307554e-09,6.442625038326534e-10,4.1640839336456063e-10,2.6267385224518503e-10,1.6077080921538253e-10,9.866252485916069e-11,6.09532503357333e-11,3.387455024296452e-11,1.9281521323758275e-11,1.0066837781590828e-11,5.498705372755607e-12,3.03965918751059e-12,1.8518242340262995e-12,8.041847777584903e-13,5.192308457970832e-13,3.9653884192858407e-13,2.1588379767603709e-13
0.0,41,41.0,0.0,30.0,0.0,0.0,0.0,0.0,-13.0,0.0,2.0,0.0,0.0,0.0,5.82505582569876e-11,2.8793221591594375e-11,1.3960448439064299e-11,7.425296060967422e-12,4.14784058320748e-12,2.2909216273261327e-12,1.5202820165724505e-12,9.480072681832427e-13,6.542401852873012e-13,4.675412050867726e-13,3.1070604195278673e-13,2.0951087171041936e-13,1.4048857354878682e-13,1.0068437026336779e-13,8.3288640868952e-14,5.041061315673943e-14,2.6742769745193483e-14,4.614629912850374e-09,3.3976944169493462e-09,2.5035488326770233e-09,1.666858728119928e-09,1.0585009020085925e-09,6.32748617140164e-10,4.2648210308013994e-10,2.663877105646153e-10,1.6096668963915094e-10,9.83645939207304e-11,5.532514310520937e-11,3.209789462552565e-11,1.8969010271331934e-11,1.01432162574824e-11,5.671170328143418e-12,3.2195502765339286e-12,1.726921146186488e-12,7.194706255820809e-13,5.944290672316626e-13,3.2650253612070407e-13,2.0691491604186627e-13
0.0,42,42.0,0.0,30.0,0.0,0.0,0.0,0.0,-13.0,0.0,2.0,0.0,0.0,0.0,5.6750597135428433e-11,2.7283015990219065e-11,1.4496811577787034e-11,8.23340798408789e-12,4.124161663422879e-12,2.4026936210585165e-12,1.5167102862617656e-12,9.24133582979141e-13,6.120114241644032e-13,4.064046144484191e-13,3.2203552391718403e-13,2.1047263899079615e-13,1.3945500168436446e-13,8.539870163420432e-14,5.155189404430881e-14,5.999180328838368e-14,2.6421781000649356e-14,4.904382897354427e-09,3.5845584662168604e-09,2.5669059241960525e-09,1.67790962577252e-09,1.087014479683642e-09,6.440064869848564e-10,4.4973739841188166e-10,2.634557208519513e-10,1.5952052306351093e-10,9.948337696943979e-11,6.010107770378743e-11,3.284039763718869e-11,1.9431900966947746e-11,1.025616753016611e-11,5.636272737400909e-12,3.0558856436367598e-12,1.827497168178888e-12,8.841412274051675e-13,6.162265952745439e-13,3.299115852561338e-13,1.3817946783764124e-13
0.0,43,43.0,0.0,30.0,0.0,0.0,0.0,0.0,-13.0,0.0,2.0,0.0,0.0,0.0,5.346564466104498e-11,2.7809767423564815e-11,1.3823031695125891e-11,8.147211072857714e-12,4.190128143957066e-12,2.3683670958439896e-12,1.5030163085601657e-12,8.600655661523894e-13,5.878599125428557e-13,4.071248876284629e-13,2.7647543013498354e-13,1.890538925073706e-13,1.3253264930772632e-13,9.73941452019495e-14,5.791845233867597e-14,6.20772283253549e-14,3.5735985999126647e-14,4.462868168563326e-09,3.484852213174395e-09,2.5071053253599557e-09,1.8275887705798503e-09,1.007588264644416e-09,6.673023262738617e-10,3.9598240151286257e-10,2.6425607362774305e-10,1.724290212746657e-10,9.75767457453416e-11,6.038227773867019e-11,3.405105042492721e-11,1.9054281431430648e-11,1.0538940967486116e-11,5.685745971539882e-12,3.0589947892236412e-12,1.5894600165844842e-12,1.1461011116995947e-12,5.450910989104719e-13,3.8436941735300355e-13,1.2841760180998914e-13
0.0,44,44.0,0.0,30.0,0.0,0.0,0.0,0.0,-13.0,0.0,2.0,0.0,0.0,0.0,5.755192245693476e-11,2.8808255845447367e-11,1.46351571181325e-11,7.567038601979389e-12,4.2931043812306605e-12,2.4783344517215197e-12,1.3926891847953324e-12,8.613287530640518e-13,5.66526075753891e-13,3.9139376061038305e-13,2.917622258661483e-13,1.9654983020859118e-13,1.433867411355599e-13,8.203992351386194e-14,6.227802443203669e-14,3.717282441782637e-14,1.4623683585659775e-14,4.562697853188581e-09,3.927964175589242e-09,2.7095135815642448e-09,1.6696544420232789e-09,1.1104850333322123e-09,6.623714707378412e-10,4.217490590949903e-10,2.4889612711794275e-10,1.5848142614693797e-10,9.662958747670741e-11,5.885349124318164e-11,3.436184842028018e-11,1.9148790854234788e-11,1.0552090334148193e-11,5.838602836548273e-12,2.979964617109962e-12,1.6715957272470776e-12,9.403384258169783e-13,4.479475183226249e-13,3.127663326198873e-13,1.2625145089568436e-13
0.0,45,45.0,0.0,30.0,0.0,0.0,0.0,0.0,-13.0,0.0,2.0,0.0,0.0,0.0,5.7932314333731975e-11,2.9012959501082435e-11,1.4725262979409768e-11,8.18474201212113e-12,4.339420614770063e-12,2.2220342003365563e-12,1.3980346305768437e-12,8.303086369796173e-13,5.703070592142865e-13,3.6846795945109156e-13,2.8343328476088143e-13,1.7039462398494159e-13,1.2642303875776075e-13,8.100720071749894e-14,6.88115062078293e-14,4.286763700485504e-14,2.851823731037132e-14,4.540807688038168e-09,3.485169026686159e-09,2.5762061677881114e-09,1.701479641788026e-09,1.0559284100655132e-09,6.860129185568502e-10,4.3859300996627326e-10,2.5119209117764147e-10,1.653716013822397e-10,9.89723726932991e-11,5.954481029082186e-11,3.5717287203137184e-11,1.9119923784738866e-11,1.0322859587986839e-11,6.168458672183339e-12,3.0607125006612724e-12,1.6672358432051908e-12,9.945594764832736e-13,4.960481669415219e-13,1.7780507157572782e-13,2.0740995215938477e-13
0.0,46,46.0,0.0,30.0,0.0,0.0,0.0,0.0,-13.0,0.0,2.0,0.0,0.0,0.0,5.470289497031468e-11,2.991896565854758e-11,1.47110480842234e-11,7.986843158374738e-12,4.269113157721633e-12,2.4195756554847947e-12,1.4398085217854984e-12,8.08776293182208e-13,6.125577680971971e-13,3.5970139715973897e-13,2.5752594750867215e-13,1.850967155698298e-13,1.2403668806298473e-13,1.0614887296503613e-13,6.43352432400689e-14,3.588576213619407e-14,3.9882182296135394e-14,4.696841014789008e-09,3.3958936822151564e-09,2.6011094376859746e-09,1.6369559652052672e-09,1.0528298325282426e-09,6.659222339015431e-10,4.113224536359626e-10,2.5385054653447464e-10,1.6513088497645404e-10,9.508392605855572e-11,5.446013039816441e-11,3.386767354046025e-11,2.0038195047294602e-11,1.0903920808941174e-11,6.274563429728398e-12,3.255657344067875e-12,1.6646059936075842e-12,9.225008301684392e-13,4.121385240044929e-13,4.3952478672054203e-13,6.013318131986088e-14
0.0,47,47.0,0.0,30.0,0.0,0.0,0.0,0.0,-13.0,0.0,2.0,0.0,0.0,0.0,5.460029506922093e-11,2.94002924315151e-11,1.506112589685831e-11,7.85840313791849e-12,4.209226833130242e-12,2.3660497459411183e-12,1.4376184362756673e-12,8.324424699952454e-13,5.434114075354333e-13,3.3049990254723025e-13,2.5609309255884305e-13,1.7478412637061295e-13,1.35067098558229e-13,9.007028085451454e-14,5.514805324732135e-14,4.876928160644138e-14,5.2258884253214735e-14,4.498585935614121e-09,3.4451793247244546e-09,2.649019043978123e-09,1.6744819973211092e-09,1.0590423563267714e-09,6.711403803301816e-10,4.1418659174649953e-10,2.5624393876280334e-10,1.595712504945993e-10,1.0303262922804084e-10,5.6620715471679485e-11,3.5437517738410204e-11,1.9655571536290872e-11,1.0990911062551928e-11,6.238878233726445e-12,3.3811863546260176e-12,1.7986735023043368e-12,7.70043461894302e-13,7.102979465493059e-13,4.552842742905084e-13,2.0254148087203035e-13
0.0,48,48.0,0.0,30.0,0.0,0.0,0.0,0.0,-13.0,0.0,2.0,0.0,0.0,0.0,5.628505938412522e-11,3.1283304958210696e-11,1.560709027242907e-11,8.295862541816863e-12,4.3216489562173606e-12,2.338452230496152e-12,1.4302281177018175e-12,8.368881433372667e-13,5.005995816065292e-13,3.493895718644449e-13,2.6691593172767177e-13,1.4638351432333186e-13,1.1937263418322348e-13,5.97962883449886e-14,5.315054695652526e-14,1.4507300637088863e-14,1.584303960484435e-14,4.496237895545499e-09,3.4509351989708117e-09,2.6439465264692124e-09,1.689465044053081e-09,1.0428500649021585e-09,6.447795601717887e-10,4.1947163356674306e-10,2.5630978249647035e-10,1.6819565461155694e-10,1.053591790941216e-10,6.117975769190332e-11,3.541590511582594e-11,2.0038603193778695e-11,1.1083926249824371e-11,6.52146531946039e-12,3.216720032455904e-12,1.947373526946326e-12,8.45642970864379e-13,5.153937820375402e-13,1.453373678879609e-13,2.04595431228028e-13
0.0,49,49.0,0.0,30.0,0.0,0.0,0.0,0.0,-13.0,0.0,2.0,0.0,0.0,0.0,5.4231945290474794e-11,3.129198078328342e-11,1.5473879024739414e-11,8.510483429601978e-12,4.431807636070331e-12,2.2815447830577226e-12,1.3783354453704553e-12,8.451881022387816e-13,5.191797013448734e-13,3.1849328471412726e-13,2.2542883938054059e-13,1.4980467740449868e-13,9.684145909679639e-14,8.383441119053724e-14,5.791208434358898e-14,2.550205922890289e-14,2.8149901167193633e-14,4.501008253310203e-09,3.521105376583866e-09,2.5619045098820098e-09,1.640620737783978e-09,1.0687601114359035e-09,6.298156560219058e-10,4.240020038942022e-10,2.6421647163775003e-10,1.5342153724463998e-10,9.406724164799541e-11,5.60939239766452e-11,3.5641515922099886e-11,2.0351018320030957e-11,1.1430741121023567e-11,5.9439554861952424e-12,3.494756801319074e-12,1.8945519175626686e-12,8.834598547212313e-13,6.598956727172918e-13,2.86794829896683e-13,6.3690955831790125e-15
0.0,50,50.0,0.0,30.0,0.0,0.0,0.0,0.0,-13.0,0.0,2.0,0.0,0.0,0.0,5.369109826696268e-11,3.0573515523506e-11,1.533911583359611e-11,8.669307916063685e-12,4.418253788533215e-12,2.3883474661465625e-12,1.4576921689796283e-12,8.227911790876386e-13,5.001915074376125e-13,3.28876624132696e-13,2.4758776966437903e-13,1.6090992238229388e-13,1.1253686551265757e-13,6.767755961748609e-14,4.8229299441002446e-14,2.8367646867221745e-14,3.8203491886299414e-14,4.750714826574154e-09,3.5044058265462113e-09,2.5662001752703993e-09,1.6545264019025958e-09,1.093316269166439e-09,6.842518626081684e-10,4.297342318978058e-10,2.7142369170851015e-10,1.6672745863948787e-10,1.0303556708964773e-10,6.045841417510459e-11,3.548563775789127e-11,2.00408353137422e-11,1.0874221888921891e-11,6.287782317629243e-12,3.26516861947701e-12,1.8039355297918734e-12,1.0832538763936724e-12,5.545375514050879e-13,2.653802144399162e-13,9.477030939419622e-14
0.0,51,51.0,0.0,30.0,0.0,0.0,0.0,0.0,-13.0,0.0,2.0,0.0,0.0,0.0,5.4106088304118405e-11,3.1215746893164464e-11,1.465743862268174e-11,8.27539051397767e-12,4.155614941244764e-12,2.3576309867684744e-12,1.350255845253551e-12,7.674997628564626e-13,4.969365932606699e-13,3.0374303769481094e-13,2.2366133012081639e-13,1.675407837155147e-13,1.0476819492410183e-13,7.954407645219178e-14,3.8147252653442666e-14,4.83261686788563e-14,3.5863429242249206e-14,4.6119863857049285e-09,3.4096491615438955e-09,2.5402711156229084e-09,1.6651519058170585e-09,1.0631313557805514e-09,6.439216792755806e-10,4.032324096929851e-10,2.658115427662248e-10,1.634596335573685e-10,9.958181634630954e-11,6.142888765448028e-11,3.3857415542639517e-11,2.114301984763328e-11,1.1265170164611395e-11,6.275897733181595e-12,3.2899799849756016e-12,1.8226875160783643e-12,7.685695240272626e-13,4.766588658271985e-13,2.508843013560221e-13,3.0304177635223215e-13
0.0,52,52.0,0.0,30.0,0.0,0.0,0.0,0.0,-13.0,0.0,2.0,0.0,0.0,0.0,5.685180264967535e-11,3.0733816294301226e-11,1.5574827283010294e-11,8.310350751508002e-12,4.6262008674436045e-12,2.33199554065141e-12,1.3408323517242428e-12,7.744036440237322e-13,5.057256707142169e-13,3.042753751063706e-13,2.4689257525244073e-13,1.36825817815723e-13,1.1193584794863836e-13,6.796722860598864e-14,6.060861808600402e-14,3.3247585363825764e-14,1.2610746616095142e-15,4.729799478186505e-09,3.5173412949658385e-09,2.491630983712418e-09,1.7238097850564055e-09,1.0450629960126578e-09,6.753428576037355e-10,4.128094630962055e-10,2.578988201023769e-10,1.724135613710263e-10,9.726163375555644e-11,5.861201952109724e-11,3.3699704584634747e-11,2.163873224194229e-11,1.1768808710431625e-11,6.4782354903666464e-12,3.586219488554711e-12,1.6773705328019593e-12,9.142796808536945e-13,5.229160314632412e-13,1.433528271512742e-13,3.0435764422531117e-13
0.0,53,53.0,0.0,30.0,0.0,0.0,0.0,0.0,-13.0,0.0,2.0,0.0,0.0,0.0,5.6619563455592186e-11,2.9893277596758394e-11,1.576580156629867e-11,8.448971439407083e-12,4.546524984156566e-12,2.6573845543144944e-12,1.388207520242193e-12,8.047415057240078e-13,4.744078150879348e-13,2.8942596526716543e-13,2.264033119552209e-13,1.2414580361654164e-13,7.768648914657369e-14,7.316621513171013e-14,4.9946667960290596e-14,3.8476176735698563e-14,1.974485773796907e-14,4.852108125204489e-09,3.5167400307938398e-09,2.491572297627103e-09,1.5128354805738624e-09,1.0540709533778218e-09,6.799687556126312e-10,4.226475667637698e-10,2.7346845773994596e-10,1.7480689862821449e-10,9.912894440104749e-11,6.192923828040209e-11,3.3911730169632855e-11,2.1362035058696174e-11,1.1733807914511687e-11,6.4416781979606365e-12,3.460326521147723e-12,1.828611488273624e-12,9.431130418997831e-13,5.510449054958634e-13,2.779813384085616e-13,5.4164930972348666e-14
0.0,54,54.0,0.0,30.0,0.0,0.0,0.0,0.0,-13.0,0.0,2.0,0.0,0.0,0.0,5.740703315751079e-11,2.9705871376150135e-11,1.6226126165434033e-11,8.696514439092164e-12,4.594844833362975e-12,2.2724347970170266e-12,1.3109321238844445e-12,7.807439744352176e-13,4.603812783223807e-13,2.854820893323121e-13,2.1380607082776087e-13,1.4924952975185608e-13,1.0272332950682588e-13,7.693830998532094e-14,3.9326980702145095e-14,3.1291786050383535e-14,6.824226924871382e-15,4.742144234754515e-09,3.5374794437770846e-09,2.5370428154917634e-09,1.6796989615335207e-09,1.1013897314798996e-09,6.591525791459511e-10,4.436532407581489e-10,2.577962139487976e-10,1.6563028120697553e-10,1.0568564448791979e-10,5.889093660675984e-11,3.595201007425017e-11,2.1354395729672025e-11,1.174077657847084e-11,6.2206289503817876e-12,3.3682319120128718e-12,1.931320036423763e-12,1.0738081519404718e-12,6.098364167785409e-13,4.0770712806037464e-13,1.7423440829279846e-13
0.0,55,55.0,0.0,30.0,0.0,0.0,0.0,0.0,-13.0,0.0,2.0,0.0,0.0,0.0,5.7091735188782145e-11,2.893955254807769e-11,1.5952528934800286e-11,8.924857520299994e-12,4.5331153201281555e-12,2.4865818668995127e-12,1.2895650955003755e-12,7.713507432780619e-13,4.71511282949544e-13,3.1390996445984755e-13,2.286359857837316e-13,1.4681284231444666e-13,1.0449279917300264e-13,6.816935115473432e-14,2.873505044234353e-14,2.4874873242322184e-14,3.660273762757177e-14,4.3801918421452825e-09,3.4783640857467794e-09,2.4258193729892526e-09,1.7352110340986405e-09,1.0376648344520808e-09,6.941712367166499e-10,4.1733309583937416e-10,2.605619175946277e-10,1.6984458249193868e-10,1.0250588800531975e-10,5.4931914471158204e-11,3.62399780422524e-11,2.1259392397665322e-11,1.1944646100500354e-11,6.464433309613718e-12,3.5635774082231702e-12,1.837944444980324e-12,1.0093410954714471e-12,5.100302954389508e-13,2.278023108999217e-13,1.8082150235110997e-13
0.0,56,56.0,0.0,30.0,0.0,0.0,0.0,0.0,-13.0,0.0,2.0,0.0,0.0,0.0,5.813747943391723e-11,3.064090357398994e-11,1.5603409193115318e-11,8.908152365487548e-12,4.799893027951552e-12,2.5746358833221503e-12,1.420625913615145e-12,7.623572347949185e-13,4.430679255487046e-13,2.6225768926475683e-13,2.0458582917874197e-13,1.1183860206336658e-13,8.51465332747861e-14,5.795874269647217e-14,3.4440074730423215e-14,2.407024798386374e-14,4.459630295429857e-15,4.612093949081265e-09,3.6314128657160367e-09,2.4920394717843596e-09,1.6990420317212343e-09,1.1399118242037688e-09,6.616103462903661e-10,4.3084247197757623e-10,2.6613303103249154e-10,1.683381525442249e-10,9.457049597390264e-11,5.794923885991393e-11,3.5966274589152516e-11,2.1514518446919306e-11,1.1986044633614974e-11,6.294826408298177e-12,3.475344309649207e-12,1.8115609845018412e-12,1.0350623642170559e-12,4.541036401294125e-13,2.1994357743970218e-13,2.7067899390033537e-13
0.0,57,57.0,0.0,30.0,0.0,0.0,0.0,0.0,-13.0,0.0,2.0,0.0,0.0,0.0,5.90744127296547e-11,3.0049875317951847e-11,1.61296038441889e-11,8.370592938168841e-12,4.713769565761208e-12,2.5626821340631265e-12,1.3962614476713498e-12,7.48843157292796e-13,4.4828289777759237e-13,2.6615874715201017e-13,2.002414178420451e-13,1.0685859379905692e-13,1.0743099459797013e-13,6.360019382691596e-14,3.7022487210971115e-14,2.0301220094444097e-14,1.6523191222989715e-14,4.689918911390911e-09,3.632999845542928e-09,2.4650197526333863e-09,1.6142791423208873e-09,1.1214089443318425e-09,6.860666829703196e-10,4.31576156318878e-10,2.6347740009525554e-10,1.6812258288272624e-10,9.591812603729756e-11,6.263654507833029e-11,3.582300178367724e-11,2.1519207649119214e-11,1.2244474139250213e-11,6.691456501385914e-12,3.6070083187138165e-12,2.063859014122483e-12,1.1094816850614485e-12,3.5310990272083e-13,1.168788447000785e-13,6.523979622860392e-14
0.0,58,58.0,0.0,30.0,0.0,0.0,0.0,0.0,-13.0,0.0,2.0,0.0,0.0,0.0,5.529950107144554e-11,2.9448272462554426e-11,1.611145043939201e-11,8.797199463442608e-12,4.891805866481812e-12,2.6011498394354875e-12,1.3779117684560164e-12,7.856047618167845e-13,4.5047252875182877e-13,2.6381523699344443e-13,1.9873585600949416e-13,1.3011351614372736e-13,7.161031478382025e-14,5.4033089272108693e-14,3.984156634214406e-14,2.935351705970298e-14,1.3025747533730376e-14,4.647463999690948e-09,3.5569150044574065e-09,2.4887244154483273e-09,1.771680096766538e-09,1.0695209758651233e-09,6.568585389993744e-10,4.1535112642288023e-10,2.7275571141364217e-10,1.6409480475041337e-10,1.0737087866559547e-10,5.912169442327842e-11,3.456105617736385e-11,2.105452001839842e-11,1.2129345615273752e-11,6.292767881556355e-12,3.622636473349861e-12,1.90018601933951e-12,9.721529283714795e-13,4.705855840426647e-13,1.5079475146329777e-13,2.339872631697492e-13
0.0,59,59.0,0.0,30.0,0.0,0.0,0.0,0.0,-13.0,0.0,2.0,0.0,0.0,0.0,5.5846951543654296e-11,2.957208846789661e-11,1.566503045835429e-11,8.841038895870747e-12,4.769939073510781e-12,2.5606512758788228e-12,1.3443646440026277e-12,7.315046000961815e-13,4.23388866150446e-13,2.2135995071073293e-13,1.9569493482652328e-13,1.330212521183227e-13,9.139513114657303e-14,4.936848938690539e-14,3.6670979160993135e-14,1.3157397058035245e-14,1.49955024642838e-14,4.521534113681534e-09,3.4358185259865884e-09,2.5645555802724624e-09,1.7925510749525162e-09,1.108348242502532e-09,6.620209789660753e-10,4.338143601890698e-10,2.7143802022946674e-10,1.6042097375088691e-10,1.0168020814543444e-10,5.733324879838743e-11,3.507106384908238e-11,2.1277297948984806e-11,1.1963216825476995e-11,7.221363834405315e-12,3.800249356342945e-12,1.9186079382393864e-12,9.703657767075958e-13,5.556595950330109e-13,1.789034499177652e-13,2.1607529137522422e-13
0.0,60,60.0,0.0,30.0,0.0,0.0,0.0,0.0,-13.0,0.0,2.0,0.0,0.0,0.0,5.451313943665167e-11,3.1113508286933314e-11,1.5996283048422248e-11,9.124349952324397e-12,4.6414391584326095e-12,2.5471061907755664e-12,1.4953041096928623e-12,7.31552295081506e-13,4.474781440989551e-13,2.794334205718915e-13,1.9882275435737487e-13,1.1848546612419935e-13,7.335540784108659e-14,4.000685666979591e-14,3.514188940434224e-14,1.955279174532615e-14,1.5551810760443472e-14,4.6085686401560055e-09,3.4544703644357063e-09,2.571283248113207e-09,1.7555748160866008e-09,1.023646265921086e-09,6.541141319790778e-10,4.2198086022719615e-10,2.736479145926777e-10,1.5778071583931952e-10,9.65710345948561e-11,5.604884890279102e-11,3.5498533833835087e-11,2.1607788331517203e-11,1.2574502335633208e-11,6.94927445147944e-12,3.646879580399704e-12,2.065279603510528e-12,1.0502670267127702e-12,3.4489506489918663e-13,1.6117199208442526e-13,3.0636180816363363e-13
0.0,61,61.0,0.0,30.0,0.0,0.0,0.0,0.0,-13.0,0.0,2.0,0.0,0.0,0.0,5.742265596496254e-11,2.931088648806663e-11,1.6513110687254816e-11,9.341851414536392e-12,4.755882324627149e-12,2.5975843779217175e-12,1.2375805348153625e-12,7.666416108611859e-13,4.585034308381765e-13,2.4216010935970515e-13,1.8968874980338507e-13,1.0752220237983935e-13,8.066336482480715e-14,4.715428008755166e-14,2.0168582727958752e-14,4.2438348640208715e-14,1.2176213732241329e-14,4.594707386264286e-09,3.419251747978896e-09,2.4549149518243155e-09,1.6834457179444638e-09,1.0722843746666294e-09,6.809382088157412e-10,4.366085453314712e-10,2.629299198099661e-10,1.614285419287638e-10,1.020039998233692e-10,5.881251570491887e-11,3.694963810278346e-11,2.1453068507263617e-11,1.2657479546318478e-11,7.0653757843793565e-12,3.610687429164082e-12,1.9021386998729432e-12,1.1152631148437254e-12,7.358171896053439e-13,1.5158224967326569e-13,1.5610245862686077e-13
0.0,62,62.0,0.0,30.0,0.0,0.0,0.0,0.0,-13.0,0.0,2.0,0.0,0.0,0.0,5.7365018208910084e-11,2.9196680736649174e-11,1.6385329848015224e-11,9.066439256009395e-12,4.543733641672411e-12,2.691271048501286e-12,1.36920059864444e-12,7.122348161814659e-13,4.433403259969031e-13,2.597088254841097e-13,1.9148930791849464e-13,1.043413380339359e-13,7.961899606062851e-14,4.264391251330935e-14,1.939642489496137e-14,3.362409734846676e-14,1.3810772264296605e-14,4.555264305303679e-09,3.3145455872043755e-09,2.5201739580792695e-09,1.6208372284220122e-09,1.050087649717486e-09,6.591032247959227e-10,4.1695684330253536e-10,2.7205552510449055e-10,1.658078226171797e-10,1.0314887010674871e-10,5.758603836259322e-11,3.5323761050068584e-11,2.1222567249773533e-11,1.2107023557532248e-11,6.933732203157702e-12,3.622149254599913e-12,1.9392468120413013e-12,8.763991872222727e-13,4.559043552878266e-13,3.5423818559390917e-13,1.312969034352603e-13
0.0,63,63.0,0.0,30.0,0.0,0.0,0.0,0.0,-13.0,0.0,2.0,0.0,0.0,0.0,5.946384991709075e-11,3.0072305185072794e-11,1.624479515715791e-11,8.795274996524946e-12,5.2603339269656884e-12,2.5698314790341823e-12,1.4509212668422482e-12,7.549682545714335e-13,4.246354471980382e-13,2.3278429513919885e-13,1.8171127283661957e-13,1.0001470856574059e-13,7.624212436196103e-14,5.526242960582583e-14,3.2393828593385016e-14,2.5936004555088417e-14,1.5914566516155953e-14,4.3787042994232375e-09,3.673709334896965e-09,2.62311383427426e-09,1.6061896649994843e-09,1.0716222933100068e-09,6.502926664962798e-10,4.1315034377124435e-10,2.6456709552632503e-10,1.721964690558259e-10,1.0294642320112474e-10,6.107436590547753e-11,3.4799191464557224e-11,2.293182671783613e-11,1.2635781154864763e-11,6.444819816444261e-12,3.892699147785048e-12,1.985361636900071e-12,1.1016650675885414e-12,5.905090197588936e-13,1.928919595421474e-13,3.3466454173511314e-13
