Line_number,Fiducial,Easting,Northing,Height,Elevation,tx_pitch,tx_roll,tx_yaw,txrx_dx,txrx_dy,txrx_dz,rx_pitch,rx_roll,rx_yaw,PX,PZ,S0X_time_1.086e-05,S0X_time_3.256e-05,S0X_time_5.426e-05,S0X_time_8.680e-05,S0X_time_1.411e-04,S0X_time_2.279e-04,S0X_time_3.689e-04,S0X_time_5.860e-04,S0X_time_9.115e-04,S0X_time_1.411e-03,S0X_time_2.192e-03,S0X_time_3.418e-03,S0X_time_5.339e-03,S0X_time_8.301e-03,S0X_time_1.338e-02,S0Z_time_1.086e-05,S0Z_time_3.256e-05,S0Z_time_5.426e-05,S0Z_time_8.680e-05,S0Z_time_1.411e-04,S0Z_time_2.279e-04,S0Z_time_3.689e-04,S0Z_time_5.860e-04,S0Z_time_9.115e-04,S0Z_time_1.411e-03,S0Z_time_2.192e-03,S0Z_time_3.418e-03,S0Z_time_5.339e-03,S0Z_time_8.301e-03,S0Z_time_1.338e-02
0.0,0.0,0.0,0.0,120.0,0.0,0.0,0.0,0.0,-107.0,0.0,-45.0,0.0,0.0,0.0,34.27253218749016,17.55503396713325,4.583367659860003,2.6626881026496694,2.23229862616952,1.7789721447454592,1.217130841921315,0.7845574338703779,0.4836655013457691,0.17817940162774643,0.1621834269482068,0.03262621450310422,0.06965536590463475,0.01712534291791521,-0.024454326302043024,0.04053230346117262,0.08167083291151936,6.939938794888263,4.935357582829848,4.304287282199102,3.7477408609916516,2.9801500205869567,2.104253464450386,1.3206290534837202,0.7342221708319634,0.38168921621485,0.2064101890102062,0.06137049583151524,0.03013819243327491,0.023504672849612756,-0.010826016033455855,-0.026138597715250487
0.0,1.0,1.0,0.0,120.0,0.0,0.0,0.0,0.0,-107.0,0.0,-45.0,0.0,0.0,0.0,34.27253218749016,17.55503396713325,4.548495079156476,2.614060423819993,2.1886374935766697,1.76812819697347,1.3415668382151835,0.8429976236359538,0.49762012542521944,0.238516725196748,0.14252366259656754,0.03908054420330542,-0.025023266860670117,-0.00409087955203772,0.11107905318128276,0.05494151596841335,-0.036673060371357896,6.941062215652122,4.948815961971853,4.306503091108412,3.753498306352755,3.058079430449188,2.2677336156150174,1.5047320395290975,0.8676523433542971,0.47110385900959895,0.18047726092376468,0.06873427517917685,0.10166771358244589,-0.0006680277386411776,-0.01158398748638794,0.023188143989223333
0.0,2.0,2.0,0.0,120.0,0.0,0.0,0.0,0.0,-107.0,0.0,-45.0,0.0,0.0,0.0,34.27253218749016,17.55503396713325,4.5669028840926655,2.6698903774466958,2.2161341255021845,1.8540300074865415,1.3615789186297793,0.9127393058901545,0.5815456732177018,0.2585296865053224,0.13177671073699213,0.01259097061990382,0.04097021403085106,0.016183085475046564,0.08628160124276459,-0.05001606066459541,-0.013896597418474098,6.966394695431667,4.931484637370901,4.345150450658466,3.7901911944173015,3.136946824398793,2.4227488859906323,1.633686213472256,0.9817485431298731,0.5196571040641502,0.2509315552363324,0.10165508979930905,0.07127150927771564,-0.006030559718300986,0.004368815423521466,-0.005747508644966932
0.0,3.0,3.0,0.0,120.0,0.0,0.0,0.0,0.0,-107.0,0.0,-45.0,0.0,0.0,0.0,34.27253218749016,17.55503396713325,4.5033835961823705,2.6813216710746164,2.264227933952523,1.847866039093266,1.4497650235572637,1.0333760742800917,0.6484464562295867,0.2871917651340735,0.15164266062831094,0.06170808634565172,0.0067933462204480734,0.0258202149007854,0.08432059322458771,0.046313111027959694,0.037397925347312025,6.972267933960839,4.995297280334023,4.34233612537503,3.831935601389643,3.2284928089040696,2.5079667233670038,1.783516403742937,1.1189526092243638,0.6472694957467667,0.2537952902078793,0.09892176962833436,0.01887452246709064,0.024667837211170503,0.028108684412430994,0.020214932240731738
0.0,4.0,4.0,0.0,120.0,0.0,0.0,0.0,0.0,-107.0,0.0,-45.0,0.0,0.0,0.0,34.27253218749016,17.55503396713325,4.6275888468773125,2.6817693444443362,2.2791030098672627,1.842363400932588,1.415638680246536,1.024829659437102,0.6304238440808205,0.3682410979729086,0.1514137345441189,0.05857376437235763,-0.007476392285638608,-0.01622087189937693,-0.0007845754297581046,0.004619279152383582,0.012146300117708363,6.91626801890236,4.996845536143631,4.368047081192108,3.821048264672432,3.292209833158202,2.549556607325756,1.8438048321327594,1.177462543670349,0.65761090432141,0.3227289033696833,0.2056208697280832,0.04741097014800611,0.008305035325521449,0.016818629695895187,0.00214381547535774
0.0,5.0,5.0,0.0,120.0,0.0,0.0,0.0,0.0,-107.0,0.0,-45.0,0.0,0.0,0.0,34.27253218749016,17.55503396713325,4.603352684690141,2.759179045978445,2.2500118640133997,1.917385401070603,1.4779394836938398,1.0694766106355085,0.7010472444685486,0.3625291734917984,0.19720372300343267,0.09732382156163061,-0.03521119299566049,0.01844087582096627,-0.031908451705439336,0.02529636261728413,-0.018509870234150162,6.994646799578957,5.0041440144795235,4.392338942622615,3.880043789422659,3.2959820239917703,2.6764589656485467,1.9211156567078063,1.2333099265503682,0.7561787872331185,0.36197792821740815,0.17729417386110013,0.07823792022331608,0.0348940068752096,-0.010014717681895845,0.010108671886474623
0.0,6.0,6.0,0.0,120.0,0.0,0.0,0.0,0.0,-107.0,0.0,-45.0,0.0,0.0,0.0,34.27253218749016,17.55503396713325,4.527828580846301,2.79884880383637,2.1809261972288563,1.9466565055087215,1.5115314716620414,1.08120723672252,0.7242768803698287,0.41903670465661524,0.18121931307940553,0.10990848446070606,0.03860787760209061,-0.0075541683855721905,0.005721428697824733,-0.024300935253203156,0.09355634478814405,7.021685428955796,5.053596262755196,4.417224334313477,3.8570144654665373,3.311598919256369,2.751486860305618,2.0214904897148163,1.3658438470669365,0.8254230855872722,0.41519827976719575,0.1921142741765698,0.12540260936463893,0.020462933200363284,0.03766055766551524,-0.0014411114878954425
0.0,7.0,7.0,0.0,120.0,0.0,0.0,0.0,0.0,-107.0,0.0,-45.0,0.0,0.0,0.0,34.27253218749016,17.55503396713325,4.584572526233905,2.7503142015597453,2.322445695036108,1.8883693635439769,1.5492899341204294,1.077259621939669,0.7475785183340246,0.4358482073407178,0.21600025198424744,0.06664332585045823,-0.04795049980521753,0.028482336013348798,0.004483400136643073,0.0035421925208136526,0.030056702807355753,6.9184538422087085,4.973564046145915,4.449951306678437,3.8924185957835973,3.37983752482459,2.757185351185849,2.0646759635199414,1.3961127000469769,0.8525823281469143,0.5028116982325743,0.2669934410361058,0.10698350885997623,0.06596149638218328,0.01466721748769383,-0.02545369652094567
0.0,8.0,8.0,0.0,120.0,0.0,0.0,0.0,0.0,-107.0,0.0,-45.0,0.0,0.0,0.0,34.27253218749016,17.55503396713325,4.655531875733254,2.796493886211176,2.290981809720433,1.911082354609753,1.5649324567538552,1.1299441708014581,0.8113995712652533,0.48759441745123067,0.2657779572210205,0.078684342616385,-0.004985866840030412,0.03586060451917284,0.022746364033521184,-0.05123622034381965,-0.010197084570711386,6.9524110055380355,5.029381085406559,4.441309902285699,3.958423157298846,3.453456652391881,2.8402800117778084,2.1604903747053266,1.4865524964443642,0.9039287603719145,0.5141845996883206,0.2414031477158247,0.14056134725569816,0.05897271461904494,0.011255998432850738,0.01744339249949335
0.0,9.0,9.0,0.0,120.0,0.0,0.0,0.0,0.0,-107.0,0.0,-45.0,0.0,0.0,0.0,34.27253218749016,17.55503396713325,4.546137013159749,2.723951948030431,2.319473837601675,1.9742721675910555,1.5041918424991678,1.2417979571154625,0.8192002616842246,0.5332981152538249,0.2588533256062784,0.18790292436099626,0.04764919190712241,-0.013749336684304834,0.020366897091221962,0.005553903559498185,-0.019075727423490424,6.947455957253645,5.088024005493105,4.451847363868444,3.9774895346640307,3.4233937577822666,2.8453743420455466,2.194880370879691,1.5570908985506011,0.9951185228180796,0.5512281652803049,0.28443991346213787,0.14778512823012352,0.015414095776363622,0.021432935283029524,-0.010546057060039077
0.0,10.0,10.0,0.0,120.0,0.0,0.0,0.0,0.0,-107.0,0.0,-45.0,0.0,0.0,0.0,34.27253218749016,17.55503396713325,4.555456061552115,2.727015273478647,2.3433195871313313,1.9440053684939893,1.577907221340002,1.231266972235992,0.8653147654233505,0.527911579418468,0.3688257851235883,0.12026347001709618,0.03804199906863299,0.027023843302530735,-0.035906639269763264,-0.02809955619152172,-0.002600404195205328,6.9962794276948355,5.068208921423464,4.4600584692197405,3.9561447236149707,3.4511907316646826,2.8738564446060355,2.238140241122543,1.56147171970743,0.9888797261202819,0.6119514958703041,0.29026965437696656,0.15666473140135634,0.05244877400551294,0.012530740076342091,0.018953996635075892
0.0,11.0,11.0,0.0,120.0,0.0,0.0,0.0,0.0,-107.0,0.0,-45.0,0.0,0.0,0.0,34.27253218749016,17.55503396713325,4.566464804604326,2.8026674274872003,2.361040175267299,1.9652622695991058,1.546216235517752,1.1841870870600169,0.9014177554912358,0.5383804421772186,0.20447577108007764,0.18225934681105294,-2.8019825505438967e-05,0.035647271629840896,0.05453204343348577,-0.04525576328168776,0.011814608403773269,6.959892595378182,5.132987251658542,4.496125964006075,3.9885223492631243,3.411073504291998,2.8716078924468484,2.253347851266968,1.621133147266876,1.091120286298334,0.6300009053740826,0.3455499243280584,0.13696540410572072,0.050212325682539596,-0.005894768111703114,-0.005710762702151429
0.0,12.0,12.0,0.0,120.0,0.0,0.0,0.0,0.0,-107.0,0.0,-45.0,0.0,0.0,0.0,34.27253218749016,17.55503396713325,4.607845351491101,2.8544348568883375,2.368057888693788,1.9996549832155648,1.5813989356211442,1.2095782113701898,0.8612739641356937,0.49614587826825224,0.3025028129094562,0.14003473027976962,0.11447760165787696,-0.003510046715512114,-0.04109139682547508,0.06310493386561043,-0.034505334781108045,7.001619073295038,5.123069494297221,4.461233459785549,4.043865445619965,3.470902501733723,2.9253541496207403,2.2977639530551075,1.6746300321369263,1.146437595314158,0.6700696351113591,0.3623421680429497,0.20093089875164144,0.08796684002680545,0.06779558363642063,0.010735787476306831
0.0,13.0,13.0,0.0,120.0,0.0,0.0,0.0,0.0,-107.0,0.0,-45.0,0.0,0.0,0.0,34.27253218749016,17.55503396713325,4.542168925222314,2.75728560991062,2.3772988263138037,1.9365720131899125,1.5776629990659303,1.1999092075792537,0.9034493187250938,0.5470032366209854,0.3744485088565891,0.15956989109153022,0.03854878161340397,0.005974028580700418,0.022367979673313797,0.007212672875604521,-0.026642713440444377,6.991917052255305,5.154714781504794,4.533664506173738,3.9902468494102146,3.4797874128884807,2.9110475938436773,2.2806039089680574,1.7210071948531036,1.148025725184082,0.6652167624625435,0.40428453992205765,0.139732026407816,0.02776575045159748,0.019512807012373047,0.022284111703175357
0.0,14.0,14.0,0.0,120.0,0.0,0.0,0.0,0.0,-107.0,0.0,-45.0,0.0,0.0,0.0,34.27253218749016,17.55503396713325,4.641434534648469,2.915876699458583,2.3886408848177942,1.9887303471146398,1.5812277400883308,1.3025430088268728,0.9169228536445893,0.5996180803372654,0.3706757339351831,0.1197613187720925,-0.010181782943151585,0.035623648834750485,0.02345247406532291,-0.07254349441429785,0.0028467788054151854,6.965974598514666,5.136129169542995,4.556608280267435,4.04069259397155,3.492188700637243,2.9336718385034923,2.3364184983159024,1.7689651232091872,1.1891530097404535,0.7730161235522616,0.4428825531759508,0.178313899328701,0.08154505944182026,0.05615073551310172,0.0018694851965874665
0.0,15.0,15.0,0.0,120.0,0.0,0.0,0.0,0.0,-107.0,0.0,-45.0,0.0,0.0,0.0,34.27253218749016,17.55503396713325,4.595135947665659,2.880379694404317,2.4094139937094137,2.0619301379403843,1.692330040175416,1.2508548924028227,0.9202085053980121,0.5749523654349954,0.2984651375190822,0.2067806507725662,0.13421554928757365,0.07462500035853227,0.010692674141403015,0.0316555875610445,0.0061588365654149145,6.955052060038412,5.17972209982073,4.557434568694816,4.024220614301098,3.5154189449268567,2.9843147367426752,2.3708041705935528,1.7616249587380688,1.221509562022184,0.7618707021411248,0.41860294110529794,0.22928583862978946,0.06575579165841097,0.06381748737407127,0.016689204581039112
0.0,16.0,16.0,0.0,120.0,0.0,0.0,0.0,0.0,-107.0,0.0,-45.0,0.0,0.0,0.0,34.27253218749016,17.55503396713325,4.576457423375321,2.8858183751333306,2.445100560731828,2.1409909364736683,1.6568699886227862,1.3559589762282807,0.9207006131135675,0.567632687983385,0.3567375184515818,0.1761910346986068,0.1187268460932248,0.016780643215487986,-0.0020879488198402296,0.002492068379387988,0.005772904325759011,7.025417800653297,5.215270311112537,4.614202705226336,4.039377235184012,3.5082756358019154,2.9781861928074904,2.411150427179475,1.7619092728059733,1.2617664858327797,0.8305668335296943,0.4350020078129562,0.2124662683555368,0.09771945927733978,0.02149036326561013,0.007127536043118562
0.0,17.0,17.0,0.0,120.0,0.0,0.0,0.0,0.0,-107.0,0.0,-45.0,0.0,0.0,0.0,34.27253218749016,17.55503396713325,4.546954408048284,2.882512424439392,2.4460332297283434,2.0007859137439397,1.7286688994304809,1.2641770845968465,0.9253081383871242,0.6234949642285812,0.3609044205107635,0.18288692855643926,0.09130714566236484,-0.004394218955723769,0.035713087409515606,-0.010647909021602033,-0.00410865633939276,6.990591523674227,5.231496053726963,4.60913768467626,4.1104154168867355,3.5758759776746154,2.964014913031242,2.3948705444293874,1.8378080736615392,1.3124073898268471,0.8370549298587872,0.42907077367007807,0.21510431724138063,0.11490421849061033,0.03559588688449253,0.014857332184371689
0.0,18.0,18.0,0.0,120.0,0.0,0.0,0.0,0.0,-107.0,0.0,-45.0,0.0,0.0,0.0,34.27253218749016,17.55503396713325,4.632200701993827,2.962296124224672,2.417882923264296,2.0488646929392655,1.6995596410142273,1.217358777879663,0.9485354848813949,0.6457213532556941,0.4418922125874271,0.23487250906565604,0.14980240977020204,0.07302133502457926,0.023027902594212106,0.011814288374024498,0.007500443174630209,6.990181652228701,5.20365322617404,4.616814501262689,4.115576738776963,3.5580619484115896,3.001642693280658,2.4420705184195675,1.831749191156453,1.2784857867627444,0.8508317993616453,0.4709799589327933,0.21943542288838305,0.09137380336337235,0.02778270533673024,0.030311221159813648
0.0,19.0,19.0,0.0,120.0,0.0,0.0,0.0,0.0,-107.0,0.0,-45.0,0.0,0.0,0.0,34.27253218749016,17.55503396713325,4.6024092716964615,2.8010262895952205,2.4296104148064273,2.0701789264199704,1.6871585827843325,1.3831845026914047,0.9784979355786944,0.6278471731945855,0.38305417102097006,0.24645310835593368,0.040865258595001216,0.04455145563165086,-0.026891956496599576,-0.026519718587083435,-0.006711502937589935,6.979759783948258,5.214681885910363,4.65133244368975,4.157467572806113,3.5938002496999695,2.995807044105571,2.4252407454646714,1.8669721044846264,1.3193977640925558,0.8469307617588909,0.4986897465727617,0.2587315483777333,0.12902552810116732,0.016725166537471598,0.004485583513213043
0.0,20.0,20.0,0.0,120.0,0.0,0.0,0.0,0.0,-107.0,0.0,-45.0,0.0,0.0,0.0,34.27253218749016,17.55503396713325,4.63667409431031,2.858934269163255,2.4724774396626334,2.067547126065947,1.7219566493820573,1.3822528295154628,0.9329765661501059,0.7024663993927001,0.4720972576054971,0.25570480359014347,0.11925966734076027,0.02453999082504202,-0.03007620498562017,0.011225281007920567,-0.01768200960079778,7.015598170056829,5.257592125535968,4.664551461340399,4.1460124337078295,3.565338395510353,3.0155963273281157,2.5053528130144858,1.9034944100428548,1.3558248222554803,0.8525260604517201,0.5073998710215637,0.2670283168655552,0.1403981278223232,0.03291676867572013,0.025064756859415796
0.0,21.0,21.0,0.0,120.0,0.0,0.0,0.0,0.0,-107.0,0.0,-45.0,0.0,0.0,0.0,34.27253218749016,17.55503396713325,4.650281368992532,2.8936194815322613,2.4422768731803113,2.117722985347754,1.710453170803189,1.386850262975346,0.967547517979765,0.7031789254562351,0.4253263730534554,0.23146138715990633,0.06769556883471434,0.09062901094994394,-0.06458229495712607,0.033766134454151775,-0.05352725298676756,7.01579963636698,5.255508829628286,4.689467340804841,4.199815416289295,3.645599034854904,3.0085078129499414,2.4762917564198195,1.893887175932277,1.363614011119754,0.8723452639923645,0.5063838145282966,0.2512295162178049,0.11316981170336107,0.04925867362906805,0.025371928141809087
0.0,22.0,22.0,0.0,120.0,0.0,0.0,0.0,0.0,-107.0,0.0,-45.0,0.0,0.0,0.0,34.27253218749016,17.55503396713325,4.640225524257188,2.977255255167406,2.519076489810464,2.1254496841742436,1.692838259071421,1.2917681156194283,1.0271441731287794,0.6433926260332097,0.448218218353311,0.2111136154275732,0.09121598701322345,0.08977371600812595,0.008064051574499347,0.006880145934686805,0.03689644968442677,7.076337109662401,5.317530390788105,4.720412321635696,4.213359399201499,3.6377373964669815,3.0222912579348113,2.4877493496964456,1.9268361989299985,1.388179486892962,0.9146555262294738,0.5940550399521105,0.26083133698095495,0.12508787654490117,0.06339225058547626,-0.009379728316510846
0.0,23.0,23.0,0.0,120.0,0.0,0.0,0.0,0.0,-107.0,0.0,-45.0,0.0,0.0,0.0,34.27253218749016,17.55503396713325,4.65314676219657,3.0313600147978557,2.5087568369525193,2.0988880933202982,1.7745721890269817,1.3644636140636583,0.913209327707078,0.6645512413846658,0.49580497523891126,0.1962253844302197,0.16542752268430072,0.05757106539502862,0.0127973044706691,-0.056511751596900056,0.008708955458047118,7.027911175122909,5.3253859661167615,4.735689797167214,4.2072828758443235,3.6846518768108725,3.072566715409466,2.5045358370955677,1.961849917083933,1.4092451082026218,0.9101076003002951,0.5828545613021648,0.28176570541272483,0.14567015191835242,0.04378343827661619,0.0028424392929693645
0.0,24.0,24.0,0.0,120.0,0.0,0.0,0.0,0.0,-107.0,0.0,-45.0,0.0,0.0,0.0,34.27253218749016,17.55503396713325,4.658581719374844,3.0015183270939287,2.5198330953049086,2.1645882595978825,1.7242750129865851,1.4195669519249665,0.957662454228811,0.7508952145445801,0.3988407343012989,0.2623089264066053,0.14822582626222333,0.08365764129126059,-0.006486169860155724,-0.020659406339896477,-0.018656552188878583,7.030138190613204,5.2933110987511744,4.758073235827307,4.2058931199413205,3.6674342002973948,3.0763858666209956,2.507499045842776,1.933359691385274,1.4523203397719124,0.9612567551440827,0.5550886462070574,0.3033355302544862,0.1587304377066962,0.08631200387098698,0.03346160717149088
0.0,25.0,25.0,0.0,120.0,0.0,0.0,0.0,0.0,-107.0,0.0,-45.0,0.0,0.0,0.0,34.27253218749016,17.55503396713325,4.680770229755058,3.0494297093462563,2.5737382442952064,2.185136151132962,1.7997333393775692,1.3158678316986119,1.0229805264502487,0.6266219546146672,0.44044071862095896,0.24234842851511496,0.08369981065068313,0.056976687448512045,0.023506912948258206,0.049330626122549175,0.0022647554512424373,7.063296697358528,5.330394216694583,4.763953802212796,4.2544028306070025,3.6820765937423325,3.0794597468103895,2.5228677543679514,1.9305850790136339,1.409188653591812,1.0014593064815813,0.5531776915971635,0.3163699576031232,0.2188913642172794,0.07691059272695006,0.006597876996588771
0.0,26.0,26.0,0.0,120.0,0.0,0.0,0.0,0.0,-107.0,0.0,-45.0,0.0,0.0,0.0,34.27253218749016,17.55503396713325,4.666459037892836,3.078022945512669,2.598513935320675,2.200460813740415,1.794672393583276,1.3726811905955187,1.0047815942784215,0.677556589629679,0.45052408704253116,0.23761973849690848,0.14306576615463942,0.051090591129185084,0.059935244161089515,-0.020514591159604495,-0.05371507679782536,7.064413855583218,5.377034618997927,4.8284789009177995,4.29333203669844,3.677923623564473,3.1300406606412374,2.5299265561169344,1.98793366650835,1.483780991469879,1.0151471274122026,0.5886221096076572,0.3317767626577353,0.12634895386988643,0.028260138238698197,0.03434684316083863
0.0,27.0,27.0,0.0,120.0,0.0,0.0,0.0,0.0,-107.0,0.0,-45.0,0.0,0.0,0.0,34.27253218749016,17.55503396713325,4.686341689919732,3.1749398182658966,2.5746830177796123,2.3020217124348483,1.8086292811600166,1.4497146777342365,1.0533784753681656,0.7292565932149867,0.3964284810155243,0.28018728602012954,0.11708650549194984,-0.013556040175839439,0.011199959236527177,-0.017885619333103616,-0.001373582519225952,7.0412586385599605,5.399052804729112,4.778506316073769,4.28773445498109,3.732957389266509,3.112484700957626,2.5313746983627126,1.9084434954407903,1.4401949799011684,1.0128737395509995,0.6169703444850495,0.33309916385467303,0.15687200928264192,0.04281230578923739,0.034117472625290676
0.0,28.0,28.0,0.0,120.0,0.0,0.0,0.0,0.0,-107.0,0.0,-45.0,0.0,0.0,0.0,34.27253218749016,17.55503396713325,4.681166993494553,3.1225602780558166,2.7077642926289043,2.196351144022827,1.8260778229496513,1.3779118935373849,0.9913729035705973,0.731302315619886,0.4591730703157109,0.2957468596103253,0.20967479586776344,0.06071488152906189,0.016525719348872214,0.02521845624675499,0.009208985813280208,7.075910023736896,5.3789392492226575,4.8138504033755645,4.295496020780122,3.769598799392617,3.1684252448769183,2.5782911577553493,1.9510205392574869,1.4947264360536519,1.025411356549207,0.6774034970171388,0.3655854576937299,0.1630993746783204,0.06632961316773951,0.031267980787172904
0.0,29.0,29.0,0.0,120.0,0.0,0.0,0.0,0.0,-107.0,0.0,-45.0,0.0,0.0,0.0,34.27253218749016,17.55503396713325,4.661726381943359,3.0714604661199676,2.6406847834212224,2.259617917856715,1.8223894076945828,1.4107165595577087,1.021155022369525,0.7505027937484928,0.4666833260675256,0.25242503646816833,0.1025184719938078,0.0489119592143577,-0.017018312323442624,-0.022167209701307047,-0.0487075666462014,7.104568287691306,5.408890392416503,4.847204650138707,4.349464889380741,3.724229617322206,3.138491016636695,2.6045267034383004,1.9763631581375594,1.5006422774149482,1.0738890291894398,0.6552643640775985,0.36146322413109205,0.21684365297269498,0.05491234472769285,-0.012730179646345971
0.0,30.0,30.0,0.0,120.0,0.0,0.0,0.0,0.0,-107.0,0.0,-45.0,0.0,0.0,0.0,34.27253218749016,17.55503396713325,4.700818929569828,3.1181311385981,2.6693697634755744,2.2270530692246617,1.8540667414923377,1.4329933325598925,0.9848591156651175,0.7509676610429509,0.47196565259534506,0.1968604636897041,0.17630266791107188,0.008448227739004804,0.07894499447380267,0.007568607714932573,-0.006413673683547097,7.106112655922715,5.455447039831624,4.909180619956082,4.3705232213024505,3.7688376765290146,3.217685870768047,2.518619619284206,1.990592205355391,1.4763824071091258,1.03549894393675,0.6567316730846116,0.36183804230196115,0.20300817123647655,0.0777057855197397,0.0434744477308463
0.0,31.0,31.0,0.0,120.0,0.0,0.0,0.0,0.0,-107.0,0.0,-45.0,0.0,0.0,0.0,34.27253218749016,17.55503396713325,4.708523396387452,3.1391897008631653,2.6980854197707327,2.2666761502335504,1.8755329829961334,1.4003047122432282,1.0651708240891185,0.7296398223785552,0.5285604975929308,0.28872102286462015,0.1571206134856844,0.1108082415328698,-0.02118587591821059,0.029645673648532496,-0.009182134451123999,7.074218517068035,5.4987688830617305,4.896476165820012,4.390024442660378,3.836760349027146,3.221652924538369,2.64205383328085,1.9915447394066914,1.468801179370133,1.0602251685650563,0.6897101731032051,0.37643658763143334,0.12828005387891384,0.08360902719410793,0.02716917233519364
0.0,32.0,32.0,0.0,120.0,0.0,0.0,0.0,0.0,-107.0,0.0,-45.0,0.0,0.0,0.0,34.27253218749016,17.55503396713325,4.782057004782054,3.1336915757048347,2.747090380849667,2.227943589243593,1.7992279682026342,1.33125153796461,1.1123254954066766,0.6421161754238737,0.515539066677943,0.287804136363687,0.14561867203106524,0.12027095033974541,0.0472302433493383,0.030748695845989344,0.08900071666216755,7.136794889626111,5.567658096039866,4.899335504028713,4.35367112260553,3.81555853704297,3.214140184103147,2.6005127049636805,2.0375945104383852,1.5218631788271333,1.0590535245055122,0.6861107113968662,0.37542768866027865,0.20065943282223517,0.10738071029279557,-0.019252066937542674
0.0,33.0,33.0,0.0,120.0,0.0,0.0,0.0,0.0,-107.0,0.0,-45.0,0.0,0.0,0.0,34.27253218749016,17.55503396713325,4.745746123728403,3.2354812064872203,2.6890363383316234,2.3650940892893875,1.8964399724128302,1.456132164561993,1.0110803823984862,0.7071095415350733,0.47823813840356655,0.3321695666667727,0.18940762188759053,0.13395459006770646,0.025009862605439782,-0.027049232205678845,0.0029063186487535667,7.073060540651003,5.5495343805561745,4.92680495949161,4.435818898563347,3.856259559639541,3.203442625092093,2.581757759944635,1.987806530400176,1.5252952328506137,1.0774132608201035,0.6860597331356408,0.39091705995879583,0.18638347892317358,0.04579765730719856,0.016592833830337488
0.0,34.0,34.0,0.0,120.0,0.0,0.0,0.0,0.0,-107.0,0.0,-45.0,0.0,0.0,0.0,34.27253218749016,17.55503396713325,4.7127203321872315,3.220150542248784,2.7249895202261776,2.279135342049797,1.832522126711307,1.4173826495317525,1.0117464288409361,0.7556656735509057,0.5335643311860218,0.2819065247448204,0.17866771194197556,0.11230569468390765,0.09537823891184805,-0.026048201318658502,0.023402615436283587,7.102099324935973,5.554878395184644,4.972304435976847,4.459221658488601,3.818052531297695,3.2276389146987166,2.6315319316137775,2.038529271241417,1.5233664311511148,1.0478128738878616,0.6945983390723195,0.40844289482250135,0.21562838621768252,0.09426170337256783,0.032620600221911336
0.0,35.0,35.0,0.0,120.0,0.0,0.0,0.0,0.0,-107.0,0.0,-45.0,0.0,0.0,0.0,34.27253218749016,17.55503396713325,4.70029949646165,3.312611648097368,2.6912899618496198,2.3120782822959907,1.9116133663928896,1.481193368648146,1.018745086933476,0.752864159750453,0.5279540401860672,0.3203661529789695,0.21301750309941123,0.0825268741244413,0.07582135409773308,-0.00895174200542049,-0.015103346696120741,7.1448949101711134,5.574447582366743,5.025339783019963,4.500241061465293,3.8122582219796106,3.2669894606785217,2.5900642026330662,2.0167634838567277,1.5134893501804847,1.0787801701437998,0.6956150938023473,0.37938943929650254,0.22966891103505804,0.09379281303505867,0.003841080902483692
0.0,36.0,36.0,0.0,120.0,0.0,0.0,0.0,0.0,-107.0,0.0,-45.0,0.0,0.0,0.0,34.27253218749016,17.55503396713325,4.757988354506114,3.265205075682845,2.8467240868916166,2.3208374160518264,1.8579777153378778,1.5580790037554977,1.058960193399241,0.7304066183422032,0.4920923081188991,0.2833008615413007,0.1795092067951634,0.08054151310973032,0.029146085596810763,0.016971817943315735,0.01611149168085796,7.069675564094508,5.5495078325832425,5.031080495639331,4.503640116321221,3.8508211228164355,3.297894636232616,2.6190053585013495,2.034549326224358,1.5310556715184374,1.0751897333907836,0.712146476439296,0.4481432718746222,0.20173609254035338,0.06078447935315606,0.050840570742094235
0.0,37.0,37.0,0.0,120.0,0.0,0.0,0.0,0.0,-107.0,0.0,-45.0,0.0,0.0,0.0,34.27253218749016,17.55503396713325,4.801213124818373,3.3265583824243605,2.77593487360423,2.385871026541683,1.8857726244253767,1.4594031615135912,1.0543061256822654,0.7595593861255465,0.43427401228682544,0.2539139536510461,0.1548906698479156,0.06586960267720524,0.04165378707271239,-0.062103430127623246,0.05816843891106537,7.170164358597035,5.601674979434727,5.0758571163215755,4.538864136802891,3.8549565276994473,3.2914211190636826,2.683429715394153,2.062378966115728,1.550408673777736,1.089230370089641,0.7280691725950085,0.419095589932716,0.20899931499801422,0.1259923669970836,0.02587722875209152
0.0,38.0,38.0,0.0,120.0,0.0,0.0,0.0,0.0,-107.0,0.0,-45.0,0.0,0.0,0.0,34.27253218749016,17.55503396713325,4.781854606923232,3.394645325339313,2.824392890079124,2.373003764973832,1.9456891061723056,1.496821199867207,1.0382220018070139,0.8004021834897311,0.5102443270243158,0.31110252891031376,0.18478719431072596,0.053346815252942006,0.025174971422116978,0.028129271865981763,0.025031470962594168,7.140870305434725,5.638798645738031,5.065490208068769,4.5491688427436925,3.9333384126822626,3.3064392909358604,2.679317628586977,2.081822648758523,1.5306455829321444,1.1558096210534694,0.7184604392038896,0.4216652512178186,0.2175479430650768,0.0696780275174355,0.024702258649003765
0.0,39.0,39.0,0.0,120.0,0.0,0.0,0.0,0.0,-107.0,0.0,-45.0,0.0,0.0,0.0,34.27253218749016,17.55503396713325,4.84818074482378,3.338125833188738,2.844088943459267,2.419530828289662,1.9083294019972268,1.4773464047034963,1.1586778191874372,0.7356850226273277,0.49697939175673655,0.2779406119391247,0.22400067283353173,0.0960690241276607,0.0619226254478934,0.003168313092932862,0.0015143219608575935,7.167314701412693,5.6400084311353575,5.047644035845818,4.581879183433727,3.965637311188742,3.3452861999968233,2.643768356920501,2.082671359588509,1.5732478691595582,1.129887337640844,0.7612737875057414,0.42978307648183456,0.25841684480576876,0.06190938692018878,0.04926844441733651
0.0,40.0,40.0,0.0,120.0,0.0,0.0,0.0,0.0,-107.0,0.0,-45.0,0.0,0.0,0.0,34.27253218749016,17.55503396713325,4.801844161957384,3.3925141475687868,2.9338266110465154,2.397977537833654,2.009142558693317,1.5119131399259125,1.1712553766371323,0.7910290611947159,0.49403181162726684,0.32285799444969887,0.15300766995755619,0.11429473134442894,0.010697369352040163,-0.00017300200417574851,-0.09801702096644385,7.156796353475225,5.662969333021865,5.147575503442589,4.592156568063009,3.9716205900947186,3.33541798051569,2.7086225289073185,2.0904872466660085,1.6073256767088078,1.131167334620047,0.7281970403075017,0.45450424272172124,0.22829454698538673,0.12767415335833168,0.06923549937923051
0.0,41.0,41.0,0.0,120.0,0.0,0.0,0.0,0.0,-107.0,0.0,-45.0,0.0,0.0,0.0,34.27253218749016,17.55503396713325,4.792258165125543,3.3920971769244455,2.9261008092717105,2.379939571095312,1.9576720589997063,1.4904880943266332,1.1397953237703924,0.7344831359289452,0.5084156482111516,0.27761106436503413,0.22630534234627372,0.10349849700761832,0.03144483547190755,-0.04166390396622002,0.00638328478546658,7.211137261843476,5.710166104099167,5.1461078698752045,4.599908633258961,3.93808053520661,3.3172991899741757,2.6761002613811886,2.1127115601934126,1.5829659483908207,1.113276582830697,0.7156684836434171,0.45812743562912034,0.22818345978546375,0.05139644271123055,0.014249503359027662
0.0,42.0,42.0,0.0,120.0,0.0,0.0,0.0,0.0,-107.0,0.0,-45.0,0.0,0.0,0.0,34.27253218749016,17.55503396713325,4.951905768437763,3.421678047227741,2.8605413226933654,2.5133876405501825,1.9862431393456217,1.5717763164497613,1.083473978174825,0.8441042179917908,0.5120849271608908,0.3112102239492706,0.15689864938311404,0.07671276330763545,0.013361889681289329,0.08341569009794984,-0.016144993948654648,7.231416770848505,5.753097246663926,5.155931740019681,4.591959037453,4.000151759758083,3.388290635871612,2.7263701251657544,2.1353882560014847,1.609586393304515,1.1138106401276724,0.7505324868810345,0.480999361976757,0.19452307849153666,0.11010664798226508,0.047261798012894055
0.0,43.0,43.0,0.0,120.0,0.0,0.0,0.0,0.0,-107.0,0.0,-45.0,0.0,0.0,0.0,34.27253218749016,17.55503396713325,4.9259926642516385,3.456382914048272,2.8913154283536917,2.4697911056995894,2.03480480203573,1.600920263143058,1.1530418900956811,0.7594214564160425,0.49438135085587115,0.29912117980686737,0.13381081357471805,0.07209444395338639,0.051692824719639444,0.06579787704071452,0.001379350236208332,7.223582651950054,5.77273084767218,5.19905318653093,4.675889216264484,4.047067375305824,3.3651657594655213,2.6630419015721305,2.0841585110762657,1.5994978651419005,1.141687921383144,0.7696279676743623,0.4399336132608502,0.26377063966778025,0.13408607518236,0.06377861407987695
0.0,44.0,44.0,0.0,120.0,0.0,0.0,0.0,0.0,-107.0,0.0,-45.0,0.0,0.0,0.0,34.27253218749016,17.55503396713325,4.865934923908701,3.4231414769371984,2.954112989427839,2.4594317452804444,2.0045824868377076,1.499660002976573,1.1934769988450262,0.7521598206927432,0.5060735722219598,0.2801704883139675,0.20203130779914424,0.13661101452009314,0.1314152126892128,-0.026551977941993384,0.09426276868254364,7.26522212735561,5.781004654590749,5.20427266407399,4.663389646887599,4.053073926151153,3.438814808039112,2.7257868440987525,2.140810587609036,1.5994367344000182,1.1592808065718752,0.7647241537417342,0.48432076742122127,0.24156335471595494,0.13570312177411772,0.02845031699798587
0.0,45.0,45.0,0.0,120.0,0.0,0.0,0.0,0.0,-107.0,0.0,-45.0,0.0,0.0,0.0,34.27253218749016,17.55503396713325,4.892929438028268,3.535372729232474,2.9407061604915374,2.544506796694482,2.0225921961066535,1.5114134415288725,1.2479122510763063,0.7357672511591318,0.5215874453266195,0.31135426975566477,0.15797137371839537,0.12789699217371245,0.03465223744979353,-0.008688939531323107,0.045005309575610976,7.24952419276958,5.784998049537738,5.236206221436033,4.6295332802749245,4.065947609550664,3.4104859640054572,2.7787646960307653,2.144042120089623,1.5868285373058726,1.1267507583943537,0.7797856266348804,0.42485058486816296,0.2543690236549672,0.12366647188536847,0.09960782422765282
0.0,46.0,46.0,0.0,120.0,0.0,0.0,0.0,0.0,-107.0,0.0,-45.0,0.0,0.0,0.0,34.27253218749016,17.55503396713325,4.877933669821226,3.5002617263481692,3.0678895016318344,2.542386042223767,2.067741207596722,1.5893201389039542,1.1374458170944493,0.7658271460126943,0.5242953416024743,0.37024693396566366,0.18002842478068445,0.07597128264801231,0.013797795005431959,-0.044127118487582086,-0.02632705600476453,7.265831272541728,5.8129531444956095,5.268063623418335,4.6954953891172755,4.053867492764222,3.4296142014542856,2.828514245628009,2.088475597280308,1.5792038026587516,1.142461721283195,0.7676443662326934,0.4682819065337767,0.3073014146918589,0.15853779275230642,0.04577373968939436
0.0,47.0,47.0,0.0,120.0,0.0,0.0,0.0,0.0,-107.0,0.0,-45.0,0.0,0.0,0.0,34.27253218749016,17.55503396713325,4.966740883109064,3.625144098043866,3.0083633791845013,2.5582920537002445,2.048826531165661,1.5361945411638545,1.0864644095228957,0.7731953965517491,0.5603797664381505,0.34412947413099204,0.2606443354766553,0.12716059367870147,0.07171580450508798,0.013508550203656815,-0.004397719675555065,7.273443476093676,5.874342646450821,5.283188678224462,4.73711183429481,4.092864187860378,3.4452299753538442,2.753924117509245,2.1625858795225508,1.6452488748407852,1.1436847474649363,0.7934483389543816,0.46613703888473346,0.26278229951756993,0.1363873153030623,0.05955598798705398
0.0,48.0,48.0,0.0,120.0,0.0,0.0,0.0,0.0,-107.0,0.0,-45.0,0.0,0.0,0.0,34.27253218749016,17.55503396713325,4.990222212947643,3.534770127187404,3.066503271633831,2.540673738453134,2.025825834679383,1.5669372212841233,1.1496473396222118,0.8313108075800293,0.43800230917416166,0.3428423088789109,0.1950667517663569,0.1468428377244115,0.022963365087227607,0.057314537778124786,0.04302485631842228,7.278531430021985,5.897518532677119,5.2969877239263345,4.755904482409675,4.098676775866336,3.5049984821504516,2.735087358158151,2.1663429607658413,1.6486586135565289,1.1245558166050822,0.7979377150330764,0.45502947465125115,0.23815715587636463,0.13930243825081232,0.06334761511013126
0.0,49.0,49.0,0.0,120.0,0.0,0.0,0.0,0.0,-107.0,0.0,-45.0,0.0,0.0,0.0,34.27253218749016,17.55503396713325,5.0203806374744735,3.645038481227272,3.1347238027818425,2.5505350303792174,2.101433344860197,1.6274767849386353,1.2635890773249838,0.8157096553892947,0.45230076414690995,0.28180694264021194,0.18565341005368602,0.07374625499446398,0.12330715663002904,-0.02502130601781639,-0.042448708291625115,7.2813772314055125,5.904106362300698,5.280271843788963,4.8093396900181,4.125048744740827,3.4770129816756925,2.7838378983856757,2.1905278927772684,1.6352947835122709,1.154932465093179,0.762986200374576,0.48023843719361053,0.22240937342878683,0.12910215779350248,0.05133663404824188
0.0,50.0,50.0,0.0,120.0,0.0,0.0,0.0,0.0,-107.0,0.0,-45.0,0.0,0.0,0.0,34.27253218749016,17.55503396713325,5.023777523723425,3.620893974777462,3.0468040966307397,2.6800683760436548,2.1367883767712303,1.604281767238375,1.1636057938037325,0.8312176691170373,0.4369200704275147,0.32361397051241064,0.18249594208147732,0.11914012909084547,0.03975100581399681,-0.024259560401667137,-0.060531372273136,7.306184084912179,5.959121210353501,5.383697583120035,4.809406743535495,4.165153509702178,3.5030971375847093,2.7927815157064044,2.2057370002369083,1.574043837970441,1.1373487171304588,0.7606970097073595,0.5188284967596273,0.3023929749955606,0.15224575818190042,0.07379204586648358
0.0,51.0,51.0,0.0,120.0,0.0,0.0,0.0,0.0,-107.0,0.0,-45.0,0.0,0.0,0.0,34.27253218749016,17.55503396713325,5.029640480142943,3.628535415959621,3.166284335308912,2.659107877731559,2.1077648395463475,1.6580706487644465,1.1528110182508888,0.8095970366597787,0.5725754413803967,0.33582367204753016,0.1604430480717916,0.07404438637402481,0.05701811587773226,-0.02449354242627619,-0.0914190323197175,7.36665443980959,5.961349943325005,5.378954954838976,4.808772663215941,4.1407655863062045,3.5000312480474522,2.814983413353768,2.190010638410373,1.602791444677261,1.1580319036379265,0.8121642113736225,0.4803136688422797,0.23974426390426642,0.10652184020358821,0.035421660119055745
0.0,52.0,52.0,0.0,120.0,0.0,0.0,0.0,0.0,-107.0,0.0,-45.0,0.0,0.0,0.0,34.27253218749016,17.55503396713325,5.093680438193681,3.6575262515935165,3.136374253942485,2.603242364799845,2.095914856281767,1.7096995440627154,1.2116695552729912,0.8187688231811815,0.5910276608006434,0.3369826695508426,0.203171217417324,0.09461000618083146,0.03293114841918227,0.011205350527699862,0.04823648711536533,7.365148434700143,5.99853510627309,5.443320293919458,4.849596201019407,4.209692279082323,3.519130346637026,2.830348943498522,2.2277417743546297,1.6345204366897357,1.1519902403603317,0.7792076048287154,0.4815850566954567,0.3017671905279954,0.13378988336116665,0.04069190653250065
0.0,53.0,53.0,0.0,120.0,0.0,0.0,0.0,0.0,-107.0,0.0,-45.0,0.0,0.0,0.0,34.27253218749016,17.55503396713325,4.992707839797096,3.758094638343023,3.0906936994872414,2.7153972895707534,2.190526317929254,1.6197322590454826,1.1882580779463592,0.8190695214649182,0.543363258534492,0.31310115551392503,0.17027305939720372,0.09586784040304958,-0.02248457064752,-0.006908548969229749,0.022169239052546447,7.372154119439285,6.0470430554817565,5.426633154381784,4.871257067741584,4.251569319953356,3.5479910645126784,2.7991955829051007,2.2155941900386433,1.6382185510517333,1.1679876254928931,0.7695131882099615,0.4770599652810237,0.27976790300606247,0.13658872014727674,0.07622991933982584
0.0,54.0,54.0,0.0,120.0,0.0,0.0,0.0,0.0,-107.0,0.0,-45.0,0.0,0.0,0.0,34.27253218749016,17.55503396713325,4.9957495999921155,3.6450162464416462,3.2207312174329914,2.6329447710233325,2.160246585895012,1.72331537653517,1.1823510423091894,0.9037912444593793,0.579776663220431,0.3354510474963207,0.16849829093254887,0.1138010718377681,0.02949285100185853,-0.000664200252684384,0.026916925011752392,7.395313964852439,6.100104464983792,5.470106608710578,4.896822525841629,4.279976585733558,3.569674096672094,2.8367549126514913,2.1898810048148065,1.6347761974996315,1.1518976559181582,0.7782345637527504,0.48842661013814104,0.24455957203716142,0.1853775223995408,0.04669546412832608
0.0,55.0,55.0,0.0,120.0,0.0,0.0,0.0,0.0,-107.0,0.0,-45.0,0.0,0.0,0.0,34.27253218749016,17.55503396713325,5.064588729618437,3.771051130265143,3.2483516535520414,2.7021903231625637,2.134382879939043,1.733640755117193,1.2714025965820608,0.834515893285242,0.511721648775132,0.3566172153473573,0.13222672186757978,0.15505324312905344,0.08690485918106111,0.03558279424594564,-0.03332860620489287,7.436251747457104,6.0858150177553485,5.497853844679051,4.941497823523557,4.250179150799829,3.577894742689907,2.870481616400742,2.2092420298367728,1.6108503746637046,1.1718175806694873,0.8272872519060578,0.49001637315869023,0.3514449703615505,0.17810921240927455,0.05526855992242752
0.0,56.0,56.0,0.0,120.0,0.0,0.0,0.0,0.0,-107.0,0.0,-45.0,0.0,0.0,0.0,34.27253218749016,17.55503396713325,5.151390478702889,3.9032416655687023,3.233360343964716,2.722728715095436,2.1971051564847777,1.6965363329557013,1.2022433855303025,0.8229652464539091,0.6096530030147843,0.35005818472789957,0.18063299821715842,0.12206046266222503,0.0629727631211438,-0.0014629265297526443,-0.013911405941934997,7.427146064692424,6.12264417015845,5.575871418162431,4.927870063086894,4.275829174903608,3.6033280095469724,2.898371868804834,2.1888146730944964,1.6752251933537536,1.1765486459161907,0.8261477473251094,0.48886041296337657,0.2808128828800457,0.14761892088620476,0.06649314738279054
0.0,57.0,57.0,0.0,120.0,0.0,0.0,0.0,0.0,-107.0,0.0,-45.0,0.0,0.0,0.0,34.27253218749016,17.55503396713325,5.151108652445938,3.80397685988689,3.234892359306133,2.7343183240313893,2.1654431589883854,1.759978193184124,1.2355419825531915,0.7899829058252231,0.5825600912589298,0.2928697393853314,0.1718467572142347,0.10698956153268617,0.01417599576721168,0.011116301488626013,0.023828548732984643,7.393423060797522,6.188645384768893,5.581808826658508,4.9613313281112985,4.361506423415657,3.5860245147584293,2.925766098739686,2.234496581851106,1.718974912357079,1.2068486142146813,0.8074537820004997,0.5057836486830217,0.2866206584643934,0.1434354476091571,0.05445896846882843
0.0,58.0,58.0,0.0,120.0,0.0,0.0,0.0,0.0,-107.0,0.0,-45.0,0.0,0.0,0.0,34.27253218749016,17.55503396713325,5.16607684049743,3.823001344828594,3.2978783654563655,2.790056325463701,2.2589683232556474,1.7218614976089959,1.2383456790042757,0.8368467821525577,0.5699001066877569,0.3575867629020922,0.1912548366656192,0.14622927094169436,0.07618588957663233,-0.003917345670802416,-0.020964321573943095,7.448872357978399,6.178708874565214,5.571035434817231,4.998090757015275,4.344906829426579,3.623741524927937,2.918574383691731,2.2394179863978327,1.6620255820417873,1.210614667875225,0.7766272280981964,0.5642590856661323,0.2699387664441061,0.1320266876145703,0.05616599274319532
0.0,59.0,59.0,0.0,120.0,0.0,0.0,0.0,0.0,-107.0,0.0,-45.0,0.0,0.0,0.0,34.27253218749016,17.55503396713325,5.180610197995565,3.851977214562251,3.336540840738269,2.7962610164009996,2.233989125113219,1.6693654371851854,1.2122729534273997,0.8623744477437849,0.5708936089123622,0.3019791282377009,0.19871861090547027,0.01995963001719528,0.06603026973761934,0.005441209303843276,0.044177031509797626,7.497419428296549,6.238998270390059,5.611019052322398,5.027654660549294,4.3350614696935645,3.669191300887492,2.930629855533189,2.2568227257174653,1.7155185132712099,1.1668415386419837,0.8396156301851815,0.4971038039523973,0.2952621236923565,0.11095515334052095,0.0670331093447052
0.0,60.0,60.0,0.0,120.0,0.0,0.0,0.0,0.0,-107.0,0.0,-45.0,0.0,0.0,0.0,34.27253218749016,17.55503396713325,5.2028407605729114,3.8619847823803544,3.4063578827097527,2.7710561573894523,2.25307159381909,1.755821749194552,1.2747614000577152,0.8136911130495168,0.5551684145570662,0.4182516819668398,0.19067231977407062,0.17761173118827323,0.06375591986795488,0.04065800983267026,-0.07466165791916152,7.495389045391889,6.273488744676748,5.639343510127743,5.0353106820870845,4.367570704262765,3.6786639507612233,2.919067347696853,2.258763768901308,1.6737557230494648,1.1870393318440293,0.8552308203218894,0.48997426535722316,0.3113638095760837,0.1546923318692824,0.09008407123797224
0.0,61.0,61.0,0.0,120.0,0.0,0.0,0.0,0.0,-107.0,0.0,-45.0,0.0,0.0,0.0,34.27253218749016,17.55503396713325,5.286742581770922,3.936695516756354,3.4164998036673815,2.8306790653198903,2.2866865460432577,1.7228845387544047,1.2453354926467504,0.8849091551015529,0.5236057645951515,0.4097962381070518,0.22321459296337798,0.1682601376513125,0.05382948849990796,0.005918634864664232,0.046201149558017546,7.562733231757939,6.247383186765144,5.68495938899767,5.0882339709472655,4.3965192080151,3.656519201350036,2.9261895233567214,2.3354634294434726,1.7276245417949752,1.2507872496084984,0.7871561074174376,0.46981734634083266,0.32713070115045023,0.13236873363386265,0.08666516112033365
0.0,62.0,62.0,0.0,120.0,0.0,0.0,0.0,0.0,-107.0,0.0,-45.0,0.0,0.0,0.0,34.27253218749016,17.55503396713325,5.3140557391949255,3.9975302294212662,3.401252708525935,2.909575374529734,2.3146064395223522,1.7442120116865334,1.2578174083469331,0.8292157028830831,0.5680525950937466,0.3775191435074882,0.24939185326517804,0.10023454104581078,0.03721350625051116,-0.0073183948156319255,-0.00203438072052053,7.532498621946495,6.3016110496734115,5.701885315853233,5.1550620172724235,4.41691961800354,3.7410997593224753,2.9548923491023404,2.285620543290833,1.7021682529910893,1.2159814237867106,0.7994144642942618,0.5125190523497862,0.30906456782691344,0.1622913264430572,0.07481107570395003
0.0,63.0,63.0,0.0,120.0,0.0,0.0,0.0,0.0,-107.0,0.0,-45.0,0.0,0.0,0.0,34.27253218749016,17.55503396713325,5.294670822537449,3.9576455468670595,3.4506976726373453,2.8022031989564042,2.3710429986418586,1.7775903115444842,1.3158703585187197,0.8728746685865825,0.5478148876779231,0.4044034256106685,0.23235353665796007,0.11328269801215816,0.035411000325513184,0.07386088623555721,0.06372257312519365,7.5591496326771,6.315374160504022,5.727854747092249,5.102333046930282,4.441147525266239,3.725853858799996,2.940337983866207,2.2833019947219837,1.7352760961050429,1.2257846642440924,0.780312624064145,0.5289673876176941,0.3226592769988459,0.17953028763938259,0.08735575114757596
0.0,64.0,64.0,0.0,120.0,0.0,0.0,0.0,0.0,-107.0,0.0,-45.0,0.0,0.0,0.0,34.27253218749016,17.55503396713325,5.320959118485036,4.011692341982833,3.4453966122185227,2.9499252704199557,2.3004851701394724,1.7649890265922785,1.307743063388516,0.8705541344285445,0.5252997620433261,0.3745035828069377,0.2501365450452471,0.08685716912885899,0.04837159050907576,0.011965733196655374,0.009002904752768296,7.623995927795885,6.374119694718477,5.754622876376619,5.1461805543783905,4.481587879701322,3.7061410162351858,2.9730717655736725,2.316924641926018,1.73042941805834,1.210492733154934,0.8268622212862683,0.5570351447339811,0.27564697414053496,0.15936563335764942,0.04658932962981267
0.0,65.0,65.0,0.0,120.0,0.0,0.0,0.0,0.0,-107.0,0.0,-45.0,0.0,0.0,0.0,34.27253218749016,17.55503396713325,5.424296525474174,4.020118387894113,3.4744291494077695,2.9342125519041646,2.332325103224029,1.7909765431641695,1.2983961850105612,0.9120129571495563,0.5224637446846627,0.35500660837751463,0.1978416332128688,0.10004585844313046,0.11298667531478927,0.0024670041346261905,0.04191938702449579,7.638385469354918,6.385080286820351,5.811945179799384,5.191718536166187,4.502533260841558,3.744236228797952,3.036224900349602,2.308446111386344,1.722316793904523,1.2586303667286969,0.8301026502269612,0.5266167983476785,0.31864376046702225,0.19608324905553864,0.058657494183354975
0.0,66.0,66.0,0.0,120.0,0.0,0.0,0.0,0.0,-107.0,0.0,-45.0,0.0,0.0,0.0,34.27253218749016,17.55503396713325,5.4102200218745145,4.11575777675512,3.504603863612965,2.9412414684903063,2.41622539502985,1.8021262640979765,1.3617207879592306,0.8470641628402713,0.5987423461278973,0.3882161265259492,0.22989795598325763,0.08333128411710297,0.007620698810669943,-0.005524490155350541,0.04618168482348312,7.685326906709946,6.414563157246623,5.88224691801386,5.211768970751608,4.536335799967193,3.7771392669648005,3.0202095436370713,2.35130533464922,1.7626379375925842,1.261121833917371,0.8363596609750084,0.537718866391213,0.31692460431649416,0.20630401257550002,0.05413836182999342
0.0,67.0,67.0,0.0,120.0,0.0,0.0,0.0,0.0,-107.0,0.0,-45.0,0.0,0.0,0.0,34.27253218749016,17.55503396713325,5.432435412522373,4.097439749918776,3.5440928738597024,2.968957872252087,2.422245361682336,1.7915937198829295,1.3875808651864665,0.9249896209668953,0.5371796694264913,0.33981699123968134,0.1923467469813868,0.058383115658979204,0.10588460023744747,-0.0013805390268028794,-0.011110038908891015,7.645157665249154,6.46452631575998,5.854886507108449,5.247069365644566,4.554032946455292,3.7835606200166745,3.0329417683231474,2.3179819080181003,1.686160384447199,1.237480301774809,0.8068615981014469,0.5540385922297231,0.3152914091313998,0.1718228930371932,0.06558023105219112
0.0,68.0,68.0,0.0,120.0,0.0,0.0,0.0,0.0,-107.0,0.0,-45.0,0.0,0.0,0.0,34.27253218749016,17.55503396713325,5.410943826945582,4.208412873290964,3.5882312817927033,2.967160501104801,2.4557336223317696,1.8164141230773636,1.3603571077415368,0.93048951883236,0.5901996849527801,0.40789830172525765,0.23800821150912574,0.05002289908104346,0.08890041459987878,0.10603900722278001,0.04418862370959775,7.7053298867441065,6.497791627448036,5.874768805565444,5.259389456873594,4.560838693848108,3.801059292148756,3.054808977832771,2.39665533784918,1.726519534504058,1.2706544859170126,0.8379108720368579,0.5331542156266513,0.3103812483739595,0.20111311009558355,0.06524616859206067
0.0,69.0,69.0,0.0,120.0,0.0,0.0,0.0,0.0,-107.0,0.0,-45.0,0.0,0.0,0.0,34.27253218749016,17.55503396713325,5.543430201306774,4.251348445512111,3.5613637173507477,3.048232884189448,2.4463084633054315,1.8688793177805207,1.3065283023530165,0.9214223780247933,0.595705375668436,0.3278719415751417,0.18816280753321304,0.09374691633533092,0.07754267964156096,0.08859676912863051,0.006167119723018858,7.693727452948756,6.513018171873263,5.921911620290487,5.285022797263774,4.597055035103666,3.829637047823616,3.0409966905583588,2.389953908546842,1.7701754737475863,1.248315776158313,0.8468407259813916,0.5374369166073479,0.31940677752014063,0.14314830470949103,0.10302977695274283
0.0,70.0,70.0,0.0,120.0,0.0,0.0,0.0,0.0,-107.0,0.0,-45.0,0.0,0.0,0.0,34.27253218749016,17.55503396713325,5.577278520728728,4.174432527848372,3.567456426145082,3.1047956872833873,2.4407140329410977,1.866117826127242,1.3454329253460044,0.9407142911922037,0.7083825484819701,0.37494225543220333,0.20230801348617658,0.10268729358883621,0.05450063662132452,0.00042564503190752404,0.013785879506484423,7.756132894713488,6.549072333834602,5.93505117973111,5.331194458364018,4.597148356007636,3.806159873461582,3.0705890111382113,2.3679496965810185,1.7334792588601429,1.2722372461838383,0.8636309247265466,0.5553058715312108,0.31996244087976317,0.1856115691459267,0.06860574213173881
0.0,71.0,71.0,0.0,120.0,0.0,0.0,0.0,0.0,-107.0,0.0,-45.0,0.0,0.0,0.0,34.27253218749016,17.55503396713325,5.5239002068961796,4.3062976387799035,3.706388248075325,3.033718446950789,2.4581983209364844,1.8884870408468282,1.4148162555134383,0.9609757920171874,0.6323287407153882,0.3496150469328982,0.21672812318254064,0.11139707320125404,0.03640598070827808,0.0019345124045030415,0.07611294951267487,7.778388661851199,6.619004241925821,5.995121198234406,5.358866241737783,4.612705174636038,3.903230151052142,3.0942370886062345,2.3960108367311976,1.7938965854855982,1.2464747577205058,0.8692883091297361,0.5475437001239221,0.33144077888944223,0.18766761617194683,0.14724051786467524
0.0,72.0,72.0,0.0,120.0,0.0,0.0,0.0,0.0,-107.0,0.0,-45.0,0.0,0.0,0.0,34.27253218749016,17.55503396713325,5.5806466585192975,4.215107638955821,3.7458296385835586,3.103448850143089,2.51246556596594,1.8522867089351822,1.4643699176460587,0.9754721029578998,0.6819849084771026,0.3313125383491679,0.17342429678236732,0.18139782479842317,-0.01840614456934867,0.03991100989576603,0.03461522344341994,7.792642151966328,6.63019088920358,6.061281070077931,5.370870806978715,4.683838511530863,3.943648471943142,3.1323519075272066,2.4025803012192046,1.794297418314801,1.2550427051995898,0.8687947794945813,0.5338568471472847,0.32994093232387206,0.20626197539263563,0.08509942496253524
0.0,73.0,73.0,0.0,120.0,0.0,0.0,0.0,0.0,-107.0,0.0,-45.0,0.0,0.0,0.0,34.27253218749016,17.55503396713325,5.586457576165055,4.421899075095726,3.72411127621571,3.129437581050957,2.4833613977280726,1.8597855467676114,1.3866483807710328,0.9115927976180117,0.5878934343489242,0.2825057203564409,0.2181687332247061,0.08351495326186861,0.09520846023388267,0.012368244759809674,0.05638943490481577,7.811957545726231,6.64636752691667,6.04868994018192,5.412250744470957,4.633745124132937,3.9456381690819926,3.1150611531842975,2.358709785472953,1.7723504635935077,1.2927341383087754,0.809815866545015,0.5683787575316298,0.3281905659182611,0.1693476943651151,0.0710529076817513
0.0,74.0,74.0,0.0,120.0,0.0,0.0,0.0,0.0,-107.0,0.0,-45.0,0.0,0.0,0.0,34.27253218749016,17.55503396713325,5.699715320250847,4.401569297126555,3.7896470474475006,3.1225118791373694,2.5205136595941005,1.9439850720465328,1.424455588514807,0.9985709848587271,0.6151930478397217,0.4936839912231156,0.19866643401428344,0.1429845181711504,0.0721533688468129,0.006032923801127972,0.05845579343676896,7.900779520727284,6.761219896373963,6.028960587736061,5.4414837288914635,4.704945984641353,3.942170952315508,3.1849147856133118,2.417198484208796,1.7867808309354654,1.2543479905927573,0.8247964803306449,0.5145271678087499,0.3511835881877255,0.19864167437698,0.08097259947208499
0.0,75.0,75.0,0.0,120.0,0.0,0.0,0.0,0.0,-107.0,0.0,-45.0,0.0,0.0,0.0,34.27253218749016,17.55503396713325,5.611019614049604,4.4386763174500325,3.720077292475061,3.2139083312552135,2.5948511437835435,1.9459432154400216,1.4302417843644282,0.9105200223037428,0.5610948318378775,0.35199776528687265,0.19841912086945063,0.11765019372215642,0.13045687233718128,0.015608243606247237,-0.06940922946352064,7.896619181375232,6.732458157714402,6.117572534168636,5.493649078294022,4.730785631309562,3.9545308178909573,3.143502335221277,2.394568638545349,1.7967006581680294,1.2699824068004901,0.8397790787958418,0.5202559591500305,0.38168224445278115,0.19321801451126905,0.08037217012735032
0.0,76.0,76.0,0.0,120.0,0.0,0.0,0.0,0.0,-107.0,0.0,-45.0,0.0,0.0,0.0,34.27253218749016,17.55503396713325,5.736861363330288,4.522108612107985,3.7770327436763877,3.2173439492109157,2.564378183202824,1.9486452707508963,1.3684524816926187,0.9583474820812368,0.6173212793601431,0.28536056139592036,0.19913220020926037,0.07064130201913574,0.10908846605079137,0.03428080718357086,0.04627674604733641,7.9302209914160064,6.801675137374085,6.170306026816918,5.466715944544889,4.77341483979882,3.9864395762797478,3.156040510894617,2.44750334576654,1.781971590850549,1.2865088176817088,0.8653980629551207,0.5925236575207362,0.36411184888414816,0.16237798981534904,0.10128308917126745
0.0,77.0,77.0,0.0,120.0,0.0,0.0,0.0,0.0,-107.0,0.0,-45.0,0.0,0.0,0.0,34.27253218749016,17.55503396713325,5.870405076940751,4.4223999477415115,3.8525804265412806,3.2119845501014725,2.5701005156825225,1.9615155411845537,1.4455920734893501,0.9996463471861937,0.6762302126742852,0.3685168238196292,0.2519382930817526,0.11069963320089729,0.07305743472355973,-0.07112821088119806,0.021683179147504478,7.961308799143341,6.845402314907327,6.214879200010372,5.55730065585573,4.795179100483821,4.004664435096991,3.176347875558358,2.473955044492493,1.8384990702918576,1.2774924755499344,0.8791038943830513,0.535068736477816,0.3494751259866993,0.19888751693197296,0.07571599564677664
0.0,78.0,78.0,0.0,120.0,0.0,0.0,0.0,0.0,-107.0,0.0,-45.0,0.0,0.0,0.0,34.27253218749016,17.55503396713325,5.9360885826008545,4.522132655640356,3.8394626942025067,3.3274165344306947,2.6225250826644824,2.0276647789669457,1.460723223094428,1.0007920700088924,0.5715708228302511,0.37399522114625383,0.19002274343220574,0.18167227779905,0.03718236136541393,0.09573493888251643,0.03728324112037176,7.964716773152408,6.853051792465253,6.206794722199376,5.556356700446415,4.822709189289266,4.004247181576683,3.1680730858860593,2.47189401640987,1.8122915691953587,1.2623848183963087,0.8994788887458425,0.5475924907571348,0.3178797821487459,0.18590593578413817,0.0681298191988302
0.0,79.0,79.0,0.0,120.0,0.0,0.0,0.0,0.0,-107.0,0.0,-45.0,0.0,0.0,0.0,34.27253218749016,17.55503396713325,5.905897060538328,4.558155161092773,3.877432032588206,3.2407497028069514,2.6184584334374104,1.9845156637912091,1.4607214323980198,0.9772889668093684,0.6606417826920673,0.3794439186776375,0.27460792740780243,0.12841531239505977,0.07714338165813384,-0.002882673094046273,0.026258923127468935,7.996807794067948,6.8741553206451655,6.229087598264135,5.636596616248927,4.830624372852041,4.042643791839637,3.2381488197840036,2.453307301313031,1.7828370436912697,1.314639891261127,0.8308877052602435,0.5792502431869766,0.340528405623863,0.16831471834021142,0.07267257458081762
0.0,80.0,80.0,0.0,120.0,0.0,0.0,0.0,0.0,-107.0,0.0,-45.0,0.0,0.0,0.0,34.27253218749016,17.55503396713325,5.882983546966144,4.60933742684041,3.930219845503937,3.346219793677794,2.666032276858817,1.985674650068754,1.4158182288709138,0.9425808541840177,0.6543311167570834,0.49002052197541884,0.22998706619159537,0.14163411133268955,0.04906456790279856,-0.03145961602342709,-0.03259455696760293,8.046958776591344,6.9446481553233586,6.30831416607658,5.640238178872458,4.842218773882825,4.04059730544058,3.257244927610831,2.5040954914512006,1.8385235802082036,1.310527477233152,0.9049161699937759,0.574725786716321,0.36650112027572185,0.17563564728122855,0.0734822260484572
0.0,81.0,81.0,0.0,120.0,0.0,0.0,0.0,0.0,-107.0,0.0,-45.0,0.0,0.0,0.0,34.27253218749016,17.55503396713325,6.008670088562072,4.64560407408913,3.976438463769623,3.4417959459259944,2.680066062503306,1.9893998151601302,1.4376022632940444,0.9463405959872837,0.5931801775511194,0.38143933347270637,0.21993234176423498,0.14559712086765597,0.115478584405455,0.006042940143522239,-0.04957653397786716,8.122490397018419,6.912448033560829,6.314617860777083,5.638692168351855,4.886867190169042,4.0682893916438925,3.2520827687657055,2.4997095698293608,1.811842397181152,1.2403827408202952,0.8804906697219355,0.5664315982710193,0.32614334234186504,0.16581643365251508,0.07720419819415084
0.0,82.0,82.0,0.0,120.0,0.0,0.0,0.0,0.0,-107.0,0.0,-45.0,0.0,0.0,0.0,34.27253218749016,17.55503396713325,6.047910555324303,4.768972595705677,4.026998448880323,3.3918746255771106,2.7399168934471736,2.0293728052220934,1.4318959786866392,1.03922310223472,0.6452482114804735,0.34009846152180684,0.22511288925152292,0.07735635017156696,0.054068432424616834,0.035592968698865496,0.01874438609131218,8.152899867422498,6.9824094196348705,6.361207811620029,5.682844661697818,4.900080240810224,4.0714640707656224,3.261275905653464,2.4630962412833703,1.871541080831734,1.279605013871283,0.9007530254546555,0.5360239787067904,0.33329363912438065,0.17751843385573457,0.09511481351001506
0.0,83.0,83.0,0.0,120.0,0.0,0.0,0.0,0.0,-107.0,0.0,-45.0,0.0,0.0,0.0,34.27253218749016,17.55503396713325,6.0453526254118,4.735856187397746,4.028412687096767,3.4072478834938424,2.700363353585691,2.0317086711582153,1.4631904103530025,0.94503709430479,0.6334839005320573,0.40785924298256027,0.18805681938868607,0.19523479553461598,0.09338850176688573,0.07660357051092809,0.004941864637974398,8.179971367215176,7.017303998890124,6.360949830636794,5.74127615064151,4.912951791172694,4.099573939420454,3.2544567415162198,2.4626238614647096,1.8432434065105774,1.2905264944957868,0.9040199194553469,0.5805784980699084,0.3443830327577221,0.19170351266563332,0.09994713215735787
0.0,84.0,84.0,0.0,120.0,0.0,0.0,0.0,0.0,-107.0,0.0,-45.0,0.0,0.0,0.0,34.27253218749016,17.55503396713325,6.082084951338617,4.747334879237769,4.087798350089483,3.5153799346901997,2.6989498538250714,2.091901431269252,1.4938162254996212,0.958013606617159,0.6596362390857218,0.3595073655928382,0.25781755652289445,0.10994087677159042,0.10639934375531697,0.022268587987046538,-0.0024498964427342278,8.202570991554788,7.0819190978870274,6.437173791066115,5.738369305389698,4.958116482102535,4.1731375514151425,3.269259035750437,2.5404845104418565,1.8595623602614586,1.3242740720931372,0.9061202693076289,0.5570365357552203,0.32126521180557777,0.17214648247027878,0.10729894765219451
0.0,85.0,85.0,0.0,120.0,0.0,0.0,0.0,0.0,-107.0,0.0,-45.0,0.0,0.0,0.0,34.27253218749016,17.55503396713325,6.1774179885300375,4.856388632958198,4.165170669339127,3.4797896033772413,2.752859852014334,2.169538575979547,1.485646473773634,1.1022786664255584,0.650761763399079,0.432256787878885,0.2234475727111912,0.08192430840645544,0.09136112984413618,0.022366921330275333,0.029874856627210906,8.241259471902993,7.126012652863398,6.444619503048798,5.79938930855938,5.039341100458221,4.185333084351877,3.2995831741672648,2.5255916189685017,1.8994611003763848,1.3077963760376003,0.884303025781385,0.5559430119252365,0.3239160394081459,0.20841911213139344,0.09142158726287349
0.0,86.0,86.0,0.0,120.0,0.0,0.0,0.0,0.0,-107.0,0.0,-45.0,0.0,0.0,0.0,34.27253218749016,17.55503396713325,6.194783954824154,4.864975725575424,4.200272333913141,3.471834267073382,2.669439213506969,2.082126184894865,1.4785869495683783,1.0264923372084989,0.7080678913604652,0.3401702529300464,0.22583365028162763,0.11505116100825949,0.15716267243023269,-0.04598889754723816,-0.009674329745148444,8.294116568836536,7.1324691303871255,6.500026819137353,5.846052914765993,4.988811852572239,4.174223589541864,3.327452402629016,2.518679925138332,1.8799461837231148,1.3183697195761328,0.8981044811015119,0.6026471405230514,0.30754458907838345,0.18653068888012153,0.08716630947147302
