Line_number,Fiducial,Easting,Northing,Height,Elevation,tx_pitch,tx_roll,tx_yaw,txrx_dx,txrx_dy,txrx_dz,rx_pitch,rx_roll,rx_yaw,PX,PZ,S0X_time_1.086e-05,S0X_time_3.256e-05,S0X_time_5.426e-05,S0X_time_8.680e-05,S0X_time_1.411e-04,S0X_time_2.279e-04,S0X_time_3.689e-04,S0X_time_5.860e-04,S0X_time_9.115e-04,S0X_time_1.411e-03,S0X_time_2.192e-03,S0X_time_3.418e-03,S0X_time_5.339e-03,S0X_time_8.301e-03,S0X_time_1.338e-02,S0Z_time_1.086e-05,S0Z_time_3.256e-05,S0Z_time_5.426e-05,S0Z_time_8.680e-05,S0Z_time_1.411e-04,S0Z_time_2.279e-04,S0Z_time_3.689e-04,S0Z_time_5.860e-04,S0Z_time_9.115e-04,S0Z_time_1.411e-03,S0Z_time_2.192e-03,S0Z_time_3.418e-03,S0Z_time_5.339e-03,S0Z_time_8.301e-03,S0Z_time_1.338e-02
0.0,0.0,0.0,0.0,120.0,0.0,0.0,0.0,0.0,-107.0,0.0,-45.0,0.0,0.0,0.0,34.27253218749016,17.55503396713325,4.625214796442637,2.6766721148435706,2.2151813409564296,1.879016707786576,1.4611155403255336,0.9633350323972892,0.6878400341329926,0.38754176439392857,0.21950256184542755,0.13396860011815143,0.06480463205456245,0.0808134735939094,0.04026260782585816,0.009940798021641004,0.01812098959168146,6.9343459353498496,4.944509067856515,4.264718540367155,3.7467015802929606,3.1265953796523265,2.4526537997807996,1.8861565916401566,1.3297142607188146,0.8589554142814425,0.6029162582147372,0.3014403388594699,0.1905988015466038,0.09966785122212213,0.08694843431058707,0.057335067561303014
0.0,1.0,1.0,0.0,120.0,0.0,0.0,0.0,0.0,-107.0,0.0,-45.0,0.0,0.0,0.0,34.27253218749016,17.55503396713325,4.563024329971603,2.6885024741950008,2.1610621356495647,1.7449224997494748,1.4141895922732983,1.0454721273481389,0.7333736217784125,0.46213806792594475,0.22445444541774662,0.11618648160621153,0.025378111369456946,-0.021578985878789536,-0.048334823348554,0.07628034087622998,-0.016273729473854342,6.915778263253141,4.889123310840522,4.309842852626286,3.733659854145672,3.194130821424419,2.557186917314377,1.948073118639468,1.3569751362234737,0.8914828215340826,0.5805955811155975,0.3567849280047963,0.19893947229683706,0.1137451975427119,0.04309237227498185,0.01954778276833728
0.0,2.0,2.0,0.0,120.0,0.0,0.0,0.0,0.0,-107.0,0.0,-45.0,0.0,0.0,0.0,34.27253218749016,17.55503396713325,4.532606526451354,2.6726288940629788,2.179223715450237,1.7750784606455474,1.4631345813988914,1.0591884726083303,0.6601119306822884,0.45913903978448467,0.220684959714318,0.13724471388054113,0.09361441992942754,0.036086816142373274,0.05518524331459668,-0.038640768777908716,0.016761837997165255,6.911510331223732,4.912685218877007,4.2951407902316845,3.792121158576745,3.24257741939375,2.6070248008730155,2.0204361331833214,1.4325043261557384,0.9244628550470999,0.6399725944194896,0.4035405238654252,0.2305435405116025,0.10745372081007722,0.03565844893676337,0.0499974270927465
0.0,3.0,3.0,0.0,120.0,0.0,0.0,0.0,0.0,-107.0,0.0,-45.0,0.0,0.0,0.0,34.27253218749016,17.55503396713325,4.546729108298032,2.7467059894750343,2.2327979834432705,1.8947521587765397,1.4937607974308498,1.1298977359287696,0.7494846797993671,0.5302847851479272,0.27319759796296367,0.15823526501042676,0.13939466344480006,-0.015631302069415536,-0.03128501818924542,0.041278125826797865,-0.0401072378797867,6.985104218068774,4.938342380805963,4.308865133014164,3.8690669302427163,3.3106729961158856,2.7250451252147663,2.0745772086377303,1.453101485921685,1.0387943008287508,0.6287166848142899,0.39592484512391807,0.23389606146639197,0.11194481619434933,0.07286380293341917,0.04793491633373958
0.0,4.0,4.0,0.0,120.0,0.0,0.0,0.0,0.0,-107.0,0.0,-45.0,0.0,0.0,0.0,34.27253218749016,17.55503396713325,4.581660579195759,2.6698744207495317,2.2504904368521066,1.923265006852892,1.474141273890049,1.1232795964189335,0.759061736217681,0.5539982452607145,0.30755648806112734,0.1667457116278877,0.04740287730443958,0.05438832211706942,-0.009044071425672208,0.007636945442329821,-0.020609707516487035,6.953470413036328,4.977720223105928,4.339810494130482,3.8522726110950853,3.2778259821384554,2.6871215032566473,2.111840690168585,1.5221967179725662,1.0484800237064416,0.7117985016047219,0.41463694239930476,0.20291569222416783,0.1428047020981809,0.034121460380571865,0.019611914877300848
0.0,5.0,5.0,0.0,120.0,0.0,0.0,0.0,0.0,-107.0,0.0,-45.0,0.0,0.0,0.0,34.27253218749016,17.55503396713325,4.567157862743386,2.7921214026429637,2.224806464064254,1.8557124948968882,1.513411135754655,1.1257518101668584,0.8399517933903994,0.4666980182773483,0.2553092242352378,0.1443404119023161,0.06139188786506657,0.10649663670619416,0.050377779817095424,0.009910539058199667,-0.04183925038556983,6.9607677642861105,4.952467406005039,4.324373670105415,3.890371856058775,3.3355595148356922,2.7775962628875326,2.151417641978524,1.5801379496778425,1.0560093470817857,0.6636280066651089,0.4246863809111346,0.21369375850605432,0.10887111992213895,0.05408456702109487,0.03041981707408089
0.0,6.0,6.0,0.0,120.0,0.0,0.0,0.0,0.0,-107.0,0.0,-45.0,0.0,0.0,0.0,34.27253218749016,17.55503396713325,4.559240257386794,2.686024973507252,2.2430221604760465,1.8161999725532867,1.5553747643999665,1.1093720775244111,0.7783593640140453,0.5266802147731439,0.28364583998872456,0.22442755006230686,0.036790997486661904,0.04821083646546152,0.015363834069643301,-0.03521105504886104,0.021451040413763257,6.936169596829772,5.012153883379529,4.400724593662717,3.932230263255175,3.3810720503019303,2.7768264890800456,2.1760545644509,1.6245963997808444,1.1183548527887233,0.7244517054512026,0.39120735420022185,0.23872326227514548,0.1120555590645088,0.07146425963449443,0.0287581902868266
0.0,7.0,7.0,0.0,120.0,0.0,0.0,0.0,0.0,-107.0,0.0,-45.0,0.0,0.0,0.0,34.27253218749016,17.55503396713325,4.614263412495857,2.765401594582362,2.312305146247511,1.8961223282578314,1.5096449602903033,1.1699094896089661,0.8369844604263785,0.5557978846102312,0.4058464963318165,0.17493037872928957,0.05320680277652275,0.027928595207098394,0.0007783153895360335,0.024696783151641536,-0.053067456878972546,6.945532811718862,5.011721065210202,4.404001818828597,3.882912802772411,3.3627014821808805,2.7775425946234784,2.2032389997174575,1.6235673824597476,1.144964591955175,0.7096360466026651,0.4577484436291976,0.27947500387272645,0.08824315883503536,0.07649592624511166,0.045816373591234784
0.0,8.0,8.0,0.0,120.0,0.0,0.0,0.0,0.0,-107.0,0.0,-45.0,0.0,0.0,0.0,34.27253218749016,17.55503396713325,4.555546172492064,2.751755399921407,2.29176222218099,1.915700101098545,1.545877643669459,1.1368787504097029,0.8966458881511717,0.5972809225584896,0.3061293410928921,0.13109311024304227,0.11093662496664461,0.021543510477148628,0.02345216190601427,-0.0039657080240162014,0.027709365180211127,6.965766761692991,5.004778529763001,4.382052382833818,3.8766189890140255,3.400812290661725,2.8052807651823546,2.2320848350010865,1.6548892675396432,1.164623921557987,0.7158772341221717,0.46027240811510944,0.26752216526954126,0.13807312378151151,0.06298366299821795,0.034446846990969164
0.0,9.0,9.0,0.0,120.0,0.0,0.0,0.0,0.0,-107.0,0.0,-45.0,0.0,0.0,0.0,34.27253218749016,17.55503396713325,4.601685245186393,2.673922295709454,2.386701272810671,1.9550381537824917,1.5446841730446117,1.1974129604849897,0.8869782763081303,0.5679452919802017,0.27337995560627965,0.26702848964769915,0.09226407049030425,0.08124841979024879,-0.005908796787301732,0.06341194400080916,0.013156233402702618,6.966735666516795,5.012331121884549,4.464658496819689,3.9496881602381717,3.4343745116437834,2.838235605525574,2.258512517053957,1.7495067362644263,1.1705517607735336,0.777026314177249,0.4954401711181885,0.2670862697850956,0.15287149071340442,0.06314270788037821,0.04098756484425161
0.0,10.0,10.0,0.0,120.0,0.0,0.0,0.0,0.0,-107.0,0.0,-45.0,0.0,0.0,0.0,34.27253218749016,17.55503396713325,4.536898213227404,2.8603816932158708,2.3222104061331685,1.9276693553804098,1.6057010376876495,1.2062552428596545,0.8324931561226621,0.536098103218659,0.38377498993259246,0.1937064649876342,0.09560712923436522,0.08531139544435218,-0.020817289502372802,-0.018238854729317085,-0.011009731860312228,6.956254482096622,5.053681386775534,4.44596164413611,3.9491964488699143,3.417246778523783,2.854092852213955,2.2738947053869194,1.730987104730004,1.2005124279290464,0.7762543182371655,0.4790772916519232,0.2702335651870062,0.19258236897894743,0.05877357603630512,0.053855367872171774
0.0,11.0,11.0,0.0,120.0,0.0,0.0,0.0,0.0,-107.0,0.0,-45.0,0.0,0.0,0.0,34.27253218749016,17.55503396713325,4.624624583031629,2.7647181155291696,2.3716280777449783,1.9219225798090673,1.4916777391282583,1.2566314054300358,0.8286539777038596,0.614271591727837,0.34389401739780157,0.26703659383497497,0.14331677340047022,0.031896903424248536,-0.004114029846040743,-0.035403646161942366,-0.012937306620754908,6.9497079564697435,5.0617028385651865,4.4756263449129285,3.9827371712572823,3.444458367657094,2.8696853667248883,2.280134337835509,1.7799868825477037,1.2294512240832352,0.8075971959562478,0.4888801175756467,0.2429952015146245,0.13932370655706963,0.06558543660391425,0.04791878426585017
0.0,12.0,12.0,0.0,120.0,0.0,0.0,0.0,0.0,-107.0,0.0,-45.0,0.0,0.0,0.0,34.27253218749016,17.55503396713325,4.627347012828647,2.826111265318836,2.3931260585670855,1.9933873353767795,1.6023380214065293,1.249933215292071,0.897192662940782,0.594387082598571,0.36885346460054236,0.17270769861452362,0.11884217471909167,0.014363239287791624,0.052038296582185936,-0.00021470916337396062,0.004889721021774389,6.974418508648045,5.103762597297075,4.451541995262447,3.981632945356874,3.4733285248275334,2.863424477483806,2.3405807923947717,1.7209466956377388,1.2449494693866672,0.8420620999913303,0.47848518468931484,0.26961118941287443,0.12279446950494768,0.11245078398456754,0.039197250668747054
0.0,13.0,13.0,0.0,120.0,0.0,0.0,0.0,0.0,-107.0,0.0,-45.0,0.0,0.0,0.0,34.27253218749016,17.55503396713325,4.626923863802595,2.832675307788629,2.359369392893359,1.9326401255208288,1.6030503931338522,1.2249615160947864,0.9456954938068295,0.6610249967097294,0.4413404142558977,0.25140716651105455,0.09099514785047312,0.011920781136560532,0.050182857905620035,0.022008381269428216,-0.06072002982913764,6.974597533913481,5.124874862329296,4.511074288455341,4.0003552280642145,3.449059878765731,2.884263478747207,2.3669684703635827,1.7849921832744302,1.2836094198481245,0.8973934959040883,0.5421399928748423,0.3067336592216033,0.16130167385156768,0.1118819771045288,0.07273491108951763
0.0,14.0,14.0,0.0,120.0,0.0,0.0,0.0,0.0,-107.0,0.0,-45.0,0.0,0.0,0.0,34.27253218749016,17.55503396713325,4.646704310806578,2.8795816402706778,2.3082478003137976,2.0126411616065463,1.6203013236690218,1.2660513208006738,0.9577724157762573,0.5278342525236768,0.375594831233606,0.23667015203518843,0.09971323003236668,0.0030240514790182763,0.05474808370204805,0.019468557673516913,-0.03179059063018565,6.977594582156417,5.142099342434734,4.528964381079089,4.042771099869532,3.486457099422542,2.9234104825182756,2.3374558403453007,1.8085278788699048,1.3128256016433681,0.8964785738455164,0.5381513598093923,0.31681090652810046,0.1423927132248689,0.06557766893254155,0.035182687573223646
0.0,15.0,15.0,0.0,120.0,0.0,0.0,0.0,0.0,-107.0,0.0,-45.0,0.0,0.0,0.0,34.27253218749016,17.55503396713325,4.571568361997634,2.904745296291888,2.4224684414761537,2.032501281612376,1.6492085231855589,1.3469814283449106,0.9137888844324373,0.5561991531376111,0.41170073855394546,0.23118613582020753,0.10173146106315774,0.020870038764002903,0.008312396253024622,0.01635222354781464,-0.014755617298349722,7.0386760617240105,5.1141075514588135,4.5284969955621674,3.985709183386467,3.506858648145829,2.899483191160928,2.3661233415894576,1.8211853782774465,1.3112260509584586,0.9320123178849304,0.5746607697175021,0.3432284346194147,0.14856651363734738,0.10795081310232854,0.048813252664066914
0.0,16.0,16.0,0.0,120.0,0.0,0.0,0.0,0.0,-107.0,0.0,-45.0,0.0,0.0,0.0,34.27253218749016,17.55503396713325,4.651130886974722,2.9290690610303387,2.3858808856239744,2.019805350283656,1.6802731848399315,1.1811189691200314,0.9949757319583724,0.6653536501064808,0.4102620769408866,0.24694255846000698,0.08691493366247593,0.045612123861192164,0.06486815065237679,0.05706523856030674,0.10098644779047272,6.975811396375897,5.139370837375489,4.555042585370469,4.035380552429352,3.5152959115873323,2.969828942399323,2.391288844640977,1.8676408088654513,1.3387889705434046,0.90257931541306,0.5531822281696377,0.28851085346489014,0.13851726896278782,0.0615566552837824,0.06663594355262598
0.0,17.0,17.0,0.0,120.0,0.0,0.0,0.0,0.0,-107.0,0.0,-45.0,0.0,0.0,0.0,34.27253218749016,17.55503396713325,4.661907581806737,2.9589805875577806,2.3859201595465644,1.9752017119418244,1.6342579630093448,1.2956737381693337,0.964789224166959,0.6908770827845244,0.42933505999239047,0.30793752419806725,0.11985629643358792,0.02718949323860191,-0.03484486570253684,-0.021650968593360187,0.01239479022261034,6.95840041528416,5.197857609631599,4.622883225372686,4.0210262675378745,3.554344662421544,2.9220322338566116,2.414180104914976,1.884871512704249,1.3612433162222755,0.8973508067698759,0.5649674416116461,0.32546686656900214,0.17217597167837043,0.08427971386716746,0.03790501251726888
0.0,18.0,18.0,0.0,120.0,0.0,0.0,0.0,0.0,-107.0,0.0,-45.0,0.0,0.0,0.0,34.27253218749016,17.55503396713325,4.640243091708543,2.8751705623101307,2.4443789467675057,2.1224165039245335,1.6561517348104005,1.281274688355346,0.9933423001897017,0.5650613236870169,0.468674761517545,0.2269213698797023,0.13744055665032018,0.06567195918291045,0.06093347009743661,0.0011654987630807332,-0.020748918948404638,7.022497710669807,5.131940295948278,4.6081668464269265,4.06492835137977,3.5318501330601593,3.035862694574114,2.4162406352572487,1.8749156316071895,1.335087185965596,0.9235583080403056,0.5932017804307184,0.3462452047889686,0.19342845699703823,0.09091634670352353,0.05220635717814199
0.0,19.0,19.0,0.0,120.0,0.0,0.0,0.0,0.0,-107.0,0.0,-45.0,0.0,0.0,0.0,34.27253218749016,17.55503396713325,4.65621935266255,2.8679740361952244,2.4718428031055897,2.1083518972386526,1.7045417073426048,1.293034688551324,0.9303964784923787,0.6243843346078917,0.42683181784320184,0.2962354343868624,0.06416452385084283,0.04021361697022191,-0.013489871890841422,0.03957467815805344,-0.01615946989865531,6.979656174117921,5.205095552172216,4.638976830713831,4.10739012042627,3.4935812126250623,3.015163323920267,2.4393180328361908,1.8779163209826202,1.3641930309264523,0.9605400199172884,0.608152027461734,0.3362236051903171,0.18015564637414153,0.07334327602011148,0.03831457568115816
0.0,20.0,20.0,0.0,120.0,0.0,0.0,0.0,0.0,-107.0,0.0,-45.0,0.0,0.0,0.0,34.27253218749016,17.55503396713325,4.58138318691844,2.9727780754407642,2.450975189064298,2.102824574631683,1.6409220659879822,1.2933834000344686,0.9628355827785877,0.6103931457997076,0.4415555067827607,0.2460590804779638,0.07510964112529017,0.018811603547891673,0.05051016901612808,0.04393354329955548,-0.0007717148494356457,7.00866872004752,5.235079937715758,4.656482108763293,4.167770324324556,3.5473274916873194,3.032176052856104,2.4320336081379748,1.8893929231436106,1.394234930880398,0.9574093802406048,0.5842613948155564,0.357460059848353,0.22433789978636132,0.09393058071280966,0.04297469701101532
0.0,21.0,21.0,0.0,120.0,0.0,0.0,0.0,0.0,-107.0,0.0,-45.0,0.0,0.0,0.0,34.27253218749016,17.55503396713325,4.6231365218335085,2.9695235394168575,2.522422537036551,2.094435033331191,1.6886939153607123,1.3393894017259877,0.9394668413154678,0.6863959066562151,0.47269741725779496,0.3139499311686994,0.13827688383184966,0.11737293265600512,0.06692479003831361,-0.02409702733743601,-0.03990586646820224,6.994948412939322,5.274670142778847,4.667024227647069,4.140814865091242,3.637820051396564,3.036928374973114,2.398749174793136,1.9125563342572292,1.4243293102824623,0.9824871795144581,0.6304533378138711,0.3592958269950416,0.16541499654881825,0.08949508308942478,0.024081100269670044
0.0,22.0,22.0,0.0,120.0,0.0,0.0,0.0,0.0,-107.0,0.0,-45.0,0.0,0.0,0.0,34.27253218749016,17.55503396713325,4.620177256319743,2.9427235317926406,2.5392243006909627,2.127259411109697,1.7008430020462837,1.308937183562983,0.9791111734146861,0.7221701986388365,0.374441491575456,0.2825401656692456,0.12489239265382385,0.0014487222474350997,-0.039984534760285,-0.020715294490716477,0.012175733330243861,7.019621055605042,5.243745378431637,4.715074652654959,4.21003456058705,3.627008872585011,3.030215905080866,2.4895043951610862,1.932853534038864,1.4431267963533763,0.9745611132782966,0.5696019139698225,0.4127602062428308,0.16342493711660086,0.098729938530949,0.09491548343689818
0.0,23.0,23.0,0.0,120.0,0.0,0.0,0.0,0.0,-107.0,0.0,-45.0,0.0,0.0,0.0,34.27253218749016,17.55503396713325,4.678737915442802,3.047160823873641,2.4813769726848456,2.070775797936654,1.7096966930545736,1.3830297758495842,0.9735793765372364,0.6583578023098293,0.45969261464022926,0.31234655856212445,0.09528961326085904,0.027647651201304024,0.0027451178888285646,0.052229037979280746,0.012854324663436717,7.072773899971671,5.3112906150245385,4.709726513196371,4.225831350095255,3.6396950109175807,3.0416030127142197,2.4904550075395493,1.909978798852889,1.4278337217328745,1.028506105361205,0.6377333451898192,0.3574186042328755,0.1917998740449305,0.12317596472107001,0.034240972531824385
0.0,24.0,24.0,0.0,120.0,0.0,0.0,0.0,0.0,-107.0,0.0,-45.0,0.0,0.0,0.0,34.27253218749016,17.55503396713325,4.657184206036629,3.0086711305582488,2.564128332281963,2.139189236251077,1.6814458011274074,1.3180739223756124,0.9582415430590894,0.7382920874207125,0.4866273870812245,0.2982668248203732,0.13229376227243347,0.043699120302139606,0.013788105390219789,-0.02500745249236016,0.09475801173479961,6.960298937027027,5.321697623964831,4.699592761936527,4.211963607667798,3.6280260105435964,3.044594181376687,2.4595782338709222,1.9749867453526744,1.4410841867469175,0.9928852400005354,0.6608336884317519,0.38135067936401024,0.22092309037232927,0.06541036927014762,0.053186565145764364
0.0,25.0,25.0,0.0,120.0,0.0,0.0,0.0,0.0,-107.0,0.0,-45.0,0.0,0.0,0.0,34.27253218749016,17.55503396713325,4.712138743213398,2.9824592836570774,2.592261608754461,2.234141591724104,1.753711597029994,1.3911631664377193,1.0241191957060616,0.6712899274795465,0.4625646635853862,0.223556729642156,0.13706083872404473,0.08458293737018553,0.05917038825193721,0.014283387668440867,0.030646089992194557,6.997779261553184,5.324881298175195,4.75366496906141,4.280043931831315,3.6640546651494335,3.0748531706935287,2.497534723791552,1.9237751059354533,1.4575163818553616,1.0111128690132127,0.6188900225956566,0.386310328360576,0.20300149990658772,0.07160421001344885,0.04635694384914867
0.0,26.0,26.0,0.0,120.0,0.0,0.0,0.0,0.0,-107.0,0.0,-45.0,0.0,0.0,0.0,34.27253218749016,17.55503396713325,4.749429438535867,3.0867439904590626,2.616729416661612,2.133649678634913,1.7847075676322293,1.375186982081852,1.0252975706255363,0.7175557068559417,0.4153544016557405,0.2826291349460655,0.12863419307595378,0.07483000528379595,0.0014095867065801806,0.061217715472626985,-0.026298476237543826,7.010076420954542,5.3499076811664015,4.747731795577941,4.244152453414331,3.6666823778880984,3.134322753890262,2.5263422558335398,1.9523088411823568,1.4532547850800002,1.0485861124355655,0.6743734564736604,0.4044074041927687,0.21311555828397621,0.07256980116599318,0.046366561223266635
0.0,27.0,27.0,0.0,120.0,0.0,0.0,0.0,0.0,-107.0,0.0,-45.0,0.0,0.0,0.0,34.27253218749016,17.55503396713325,4.67580000332099,3.1109358663496742,2.6505352577072423,2.1755085713716826,1.7969056066806666,1.4439355279670587,0.9873442844264456,0.7684925332269266,0.4377047951862365,0.2883196238352971,0.15832803115006128,0.07870263752476049,0.004419784083746502,-0.007237805493234974,-0.01925480490440678,7.050389610349639,5.377269335691785,4.852493610920499,4.308708819866994,3.6920271213964284,3.123094323289495,2.5423994639990437,1.963157565026247,1.4686699099166562,1.0376200246265046,0.6921638535017856,0.38177249963096177,0.2106641139176274,0.12016714838313035,0.056238021833407884
0.0,28.0,28.0,0.0,120.0,0.0,0.0,0.0,0.0,-107.0,0.0,-45.0,0.0,0.0,0.0,34.27253218749016,17.55503396713325,4.715988063776916,3.0909156155798776,2.6675926109791894,2.29819174964492,1.8071990682088732,1.3810616335128072,1.0466422825276849,0.6912326583992933,0.4450973392476735,0.2918557325339406,0.0674819481757442,0.038094175081938096,0.02297588782769513,-0.03442463479191488,-0.03231403740131236,7.036991353264227,5.347772588040011,4.808356955334367,4.282127716202179,3.7227097474562334,3.157248028661102,2.5345361816532006,1.9716562536014808,1.4803220034342532,1.0494579971664186,0.6590609958013137,0.4032658133485628,0.227899012872913,0.08349326122775498,0.06884876693114
0.0,29.0,29.0,0.0,120.0,0.0,0.0,0.0,0.0,-107.0,0.0,-45.0,0.0,0.0,0.0,34.27253218749016,17.55503396713325,4.759360975192303,3.100628159682113,2.639449399819107,2.1990326116901016,1.8310481574068505,1.3579919612766673,1.0168558495668465,0.6839096366981375,0.4778777319964654,0.22833293578410113,0.21176435304639302,0.04651091530372422,0.038560948814188395,0.007195549798592694,-0.022402682210336342,7.032368872090683,5.4353748878264385,4.827545638424476,4.322637035963869,3.7205884577132657,3.1292615444771004,2.552724884966014,2.0008683695741105,1.4817803593271743,1.0209733204267797,0.7311708522099809,0.3931296385258305,0.19248509991988838,0.1691237942342806,0.04313042424208205
0.0,30.0,30.0,0.0,120.0,0.0,0.0,0.0,0.0,-107.0,0.0,-45.0,0.0,0.0,0.0,34.27253218749016,17.55503396713325,4.665500399351998,3.1188365640689923,2.681983956648647,2.25615483605338,1.7851907560725666,1.4756123417105413,1.0123098169465763,0.6763281898359164,0.5145294151366475,0.344962077604149,0.1362379130302602,0.032209330052864096,0.07449212201025829,-0.058774537084253946,-0.039059907620347785,7.09068718433087,5.431628316301825,4.856538317763972,4.345424613783772,3.7542893308192578,3.1285575598937165,2.5826461331809694,2.0183549224630015,1.4975268880385306,1.0602191176928084,0.7453676438934063,0.4109880952706476,0.22327834540663175,0.12421808171283406,0.08350593191975998
0.0,31.0,31.0,0.0,120.0,0.0,0.0,0.0,0.0,-107.0,0.0,-45.0,0.0,0.0,0.0,34.27253218749016,17.55503396713325,4.799549736586834,3.1560266110869506,2.6989029708340064,2.2124916423014964,1.8186247895428682,1.385422720801492,1.0008947871920353,0.7862836937520273,0.45362233461614837,0.27992574463600123,0.18139492218308856,0.1314547960817797,0.05542685710925486,0.11538892641036849,0.002714236786893837,7.079686498745757,5.462155603418606,4.921974842532164,4.370179877520326,3.7733149533450705,3.1516951082536626,2.570133730584267,2.0285836243646096,1.4908743366479895,1.0776155567578747,0.7067478776613806,0.44060943585566215,0.21532734182172086,0.16803897183066882,0.026661603383801788
0.0,32.0,32.0,0.0,120.0,0.0,0.0,0.0,0.0,-107.0,0.0,-45.0,0.0,0.0,0.0,34.27253218749016,17.55503396713325,4.7301593269685105,3.22378111388608,2.717882827211754,2.3136345882118996,1.8247651387332855,1.4238307141537134,1.0453846529323518,0.7865390225215279,0.5110493893651522,0.3309243271542931,0.14633979456433688,0.12097652210566352,0.046977408634144915,0.066214117827322,0.0783513139287189,7.07289255690083,5.466936835737717,4.886840480121536,4.3751743770104525,3.7851470817064214,3.197602577232322,2.5725577942617326,1.9970761455943695,1.5305248730556706,1.0520116937587913,0.7169925122106131,0.41866593457260964,0.2512090804139676,0.14981383361662914,0.04813445676123114
0.0,33.0,33.0,0.0,120.0,0.0,0.0,0.0,0.0,-107.0,0.0,-45.0,0.0,0.0,0.0,34.27253218749016,17.55503396713325,4.773587696688574,3.2152275045355205,2.6950715005378054,2.3078023626816475,1.8677721559618479,1.4519196737926843,1.0442665376308133,0.736590198617664,0.44684790893701126,0.2913546516363874,0.1924334045367343,0.11960375867985742,0.024319099494394224,0.020137981391427962,0.013927071893171033,7.095613429606994,5.513945150976712,4.885778325918422,4.39876935756993,3.818614739717237,3.180393732453357,2.6262180717190153,2.0173916396832654,1.5482968742780576,1.0614150145532562,0.6940056589134642,0.4370654514041921,0.2037663234177744,0.12715882299229775,0.057504623481530244
0.0,34.0,34.0,0.0,120.0,0.0,0.0,0.0,0.0,-107.0,0.0,-45.0,0.0,0.0,0.0,34.27253218749016,17.55503396713325,4.807988425329132,3.2572179875852574,2.7297275309694697,2.2734001128790733,1.9351180021987342,1.416602609087491,1.0195543666730078,0.6975405050860446,0.5327766306791591,0.28789026305951654,0.14682436981753752,0.09361444081797869,0.03287992825433376,-0.007803609844377897,0.03307431391778312,7.128356861234056,5.548345465313416,4.974303760208431,4.431404825103894,3.788263691630462,3.2588816686635624,2.6059943798773317,2.0359807509989882,1.5448456566356492,1.1159986523470526,0.7282653321287199,0.44635854158675947,0.22997648802678786,0.12530749337267708,0.03846003690265265
0.0,35.0,35.0,0.0,120.0,0.0,0.0,0.0,0.0,-107.0,0.0,-45.0,0.0,0.0,0.0,34.27253218749016,17.55503396713325,4.748777429470703,3.2164835265514387,2.759952095270954,2.3728129325205165,2.0039752143611307,1.4634056533012454,1.0151058068810164,0.7885195383488234,0.48382418781923575,0.2850258831402189,0.18366989293724115,0.044993349405359054,0.049171509705995334,0.013880203482100974,0.009511416264856323,7.119367915805045,5.547929270010628,4.978804494137212,4.450079802747295,3.860137727288279,3.210025452762616,2.5774654315308974,2.029249776184548,1.4945315371483057,1.0922067859638072,0.7449008252159294,0.4546366020103062,0.22374465935811566,0.1084329784279979,0.06426368716175518
0.0,36.0,36.0,0.0,120.0,0.0,0.0,0.0,0.0,-107.0,0.0,-45.0,0.0,0.0,0.0,34.27253218749016,17.55503396713325,4.7735788671127874,3.261256146859255,2.8094817658885076,2.31193996124133,1.8820981439817102,1.4363269505954988,1.0333083403412961,0.7147420333839992,0.5225622984313253,0.3131983284065129,0.14591251991714632,0.08283680755257228,-0.017431445171037015,-0.00908202995275335,0.08379425822035012,7.116507048365948,5.588619486336996,5.000412258259254,4.473445747449365,3.8849920847292525,3.2236339875106936,2.6216539376079115,2.0749913365868173,1.5150272416921422,1.0833309146936205,0.7231604297276818,0.45187167907241527,0.2602606921974973,0.15521150984912133,0.06880676207634454
0.0,37.0,37.0,0.0,120.0,0.0,0.0,0.0,0.0,-107.0,0.0,-45.0,0.0,0.0,0.0,34.27253218749016,17.55503396713325,4.7996559836188935,3.3456134489020912,2.8342085398588357,2.3098441210487914,2.0069875976714546,1.5429652863093855,1.0727424422038763,0.7646907488438587,0.5491394190707662,0.30717320142190513,0.20606977461879566,0.13245953830024712,0.00587159788441427,-0.003991265590730566,0.03953493198840766,7.141851764575834,5.617448964742972,5.022605267575203,4.479567961306104,3.8392308276074103,3.2381041468251017,2.6352714077062123,2.0663925840126307,1.55081389391229,1.0981721295685416,0.7288694136401748,0.4550553462554742,0.2539194371836296,0.16000575605433479,0.06232417572712876
0.0,38.0,38.0,0.0,120.0,0.0,0.0,0.0,0.0,-107.0,0.0,-45.0,0.0,0.0,0.0,34.27253218749016,17.55503396713325,4.754550011087169,3.2689216779190406,2.8866458438358604,2.3399048797684325,1.9540165754751146,1.476680544563826,1.079663925581043,0.7502793987344115,0.548234441735965,0.30849011774552343,0.17998405259354416,0.03817066959410292,0.050781762357473274,0.03734224996729212,0.015008711720372625,7.178104371524252,5.619164526419672,5.057652210685028,4.549870596554593,3.8692214089035057,3.2700842853290415,2.6791966908802083,2.0774933798162696,1.5602770238945949,1.1242914685489676,0.74652121055986,0.4893934763544245,0.263307795149539,0.13732592362846582,0.06352069984804054
0.0,39.0,39.0,0.0,120.0,0.0,0.0,0.0,0.0,-107.0,0.0,-45.0,0.0,0.0,0.0,34.27253218749016,17.55503396713325,4.835912419158731,3.2965498036986975,2.878633229150423,2.3976815982259896,2.0082267095184374,1.494256256185109,1.1086620469608874,0.7688006666110464,0.4834415836052798,0.35368292175049715,0.25195837493846984,0.09425200149793889,0.033128222394995965,0.005650377595558559,-0.061905635897509054,7.14632230169619,5.648696984283748,5.101162149797615,4.555069774088462,3.916049875020675,3.2900286271816146,2.684151832659455,2.0608819485999494,1.539933075311638,1.1414762412734711,0.7663894621776776,0.4589360590337259,0.24568679260970278,0.09169309427524512,0.07350362896431087
0.0,40.0,40.0,0.0,120.0,0.0,0.0,0.0,0.0,-107.0,0.0,-45.0,0.0,0.0,0.0,34.27253218749016,17.55503396713325,4.805144222233579,3.2882611775586446,2.93155974295641,2.445594155935116,1.909907215818974,1.4618995684065543,1.1324968427853013,0.731856204037753,0.556654595946851,0.3419476195385148,0.20378290907736682,0.11056762805408617,0.051611194774659634,0.05067180979311188,-0.009778224618426964,7.165042093623078,5.686448567700434,5.11324407470586,4.523889786623761,3.9333923056994666,3.3184401031152624,2.6605882888101107,2.1138198828289663,1.5486451421409164,1.1121873778007554,0.7649337778982438,0.4694312662927074,0.2580759818094357,0.11997557724624842,0.06836566352205944
0.0,41.0,41.0,0.0,120.0,0.0,0.0,0.0,0.0,-107.0,0.0,-45.0,0.0,0.0,0.0,34.27253218749016,17.55503396713325,4.898161223949829,3.4081244207719674,2.8611857602908533,2.505659736754765,1.9125071698493181,1.4585725746126494,1.1429904559460176,0.7770969725120782,0.4918795738605941,0.28134798872958056,0.2700467912001398,0.10122732060889586,0.06468182371734763,0.030667757343830485,0.02248944789174201,7.189374971062409,5.711037176259267,5.11417809649016,4.569045613903891,3.9226685423889465,3.3097433055306813,2.68851173104159,2.1059335457250388,1.576857664188972,1.1129315661820556,0.725178793898655,0.4067305149577873,0.2883734446187369,0.1252859964233484,0.053511163628002636
0.0,42.0,42.0,0.0,120.0,0.0,0.0,0.0,0.0,-107.0,0.0,-45.0,0.0,0.0,0.0,34.27253218749016,17.55503396713325,4.87575910472527,3.3579953339965893,2.899586987285477,2.5350876903280612,2.0011609452879986,1.5421862987811101,1.055608773618573,0.8560817985955481,0.46270976720537155,0.3933200909263044,0.11035143854240556,0.14895326759707433,0.1045553773363129,-0.010301938282765478,0.022182745424487026,7.201961733328391,5.696319077751707,5.111840696657127,4.566282471208982,3.9980204930281524,3.3423382193861215,2.681282785022169,2.1129068099802635,1.5809147335568519,1.1083896814184988,0.7305099104650908,0.480804120243599,0.2553030260454078,0.14155748453681208,0.09698885822336464
0.0,43.0,43.0,0.0,120.0,0.0,0.0,0.0,0.0,-107.0,0.0,-45.0,0.0,0.0,0.0,34.27253218749016,17.55503396713325,4.905996054532689,3.403816477694486,2.9414467414514958,2.4391062357608235,2.057719864303882,1.5182817109253566,1.1294662571273304,0.7893039205835841,0.5234838169729747,0.25369313675120164,0.13599546096833293,0.08264876782034049,0.05820200719207018,0.014859185545167533,-0.02755803464683097,7.163056870131975,5.732699242007121,5.161988444905363,4.634989816473635,3.9966852284108807,3.3748930348841637,2.6928659143742495,2.0938851365730424,1.5679018720350615,1.112258977173477,0.7738231949144251,0.4556641341986743,0.25829832898341676,0.1396464261015296,0.03746522483434093
0.0,44.0,44.0,0.0,120.0,0.0,0.0,0.0,0.0,-107.0,0.0,-45.0,0.0,0.0,0.0,34.27253218749016,17.55503396713325,4.887860364805513,3.4345264294921813,2.9423105615064595,2.492224003023949,1.980820573678389,1.5419392076434189,1.1777923942489459,0.7816449336511962,0.5624341381888358,0.3395131959964968,0.21796553452016054,0.0719533841422763,0.051062475722091466,0.02501166993016611,-0.01496979058539934,7.190655255941755,5.730391148473139,5.237480254731305,4.62109518111632,4.0575455471498705,3.3656199992679725,2.6990006196686207,2.122736295514005,1.5676712730072129,1.146264668174886,0.7568252710892235,0.486618787905512,0.251414940539861,0.16041555771077323,0.07589525080601427
0.0,45.0,45.0,0.0,120.0,0.0,0.0,0.0,0.0,-107.0,0.0,-45.0,0.0,0.0,0.0,34.27253218749016,17.55503396713325,4.879727158093199,3.592000847951558,3.0009789175699244,2.60174028665368,2.0870567316042634,1.5540288519593066,1.1211436763767362,0.772389281135093,0.4562592313212086,0.30328976545989283,0.2000823597804892,0.15626024246967032,0.019909907941076558,0.05238909834570719,-0.03797051807502096,7.210831626063254,5.7835306158833415,5.2344997851723205,4.680231653427201,4.068321080938284,3.4115732328692894,2.7372270146127256,2.126363376687635,1.62330969979805,1.1269116357502993,0.7843461609553897,0.44088084950215367,0.2831739466271661,0.13434847248352644,0.06657032000232042
0.0,46.0,46.0,0.0,120.0,0.0,0.0,0.0,0.0,-107.0,0.0,-45.0,0.0,0.0,0.0,34.27253218749016,17.55503396713325,4.976471748796326,3.519657760260006,3.037196228399363,2.589442606477747,2.0559754161842965,1.6162241508597406,1.1317923646825059,0.7916809416352482,0.5070021796554735,0.368429348892262,0.2073940599039375,0.08349520853825794,0.05406562144743263,0.05847630195539065,0.006023082343072501,7.2151153856447054,5.8254888291925875,5.20034347266784,4.711624337589486,4.054765611259205,3.3984481735118655,2.7645318478274086,2.09533886695798,1.6374413973136703,1.131848170890114,0.759744323336884,0.5044250761840297,0.29192051533936153,0.19787941431831424,0.06294778959766117
0.0,47.0,47.0,0.0,120.0,0.0,0.0,0.0,0.0,-107.0,0.0,-45.0,0.0,0.0,0.0,34.27253218749016,17.55503396713325,4.946323072561042,3.4805060429634254,3.012718401669211,2.524146860204835,2.0392295458171477,1.5176048595870408,1.2133078040540286,0.7444597769104185,0.42632087802244784,0.28881316390684586,0.17161455443545534,0.06110163899810966,0.08879382127721176,0.016140570888229705,0.008492447903156942,7.272407774052826,5.856433262272426,5.302031422323419,4.6883613800865245,4.072116279335138,3.442213096185993,2.697626008916245,2.1041247893931327,1.6113024216015306,1.1360667150000583,0.7946533551311153,0.5028465300189675,0.2538558030678126,0.1563486816423227,0.09352392167514531
0.0,48.0,48.0,0.0,120.0,0.0,0.0,0.0,0.0,-107.0,0.0,-45.0,0.0,0.0,0.0,34.27253218749016,17.55503396713325,4.97510408672409,3.526463182869045,3.083280059038957,2.5960443170475904,2.092325468590198,1.621448739156604,1.047532281302565,0.8340224510126841,0.5981346243489791,0.3497776542557872,0.2017147195123387,0.1288560247202707,0.061852504255331786,0.04500439629166353,0.007759311534118126,7.249925999317699,5.850008397690375,5.277845751151257,4.705697578643262,4.079960075488086,3.4851765373439645,2.787082944410493,2.1302998858240656,1.597562525015168,1.153258109363357,0.7634868897531081,0.48983646423208577,0.2980562387726595,0.14858266181959687,0.07617399609944539
0.0,49.0,49.0,0.0,120.0,0.0,0.0,0.0,0.0,-107.0,0.0,-45.0,0.0,0.0,0.0,34.27253218749016,17.55503396713325,5.023753669230419,3.580846318765615,3.0835994984627932,2.579335937381006,2.086027667183679,1.5935795832431263,1.147012230474622,0.8127435783921741,0.5555168604645226,0.34089936430722617,0.21396482296899358,0.07770138389301816,0.006599974051605374,0.03682013353421986,0.032703279634453734,7.2879339756804615,5.938955152933955,5.353195391106685,4.831559271070994,4.121970698742025,3.4359842703595596,2.7650182295863277,2.1407967772097827,1.6231096305807893,1.107578644805594,0.8093494394340165,0.4860214606350848,0.27856394883543045,0.128099597840288,0.06755033042445373
0.0,50.0,50.0,0.0,120.0,0.0,0.0,0.0,0.0,-107.0,0.0,-45.0,0.0,0.0,0.0,34.27253218749016,17.55503396713325,5.0070524390043065,3.613640229193046,3.109523485738559,2.588469815401907,2.06857042060143,1.6379003163695784,1.1781058316539843,0.8184668455047571,0.5764657431721054,0.2999780146150818,0.1658829954481962,0.15081111567807537,-0.0029666258597453796,-0.025314340594055424,0.03753166774318435,7.309279115419972,5.934351881530805,5.354424891506274,4.7894304992727985,4.145558487285954,3.5093659137378155,2.7859079677734555,2.159216757226713,1.65879633185226,1.1596823645057817,0.8321971043540484,0.49154394191980183,0.31497251233853385,0.11744888179309129,0.0740192049183869
0.0,51.0,51.0,0.0,120.0,0.0,0.0,0.0,0.0,-107.0,0.0,-45.0,0.0,0.0,0.0,34.27253218749016,17.55503396713325,4.961271999888048,3.6791331639396025,3.07289567147036,2.642388667466237,2.107749061216774,1.5851205187162236,1.121866577299678,0.7972159399132003,0.6043662443892623,0.3282529405284375,0.23135664534453007,0.10395645943609072,0.08295142272958558,-0.04373479778648781,-0.006480503494274923,7.345476174193426,5.955487453314364,5.381606896654686,4.802377654247964,4.1971415861990495,3.501141648842995,2.8092379399116676,2.186840178286971,1.6381041893456068,1.1678651194746883,0.8203935323749366,0.495059251141337,0.2939699365042176,0.1402824322168247,0.07477039058512334
0.0,52.0,52.0,0.0,120.0,0.0,0.0,0.0,0.0,-107.0,0.0,-45.0,0.0,0.0,0.0,34.27253218749016,17.55503396713325,5.111426894862167,3.6477487664348525,3.1003090210194624,2.6903525403156614,2.1287730457328014,1.6440337255110977,1.1883797450252882,0.8239347231214257,0.574672677809329,0.31004296914170887,0.16233336650788674,0.10985646289072956,-0.006408023023101943,-0.02703271942939889,0.07570281558412735,7.357474764142872,5.987962158615407,5.442895065243594,4.811768861038213,4.182390411893033,3.52620867432945,2.8421284232866477,2.1932031332742516,1.5744388351368077,1.1460496263955873,0.8001907573391827,0.491208130350841,0.3440047275315696,0.17484396068764232,0.08416636833428444
0.0,53.0,53.0,0.0,120.0,0.0,0.0,0.0,0.0,-107.0,0.0,-45.0,0.0,0.0,0.0,34.27253218749016,17.55503396713325,5.021516063064681,3.6997811295367393,3.178735331647617,2.7160469886341083,2.1841936469577794,1.6911197300261778,1.1635336976325426,0.8781287179506309,0.49583533754352993,0.3227840452323398,0.21578086839199484,0.10207463389497,0.01581659432467955,-0.0068041719016397224,-0.04762095954830647,7.369090608833113,6.050048478387382,5.43605794232185,4.852822469186967,4.1753327358618,3.550544587850481,2.8862204461228833,2.1498355826697746,1.6137983030108092,1.1564868008271794,0.7805424544389771,0.5060786943255198,0.32634263534926955,0.17798751047537134,0.08433044526932018
0.0,54.0,54.0,0.0,120.0,0.0,0.0,0.0,0.0,-107.0,0.0,-45.0,0.0,0.0,0.0,34.27253218749016,17.55503396713325,5.0591525932573385,3.685033512859722,3.162963527999428,2.753161658360917,2.164440631651764,1.6471648370368712,1.1991092539812296,0.8614454038815337,0.5012772188000176,0.3956105552020776,0.20683500465113097,0.10037489197566563,0.06873709788804003,0.0310837662316397,-0.003968880886584366,7.365907112152801,6.023284716268027,5.4832877209200745,4.874650079436476,4.209587990102574,3.5501084876634845,2.878873908917172,2.199235584797762,1.6303423231907879,1.1843881212799234,0.8375037914534448,0.47246682794089584,0.3021238375229851,0.1624113999025622,0.09845959863117205
0.0,55.0,55.0,0.0,120.0,0.0,0.0,0.0,0.0,-107.0,0.0,-45.0,0.0,0.0,0.0,34.27253218749016,17.55503396713325,5.151693011886085,3.7507278633887946,3.153315377811257,2.745524057194754,2.1512958161332225,1.6402644005045603,1.256841580240701,0.8023954353654564,0.6038358405426989,0.35794640793888827,0.21374806558553558,0.12004178491622418,-0.0061193909542736555,-0.040782271397065986,0.01639032629677884,7.407342158957133,6.077650185449955,5.473259164937697,4.913895424078213,4.252856116335397,3.5407499198841985,2.884880010907225,2.170315369842182,1.6635189192505495,1.1880671040062434,0.8202316860010502,0.4842639821331544,0.2980295700325593,0.2052575304971937,0.08873824190070907
0.0,56.0,56.0,0.0,120.0,0.0,0.0,0.0,0.0,-107.0,0.0,-45.0,0.0,0.0,0.0,34.27253218749016,17.55503396713325,5.138063479700936,3.8086150368423186,3.2482078589120995,2.8204485998445885,2.237405507216646,1.684838609030736,1.2315475815474826,0.8266888217730064,0.5997702988041905,0.2961034260743793,0.14483438012650485,0.16244695376928556,0.13156501735759002,0.04066513063896575,0.012796421412165887,7.429279920602247,6.088169757812995,5.527076305648816,4.939964625696614,4.2922415085214,3.544045842941707,2.8627196156075154,2.238761163219453,1.64167355172953,1.16191140259095,0.8453295233022907,0.5087670510925458,0.2853998574913023,0.12503284643819998,0.09092704753261366
0.0,57.0,57.0,0.0,120.0,0.0,0.0,0.0,0.0,-107.0,0.0,-45.0,0.0,0.0,0.0,34.27253218749016,17.55503396713325,5.186227951286111,3.80471104668753,3.227310635298928,2.7561061875112065,2.1845715913178503,1.6646917703273092,1.2264752000511365,0.8074073127397872,0.5674788985772447,0.37125434261377704,0.17361024735277522,0.06063102606993111,0.1105905344559572,-0.010011717617536942,-0.015014794801891064,7.437133187957114,6.150976104131394,5.544546885614233,4.976399635483333,4.288971123166153,3.576037180363359,2.9216000161459714,2.2860035892214445,1.7012366723607129,1.190978337996516,0.8435300203098878,0.5176768059383943,0.2893099610878314,0.1718884412747085,0.07436177962577042
0.0,58.0,58.0,0.0,120.0,0.0,0.0,0.0,0.0,-107.0,0.0,-45.0,0.0,0.0,0.0,34.27253218749016,17.55503396713325,5.141409195974415,3.8106270557286788,3.3281355074824863,2.707163564376211,2.256577037697059,1.6510217896541455,1.1594283549459672,0.7834717609616527,0.6336135263549653,0.3436181405531984,0.2082307910639055,0.16230394818679245,0.0883275419045299,-0.02607191236699005,0.04037806760437665,7.456989170049029,6.156521561937303,5.580530137364881,5.023109533239533,4.29923445184964,3.6270899150103335,2.9015957763023947,2.1976885955166505,1.6518400633225387,1.196244831154206,0.834609268094279,0.5335494354407054,0.31381714102032987,0.1460956278168387,0.11499083418606507
0.0,59.0,59.0,0.0,120.0,0.0,0.0,0.0,0.0,-107.0,0.0,-45.0,0.0,0.0,0.0,34.27253218749016,17.55503396713325,5.21565796874415,3.8364717185319077,3.315784610166882,2.8355276569118106,2.2508356974119383,1.7585019211092152,1.288118638079241,0.8714271078754184,0.533093153892894,0.3574194052439359,0.20768208969331545,0.17887547351818867,-0.003925593441733502,0.019630259253147233,-0.012033551066638228,7.482391324209274,6.131864992724955,5.63771574058357,5.017272356605716,4.297938781180425,3.6268952285850258,2.92986988127801,2.2121624731260976,1.6764407553470517,1.172902034179436,0.797136896839425,0.5146892322568886,0.3066866478864176,0.1546002085516187,0.08357890496847586
0.0,60.0,60.0,0.0,120.0,0.0,0.0,0.0,0.0,-107.0,0.0,-45.0,0.0,0.0,0.0,34.27253218749016,17.55503396713325,5.2661928426116065,3.896004468583048,3.4059277519197866,2.8797186811078324,2.2513825808139063,1.7134279031955024,1.1931952346562014,0.8571952356863041,0.5543117856011036,0.38260614048816033,0.1521301565491216,0.10202633642028106,0.09041234232141013,-0.0016586814214141765,-0.018360477325295586,7.455146676297161,6.296308201595004,5.618795882903828,5.010370902420231,4.3462535013811605,3.635223031718094,2.9231098654270617,2.277331946163111,1.6762958166172732,1.1800258579699892,0.7803807359993385,0.5165320764610603,0.30529833401346035,0.19806107608298676,0.08051481343400127
0.0,61.0,61.0,0.0,120.0,0.0,0.0,0.0,0.0,-107.0,0.0,-45.0,0.0,0.0,0.0,34.27253218749016,17.55503396713325,5.25494446446254,3.8961584468280965,3.364528581760623,2.8283409451335593,2.2710502039806766,1.713926813796304,1.2839074956163778,0.8618970445538601,0.5634060147847985,0.2933760397024206,0.22586927648345678,0.13032461654907654,0.025376706334007817,0.06080786615827222,-0.040021503575805834,7.516873548131799,6.251204040180555,5.633514309483889,5.074757186886325,4.431077053329537,3.6739599886817538,2.932512657609303,2.278588021871391,1.6919994347057852,1.2051114963702363,0.8052119869008733,0.5484049248379936,0.315639208117326,0.15575577511889666,0.07701660639284084
0.0,62.0,62.0,0.0,120.0,0.0,0.0,0.0,0.0,-107.0,0.0,-45.0,0.0,0.0,0.0,34.27253218749016,17.55503396713325,5.255735515008674,3.9451349396114384,3.378594542614431,2.82395831657704,2.3326368479841277,1.7519631097292245,1.2930535713510267,0.8477186559292199,0.5716759292454207,0.33168880577924365,0.23501941335422497,0.10424207584093488,0.029684435208513747,-0.03413573559642263,0.01939652628442466,7.521012671138222,6.289531069144436,5.6846314586085525,5.1210069888734,4.425353748080899,3.701698308142574,2.942963368384428,2.289016090323646,1.7347582301549664,1.1904030252079059,0.8207645327207311,0.48451095522899223,0.33715352954733135,0.15966406167570396,0.09646164497831744
0.0,63.0,63.0,0.0,120.0,0.0,0.0,0.0,0.0,-107.0,0.0,-45.0,0.0,0.0,0.0,34.27253218749016,17.55503396713325,5.243224193739969,4.072990092359099,3.4173358925907644,2.912195274519808,2.3264119683118722,1.7662032781025665,1.3439620402146633,0.8169290072892633,0.5880070721433108,0.3925847500901294,0.20871287958919477,0.10952781838811752,0.05135360050432092,-0.01892657594115694,0.01092274235807944,7.578430245136869,6.323655950358955,5.720319532303892,5.11138232365259,4.428070720334399,3.740001340319465,2.922530972697279,2.289301564120605,1.6957189144634939,1.244956220083383,0.8208255086148002,0.553427468815447,0.2638358843323668,0.1788898076765199,0.08658616606846198
0.0,64.0,64.0,0.0,120.0,0.0,0.0,0.0,0.0,-107.0,0.0,-45.0,0.0,0.0,0.0,34.27253218749016,17.55503396713325,5.400375519353846,3.967681214617538,3.453173843656262,2.91671093201666,2.3195729914766674,1.8349267106095717,1.2770275539821654,0.9585294932801192,0.6189074257841912,0.3957943460897673,0.23105198205164273,0.07580501313104371,0.041284080985204946,0.04641643416859999,0.03415109889512866,7.624744283181847,6.341647801978198,5.73530014792773,5.172956082767754,4.438210243598051,3.7495782221758778,3.0140849875004636,2.308963024867514,1.7018321148134665,1.2180842752872278,0.835064507433333,0.5236296164605169,0.35703051022405247,0.1493624864723792,0.060283331447535844
0.0,65.0,65.0,0.0,120.0,0.0,0.0,0.0,0.0,-107.0,0.0,-45.0,0.0,0.0,0.0,34.27253218749016,17.55503396713325,5.33227145961515,4.0422756498226775,3.4015047856750122,2.9130406583717896,2.331669041872696,1.8050037059522706,1.314075583422835,0.842869919822933,0.6164568605233102,0.4286120515354397,0.20408165142591037,0.17198036554103605,0.06445125066684446,0.09785267129015215,0.05015858152986244,7.5703431603410785,6.387060703267317,5.815596403903592,5.179370026737827,4.480884264473385,3.7781782493591516,2.9835063957717396,2.3090944496980392,1.7239370660542397,1.2141069763538341,0.8243489728196584,0.5417506532658558,0.32093160581029034,0.1542718200583798,0.058823079589529176
0.0,66.0,66.0,0.0,120.0,0.0,0.0,0.0,0.0,-107.0,0.0,-45.0,0.0,0.0,0.0,34.27253218749016,17.55503396713325,5.370364989114256,4.098887180466742,3.5097117942506606,2.928816510619281,2.35210948441114,1.7577390264199657,1.3229343882060427,0.892761926471818,0.5404204252581842,0.3656599050170599,0.2613711730499725,0.08861693963769621,0.10520371634527152,0.014448060646517661,0.017028140322822443,7.641939027286916,6.456656294353295,5.823082590878808,5.177200689742221,4.472877413775043,3.729474007894165,2.9743571184728617,2.320010851060602,1.7020510405500053,1.2239690852448866,0.8121078567297785,0.5103597495867066,0.30287791238733924,0.18724843652237905,0.10226949519971658
0.0,67.0,67.0,0.0,120.0,0.0,0.0,0.0,0.0,-107.0,0.0,-45.0,0.0,0.0,0.0,34.27253218749016,17.55503396713325,5.449474354593434,4.092547106387147,3.5703250895412966,3.0120164603657047,2.404153048239506,1.8058287372883874,1.3427500751631098,0.915430399412341,0.475506128647537,0.38990265916067485,0.1439435190659334,0.14002103246952802,0.05236559651998544,0.06953144191507961,0.006435378671900372,7.640948468945509,6.448642966757122,5.8776306938989915,5.234917753639823,4.526490794290118,3.8038860325144674,3.0342043902217877,2.3291459923939786,1.7611258585995677,1.2642994961394558,0.8432259472839287,0.5224250150995488,0.346188485662238,0.1983930196768347,0.09849913178866698
0.0,68.0,68.0,0.0,120.0,0.0,0.0,0.0,0.0,-107.0,0.0,-45.0,0.0,0.0,0.0,34.27253218749016,17.55503396713325,5.415833414843866,4.171670016944825,3.544672050961636,3.003147051093036,2.4215393913259895,1.8460117803461322,1.3074805139865442,0.9524785871045715,0.5309155748514414,0.394813757024409,0.1469092440998881,0.13035229714238464,0.026173222834711775,0.0583385376070375,0.013215735511073988,7.699321349280036,6.458916319348493,5.864239047872857,5.267708027647748,4.56791898560687,3.8763160980256686,3.0491736602718174,2.3620989540399684,1.7024869358595163,1.2051356033169482,0.824804400212696,0.504560007989213,0.3472434982005479,0.16573815474161804,0.1130990178490246
0.0,69.0,69.0,0.0,120.0,0.0,0.0,0.0,0.0,-107.0,0.0,-45.0,0.0,0.0,0.0,34.27253218749016,17.55503396713325,5.560507611484788,4.2019767799799235,3.623472523730783,3.0316132138203913,2.4519205920966556,1.8741892776511697,1.329714622700885,0.9296982706317767,0.6597409857065729,0.3959807268161626,0.22718528305297747,0.12151472105734817,0.021946745042124252,-0.010376060982147398,0.0218850353670239,7.68203740983656,6.49940419126954,5.9463780390877,5.33975004828427,4.536085583934584,3.8643344763141676,3.053708204332237,2.349810570413667,1.7418987494617792,1.2625795878986619,0.8002393893862734,0.5416109883120905,0.2968529015705047,0.1874247531553259,0.11711105480018791
0.0,70.0,70.0,0.0,120.0,0.0,0.0,0.0,0.0,-107.0,0.0,-45.0,0.0,0.0,0.0,34.27253218749016,17.55503396713325,5.532621043471578,4.249956960493101,3.6497057135754067,3.0272950055648904,2.5084694393389997,1.9343577619612968,1.3697675262802576,0.919401892461826,0.5828285450876518,0.34889989162490315,0.2784520118738211,0.1687718695468981,0.056617546006918734,-0.030161976934630165,-0.09208444955061507,7.718206692940132,6.5504762927220925,5.981382936712129,5.30276288426654,4.614638326753251,3.8762265437965864,3.076614590711624,2.357425577615559,1.7221084746912427,1.2167029407638124,0.8466902956971206,0.5291495325164559,0.3207347125683929,0.17531709055831388,0.09924258278469993
0.0,71.0,71.0,0.0,120.0,0.0,0.0,0.0,0.0,-107.0,0.0,-45.0,0.0,0.0,0.0,34.27253218749016,17.55503396713325,5.534631703744453,4.256528902404738,3.7388561143548475,3.0522586026898946,2.4587653806866214,1.8612049406454254,1.3694026999800233,0.9602603302847389,0.5848358966962629,0.35783270295016234,0.20705267544865458,0.13719960643120924,0.0324684548082014,0.013580398648915535,-0.07535956884018194,7.7388075339559785,6.585404528537392,6.000382657684115,5.355858055903565,4.599217621769904,3.830424969752343,3.0926974785827777,2.3333123910641658,1.7825506011668018,1.2490189109782346,0.8054113025901624,0.5143545392683992,0.30392987778867747,0.16090775674053115,0.054522338091925734
0.0,72.0,72.0,0.0,120.0,0.0,0.0,0.0,0.0,-107.0,0.0,-45.0,0.0,0.0,0.0,34.27253218749016,17.55503396713325,5.566258677654456,4.278021099522139,3.6660611053923327,3.152883008662796,2.493131931511626,1.859918255627758,1.3495579330396184,0.8956186492938059,0.5954782580660246,0.4073581550613862,0.227290501121098,0.2013458869129332,0.07314587054237609,-0.0056716845696169055,0.03977431399086059,7.836889092118221,6.652465206237219,5.980594252869309,5.373607760819963,4.679756389722309,3.843499336660229,3.091869559189577,2.3491825252740206,1.7447988578197977,1.229759732219121,0.8699702226961287,0.5316001911958127,0.30212947614961533,0.15626489515424286,0.08945740973265005
0.0,73.0,73.0,0.0,120.0,0.0,0.0,0.0,0.0,-107.0,0.0,-45.0,0.0,0.0,0.0,34.27253218749016,17.55503396713325,5.638345942725496,4.395700920824313,3.745043341645925,3.078296063983146,2.4845527586084186,1.9524101975230956,1.3482397522295024,0.9982282994425867,0.569554090912668,0.3981410536209211,0.1877454436155816,0.10049362512605739,0.09960309599447462,0.022964621374833225,0.040007357317527865,7.850280060667309,6.678481193929651,6.018641813640853,5.401036899104359,4.687082480272685,3.8839722201109543,3.1574085922626978,2.374883897652816,1.7662084665295532,1.2343673111032196,0.7989819430070199,0.5766861793774741,0.31725445440777833,0.16955606694845032,0.08288301011478985
0.0,74.0,74.0,0.0,120.0,0.0,0.0,0.0,0.0,-107.0,0.0,-45.0,0.0,0.0,0.0,34.27253218749016,17.55503396713325,5.734959343650116,4.339091250660694,3.783474203394331,3.1435478905886707,2.5056817597414627,1.9476413375506163,1.4180046868113345,0.920828714341895,0.5850640551694349,0.33641516793694587,0.26009670289397563,0.09859522398473561,-0.006810032360966313,0.07874131741819271,-0.038827127469652195,7.889770135979914,6.69863101272517,6.0824610214118255,5.421278069087968,4.710821585098777,3.8843392163378088,3.1481098093232998,2.439452140752771,1.8000721472142993,1.2165485103684017,0.8267287742210668,0.5357143417417103,0.3330405800173654,0.17762168285210772,0.07726347936919004
0.0,75.0,75.0,0.0,120.0,0.0,0.0,0.0,0.0,-107.0,0.0,-45.0,0.0,0.0,0.0,34.27253218749016,17.55503396713325,5.738733045428802,4.461882625794122,3.7788942398977956,3.2148031881261194,2.4493158882879094,1.9049502168866472,1.378533610200062,0.9276734784941009,0.62896211375137,0.41795554844497557,0.23933759849592512,0.0973707066847238,0.005289122470054329,0.04807112777965082,-0.05566226528142533,7.917872883023719,6.7244079661563285,6.077207004461645,5.473492450039834,4.726991061245397,3.944535050473293,3.147633177902782,2.424181060832691,1.80827864500643,1.2765410886835895,0.8726505295159234,0.5403315962338451,0.3581565631331515,0.19277538118578857,0.07676898944239524
0.0,76.0,76.0,0.0,120.0,0.0,0.0,0.0,0.0,-107.0,0.0,-45.0,0.0,0.0,0.0,34.27253218749016,17.55503396713325,5.7073408118926805,4.460585916219647,3.768168622428599,3.174482111593053,2.578318994338226,1.9320582640936603,1.3652582105547562,0.950449474641613,0.6228733946012754,0.3753084320410348,0.20813384403136606,0.15139177076871654,0.07308816766033924,0.02002253866254019,0.09997809455251498,7.937341033155083,6.796002317804456,6.126873516402414,5.461061423064065,4.732796735118767,3.959518363524425,3.1534049005166116,2.4562970575706755,1.7921281890243306,1.2803351789544104,0.8523261218568348,0.5335170213858368,0.3256363636945293,0.2177366847189434,0.07260686759276115
0.0,77.0,77.0,0.0,120.0,0.0,0.0,0.0,0.0,-107.0,0.0,-45.0,0.0,0.0,0.0,34.27253218749016,17.55503396713325,5.824676037761785,4.448637097388133,3.8342386949576186,3.2394667725922037,2.602213978697212,2.0262763896829945,1.4081033444528084,0.9264736119704432,0.6475723330661463,0.37141228308657487,0.23147876157214675,0.11666425125033358,-0.00938636963789731,0.04666163968822841,0.03206972561968142,7.990808320614188,6.850463496600133,6.143940153251888,5.5397658898272795,4.788731286485244,3.9766099426127863,3.190230405176979,2.4480851134187382,1.774793876452172,1.2801867720819837,0.8360683547605089,0.5303606471310431,0.28815728929536844,0.17232635850719968,0.08503276541694692
0.0,78.0,78.0,0.0,120.0,0.0,0.0,0.0,0.0,-107.0,0.0,-45.0,0.0,0.0,0.0,34.27253218749016,17.55503396713325,5.856382758158994,4.528466955816296,3.8238564687146237,3.30014973510101,2.6057669548480886,2.0033457347227985,1.4560296412226297,1.0165015208712944,0.6992591629477245,0.38396656197186513,0.23505978527542276,0.08224988452217016,0.09966640608439051,-0.014409802750238856,-0.05419394101944762,8.021773154536122,6.824686196611048,6.230047700342894,5.567525095010772,4.763488413401898,3.941349710173104,3.1705818308930263,2.4480867174079015,1.782153520089981,1.264986607026965,0.8269911327570243,0.54948663548796,0.328806622249684,0.1729352853486084,0.11925975599003022
0.0,79.0,79.0,0.0,120.0,0.0,0.0,0.0,0.0,-107.0,0.0,-45.0,0.0,0.0,0.0,34.27253218749016,17.55503396713325,5.937635879974261,4.590123934912519,3.8466957971917184,3.2501968707137467,2.6470314139466984,1.9758830798768015,1.4114713767270204,1.0032032901977246,0.6495190241962825,0.43649393136637443,0.2090964206652697,0.17167916439650205,0.041440915749789795,0.08284828224447606,0.014986886904616876,8.008686470024609,6.83182230449206,6.235936381518422,5.581168075929194,4.852230206036037,4.026175354018731,3.2022043180452515,2.483768175809581,1.8120780421634015,1.2713265702274978,0.8737873237635869,0.536858924971285,0.34187001253362137,0.17125512009619323,0.08569019549330711
0.0,80.0,80.0,0.0,120.0,0.0,0.0,0.0,0.0,-107.0,0.0,-45.0,0.0,0.0,0.0,34.27253218749016,17.55503396713325,5.924038456716705,4.591355900092986,3.951474861429377,3.353224988143435,2.6683422250154676,2.033269062024838,1.4159128733600812,1.0076485512558016,0.6589177627763897,0.4271086305555214,0.1992484528126481,0.11603019750506745,0.08469525915797368,0.006754683044533225,0.003074109509129109,8.121859945504427,6.966038417483462,6.311365734335971,5.643099553820787,4.83140114767386,4.062676344308179,3.219932900490108,2.4457817453006516,1.813211368461705,1.2912735297162958,0.8521305087776565,0.5370589810055577,0.3456795735237332,0.1876534839178597,0.09581506660940553
0.0,81.0,81.0,0.0,120.0,0.0,0.0,0.0,0.0,-107.0,0.0,-45.0,0.0,0.0,0.0,34.27253218749016,17.55503396713325,5.965871206927935,4.618892581891671,3.9312090492643095,3.361278561351452,2.6542394925422212,1.9537235210945352,1.4351183933025768,0.9417408635129261,0.6635809989205701,0.41141558541042955,0.2446826130381115,0.09863510982700753,0.08849960201958346,0.04049599132034998,-0.0034813989196248347,8.090698312343116,6.975231816301006,6.300984028622823,5.657984115940707,4.90973842015987,4.118301704059231,3.28409263337475,2.502381743546302,1.7983339014386934,1.2782311071973147,0.8548170995836892,0.5858049110292542,0.314952026120689,0.19349389059933703,0.09353281915438866
0.0,82.0,82.0,0.0,120.0,0.0,0.0,0.0,0.0,-107.0,0.0,-45.0,0.0,0.0,0.0,34.27253218749016,17.55503396713325,5.966479928313853,4.70210741880644,4.036215407845576,3.327838942286207,2.742803578533173,1.9662742996159221,1.4378659938680516,1.0245260908101503,0.5976718091140456,0.4071058502548704,0.18044921847891202,0.1198400665640743,-0.02149292731338634,-0.0013854213632315815,-0.04435971391257436,8.128449534823357,6.977954077504982,6.3309198018118975,5.702350778452396,4.88813355630432,4.108682676105979,3.299520138891926,2.4962417654138487,1.820565938717054,1.2706066281628876,0.8540249231544449,0.5669781922564863,0.3340647778296143,0.205837666689945,0.10812355430388698
0.0,83.0,83.0,0.0,120.0,0.0,0.0,0.0,0.0,-107.0,0.0,-45.0,0.0,0.0,0.0,34.27253218749016,17.55503396713325,6.056947037043187,4.7466501207727445,4.129265545548848,3.461540717434546,2.705584151637876,2.099069323436832,1.49230959433409,1.0369298740137987,0.6698547639801996,0.3607000249234563,0.16966268914093935,0.14443999689459366,0.1313943800408151,0.001187149085826296,0.004705656946404957,8.147555248677453,7.059632445403348,6.323140348792485,5.6547510398590015,4.947011861850837,4.11286618271883,3.2657309379889568,2.497597036737952,1.8596816625751316,1.2938195717232517,0.8483536518773128,0.5334961483896512,0.3505689419965829,0.17565174028222977,0.06323891973534708
0.0,84.0,84.0,0.0,120.0,0.0,0.0,0.0,0.0,-107.0,0.0,-45.0,0.0,0.0,0.0,34.27253218749016,17.55503396713325,6.101685938550179,4.789269783938996,4.143412904891675,3.443207866017744,2.713815227164483,2.095195874525595,1.5079940541391694,0.9996927751129085,0.6472013225167258,0.40774720585926383,0.226988379595044,0.1332093672598795,0.025766454270724173,-0.012219008380500877,-0.018639720303748213,8.232497147788573,7.073533858986361,6.447839083707448,5.740694976565606,4.9358870061496045,4.1648824763765955,3.293152789533973,2.54583243617195,1.8687937786304054,1.35607973262574,0.8701438800996024,0.574190679365594,0.3515537373730368,0.17568813383012383,0.08924815204288114
0.0,85.0,85.0,0.0,120.0,0.0,0.0,0.0,0.0,-107.0,0.0,-45.0,0.0,0.0,0.0,34.27253218749016,17.55503396713325,6.083298284663656,4.747477402176984,4.130846561372731,3.4950573483464726,2.786417603516924,2.106015862523596,1.5235682175026466,0.9856611141395971,0.6425196102814363,0.4271680488662847,0.24625773019260996,0.11698204895361859,0.11081833246028182,-0.01719300779205616,-0.007082260865514698,8.24468325684733,7.127888917009285,6.456411164683719,5.745069214397762,5.005259376757451,4.185581252834808,3.3277842433363514,2.54216463376052,1.8208210797750148,1.2927214464838481,0.8881482001878862,0.5552085744988486,0.3446244358652401,0.1613239289226476,0.09205582832684582
0.0,86.0,86.0,0.0,120.0,0.0,0.0,0.0,0.0,-107.0,0.0,-45.0,0.0,0.0,0.0,34.27253218749016,17.55503396713325,6.134538985179341,4.773281595430956,4.173636237016859,3.526524617354321,2.793746084867638,2.1078687772221176,1.4430287321676014,1.0513242734789086,0.6546435782627178,0.47380127276348,0.26575957938985073,0.05235953984381862,0.09057596352914513,-0.02083057668917693,-0.015708723601854126,8.284560423088,7.142647527036594,6.5034039014686815,5.783833535554291,4.990796067837439,4.195878099498373,3.326564644137926,2.543642931773413,1.8214381634287615,1.3135462114289804,0.8611218865864857,0.5381532386057134,0.35400978924446,0.16557946796346634,0.07080651383637912
