Line_number,Fiducial,Easting,Northing,Height,Elevation,tx_pitch,tx_roll,tx_yaw,txrx_dx,txrx_dy,txrx_dz,rx_pitch,rx_roll,rx_yaw,PX,PZ,S0X_time_1.086e-05,S0X_time_3.256e-05,S0X_time_5.426e-05,S0X_time_8.680e-05,S0X_time_1.411e-04,S0X_time_2.279e-04,S0X_time_3.689e-04,S0X_time_5.860e-04,S0X_time_9.115e-04,S0X_time_1.411e-03,S0X_time_2.192e-03,S0X_time_3.418e-03,S0X_time_5.339e-03,S0X_time_8.301e-03,S0X_time_1.338e-02,S0Z_time_1.086e-05,S0Z_time_3.256e-05,S0Z_time_5.426e-05,S0Z_time_8.680e-05,S0Z_time_1.411e-04,S0Z_time_2.279e-04,S0Z_time_3.689e-04,S0Z_time_5.860e-04,S0Z_time_9.115e-04,S0Z_time_1.411e-03,S0Z_time_2.192e-03,S0Z_time_3.418e-03,S0Z_time_5.339e-03,S0Z_time_8.301e-03,S0Z_time_1.338e-02
0.0,0.0,0.0,0.0,120.0,0.0,0.0,0.0,0.0,-107.0,0.0,-45.0,0.0,0.0,0.0,34.27253218749016,17.55503396713325,4.5537949340094,2.66119604861026,2.1777802554135444,1.794203648245261,1.391149358713806,0.999583675084716,0.6529129515672044,0.39306859633400004,0.22325497812689618,0.11908229028870836,0.05959043917338255,0.02821390944513302,0.012747824830358035,0.005542554860388136,0.0020779180802383925,6.925324744975024,4.906824266144436,4.269777158494445,3.7391288741458424,3.1468109265454727,2.511667371720757,1.871409713404852,1.3106267376209915,0.8750677694596094,0.5542566636152119,0.33234727194842284,0.1896318710841001,0.10360975099984376,0.0547324725402712,0.026486841638445637
0.0,1.0,1.0,0.0,120.0,0.0,0.0,0.0,0.0,-107.0,0.0,-45.0,0.0,0.0,0.0,34.27253218749016,17.55503396713325,4.556750650716251,2.6738724737989,2.1950021945336844,1.8199400301654722,1.4272357231321007,1.03966695921618,0.6881046285109091,0.41820428838232876,0.2385409357278039,0.1271488260648538,0.06333811344091293,0.029783703846757464,0.01335515646295342,0.005764349087743643,0.0021472630078730017,6.927622913951451,4.920737794554771,4.290657784996675,3.77274574332583,3.199175906388401,2.5779375888744664,1.9393212288265986,1.3682793411971828,0.917156468406869,0.5812004006743955,0.3476768586147289,0.19753344496754227,0.10737449490621766,0.05642545722053329,0.02716350174749957
0.0,2.0,2.0,0.0,120.0,0.0,0.0,0.0,0.0,-107.0,0.0,-45.0,0.0,0.0,0.0,34.27253218749016,17.55503396713325,4.559835823278845,2.6865433038146147,2.2103221900574272,1.8404907482011437,1.4564764547497286,1.074119586707399,0.7201453024314675,0.4422188786646039,0.25369507585769013,0.1353606236808604,0.06721700112428157,0.03142124573613954,0.013989672165487459,0.005995582401205868,0.002219476256543664,6.930027714120124,4.93467072572232,4.30943389579956,3.7996738257077287,3.2412434034482507,2.634081704348356,2.000011941225882,1.4221776671575233,0.957922730689915,0.6079994621562329,0.36320146229749783,0.20561873607373804,0.1112439050591728,0.058166614225632074,0.027858691635586057
0.0,3.0,3.0,0.0,120.0,0.0,0.0,0.0,0.0,-107.0,0.0,-45.0,0.0,0.0,0.0,34.27253218749016,17.55503396713325,4.563055811265792,2.699383386316531,2.2248297026017836,1.8577293138643154,1.4803796146723291,1.10362000697853,0.7490977191697106,0.46495156325306386,0.2685783795949414,0.14365171146308198,0.0712062721349244,0.033122018382322684,0.01465076487913014,0.00623625645466589,0.0022945838418467453,6.9325439376966775,4.948790455122942,4.327333328332313,3.8224123822243605,3.2754640532471306,2.6815998259877762,2.0539925081767554,1.4722371710867528,0.9971288083786121,0.6344803844534156,0.3788403143418216,0.2138602541792076,0.11521067771831514,0.05995439262095351,0.028572180173422227
0.0,4.0,4.0,0.0,120.0,0.0,0.0,0.0,0.0,-107.0,0.0,-45.0,0.0,0.0,0.0,34.27253218749016,17.55503396713325,4.5664159652781,2.71244752077667,2.239076248918421,1.8729645500160348,1.5002346966578084,1.128848153721787,0.7751093464154123,0.4863083803318906,0.283077730470227,0.1519604134835888,0.07528431377263851,0.03488082879416769,0.015337607126136613,0.006486323026511527,0.0023726037451722005,6.935176386448797,4.963148081386429,4.344960414657978,3.84265760496731,3.3038478633634347,2.7218650949266565,2.101839867044342,1.5184867746147377,1.0346074215930938,0.6604939754570811,0.3945162255131712,0.22222967701199206,0.11926681824812045,0.06178698763655824,0.029303670495525062
0.0,5.0,5.0,0.0,120.0,0.0,0.0,0.0,0.0,-107.0,0.0,-45.0,0.0,0.0,0.0,34.27253218749016,17.55503396713325,4.569921764782514,2.72575229666605,2.2533198821352176,1.8870645833843775,1.5171113678436272,1.1504563846945908,0.7983787527604894,0.50624793846353,0.2971046963727973,0.16023073344347463,0.07942939626103764,0.036691950050459436,0.0160491668231482,0.00674568390821649,0.0024535451335265467,6.937930001786775,4.977758804406803,4.3625902870321704,3.861506866126737,3.328007535871344,2.756114471347286,2.1441515561032447,1.5610347241553866,1.0702511017743113,0.6859155179044703,0.4101570499851882,0.23069845032045944,0.12340377757876486,0.06366236010594084,0.03005280136831103
0.0,6.0,6.0,0.0,120.0,0.0,0.0,0.0,0.0,-107.0,0.0,-45.0,0.0,0.0,0.0,34.27253218749016,17.55503396713325,4.573578859393325,2.73930373601397,2.267672318641929,1.900576480733877,1.5318673281298167,1.1690529427063119,0.8191330659807937,0.524768875422259,0.3105931981271288,0.16841311529067698,0.08362022872270092,0.0385492660063055,0.01678422706315828,0.007014191598204056,0.002537407861533235,6.940809914128922,4.99262819644339,4.380338694692815,3.879636583838376,3.349200980662183,2.7854481923735612,2.1815194616705162,1.6000424604744268,1.1040015511864596,0.7106437307470624,0.4256966646486715,0.239238315212878,0.1276125900520294,0.06557825898292406,0.030819149602005796
0.0,7.0,7.0,0.0,120.0,0.0,0.0,0.0,0.0,-107.0,0.0,-45.0,0.0,0.0,0.0,34.27253218749016,17.55503396713325,4.577393084208498,2.753105345344266,2.28217842373166,1.913828480434523,1.5451661878144918,1.1851912160791769,0.8376131510591877,0.5418995176075847,0.32349668749216537,0.17646471842811345,0.08783639835500583,0.04044641081794206,0.017541408786392876,0.007291650768562589,0.00262418219270483,6.943821406291261,5.007759463582205,4.398250476755135,3.8974444298955504,3.3683790040174744,2.810830947568346,2.214515301189995,1.6357053711711609,1.1358398884073542,0.7345989691092576,0.44107553414652123,0.24782175250191013,0.13188400778015444,0.06753224617601448,0.03160223243012536
0.0,8.0,8.0,0.0,120.0,0.0,0.0,0.0,0.0,-107.0,0.0,-45.0,0.0,0.0,0.0,34.27253218749016,17.55503396713325,4.581370464062556,2.767160079941656,2.296855160066396,1.9270085482042556,1.557503449697179,1.1993626358779175,0.8540636830988836,0.5576897170099336,0.33578523454015424,0.18434934091085156,0.09205869702567229,0.04237689786798317,0.018319195260835294,0.007577820440599541,0.002713848725135036,6.946969966061736,5.023155310240324,4.4163417877912705,3.9151537585360745,3.3862372603307396,2.833094189024572,2.243682426124478,1.6682390715582742,1.1657781556080278,0.757721027932405,0.45624094095893064,0.25642234170767114,0.1362086276747659,0.06952172291606579,0.03240151176702421
0.0,9.0,9.0,0.0,120.0,0.0,0.0,0.0,0.0,-107.0,0.0,-45.0,0.0,0.0,0.0,34.27253218749016,17.55503396713325,4.585517215437761,2.781470729438712,2.3117089479104638,1.9402196586919553,1.56923663256694,1.21199297525429,0.8687261131932174,0.5722045952596209,0.3474427609654187,0.1920371053718269,0.09626934642015794,0.04433423465597919,0.01911595736517287,0.007872416781335009,0.00280637845782069,6.950261268453021,5.038818238862602,4.434618248481621,3.932884561866539,3.40326874560753,2.8529406108981967,2.2695307268829197,1.6978698524750355,1.1938521867140977,0.7799668057296018,0.4711469580806235,0.2650150379746277,0.14057700833504358,0.07154395691147725,0.03321639801106662
0.0,10.0,10.0,0.0,120.0,0.0,0.0,0.0,0.0,-107.0,0.0,-45.0,0.0,0.0,0.0,34.27253218749016,17.55503396713325,4.5898397489852725,2.796039989789625,2.3267426706042778,1.9535159413269072,1.580615446218409,1.2234421095000987,0.8818333433012797,0.5855198186068173,0.35846454586505694,0.1995039987087508,0.10045213640558655,0.04631202185405421,0.019929978795054388,0.008175116418067565,0.002901732984342121,6.953701176116475,5.0547506264674675,4.453082053907055,3.9506986032727527,3.41981224291104,2.8709517804689155,2.292532976843661,1.7248281067407698,1.2201157773936957,0.801307998069124,0.4857542337402702,0.2735763737397548,0.14497977495798609,0.07359610960950605,0.034046254406569644
0.0,11.0,11.0,0.0,120.0,0.0,0.0,0.0,0.0,-107.0,0.0,-45.0,0.0,0.0,0.0,34.27253218749016,17.55503396713325,4.594344672833118,2.810870493606525,2.341958192912025,1.9669248545798315,1.5918090329574872,1.23400693545996,0.8936055528253268,0.5977180153442342,0.3688550585634663,0.2067313336102423,0.10459249238504835,0.04830403597944726,0.02075948047437373,0.008485560160096307,0.0029998647866867033,6.95729574044192,5.070954762613052,4.471734434378283,3.9686264563351363,3.436093801919464,2.8875988612949275,2.313122059219929,1.749343748027443,1.2446360237480758,0.8217289240130955,0.50002964704924,0.2820845939321239,0.14940771128157224,0.07567526297226165,0.03489040164062596
0.0,12.0,12.0,0.0,120.0,0.0,0.0,0.0,0.0,-107.0,0.0,-45.0,0.0,0.0,0.0,34.27253218749016,17.55503396713325,4.599038796121539,2.8259648328461338,2.3573571407421,1.9804600260750034,1.6029286983708524,1.2439267526989264,0.9042469928424259,0.6088859976721894,0.37862612543034635,0.213705180743694,0.10867748684777626,0.05030429605450438,0.02160264362077489,0.008803357013839299,0.0031007176100366425,6.961051202662606,5.087432873671931,4.490576382938819,3.9866828289252876,3.452260066289168,2.903255622334624,2.331689061839083,1.771642884613901,1.2674896597794079,0.8412245427632201,0.5139458821186775,0.29051973428758765,0.15385183826426893,0.07777844527206752,0.03574812258852263
0.0,13.0,13.0,0.0,120.0,0.0,0.0,0.0,0.0,-107.0,0.0,-45.0,0.0,0.0,0.0,34.27253218749016,17.55503396713325,4.6039291323889024,2.8413255723044273,2.3729410955980477,1.99412829089469,1.6140457280020695,1.253390212534041,0.9139437216853913,0.6191125325645249,0.3877954067309081,0.22041580544837427,0.11269580873908554,0.05230711526910485,0.02245763106991493,0.009128088379815179,0.003204226903495131,6.964973994621029,5.104187133504866,4.509608827725711,4.004874791646232,3.468403651950774,2.918212588051505,2.3485823914133315,1.7919452541139091,1.288760211130038,0.8597986870891849,0.527480957431738,0.2988636523874014,0.15830347973253608,0.07990265550967542,0.036618667132981
0.0,14.0,14.0,0.0,120.0,0.0,0.0,0.0,0.0,-107.0,0.0,-45.0,0.0,0.0,0.0,34.27253218749016,17.55503396713325,4.6090229026822165,2.8569552546448795,2.388711629671146,2.0079333438514837,1.62520464756454,1.2625429579582708,0.922862275336187,0.6284864935745794,0.39638514169959416,0.22685713142372405,0.11663770224127795,0.05430713907606779,0.02332260659755681,0.009459312327305625,0.0033103203146625172,6.969070739125569,5.121219664032826,4.528832664365282,4.0232059591661935,3.484581599428629,2.932691209387903,2.3641080128327716,1.810462132744743,1.3085357871894907,0.8774625199781114,0.5406177378762628,0.30710002053769414,0.16275431560723114,0.08204488615614168,0.037501256992166346
0.0,15.0,15.0,0.0,120.0,0.0,0.0,0.0,0.0,-107.0,0.0,-45.0,0.0,0.0,0.0,34.27253218749016,17.55503396713325,4.614327538378627,2.872856400433142,2.404670313037744,2.0218775283682557,1.6364326627809906,1.2714952332219371,0.9311492219771227,0.6370952991361821,0.40442111295701194,0.2330262452316072,0.12049488448217302,0.05629937137241287,0.024195752091178798,0.009796567854046052,0.00341891822785544,6.97334824993142,5.138532530798065,4.548248767555004,4.041678492631506,3.5008282531806985,2.94685717116524,2.378530794405544,1.8273945852934894,1.326907351581033,0.8942332075597003,0.55334344917513,0.31521428878228047,0.16719642357646344,0.08420214401093902,0.03839509049956242
0.0,16.0,16.0,0.0,120.0,0.0,0.0,0.0,0.0,-107.0,0.0,-45.0,0.0,0.0,0.0,34.27253218749016,17.55503396713325,4.619850683735729,2.889031506354776,2.4208187218017705,2.0359626581195833,1.647746119285404,1.2803289537132567,0.9389314933276728,0.6450235944668461,0.4119317826305071,0.23892294872125494,0.12426044980463606,0.05827919048492138,0.0250752825157751,0.010139379052487754,0.0035299343369119543,6.977813531404095,5.156127737246409,4.56785800383566,4.060293996135921,3.517163923174642,2.960832259622954,2.392076818894381,1.8429320169945838,1.3439673379809836,0.9101327923856648,0.5656492084796969,0.323193625328538,0.17162231024377772,0.0863714690514099,0.03929934728585378
0.0,17.0,17.0,0.0,120.0,0.0,0.0,0.0,0.0,-107.0,0.0,-45.0,0.0,0.0,0.0,34.27253218749016,17.55503396713325,4.6256001981930215,2.9054830434249777,2.437158447967923,2.050190366869949,1.659154765962907,1.2891039349834954,0.9463173429950291,0.6523521635463884,0.41894755923163207,0.24454936134292204,0.12792876662237182,0.06024235662788086,0.025959458694230855,0.010487259119121128,0.0036432762440538834,6.982473777917582,5.174007219549116,4.587661243998793,4.079053886839705,3.5336005106963526,2.974704504535133,2.4049364395548047,1.8572510349581661,1.3598085092533088,0.9251872453868615,0.5775295803697276,0.33102684058431237,0.1760249328687244,0.08854995121900679,0.040213192819245035
0.0,18.0,18.0,0.0,120.0,0.0,0.0,0.0,0.0,-107.0,0.0,-45.0,0.0,0.0,0.0,34.27253218749016,17.55503396713325,4.631584158435288,2.9222134558553856,2.4536911079856343,2.0645622439720897,1.6706644737177807,1.2978631518497439,0.9533977628709434,0.6591570693486363,0.42550016366037013,0.24990957056482413,0.13149537154494736,0.062185012375768685,0.026846597982544268,0.01083971415762297,0.003758846076476681,6.987336373012759,5.192172842465793,4.607659372037759,4.097959532799187,3.5501450416797815,2.988536539947004,2.4172678272968544,1.870514638690685,1.374522988356433,0.9394256717491865,0.5889821640990724,0.3387042999471066,0.1803977128479991,0.09073474514471465,0.0411357827667372
0.0,19.0,19.0,0.0,120.0,0.0,0.0,0.0,0.0,-107.0,0.0,-45.0,0.0,0.0,0.0,34.27253218749016,17.55503396713325,4.63781086020931,2.9392251606260946,2.470418348561901,2.079079880732324,1.6822789120786317,1.306637023282807,0.9602481910759788,0.6655090205893782,0.43162207233289296,0.25500932613962357,0.1349568643308975,0.0641036775307216,0.02773508296504197,0.011196246739276813,0.003876541112529011,6.9924088883133075,5.210626396138842,4.627853289978116,4.117012297690667,3.5668018128536545,3.002372284617892,2.429200761426498,1.882871750841159,1.388201415947841,0.9528796451913125,0.6000072153317113,0.3462178295209608,0.18473454207172604,0.09292308286009708,0.04206626714517723
0.0,20.0,20.0,0.0,120.0,0.0,0.0,0.0,0.0,-107.0,0.0,-45.0,0.0,0.0,0.0,34.27253218749016,17.55503396713325,4.644288819870992,2.9565205475947973,2.487341849947898,2.0937448839729695,1.6940005487172833,1.3154467981316549,0.9669303630570755,0.6714729572825632,0.43734602382162235,0.2598557726430866,0.13831080627360676,0.06599523959146505,0.028623368325389933,0.011556359195002456,0.003996254409832675,6.997699082181393,5.229369593554426,4.648243919542992,4.136213552975504,3.583573651249487,3.0162421344403954,2.440840448844001,1.8944570820590958,1.4009322101833748,0.9655826463027801,0.6106073035972013,0.3535606180960143,0.18902978324081815,0.09511228457306219,0.043003794237513104
0.0,21.0,21.0,0.0,120.0,0.0,0.0,0.0,0.0,-107.0,0.0,-45.0,0.0,0.0,0.0,34.27253218749016,17.55503396713325,4.651026775636333,2.9741019799657136,2.504463327546596,2.108558879679892,1.705831224643905,1.3243071588706554,0.9734941843506797,0.6771078395456727,0.44270458177897815,0.26445721432839764,0.14155562380833103,0.06785694086414532,0.02950998606694347,0.01191955662247505,0.00411787542845396,7.003214898094274,5.248404068454158,4.668832202014157,4.155564680978622,3.6004626268176603,3.0301668988418755,2.452271202204351,1.9053913055731906,1.4128009184249883,0.9775695832152528,0.6207870051158746,0.36072711801966095,0.1932782651572067,0.0972997676109191,0.04394751425629346
0.0,22.0,22.0,0.0,120.0,0.0,0.0,0.0,0.0,-107.0,0.0,-45.0,0.0,0.0,0.0,34.27253218749016,17.55503396713325,4.658033688512435,2.9919717950024785,2.5217845326791704,2.123523514694579,1.7177724728274573,1.3332281755458995,0.9799795334263266,0.6824666170025709,0.44772975112655994,0.2688229066601407,0.14469051843573494,0.06968636310427474,0.03039354926282211,0.012285349599577639,0.004241290643220146,7.008964462725908,5.267731373580647,4.689619097394505,4.175067076426053,3.617470439667162,3.044160717211823,2.4635598563738075,1.9157815022231675,1.4238896590098247,0.9888763763789915,0.6305526294277422,0.36771294700668977,0.19747527390777758,0.09948305364958696,0.04489658274268397
0.0,23.0,23.0,0.0,120.0,0.0,0.0,0.0,0.0,-107.0,0.0,-45.0,0.0,0.0,0.0,34.27253218749016,17.55503396713325,4.665318742887053,3.0101323049328808,2.5393072530891034,2.13864045847107,1.7298256873077846,1.342216739328038,0.9864179317851152,0.6875963511347774,0.4524526467628516,0.27296286965818095,0.14771538348457655,0.07148141044456255,0.031272754514346274,0.012653256602000323,0.004366384140216877,7.014956083716968,5.287352979221705,4.710605583545268,4.1947221480130485,3.6345986209577616,3.0582331735562813,2.4747588479312723,1.9257218270543979,1.4342766550438653,0.9995395930683781,0.6399119773698256,0.3745147924591623,0.20161654076337537,0.101659774358605,0.04585016369469278
0.0,24.0,24.0,0.0,120.0,0.0,0.0,0.0,0.0,-107.0,0.0,-45.0,0.0,0.0,0.0,34.27253218749016,17.55503396713325,4.672891346754312,3.0285857980361763,2.5570333134912038,2.1539114049716823,1.7419922085989978,1.351277592137646,0.9928340436085576,0.6925384604354838,0.456903214805882,0.2768877191647387,0.15063072778403475,0.07324029124405938,0.03214638328879326,0.013022806128518026,0.004493038193409506,7.021198247112001,5.307270272065222,4.731792655603371,4.2145313198355625,3.6518486314615757,3.072390798517216,2.485908920823231,1.9352943443812698,1.4440358626991159,1.0095961209995055,0.6488741273630695,0.38113031947344694,0.20569822751332387,0.10382767559819421,0.04680743242281835
0.0,25.0,25.0,0.0,120.0,0.0,0.0,0.0,0.0,-107.0,0.0,-45.0,0.0,0.0,0.0,34.27253218749016,17.55503396713325,4.680761131551395,3.047334539925489,2.574964576277697,2.1693380743905037,1.7542733642974264,1.36041405122163,0.9992469875752209,0.6973290580552979,0.4611100061226115,0.28060851316621493,0.15343760598265688,0.0749614993870152,0.033013302295932766,0.013393538542238908,0.004621133818041437,7.027699614437289,5.3274845543968805,4.753181325749222,4.234496032323,3.669221906601997,3.0866381150354165,2.497041451182453,1.9445699786674984,1.4532366949678306,1.0190828737918523,0.6574492466671015,0.3875580833822808,0.209716909858682,0.10598462030758905,0.047767578134903135
0.0,26.0,26.0,0.0,120.0,0.0,0.0,0.0,0.0,-107.0,0.0,-45.0,0.0,0.0,0.0,34.27253218749016,17.55503396713325,4.688937951578366,3.0663807750448555,2.5931029423839322,2.1849222144925875,1.7666704869799839,1.3696285089863822,1.0056714587737459,0.7019993533315367,0.4651000010414774,0.2841366112285202,0.15613755502866333,0.07664379546273628,0.03387246304955666,0.013765007640150189,0.004750551298086524,7.034469019389368,5.347997043675784,4.774772623278243,4.254617742519186,3.686719875122167,3.1009783519447676,2.5081804058425052,1.9536095324897822,1.4619438392930786,1.028036523758011,0.6656484242043705,0.39379744739992023,0.21366955939781473,0.10812859022394228,0.048729806254712016
0.0,27.0,27.0,0.0,120.0,0.0,0.0,0.0,0.0,-107.0,0.0,-45.0,0.0,0.0,0.0,34.27253218749016,17.55503396713325,4.697431882972101,3.0857267283997536,2.6114503522698738,2.2006656015228216,1.779184921358298,1.3789227710078469,1.0121186693236552,0.7065760916023583,0.46889848304813164,0.2874835458674325,0.15873253620224412,0.07828618816899059,0.03472290074641091,0.014136781966412462,0.0048811706855173545,7.041515464102818,5.36880887251829,4.796567594890714,4.2748979237650016,3.704343965745997,3.1154139212244405,2.519343963159862,1.9624647290239166,1.4702171647120355,1.0364932595906644,0.6734835216984112,0.39984850569913905,0.21755352465721775,0.11025768656850445,0.049693340480862234
0.0,28.0,28.0,0.0,120.0,0.0,0.0,0.0,0.0,-107.0,0.0,-45.0,0.0,0.0,0.0,34.27253218749016,17.55503396713325,4.706253222205286,3.105374607536014,2.63000878696479,2.216570040748653,1.7918180268172452,1.3882982800355312,1.0185971230665936,0.7110820104814615,0.47252895817686713,0.29066090524406846,0.16122488204743915,0.07988791620074279,0.03556373258153412,0.014508445887149475,0.005012872269566907,7.048848114965527,5.389921089112948,4.818567305117611,4.295338064944068,3.7220956089674186,3.129946730601021,2.5305458327285777,1.971179243836972,1.4781117116176463,1.044488567952673,0.6809670401632145,0.40571201204523655,0.2213665115497976,0.11237012983182919,0.05065742459428781
0.0,29.0,29.0,0.0,120.0,0.0,0.0,0.0,0.0,-107.0,0.0,-45.0,0.0,0.0,0.0,34.27253218749016,17.55503396713325,4.7154124840815586,3.1253266047773374,2.648780269130827,2.2326373667442416,1.8045711782542597,1.3977562613635006,1.0251132433196324,0.7155362948496696,0.47601311588941725,0.2936802269518983,0.16361724756977858,0.08144843081345794,0.03639415560640238,0.014879600445974188,0.005145537014526767,7.056476297948954,5.411334658082021,4.840772836819089,4.315939669474593,3.7399762372218506,3.144578383848981,2.541796313861642,1.9797896984249292,1.4856777552483726,1.052057038840878,0.6881119991684235,0.4113893139422735,0.22510656358113476,0.11446425878301225,0.05162132402369437
0.0,30.0,30.0,0.0,120.0,0.0,0.0,0.0,0.0,-107.0,0.0,-45.0,0.0,0.0,0.0,34.27253218749016,17.55503396713325,4.724920399197963,3.1455848997273064,2.667766864114894,2.248869443522768,1.8174457664651846,1.4072978151005557,1.031671873982631,0.7199550168539539,0.4793708265611399,0.2965529028681758,0.165912565126976,0.08296737918650732,0.037213444224597096,0.015249864020170817,0.005279046964979342,7.064409493419767,5.433050461798583,4.863185291713683,4.336704254203574,3.7579872847381184,3.159310306121789,2.5531031326445097,1.9883265952791942,1.4929609326720785,1.0592321949935963,0.6949318267403951,0.4168822921096986,0.22877204207075916,0.11653852881950845,0.05258432717949155
0.0,31.0,31.0,0.0,120.0,0.0,0.0,0.0,0.0,-107.0,0.0,-45.0,0.0,0.0,0.0,34.27253218749016,17.55503396713325,4.734787910845272,3.166151662038138,2.686970680970664,2.2652681646014736,1.8304431985156482,1.4169239733472299,1.0382766739678086,0.724351550946789,0.4826201702986796,0.29929009511183324,0.16811400252614292,0.08444458865794024,0.03802094740897074,0.015618872797529888,0.005413285617708665,7.0726573303976545,5.455069302163209,4.885805790913336,4.357633348314786,3.7761301874667486,3.174143820340296,2.5644720950722975,1.9968151808936423,1.500002422342356,1.0660463456623348,0.7014402582004154,0.42219330500263463,0.23236160660885066,0.11859150976479757,0.05354574656757108
0.0,32.0,32.0,0.0,120.0,0.0,0.0,0.0,0.0,-107.0,0.0,-45.0,0.0,0.0,0.0,34.27253218749016,17.55503396713325,4.745026171316266,3.1870290544454134,2.7063938734418556,2.281835453056764,1.8435648981885604,1.4266357346991791,1.0449304235534296,0.7287369572981712,0.48577749168158557,0.30190266311785646,0.17022492393779756,0.08588005185742885,0.038816085714316884,0.015986281093320585,0.005548138259903705,7.081229580222911,5.477391902839944,4.908635475451014,4.378728492318136,3.7944063831201684,3.1890801923821126,2.5759075901694524,2.005276228811394,1.506839165207056,1.072530464880365,0.7076512426575479,0.42732513801514377,0.23587419592782943,0.12062188321109303,0.054504919695113827
0.0,33.0,33.0,0.0,120.0,0.0,0.0,0.0,0.0,-107.0,0.0,-45.0,0.0,0.0,0.0,34.27253218749016,17.55503396713325,4.755646537591701,3.2082192360655513,2.726038640903973,2.298573261602781,1.8568123064760882,1.436434084453671,1.0516352593078524,0.7331203296950156,0.4888574751188575,0.3044011017390521,0.17224885333303352,0.08727391272940094,0.03959834815023817,0.016351761525999195,0.005683492273638692,7.090136149596482,5.500018911947976,4.931675506794329,4.399991237153361,3.8128173112551447,3.204120656897048,2.5874129727420008,2.0137267394714877,1.5135041167348764,1.078714094030519,0.7135788562424856,0.4322809569605314,0.2393090093318931,0.12262843949419737,0.05546120978128611
0.0,34.0,34.0,0.0,120.0,0.0,0.0,0.0,0.0,-107.0,0.0,-45.0,0.0,0.0,0.0,34.27253218749016,17.55503396713325,4.7666605663740125,3.229724365950466,2.7459072292648634,2.3154835727091085,1.8701868820626657,1.446320006041424,1.0583928520183163,0.7375091062913813,0.491873235794479,0.306795490149759,0.17418944023789987,0.08862645341289564,0.04036728897016332,0.016715005069073495,0.005819237407002575,7.099387072955409,5.522950905202116,4.954927067341686,4.421423143417591,3.83136441332771,3.219266431444604,2.5989908510139528,2.0221805572626588,1.5200265199796685,1.084625268119876,0.7192372214781654,0.43706426540307025,0.24266548879519434,0.12461007437764753,0.0564140062862569
0.0,35.0,35.0,0.0,120.0,0.0,0.0,0.0,0.0,-107.0,0.0,-45.0,0.0,0.0,0.0,34.27253218749016,17.55503396713325,4.778080008439505,3.2515466068918797,2.7660019318260716,2.332568398762014,1.8836901017600651,1.456294487237446,1.0652045398213137,0.7419093433119772,0.49483642159462177,0.3090954511763107,0.1760504276733691,0.08993808192750745,0.041122524424195346,0.017075720995205317,0.005955266012601618,7.108992504146962,5.54618838949234,4.978391360898445,4.443025780712627,3.850049132681792,3.2345187238353876,2.6106433001718403,2.0306489079009515,1.5264321908079714,1.090290464768132,0.7246404324274849,0.44167886541739726,0.2459433018101018,0.12656578551381123,0.05736272527239933
0.0,36.0,36.0,0.0,120.0,0.0,0.0,0.0,0.0,-107.0,0.0,-45.0,0.0,0.0,0.0,34.27253218749016,17.55503396713325,4.789916802281064,3.2736881294654845,2.786325090107252,2.3498297822672614,1.8973234608774263,1.46635852337812,1.0720714266162936,0.746325953089887,0.4977573219171223,0.3113101205338756,0.17783562220795696,0.0912093206049698,0.04186372951569763,0.01743363672724714,0.006091473254510587,7.118962707366015,5.569731806889266,5.002069613130252,4.464800727100939,3.8688729144642307,3.249878735685856,2.6223720189792186,2.039140861134868,1.5327438075704436,1.0957345745503428,0.7298024854394627,0.4461288213711147,0.2491423250410902,0.12849466874085952,0.058306809611777206
0.0,37.0,37.0,0.0,120.0,0.0,0.0,0.0,0.0,-107.0,0.0,-45.0,0.0,0.0,0.0,34.27253218749016,17.55503396713325,4.802183067015066,3.2961511163031108,2.806879094635968,2.367269796089909,1.9110884735265603,1.476513118939485,1.0789944539369685,0.7507629087002575,0.5006449798193418,0.3134481253209615,0.17954886609268433,0.09244079520208613,0.04259063479425546,0.01778849760950715,0.006227757285022781,7.129308047321556,5.593581539059202,5.0259630719902635,4.486749568657532,3.8878372054799644,3.265347663980958,2.6341784432240445,2.0476637249761804,1.5389811987148525,1.1009808910288394,0.7347372154374975,0.45041842635821894,0.25226262881665557,0.13039591426652006,0.05924572905406305
0.0,38.0,38.0,0.0,120.0,0.0,0.0,0.0,0.0,-107.0,0.0,-45.0,0.0,0.0,0.0,34.27253218749016,17.55503396713325,4.8148910945281616,3.318937766578738,2.8276663857048665,2.3848905437258745,1.9249866728735534,1.4867592882723644,1.0859744527940765,0.7552234180027358,0.5035073045296417,0.31551757101897365,0.1811940114755434,0.09363322463158498,0.0433030232109092,0.0181400666112229,0.006364019392800888,7.140038978600048,5.61773791206888,5.050073008116284,4.508873899105233,3.90694345401147,3.2809267016721106,2.646063826858727,2.0562233782899706,1.5451616230488476,1.1060511185768058,0.7394582377648681,0.45455217095170214,0.255304462471513,0.13226880278240863,0.06017898016889251
0.0,39.0,39.0,0.0,120.0,0.0,0.0,0.0,0.0,-107.0,0.0,-45.0,0.0,0.0,0.0,34.27253218749016,17.55503396713325,4.828053340841888,3.342050300691826,2.848689454098104,2.4026941596006357,1.9390196113521327,1.4970980559415192,1.093012180598499,0.7597100701931316,0.5063511819032638,0.3175260361683688,0.18277489670684513,0.09478741125180293,0.04400072705544572,0.018488123972975504,0.006500164124208575,7.151166034195724,5.642201201556275,5.074400715193769,4.531175319522719,3.9261931096284672,3.2966170378687076,2.6580292992731134,2.064824548778824,1.5513000385130182,1.1109653959413262,0.7439788956322392,0.45853471398920387,0.25826824053412056,0.13411270154638705,0.06110608617634261
0.0,40.0,40.0,0.0,120.0,0.0,0.0,0.0,0.0,-107.0,0.0,-45.0,0.0,0.0,0.0,34.27253218749016,17.55503396713325,4.841682416675922,3.3654909651291423,2.8699508417887776,2.4206828093914043,1.9531888608545651,1.5075304569059378,1.100108347112656,0.7642249580504967,0.5091825809256331,0.31948057384592393,0.18429532474996402,0.09590423166269484,0.044683624990045794,0.01883246680564774,0.006636099379720405,7.162699813180637,5.666971638240167,5.09894751028056,4.553655438116547,3.9455876230108933,3.3124198579047115,2.670075905166418,2.0734710432756773,1.557409356383556,1.115742333413888,0.7483122132089556,0.46237085515260595,0.2611545297402186,0.1359270604648413,0.062026596678690135
0.0,41.0,41.0,0.0,120.0,0.0,0.0,0.0,0.0,-107.0,0.0,-45.0,0.0,0.0,0.0,34.27253218749016,17.55503396713325,4.85579107615145,3.389262037059899,2.8914531429003447,2.43885869153552,1.9674960141670585,1.5180575357729722,1.1072636326803433,0.768769778907579,0.5120066548800325,0.3213877190369042,0.18575904370912374,0.09698462796304003,0.04535163918890003,0.019172908650527568,0.006771736492227202,7.174650981755412,5.692049451950208,5.123714787892723,4.5763159235401645,3.9651284468115584,3.328336304712912,2.682204651473918,2.082165930145332,1.5635006806019278,1.1203990611070322,0.7524708544241628,0.46606550914309625,0.263964036840752,0.13771140820328662,0.06294008770648962
0.0,42.0,42.0,0.0,120.0,0.0,0.0,0.0,0.0,-107.0,0.0,-45.0,0.0,0.0,0.0,34.27253218749016,17.55503396713325,4.8703922072415295,3.4133658300181597,2.9131990037563775,2.4572240356774797,1.981942683258016,1.528680348385636,1.1144787000881562,0.7733459176597512,0.5148278360386266,0.3232535010523123,0.18716972946265995,0.09802959943455024,0.04600473258892462,0.019509279008139504,0.006906990271067479,7.187030236586773,5.717434817583322,5.148703935674419,4.599158420796158,3.9848170341058267,3.3443675396825916,2.6944164951011453,2.090911704037974,1.5695835243595087,1.1249512875168035,0.7564670872682575,0.4696236813201792,0.2666975971678033,0.13946534834325128,0.06384616066059678
0.0,43.0,43.0,0.0,120.0,0.0,0.0,0.0,0.0,-107.0,0.0,-45.0,0.0,0.0,0.0,34.27253218749016,17.55503396713325,4.885498821260656,3.4378046998818785,2.9351911233687713,2.4757811017853975,1.9965304978592038,1.539399962949543,1.1217542025972165,0.7779545142094837,0.5176499233622486,0.3250834600932091,0.18853097039097438,0.09904019462337403,0.046642906253857586,0.019841422842678542,0.007041779031084462,7.199848272983393,5.743127816051877,5.173916270551405,4.622184487352595,4.004654836927515,3.3605147889907125,2.706712331888262,2.0997104185267146,1.5756660087117182,1.1294133653157847,0.7603127536652873,0.473050444677105,0.26935616391027517,0.14118855560839774,0.0647444413428586
0.0,44.0,44.0,0.0,120.0,0.0,0.0,0.0,0.0,-107.0,0.0,-45.0,0.0,0.0,0.0,34.27253218749016,17.55503396713325,4.901124033157181,3.4625810543062054,2.957432258412277,2.4945321802053253,2.0112611111650813,1.5502174571044445,1.1290907901888463,0.7825965174939731,0.5204761630101238,0.3268826670999898,0.18984625417289766,0.10001750379648244,0.047266196851438846,0.020169200068179502,0.007176024622149825,7.213115815487035,5.769128567991695,5.199353203011207,4.6453957560954295,4.024643310680832,3.3767792236760474,2.7190930652616916,2.1085637650556364,1.5817550503296978,1.1337983611045852,0.7640192449824044,0.47635091805261537,0.27194079804653953,0.14288077218079515,0.06563458066531279
0.0,45.0,45.0,0.0,120.0,0.0,0.0,0.0,0.0,-107.0,0.0,-45.0,0.0,0.0,0.0,34.27253218749016,17.55503396713325,4.917281059264067,3.4876973433382217,2.9799252139682615,2.5134796014297835,2.0261361939953275,1.561133920358153,1.1364891126424315,0.7872727290749928,0.5233093212544989,0.32865574621541943,0.19111895657475525,0.10096265176378134,0.04787467424022927,0.020492485021617518,0.00730965242782639,7.226843575422945,5.795437164584219,5.2250161725706645,4.668793871990288,4.044783909266328,3.3931620120788266,2.7315595853256394,2.11747316144046,1.5878565227723376,1.1381181305257049,0.7675974825435034,0.47953024557329843,0.2744526588904943,0.14454180410831274,0.06651625348847263
0.0,46.0,46.0,0.0,120.0,0.0,0.0,0.0,0.0,-107.0,0.0,-45.0,0.0,0.0,0.0,34.27253218749016,17.55503396713325,4.933983194213229,3.513156078757574,3.0026728522338315,2.53262572674398,2.041157438992193,1.5721504533597592,1.143949821887987,0.7919838376685814,0.5261517501090601,0.33040689910529075,0.19235233217247066,0.10187679105519482,0.048468439162251964,0.020811165927789,0.007442591349950435,7.24104223882108,5.82205369686686,5.250906641271622,4.692380484611613,4.065078088507012,3.409664319649116,2.744112771999277,2.1264398147413894,1.5939754025317383,1.1423833951482718,0.7710579032005569,0.482593577266012,0.276892995194956,0.14617151782086513,0.06738915802921515
0.0,47.0,47.0,0.0,120.0,0.0,0.0,0.0,0.0,-107.0,0.0,-45.0,0.0,0.0,0.0,34.27253218749016,17.55503396713325,4.951243797823231,3.538959835846628,3.0256780911215295,2.551972951163346,2.0563265598727254,1.583268168329552,1.1514735733826857,0.7967304463442689,0.529005445901651,0.3321399305175553,0.19354950691630954,0.10276109544931758,0.04904762103620498,0.02112514436008348,0.00757477378490227,7.255722446270319,5.84897825666066,5.277026095356114,4.716157250223483,4.085527305406491,3.42628730931613,2.756753497066178,2.1354647704907572,1.6001158984119461,1.1466038202354296,0.7744104496143831,0.48554605083271624,0.2792631367640564,0.14776983676130295,0.0682530151989823
0.0,48.0,48.0,0.0,120.0,0.0,0.0,0.0,0.0,-107.0,0.0,-45.0,0.0,0.0,0.0,34.27253218749016,17.55503396713325,4.9690762793790135,3.5651112583244053,3.0489439045628624,2.57152370420399,2.071645291583138,1.594488189282272,1.1590610269637822,0.8015130937999009,0.5318721011493445,0.33385827452978656,0.19471347243450135,0.10361675385333956,0.049612375845439614,0.02143433470072151,0.007706135589073268,7.270894773161304,5.876210942704211,5.303376045444281,4.740125832132717,4.106133018224518,3.443032141756959,2.7694826254313156,2.144548951010666,1.6062815653443454,1.1507880922301081,0.7776645649250938,0.48839277458464947,0.28156448652795474,0.1493367381363173,0.06910756792813201
0.0,49.0,49.0,0.0,120.0,0.0,0.0,0.0,0.0,-107.0,0.0,-45.0,0.0,0.0,0.0,34.27253218749016,17.55503396713325,4.987494080898534,3.591613063628802,3.0724733230686896,2.5912804503680658,2.087115390591061,1.6058116522177879,1.1667128473648047,0.8063322708743272,0.5347531501800873,0.3355650210057688,0.19584708196114842,0.10444496453588022,0.05016288411477631,0.021738663603563944,0.007836616035205562,7.286569709265661,5.903751867420646,5.3299580264757225,4.7642879008457,4.126896686688027,3.4598999756540953,2.782301015911236,2.1536931850094136,1.6124754038701639,1.1549439949707416,0.7808291914656674,0.4911388115392514,0.2837985130366984,0.15087224979079575,0.06995258047594248
0.0,50.0,50.0,0.0,120.0,0.0,0.0,0.0,0.0,-107.0,0.0,-45.0,0.0,0.0,0.0,34.27253218749016,17.55503396713325,5.006510659706238,3.6184680480891935,3.096269434294116,2.6112456896463656,2.102738635192509,1.6172397053081202,1.1744297045274323,0.8111884332652904,0.5376498089892373,0.3372629418549654,0.19695304776477723,0.10524692971547507,0.05069934897029705,0.022038069462062566,0.00796615776096154,7.302757637521016,5.931601163577058,5.35677359762295,4.788645134254329,4.147819772232605,3.476891967955548,2.7952095217582325,2.16289823026992,1.618699946563814,1.1590784838225847,0.7839127731524238,0.49378916468608525,0.28596674333436917,0.1523764472072467,0.07078783773056525
0.0,51.0,51.0,0.0,120.0,0.0,0.0,0.0,0.0,-107.0,0.0,-45.0,0.0,0.0,0.0,34.27253218749016,17.55503396713325,5.026139470370511,3.645679091957286,3.120335383612335,2.6314219580379885,2.118516825832481,1.62877350908189,1.1822122737967578,0.8160820112482082,0.5405631098409663,0.3389545167577818,0.19803393994768284,0.10602385050774417,0.051221994276602026,0.02233250188452686,0.00809470671088111,7.319468812081208,5.959758990782251,5.383824342182779,4.813199217848628,4.168903738270526,3.4940092741391595,2.808208991042786,2.1721647909128246,1.6249573326730617,1.1631977570726824,0.7869232611747737,0.4963487634279089,0.2880707561791335,0.15384945063039498,0.07161314450361697
0.0,52.0,52.0,0.0,120.0,0.0,0.0,0.0,0.0,-107.0,0.0,-45.0,0.0,0.0,0.0,34.27253218749016,17.55503396713325,5.04639394607378,3.673249164265239,3.1446743747019146,2.6518118280869434,2.134451785438216,1.640414236607715,1.1900612360548246,0.821013417044057,0.5434939311276415,0.34064195808404807,0.1990921864826183,0.10677692223378844,0.051731062846506706,0.022621921178447957,0.0082222120727583,7.336713335704145,5.988225541769128,5.411111867451891,4.83795184495368,4.19015005048198,3.51125304848305,2.821300266969408,2.1814935304341976,1.6312493722216983,1.1673073240851588,0.7898681226027693,0.49882245120036367,0.29011217557954494,0.15529142231564436,0.07242832482350654
0.0,53.0,53.0,0.0,120.0,0.0,0.0,0.0,0.0,-107.0,0.0,-45.0,0.0,0.0,0.0,34.27253218749016,17.55503396713325,5.067287479495813,3.7011813274818914,3.169289670151683,2.6724179094355534,2.150545359764293,1.6521630736782447,1.197977277825563,0.8259830503596385,0.5464430229894162,0.3423272347912239,0.2001300743523602,0.10750733009134102,0.0522268147187392,0.022906297845267782,0.00834862620938527,7.354501136563666,6.017001048409578,5.438637804592909,4.862904716988585,4.211560177126541,3.528624444344091,2.834484188168989,2.1908850814803107,1.637577600765695,1.171412069847382,0.7927543515338514,0.5012149742693118,0.2920926646220757,0.1567025638989628,0.07323322123108873
0.0,54.0,54.0,0.0,120.0,0.0,0.0,0.0,0.0,-107.0,0.0,-45.0,0.0,0.0,0.0,34.27253218749016,17.55503396713325,5.088833403303363,3.7294787419402478,3.194184592087141,2.6932428493945255,2.1667994177488517,1.6640212189962882,1.2059610913700387,0.8309913025189553,0.5494110291747959,0.3440120951419858,0.20114975165880794,0.10821624518871349,0.05270952549984406,0.023185612086630083,0.008473904586496788,7.372841944586289,6.046085787411946,5.4664038084972395,4.888059543745174,4.233135589372264,3.546124614445779,2.8477615889904597,2.200340053124809,1.6439433259221934,1.1755163156559294,0.7955884824092435,0.5035309716991716,0.294013919569267,0.15808311388473045,0.07402769408075018
0.0,55.0,55.0,0.0,120.0,0.0,0.0,0.0,0.0,-107.0,0.0,-45.0,0.0,0.0,0.0,34.27253218749016,17.55503396713325,5.111044970337673,3.7581446700186616,3.219362522848354,2.714289333580577,2.183215851944387,1.675989884371594,1.2140133747429824,0.8360385595378133,0.5523985055873445,0.3456980881296938,0.20215323057107915,0.10890482093987336,0.05317948476717269,0.023459853322860602,0.008598005698296994,7.391745267746137,6.075480086452064,5.4944115588472755,4.913418045230486,4.254877762992438,3.563754710728926,2.861133299101687,2.209859036698479,1.6503476665517094,1.1796238758311588,0.7983766051384162,0.5057749664795961,0.2958776642121407,0.15943334524720515,0.07481162086629137
0.0,56.0,56.0,0.0,120.0,0.0,0.0,0.0,0.0,-107.0,0.0,-45.0,0.0,0.0,0.0,34.27253218749016,17.55503396713325,5.133935331878848,3.7871824806198418,3.244826908532054,2.7355600921643806,2.199796586096504,1.6880702958389384,1.222134827483344,0.8411252066049274,0.5554059351731941,0.34738658374318754,0.20314239094704747,0.10957418982339512,0.05363699453001064,0.023729019723603688,0.008720891058456515,7.41122040347194,6.105184418899244,5.522662894796638,4.93898212622124,4.276788331199989,3.5815158343060673,2.87460006481788,2.219442660151085,1.656791568226181,1.1837381145031958,0.801124381066848,0.5079513578489153,0.297685644474797,0.16075356312532604,0.07558489742132657
0.0,57.0,57.0,0.0,120.0,0.0,0.0,0.0,0.0,-107.0,0.0,-45.0,0.0,0.0,0.0,34.27253218749016,17.55503396713325,5.157517522738193,3.8165956507837273,3.2705812508173415,2.75705788327939,2.216543553805137,1.7002636913038203,1.230326163975369,0.846251622936617,0.5584337434320221,0.34907879099504774,0.2041189847127833,0.11022546046722506,0.05408236774932316,0.02399311775379926,0.008842524912983646,7.431276306690948,6.135199137626752,5.55115940867074,4.964753351721873,4.298868625882331,3.5994091876528795,2.8881627872173095,2.2290914391714134,1.6632758840269608,1.1878619815870146,0.8038370626621179,0.5100644144902371,0.2994396232074679,0.16204410268429814,0.07634743158620176
0.0,58.0,58.0,0.0,120.0,0.0,0.0,0.0,0.0,-107.0,0.0,-45.0,0.0,0.0,0.0,34.27253218749016,17.55503396713325,5.1818044365421105,3.846387771237649,3.296629116774874,2.7787855109366095,2.233458720507461,1.7125713230589128,1.238588100437532,0.8514181896891577,0.561482307078618,0.35077577578381336,0.20508464048124397,0.11085971511583723,0.054515926910249084,0.024252161729213875,0.008962874367787511,7.45192167263451,6.165524747921672,5.579902849267799,4.990733468436593,4.321120133700204,3.617435923977607,2.901822286500926,2.2388059299708973,1.6698013449455,1.1919980698364354,0.8065195102380869,0.512118269160946,0.3011413752702363,0.1633053269808769,0.07709914817803469
0.0,59.0,59.0,0.0,120.0,0.0,0.0,0.0,0.0,-107.0,0.0,-45.0,0.0,0.0,0.0,34.27253218749016,17.55503396713325,5.206808807626383,3.876562548580559,3.3229741365703607,2.800745819915231,2.250544076754984,1.7249944573054592,1.2469213593584272,0.8566252885700566,0.5645519639682802,0.3524784765351692,0.20604086871000282,0.11147800740652462,0.0549380026509284,0.024506173387338872,0.009081909238361165,7.473164877450843,6.19616182217504,5.60889498858134,5.0169242330767485,4.343544346075653,3.6355971974474466,2.915579380199564,2.2485866811148894,1.6763685964360038,1.1961486514335469,0.8091762118106625,0.5141169141243075,0.30279268279462407,0.16453762498372348,0.077839986495231
0.0,60.0,60.0,0.0,120.0,0.0,0.0,0.0,0.0,-107.0,0.0,-45.0,0.0,0.0,0.0,34.27253218749016,17.55503396713325,5.232543191854105,3.9071238079794695,3.3496200042744375,2.8229416964332104,2.2678016386272724,1.7375343743702627,1.255326669618369,0.8618733024355638,0.5676430206737351,0.3541877186874323,0.2069890671021461,0.11208136047476248,0.05534893244511226,0.024755181470541433,0.009199601968258735,7.4950139546710295,6.227111002874232,5.638137621748306,5.043327412718172,4.366142759587601,3.653894163535624,2.929434883519523,2.258434234672987,1.6829782142415477,1.200315714994991,0.8118113026781377,0.5160641976320438,0.3043953306747461,0.16574140966506404,0.07856989969483513
0.0,61.0,61.0,0.0,120.0,0.0,0.0,0.0,0.0,-107.0,0.0,-45.0,0.0,0.0,0.0,34.27253218749016,17.55503396713325,5.259019948055232,3.938075495561658,3.37657047870694,2.8453760688352894,2.285233448154197,1.7501923689286796,1.2638047666138619,0.8671626157148526,0.5707557587287617,0.35590422786717707,0.20793052620319477,0.11267076536934123,0.05574905933886562,0.024999221321773218,0.009315927547585865,7.517476572334633,6.2583730050701,5.667632567021279,5.069944785165841,4.388916876373113,3.6723279793753987,2.9433896096893917,2.2683491270818874,1.6896307174095229,1.2045009990612714,0.8144285851377014,0.5179638213494392,0.3059511022763442,0.16691711617366348,0.07928885418692587
0.0,62.0,62.0,0.0,120.0,0.0,0.0,0.0,0.0,-107.0,0.0,-45.0,0.0,0.0,0.0,34.27253218749016,17.55503396713325,5.286251220279193,3.969421680512662,3.4038293843153506,2.8680519082987805,2.30284157374649,1.7629697502334611,1.2723563923839454,0.8724936147119904,0.5738904397492324,0.35762864181683973,0.20886643511612915,0.11324717976275485,0.05613873074151911,0.02523833449251061,0.009430863431817548,7.540560010993346,6.289948618318755,5.697381665765348,5.096778139324637,4.411868204533242,3.690899804119565,2.95744437030593,2.278331889807951,1.696326578950876,1.2087060222741042,0.8170315481464105,0.5198193386690299,0.3074617753637955,0.1680652000837991,0.07999682904664056
0.0,63.0,63.0,0.0,120.0,0.0,0.0,0.0,0.0,-107.0,0.0,-45.0,0.0,0.0,0.0,34.27253218749016,17.55503396713325,5.314248921059912,4.001166556895537,3.431400612086785,2.890972229557462,2.3206281106343107,1.7758678423492278,1.2809822957378256,0.8778666878232954,0.5770473096140415,0.35936152114416475,0.20979788726537663,0.11381152694111829,0.05651829727118315,0.02547256836254597,0.009544389461200148,7.5642711428212435,6.321838708106605,5.727386782479101,5.12382927557497,4.434998258542187,3.709610799304094,2.971599975677712,2.288383049872717,1.7030662345344239,1.212932110458752,0.8196233867599099,0.5216341538557385,0.30892911824584646,0.16918613571521599,0.0806938154441792
0.0,64.0,64.0,0.0,120.0,0.0,0.0,0.0,0.0,-107.0,0.0,-45.0,0.0,0.0,0.0,34.27253218749016,17.55503396713325,5.343024715898193,4.033314445212252,3.459288120492661,2.9141400916439197,2.338595181313686,1.7888879843922756,1.2896832323832328,0.8832822256972471,0.5802266018629506,0.3611033589686041,0.21072588614923712,0.11436469505692119,0.05688811165524685,0.025701975771242273,0.009656487780958728,7.588616412067973,6.354044216776181,5.7576498048385085,5.151100006152079,4.458308559658775,3.7284621292145266,2.9858572351652444,2.298503130286344,1.7098500895511692,1.2171804208342227,0.8222070212059116,0.5234115219639235,0.3103548861411409,0.17028041451937964,0.08137981609294823
0.0,65.0,65.0,0.0,120.0,0.0,0.0,0.0,0.0,-107.0,0.0,-45.0,0.0,0.0,0.0,34.27253218749016,17.55503396713325,5.372590009169551,4.065869793732916,3.4874959364653138,2.9375585986506803,2.35674493600062,1.8020315307754773,1.2984599650553033,0.8887406213564903,0.5834285404455485,0.36285458954266947,0.2116513510284415,0.11490753662720397,0.05724852768630996,0.025926614659848315,0.009767142762491944,7.613601817096017,6.386566163978655,5.788172643762032,5.178592155527964,4.481800636339343,3.7474549612537293,3.000216957516895,2.3086926504205274,1.7166785248332714,1.2214519635752883,0.8247851154721713,0.525154549465408,0.3117408177646144,0.17134854352772802,0.0820548447158879
0.0,66.0,66.0,0.0,120.0,0.0,0.0,0.0,0.0,-107.0,0.0,-45.0,0.0,0.0,0.0,34.27253218749016,17.55503396713325,5.402955931665368,4.098837179622837,3.5160281564057274,2.961230900510265,2.375079553092711,1.8152998514579055,1.3073132636458165,0.8942422702955487,0.5866533419353115,0.36461559592713566,0.21257512250636043,0.11544086825922882,0.057599899233985064,0.026146547724500917,0.009876340925694544,7.639232894244472,6.419405646686969,5.818957233494701,5.206307560794735,4.505476024651136,3.7665904663097853,3.0146799512001157,2.3189521263425,1.72355190126841,1.2257476209470894,0.8273600953096718,0.5268661955266686,0.31308863213567556,0.17239104385810106,0.08271892552981201
0.0,67.0,67.0,0.0,120.0,0.0,0.0,0.0,0.0,-107.0,0.0,-45.0,0.0,0.0,0.0,34.27253218749016,17.55503396713325,5.4341333302123,4.132221310173637,3.544888947514436,2.9851601940894694,2.3936012398707023,1.8286943322130524,1.3162439050701817,0.8997875706375839,0.589901217308813,0.36638671679619467,0.21349796796230594,0.11596547058634113,0.05794257931264877,0.02636184207960788,0.009984070865753588,7.66551470466334,6.4525638410184465,5.850005535118983,5.234248076931753,4.529336274813397,3.7858698236537283,3.0292470214699363,2.329282069766946,1.7304705648093504,1.2300681637841926,0.8299341656567835,0.5285492738652576,0.3144000256071715,0.1734084492779064,0.08337209284278987
0.0,68.0,68.0,0.0,120.0,0.0,0.0,0.0,0.0,-107.0,0.0,-45.0,0.0,0.0,0.0,34.27253218749016,17.55503396713325,5.4661327614980575,4.166027029670694,3.574082559497446,3.0093497344166407,2.4123122372053354,1.8422163760743553,1.3252526661938229,0.9053769251604246,0.5931723734914213,0.3681682523850822,0.21442058677471712,0.1164820884171948,0.05827691919862087,0.026572568933021207,0.010090323259293427,7.692451847057037,6.486042065285327,5.8813196331373065,5.262415707242785,4.553383117568367,3.8052943441814326,3.0439188824843404,2.339682951513458,1.7374348846327745,1.234414254402606,0.8325093295674346,0.5302064549201134,0.31567666907919867,0.17440130487285582,0.08401439316645727
0.0,69.0,69.0,0.0,120.0,0.0,0.0,0.0,0.0,-107.0,0.0,-45.0,0.0,0.0,0.0,34.27253218749016,17.55503396713325,5.498964431270413,4.200259288313224,3.603613326477064,3.03380282973942,2.431214782374004,1.8558674083984454,1.3343403452030624,0.9110107351856109,0.596467014148991,0.36996046997563536,0.2153436155027859,0.11699143095828579,0.05860326763503486,0.026778803263057427,0.01019509046231009,7.720048374172291,6.519841622653756,5.912901473005888,5.290812161961943,4.577617937636843,3.8248650804968998,3.0586964389831532,2.350155318365788,1.7444451438329251,1.2387864978283551,0.8350873966955612,0.5318402694077847,0.31692020559626627,0.17537016553117624,0.08464587664059321
0.0,70.0,70.0,0.0,120.0,0.0,0.0,0.0,0.0,-107.0,0.0,-45.0,0.0,0.0,0.0,34.27253218749016,17.55503396713325,5.532638331589207,4.234923202430208,3.633485607553844,3.0585227951258065,2.4503111922600795,1.8696488566918612,1.3435077435740082,0.9166894066617849,0.5997853408510306,0.3717636083913497,0.21626763259079412,0.11749417234822228,0.05892197004466368,0.026980623516965056,0.010298366911312175,7.748307861353784,6.5539638730793035,5.944753039354068,5.319439353693067,4.602042309050126,3.844583219774123,3.0735805007922745,2.360699676488609,1.7515016539255102,1.243185414810628,0.8376700057521268,0.5334531108822443,0.31813224791631306,0.17631559483181267,0.0852666045503152
0.0,71.0,71.0,0.0,120.0,0.0,0.0,0.0,0.0,-107.0,0.0,-45.0,0.0,0.0,0.0,34.27253218749016,17.55503396713325,5.567164110200324,4.2700240071535625,3.6637038630839927,3.0835130210195043,2.4696037937578974,1.8835621724087321,1.3527556689816993,0.9224133485526158,0.6031275537143588,0.3735778820946843,0.21719316302938865,0.1179909522201758,0.05923336783254353,0.027178111310465793,0.01040014875338704,7.777233374377368,6.588410288271668,5.9768763836187055,5.348299187931553,4.626657813144182,3.864449955741706,3.0885718796579815,2.3713165297564793,1.7586047191116971,1.2476114646011394,0.8402586362581226,0.5350472395836714,0.31931437646366606,0.17723816373872367,0.08587664646002849
0.0,72.0,72.0,0.0,120.0,0.0,0.0,0.0,0.0,-107.0,0.0,-45.0,0.0,0.0,0.0,34.27253218749016,17.55503396713325,5.602551111813213,4.3055670711738125,3.6942726294467665,3.108776948547033,2.489094945037811,1.8976088240728108,1.362084937054953,0.9281829727223028,0.606493851952671,0.3754034847422321,0.2181206827195749,0.11848237641500557,0.05953779773538966,0.02737135113840574,0.010500433846887198,7.806827471194115,6.623182410510477,6.0092735811017866,5.377393585184996,4.651466041358524,3.884466487764307,3.1036713889111223,2.3820063804453473,1.765754637382141,1.252065053705006,0.8428546219232733,0.5366247863530932,0.3204681374544717,0.17813844939834314,0.08647607969105477
0.0,73.0,73.0,0.0,120.0,0.0,0.0,0.0,0.0,-107.0,0.0,-45.0,0.0,0.0,0.0,34.27253218749016,17.55503396713325,5.638808382118922,4.341557897438065,3.725196520233771,3.134318070411764,2.50878703608819,1.9117902975425047,1.371496371510185,0.9339986940042219,0.6098844343120032,0.37724059226840867,0.21905062259352098,0.11896901779804778,0.05983559122638054,0.02756043009424143,0.010599221693368513,7.837092204466123,6.658281850883626,6.041946731133989,5.406724481395333,4.676468595611379,3.904634021194447,3.118879843756161,2.3927697294966843,1.7729517014979745,1.2565465434549759,0.8454591632019794,0.5381877567927706,0.3215950412325188,0.1790170339795619,0.08706498891977986
0.0,74.0,74.0,0.0,120.0,0.0,0.0,0.0,0.0,-107.0,0.0,-45.0,0.0,0.0,0.0,34.27253218749016,17.55503396713325,5.675944674615253,4.378002123910054,3.756480227479717,3.1601399318112713,2.5286824892647264,1.92610809627881,1.3809908042855155,0.9398609302704037,0.6132994994121131,0.37908936555812434,0.21998337248741612,0.11945141716506234,0.06012707397423161,0.027745437598287813,0.010696513370867362,7.868029127331125,6.693710287480045,6.074897957262234,5.436293828364539,4.7016670886628225,3.924953767721825,3.1341980615534726,2.403607076776629,1.7801961997818265,1.2610562565687695,0.8480733390313439,0.5397380356252628,0.3226965608105379,0.17987450355527032,0.08764346578965092
0.0,75.0,75.0,0.0,120.0,0.0,0.0,0.0,0.0,-107.0,0.0,-45.0,0.0,0.0,0.0,34.27253218749016,17.55503396713325,5.713968460256883,4.414905524413034,3.7881285229431017,3.1862461313797175,2.5487837598453065,1.9405637416166055,1.3905690756749922,0.9457701025016796,0.6167392460141413,0.38094995275633087,0.22091928476759462,0.11993008422279147,0.060412565355499645,0.027926465134636765,0.010792311468456429,7.899639302427823,6.729469463578828,6.10812940746594,5.466103594182695,4.727063144464619,3.9454269457202633,3.1496268620947334,2.414518921329587,1.7874884167598317,1.2655944828107673,0.8506981177681959,0.5412773912062656,0.32377413061143895,0.18071144702484032,0.08821160853630244
0.0,76.0,76.0,0.0,120.0,0.0,0.0,0.0,0.0,-107.0,0.0,-45.0,0.0,0.0,0.0,34.27253218749016,17.55503396713325,5.752887939908222,4.452274009571557,3.820146259447128,3.2126403221572972,2.569093336588174,1.9551587730401236,1.4002320344626322,0.9517266348583464,0.620203873230783,0.38282249125805906,0.2218586777135401,0.1204054986304544,0.06069237801886391,0.028103605996691424,0.010886620022023837,7.931923314167094,6.7655611858701805,6.141643254406505,5.496155763656659,4.752658398495823,3.966054780592559,3.165167067871347,2.425505761625689,1.7948286336872412,1.2701614838677402,0.8533343673477374,0.5428074801496597,0.32482914540318214,0.18152845507704043,0.0887695216251859
0.0,77.0,77.0,0.0,120.0,0.0,0.0,0.0,0.0,-107.0,0.0,-45.0,0.0,0.0,0.0,34.27253218749016,17.55503396713325,5.792711059536151,4.490113627863257,3.852538372292776,3.239326212588868,2.5896137422905627,1.969894748463662,1.4099805380560095,0.9577309547511313,0.6236935806919865,0.38470710941827146,0.22280183866343328,0.12087811108944503,0.06096681749996073,0.028276955041287827,0.010979444451219553,7.964881284185115,6.801987322735942,6.175441695713284,5.5264523387371645,4.778454498083939,3.9868385051135413,3.1808195043359415,2.4365680958015785,1.8022171289836517,1.2747574975372364,0.8559828646906869,0.5443298520264054,0.3258629594203548,0.18232611919313718,0.08931731540105142
0.0,78.0,78.0,0.0,120.0,0.0,0.0,0.0,0.0,-107.0,0.0,-45.0,0.0,0.0,0.0,34.27253218749016,17.55503396713325,5.833445473040401,4.528430543050712,3.8853098993120425,3.2663076269930835,2.6103475303020285,1.9847732324988892,1.4198154561328034,0.9637834929451132,0.6272085684197511,0.38660392810949457,0.22374902690443968,0.1213483444756961,0.06123618188394237,0.028446608451348616,0.011070791489439444,7.998512911052247,6.83874985544325,6.209527013479897,5.556995356901875,4.804453053444844,4.007779380185084,3.1965849930973094,2.4477064241832736,1.809654178065792,1.2793827414114498,0.8586443043753125,0.5458459541039052,0.3268768856652202,0.1831050306896109,0.08985510603094825
0.0,79.0,79.0,0.0,120.0,0.0,0.0,0.0,0.0,-107.0,0.0,-45.0,0.0,0.0,0.0,34.27253218749016,17.55503396713325,5.875098700825364,4.5672311024962005,3.9184659470041887,3.293588364110347,2.6312972866681665,1.9997958296221623,1.4297376609786712,0.9698846839360755,0.6307490374724203,0.38851306176305866,0.22470047642558097,0.12181659497644434,0.061500761519563775,0.02861266350716316,0.011160669190263345,8.032817452848207,6.87585075338408,6.243901426144048,5.587786834008013,4.8306557589499395,4.028878648229764,3.2124643685528,2.4589212439273758,1.817140055015331,1.284037415693736,0.861319306676557,0.547357136085788,0.3278721953794838,0.18386577980212357,0.09038301448978087
0.0,80.0,80.0,0.0,120.0,0.0,0.0,0.0,0.0,-107.0,0.0,-45.0,0.0,0.0,0.0,34.27253218749016,17.55503396713325,5.917678067735135,4.606521790188011,3.9520117028863737,3.321172278709345,2.6524656381906344,2.014964161693958,1.4397480345735534,0.9760349654491697,0.6343151898056613,0.39043461954338,0.22565639836737272,0.12228323326625451,0.06176083877370326,0.028775218366278017,0.011249086779663938,8.067793760507303,6.913292038986,6.278567180453878,5.6188288130617865,4.857064321520846,4.050137558079136,3.228458469393635,2.470213052520667,1.8246750319901055,1.288721705987057,0.8640084248817129,0.5488646548402525,0.3288501176790228,0.18460895480791456,0.09090116664180972
0.0,81.0,81.0,0.0,120.0,0.0,0.0,0.0,0.0,-107.0,0.0,-45.0,0.0,0.0,0.0,34.27253218749016,17.55503396713325,5.961190707114366,4.646309222509784,3.985952449259942,3.3490633081703267,2.6738552465891177,2.030279863019271,1.449847468086599,0.982234779538127,0.6379072287084313,0.39236870590955636,0.2266169834121258,0.1227486056609545,0.06201668783160713,0.02893437185418855,0.011336054572347548,8.103440320207284,6.951075818353951,6.313526588317895,5.650123388758005,4.883680476627828,4.071557419395923,3.2445681643333275,2.481582320047298,1.8322593743469195,1.2934357924256341,0.8667121499116841,0.5503696793746368,0.3298118393758439,0.1853351411305879,0.09140969409976875
0.0,82.0,82.0,0.0,120.0,0.0,0.0,0.0,0.0,-107.0,0.0,-45.0,0.0,0.0,0.0,34.27253218749016,17.55503396713325,6.005643610951813,4.686600161035236,4.020293558891265,3.3772654493974548,2.695468809371143,2.045744585811486,1.4600368600598062,0.9884845728199315,0.6415253590775071,0.39431542126714125,0.2275824039086018,0.1232130352830872,0.06226857453881687,0.029090223261799258,0.011421583916276977,8.139755275535205,6.989204260929677,6.348782005650778,5.681672704201624,4.910506017875059,4.093139605847104,3.2607943621187903,2.493029481297472,1.8398933399372603,1.2981798531898974,0.8694309159676268,0.551873295513597,0.33075850492059883,0.18604492052895108,0.09190873406650556
0.0,83.0,83.0,0.0,120.0,0.0,0.0,0.0,0.0,-107.0,0.0,-45.0,0.0,0.0,0.0,34.27253218749016,17.55503396713325,6.051043654884466,4.727401512561901,4.055040497214584,3.4057827630157083,2.7173090676378915,2.0613600119534,1.4703171268765074,0.9947847910384088,0.6451697841069596,0.3962748651790317,0.22855281498385857,0.12367682337869428,0.06251675627444657,0.029242872136085563,0.011505687409189965,8.176736449391468,7.027679546433727,6.3843357387203215,5.713478798190129,4.937542563019354,4.11488526182595,3.2771378219216274,2.504555126775623,1.8475772117452807,1.302954020738422,0.8721651200269034,0.5533765084573375,0.3316912162558095,0.18673887072278983,0.09239842209884457
0.0,84.0,84.0,0.0,120.0,0.0,0.0,0.0,0.0,-107.0,0.0,-45.0,0.0,0.0,0.0,34.27253218749016,17.55503396713325,6.097397632234199,4.768720332648333,4.090198823876489,3.4346193706164745,2.739378797353471,2.077127838273628,1.4806891895488399,1.00113588634194,0.6488407096620381,0.398247133598584,0.2295283573162048,0.12414025027182801,0.06276148187677473,0.02939241811395113,0.011588378484944402,8.214381386252375,7.066503929939681,6.4201901651076225,5.745543802386064,4.9647918547896825,4.13679567949739,3.293599397427387,2.516159758082599,1.8553112562984506,1.3077584414554824,0.8749151090968339,0.5548802497189046,0.3326110332899236,0.18741756418438538,0.09287890073982666
0.0,85.0,85.0,0.0,120.0,0.0,0.0,0.0,0.0,-107.0,0.0,-45.0,0.0,0.0,0.0,34.27253218749016,17.55503396713325,6.14471228351917,4.8105638266428405,4.125774195083548,3.463779457622258,2.7616808134758104,2.0930497823665486,1.491153978823761,1.007538314646257,0.6525383427287055,0.40023232055824043,0.2305091583362907,0.1246035765672337,0.06300299159190463,0.029538960737898155,0.01166967149102097,8.25268738114438,7.1056797165145245,6.456347689770759,5.777869869618202,4.9922556505952125,4.158872160487389,3.310179947332168,2.5278438781118138,1.8630957392238372,1.312593255353393,0.8776811914078904,0.5563853804911711,0.33351897410954107,0.18808156764216585,0.09335031596548315
0.0,86.0,86.0,0.0,120.0,0.0,0.0,0.0,0.0,-107.0,0.0,-45.0,0.0,0.0,0.0,34.27253218749016,17.55503396713325,6.192994296786521,4.852939354811023,4.161772403768463,3.4932673452007403,2.7842180179600224,2.1091275303833346,1.5017124542417588,1.0139925287044813,0.6562628938127065,0.4022305179608583,0.2314953337837206,0.12506704423318385,0.06324151706063708,0.029682599288954167,0.01174958201720579,8.291651579967548,7.145209334225852,6.492810809949361,5.81045919978758,5.019935668558505,4.181115999567622,3.3268803530147353,2.5396079857282188,1.870930926341804,1.317458597025233,0.8804636405642183,0.5578926958281245,0.3344160153964911,0.18873144144464163,0.09381281728040679
0.0,87.0,87.0,0.0,120.0,0.0,0.0,0.0,0.0,-107.0,0.0,-45.0,0.0,0.0,0.0,34.27253218749016,17.55503396713325,6.242250433017027,4.8958544390355865,4.19819929787902,3.5230873186715796,2.80699327115608,2.125362866587455,1.5123655597797974,1.020498994795826,0.6600145711947943,0.404241817407049,0.23248698869663176,0.12553087773937405,0.06347728132489526,0.029823432623635335,0.01182812594437922,8.331270854595877,7.185095149144219,6.529581946052313,5.8433139610603115,5.047833711305341,4.203528538258258,3.343701471038306,2.5514525912150026,1.8788170809357219,1.3223545966556542,0.8832626993982253,0.5594029286339003,0.3353030929607275,0.18936773895980627,0.09426655647010222
