Line_number,Fiducial,Easting,Northing,Height,Elevation,tx_pitch,tx_roll,tx_yaw,txrx_dx,txrx_dy,txrx_dz,rx_pitch,rx_roll,rx_yaw,PX,PZ,SX_time_1.086e-05,SX_time_3.256e-05,SX_time_5.426e-05,SX_time_8.680e-05,SX_time_1.411e-04,SX_time_2.279e-04,SX_time_3.689e-04,SX_time_5.860e-04,SX_time_9.115e-04,SX_time_1.411e-03,SX_time_2.192e-03,SX_time_3.418e-03,SX_time_5.339e-03,SX_time_8.301e-03,SX_time_1.338e-02,SZ_time_1.086e-05,SZ_time_3.256e-05,SZ_time_5.426e-05,SZ_time_8.680e-05,SZ_time_1.411e-04,SZ_time_2.279e-04,SZ_time_3.689e-04,SZ_time_5.860e-04,SZ_time_9.115e-04,SZ_time_1.411e-03,SZ_time_2.192e-03,SZ_time_3.418e-03,SZ_time_5.339e-03,SZ_time_8.301e-03,SZ_time_1.338e-02
0.0,0,0.0,0.0,121.0,0.0,0.0,0.0,0.0,-90.0,0.0,-45.0,0.0,0.0,0.0,58.892325333327804,19.630775111109287,5.160786254232079,3.838486850878894,3.17862868899617,2.7537641662354986,1.8816261409883026,1.536244222520729,1.2055327767572948,0.9189828052887563,0.6417123257438462,0.46260015020838097,0.3173260420852486,0.17122813253119062,0.10556083059103827,0.05375051322626234,0.02689299825704694,8.962684678226655,7.505476991084517,6.275269695202137,5.7154888640160415,4.696178822004619,3.789871400783227,3.2428096477723862,2.615195398387762,2.354044624930413,1.6721090484616816,1.1743552381066564,0.7808406907705709,0.47881299336306427,0.31107752701392855,0.18015545584577097
0.0,1,1.0,0.0,121.0,0.0,0.0,0.0,0.0,-90.0,0.0,-45.0,0.0,0.0,0.0,58.892325333327804,19.630775111109287,5.100012270726943,4.050001701937305,3.1057785095142165,2.6237655066220995,1.905446279186826,1.6320370665385155,1.3061083567529579,0.889596953928617,0.7024505142777286,0.46953782597121574,0.3293294562895426,0.18047116879951375,0.11319541278842848,0.054273373105630185,0.024644386071031477,9.351282484894075,7.131513946313916,6.436732316542649,4.792242354027149,4.3212405804185,4.04161111072181,3.1345861688385632,2.883090456897765,2.140243936490119,1.5618764918052754,1.1480796173441377,0.8204583498822693,0.536629965004181,0.3427085045278524,0.20200078296353396
0.0,2,2.0,0.0,121.0,0.0,0.0,0.0,0.0,-90.0,0.0,-45.0,0.0,0.0,0.0,58.892325333327804,19.630775111109287,5.260808095977865,3.7961780140902164,2.977197362639842,2.742323919585445,1.9446824102935025,1.4796827901431442,1.1564648351725708,0.8840282518153373,0.5977109106601688,0.49537244566003835,0.3150387530945764,0.1756197692464383,0.10589994539230219,0.04867401773402946,0.022666826254010175,8.726266680600968,7.356578482509228,6.757731267417611,5.385495219563875,4.67436672933966,3.4285245313942987,3.4355125878433164,2.394517139487842,2.0082614425521648,1.546995442598888,1.1680978745137693,0.7685381971447782,0.551283412908834,0.36295400429586877,0.17354681413847928
0.0,3,3.0,0.0,121.0,0.0,0.0,0.0,0.0,-90.0,0.0,-45.0,0.0,0.0,0.0,58.892325333327804,19.630775111109287,5.3681192514908105,3.9264902042507472,3.403875473184442,2.3719112801961444,1.8950972246939202,1.5926621711370004,1.1479289962374963,0.9036795697500324,0.6358892619658576,0.4563100849738433,0.2876654785493642,0.16287471281535915,0.09187818437164452,0.055198077839285986,0.028179330926114687,8.796538782498729,7.075764411759078,6.499518231541028,5.435463099871843,4.677388536443232,3.6351661389618606,3.258046111225763,2.771606053501852,2.1263158744019464,1.5439517734359285,1.1467279462370144,0.8571795639359507,0.530753703678915,0.28936851841616473,0.2050298435434641
0.0,4,4.0,0.0,121.0,0.0,0.0,0.0,0.0,-90.0,0.0,-45.0,0.0,0.0,0.0,58.892325333327804,19.630775111109287,5.518631719176355,3.8384488140338675,3.077090313037452,2.3127591569428887,2.1522536397880714,1.44933930351403,1.1964852904755219,0.8512224329332412,0.6734245572409563,0.42085376049800516,0.278043989243308,0.16951146148190332,0.09825068959131755,0.05622446036785078,0.02514926133709139,9.494973064605748,6.809424272421563,6.751401274086625,5.982324965528861,4.770494287613651,3.8029788490323213,3.065999052954872,2.5141190500609376,2.056729691038342,1.5142947365047519,1.106627884761938,0.7527309108509463,0.5115361945301942,0.3403933068865257,0.1919050584440285
0.0,5,5.0,0.0,121.0,0.0,0.0,0.0,0.0,-90.0,0.0,-45.0,0.0,0.0,0.0,58.892325333327804,19.630775111109287,5.525921463144513,4.010232217500324,2.9846343858200157,2.499683556920779,2.058168440687375,1.3986987100158075,1.1907678185786281,0.8978131393684805,0.639206132220238,0.4356425891827058,0.27848342121750846,0.15555886238647787,0.09431345043781647,0.05796905376653427,0.026169649672233675,9.105460898802143,7.668196030969906,5.9260895537010185,5.492936254333209,4.312607817668354,3.8184352290030397,2.91605495157982,2.4977616479740057,2.103874009938707,1.5403923467402159,1.14317940510918,0.7086504312430648,0.5023701599753352,0.32024327882640335,0.20767379410363418
0.0,6,6.0,0.0,121.0,0.0,0.0,0.0,0.0,-90.0,0.0,-45.0,0.0,0.0,0.0,58.892325333327804,19.630775111109287,5.709856125788164,3.898679024214971,3.0502064570201313,2.751805242480721,2.0958763764979764,1.308714146558188,1.095393180612966,0.8806031412546034,0.652482210569481,0.3935682472759723,0.2955061560714469,0.1756762345304992,0.0919761965071828,0.0504713794683056,0.025466290636224187,8.826420722905851,7.365930933623325,5.784868503153518,5.556005218580491,4.160881690248431,3.713069651226757,3.2651105359144807,2.5430890106769475,2.069106552857736,1.637051997898645,1.0975197881849823,0.7736435525584717,0.4894739607973406,0.3442273513587537,0.1778754070837607
0.0,7,7.0,0.0,121.0,0.0,0.0,0.0,0.0,-90.0,0.0,-45.0,0.0,0.0,0.0,58.892325333327804,19.630775111109287,5.772424692939666,4.038442878256376,2.938172623996415,2.448230907301287,1.830036208726419,1.4775076861111671,1.0626167141766203,0.8179427944032511,0.6239930074980649,0.4236400122008277,0.26773362138644075,0.1719925881541826,0.08940272926307102,0.05723727076240692,0.023340822920353332,9.57008494741076,7.5768077019485425,6.368256267422268,5.61782239081608,4.49127034009679,3.833474764268203,3.0077322652771095,2.2443160863681513,1.8628816817073073,1.5186629389869424,1.145914088411132,0.7628684581644585,0.4707704715480858,0.2853387901783293,0.18985750016511815
0.0,8,8.0,0.0,121.0,0.0,0.0,0.0,0.0,-90.0,0.0,-45.0,0.0,0.0,0.0,58.892325333327804,19.630775111109287,5.248272530408883,3.9989866362705797,3.4126454140155644,2.3174410714405695,1.894325750977778,1.439525934554446,1.1034979149463453,0.8242011135881384,0.6217789336665334,0.3602003427564995,0.25475241319445274,0.17690800763065795,0.09472321699119846,0.05404481510109349,0.0253890293672967,9.151144892918957,7.842756420782802,6.466786607171123,5.311457633682679,4.198610832788969,3.764734595009692,2.9655653411892224,2.4041301360317,1.869205408767467,1.525812247996722,1.1570854071870258,0.7415823937134007,0.48477438137528495,0.32558140416852055,0.18646621575680555
0.0,9,9.0,0.0,121.0,0.0,0.0,0.0,0.0,-90.0,0.0,-45.0,0.0,0.0,0.0,58.892325333327804,19.630775111109287,5.71050702350756,4.057655233375833,3.4672578720414506,2.4891564213879462,1.8196741420287879,1.413890422999856,1.0085616263098274,0.7453319924258253,0.6156156085879303,0.42129520525492126,0.29145858194834773,0.14582417323054386,0.10049798674456412,0.05776235867039503,0.01943015088633615,8.854781911995232,7.3519905333721915,6.400110510579118,5.289320343145164,4.469990848294749,3.3827725713031,3.171582469701793,2.196360892658383,1.6897511199952042,1.4332431394767013,1.133404866444895,0.7167864134929829,0.4980963145714945,0.3258648211780937,0.1869002502591499
0.0,10,10.0,0.0,121.0,0.0,0.0,0.0,0.0,-90.0,0.0,-45.0,0.0,0.0,0.0,58.892325333327804,19.630775111109287,5.160769985225144,4.077448942248331,3.470973032151022,2.3947022118836756,2.035844478387922,1.5044176357933736,1.1145834074112813,0.772112477473641,0.5678874331752439,0.39352906336579707,0.2693076222879398,0.15981721542492977,0.0899345558981608,0.04285920290423206,0.025425842352682082,9.058039202998142,7.659275503576662,6.262671472369629,5.401130199901761,4.511796993231378,3.800427994911864,3.5054331101635547,2.537416988437151,1.9651035965120087,1.506229336736645,1.0213580962252848,0.769418299241547,0.48567663966831276,0.3158669491253647,0.18576731701721627
0.0,11,11.0,0.0,121.0,0.0,0.0,0.0,0.0,-90.0,0.0,-45.0,0.0,0.0,0.0,58.892325333327804,19.630775111109287,5.817738113195546,4.115013807503004,3.1341478391984623,2.5585490114511984,1.713487936337863,1.4027504851435708,1.040111509764941,0.7330763250501207,0.5963814680138952,0.3903716726832016,0.26867899695373154,0.1584686849170467,0.0925952682383624,0.050590927501119154,0.030099171347238496,9.681115543771181,7.354342840137413,6.492072742848794,5.2385749638525105,4.1858555545745375,3.721505784640314,2.958098276091029,2.227666757523785,1.7172225524997806,1.2974962151583966,1.014998862393199,0.7187615563949201,0.4869299596929366,0.29163313484522035,0.1850017297106703
0.0,12,12.0,0.0,121.0,0.0,0.0,0.0,0.0,-90.0,0.0,-45.0,0.0,0.0,0.0,58.892325333327804,19.630775111109287,5.484178134815238,3.878862854802769,3.3544636360330173,2.6692217302203076,2.0050332552030383,1.358062851105906,1.046357992554647,0.7022395460577684,0.5568646018262697,0.4071122510991003,0.23144522541647206,0.1599485917280674,0.1008284368883352,0.04476696404808678,0.02499298849920706,9.075920011288094,7.244220567402209,6.629999056500093,5.697007312226184,4.154778043146621,3.8675462086554653,3.0089821883238166,2.4476922336636413,1.7725267747002178,1.3701157978890919,1.0428464334141943,0.692652469624015,0.4823911316287237,0.30944262629656194,0.1846110832739214
0.0,13,13.0,0.0,121.0,0.0,0.0,0.0,0.0,-90.0,0.0,-45.0,0.0,0.0,0.0,58.892325333327804,19.630775111109287,5.422970666161845,3.647448045717205,3.2097171386069547,2.517784145934769,1.827776957008858,1.3782301345533412,1.047776769231099,0.7702129884103712,0.5604807320033416,0.39210661503332034,0.2532195154499064,0.15164883900219905,0.09261532605819411,0.04985861553439008,0.026724444517086,8.906547465985245,7.496255576123286,6.289075098641089,5.448842533698411,4.11157823218344,3.9652955669734133,2.9137167629905,2.1786662848787124,1.8615398007485737,1.4340222318430342,0.8764004837210315,0.699930609452796,0.4774069817527824,0.2857833028532788,0.16481130406902267
0.0,14,14.0,0.0,121.0,0.0,0.0,0.0,0.0,-90.0,0.0,-45.0,0.0,0.0,0.0,58.892325333327804,19.630775111109287,5.600735487135466,3.862496314349954,3.28692325903517,2.756931255968759,1.9912917736110671,1.3347219573944358,1.0334615122940463,0.7424677777838866,0.5300507238430754,0.3550827393196272,0.25099794506285633,0.15533274033455768,0.0944589628868755,0.04842633296146204,0.02791374778031752,9.136695806672503,7.838658834482761,5.968402924238504,5.487248105590609,4.585274497368829,3.8733766324489523,2.8476713915749734,2.1887425662162414,1.8939137869140374,1.2706844906466515,1.0434406847710314,0.6836463364674366,0.47889142900352155,0.2789155226285658,0.15542390475934198
0.0,15,15.0,0.0,121.0,0.0,0.0,0.0,0.0,-90.0,0.0,-45.0,0.0,0.0,0.0,58.892325333327804,19.630775111109287,5.763856963937954,3.8083046314857683,3.272456598442183,2.2575895267935806,1.908383514916892,1.3185628832689105,0.9602390347079037,0.7126512851895583,0.4994970964876728,0.3422899569999913,0.2345244920317242,0.15032767385797285,0.08321942865949694,0.047532531129860445,0.023966157181256165,10.467538720167866,7.537856581153893,6.000240233595299,5.923393390720221,4.204676079591501,3.394546706591715,2.774945007640653,2.199850233023607,1.8344343788429391,1.2527408454813944,1.0481972070324375,0.7415484166505522,0.43741553002342926,0.3052550463317054,0.16592935056574376
0.0,16,16.0,0.0,121.0,0.0,0.0,0.0,0.0,-90.0,0.0,-45.0,0.0,0.0,0.0,58.892325333327804,19.630775111109287,5.098652057092721,3.864667368494594,3.0331844118215443,2.440649543260548,1.7115759323080795,1.4425225694763384,0.9934721444968702,0.7035556607248736,0.5223584020123013,0.3736074645832872,0.2501372471828702,0.149774771914565,0.08952322849932415,0.04822901307414185,0.02414704109696686,8.817319211701683,8.202429636862636,6.129549160045716,5.177617559204361,4.5511550749201675,3.5598040251133014,2.869242685293454,2.107061973897551,1.7592587456052904,1.3662689210919545,0.904889563738621,0.6982476432928948,0.47180497823869416,0.279633832319373,0.16437064226665754
0.0,17,17.0,0.0,121.0,0.0,0.0,0.0,0.0,-90.0,0.0,-45.0,0.0,0.0,0.0,58.892325333327804,19.630775111109287,5.987058900876093,3.6653379254483553,3.6844811625181677,2.536964782070541,1.8320905607436941,1.2799175225316404,0.9010381571202046,0.7646487881872304,0.5797949308058108,0.37301598824700477,0.2298361937987039,0.1384549764117864,0.08762283592388798,0.048966753591471956,0.028634466655482527,9.365932403088916,7.336219645391271,6.500701160471781,4.930777718185215,4.0448551589596775,3.6731669074788122,2.6682630150092734,2.192744700378121,1.623963683348098,1.3883187396937018,1.0762427682858942,0.644800759953327,0.4381081074877251,0.28298596428742684,0.16294350404002245
0.0,18,18.0,0.0,121.0,0.0,0.0,0.0,0.0,-90.0,0.0,-45.0,0.0,0.0,0.0,58.892325333327804,19.630775111109287,5.6704679702712895,3.89645334908527,3.2638163452603166,2.275713566756707,1.9318922826657499,1.304515837233346,0.9891493552714508,0.6965989530124332,0.5147166073522342,0.36970293510112384,0.258751905392252,0.1377190241081081,0.08400408894470957,0.04070799462220975,0.02600445313155575,9.606682541807004,6.755487278505296,6.0366542962321645,4.853020064309604,4.520998584627215,3.3099101715566377,2.839164551109725,2.2156770070493863,1.8431096146928496,1.4345948229780774,0.9744167691279308,0.6714035036684791,0.43664577869718,0.2847469744266462,0.18368626170169478
0.0,19,19.0,0.0,121.0,0.0,0.0,0.0,0.0,-90.0,0.0,-45.0,0.0,0.0,0.0,58.892325333327804,19.630775111109287,6.285751434143435,3.9987222410795695,3.3405854509799937,2.3439140537754355,1.6045409263420183,1.329032986116502,0.9990306281861407,0.6999631323698381,0.5147625499381192,0.35892112573536394,0.22225369242447357,0.13633539323806332,0.08980716193511995,0.04883301546895069,0.0223025598231672,9.634475369501988,7.489316130086753,6.817565935884044,5.048332331196164,4.399675307914258,3.323630360137795,2.848007633880691,2.2281995333852045,1.6908025203940014,1.3573214533692983,0.9162571029850461,0.6977296548282297,0.4240435599915706,0.295751633363988,0.15463451339864775
0.0,20,20.0,0.0,121.0,0.0,0.0,0.0,0.0,-90.0,0.0,-45.0,0.0,0.0,0.0,58.892325333327804,19.630775111109287,5.779198534739336,4.047515467940251,3.0663515816374343,2.647434921576526,1.6688771589301297,1.3393446901068842,0.9248530534956814,0.6734055396628662,0.5016176549666653,0.33905237500008667,0.2282259781302045,0.1576354926732364,0.08958549687790196,0.041874837824678934,0.019417114004880887,9.603148638729682,8.305003625121032,6.713375278822991,5.707848494700496,4.533478126163807,3.66101235238974,2.6883310451032756,2.046336357657129,1.6422355942819955,1.276613030159261,0.9330582890558325,0.6482200207340441,0.42745244072919064,0.2696069752871182,0.15990084740599997
0.0,21,21.0,0.0,121.0,0.0,0.0,0.0,0.0,-90.0,0.0,-45.0,0.0,0.0,0.0,58.892325333327804,19.630775111109287,5.250241496089288,4.192666462448244,2.9155537924829034,2.584909095230657,1.9509596872657795,1.493942904257473,0.9261006473374991,0.6292228570382719,0.48051563357084603,0.3597848378598627,0.22557866720003972,0.1475137230787169,0.08735710159687926,0.050362208912950734,0.019234495345727964,9.276050958222559,7.547772245925085,6.358520030608343,5.116460360390299,4.201603926950426,3.225991341290449,2.6527594406390946,2.104410754958586,1.8358832258078301,1.2591802513538468,0.924672072503423,0.6606542273560159,0.43652095627374266,0.28751692184260236,0.16334297499745887
0.0,22,22.0,0.0,121.0,0.0,0.0,0.0,0.0,-90.0,0.0,-45.0,0.0,0.0,0.0,58.892325333327804,19.630775111109287,5.974382981245853,3.9594881635828827,3.339391033635586,2.6683925219651243,1.7483213249934408,1.3307303610189152,0.8974462492619395,0.6901346389011138,0.46879491310360066,0.3282607371550128,0.22939434436792538,0.12348084357230249,0.07860823882823098,0.04625552000436528,0.02645550743697811,10.199929584356461,7.562449578032162,6.464069950557441,5.498489157351202,4.054404456563841,3.4816165899437586,2.631090023947962,2.157092485643876,1.5836222234160324,1.3432029623370525,0.929056654530644,0.6237730424652703,0.4476743950508357,0.28846018862449085,0.17263352785862196
0.0,23,23.0,0.0,121.0,0.0,0.0,0.0,0.0,-90.0,0.0,-45.0,0.0,0.0,0.0,58.892325333327804,19.630775111109287,5.645651508678341,3.7244445311208665,3.3134035527178867,2.688894636933661,1.751967288655493,1.2843338049902329,1.0078058575049198,0.6575066167402284,0.4786218408718028,0.34373567797099014,0.20670043592043186,0.13347791112662577,0.08362489993499622,0.041974334979897776,0.020767403855217026,9.771695310297723,7.540285373121851,6.397448151030851,5.555447530154389,4.634211335649145,3.6444734061216693,2.9800849138974463,2.1350918177015252,1.5413598360381258,1.286895459311534,0.8926801465831637,0.6676851460593944,0.3726213505665008,0.24037389414811727,0.1605445025337815
0.0,24,24.0,0.0,121.0,0.0,0.0,0.0,0.0,-90.0,0.0,-45.0,0.0,0.0,0.0,58.892325333327804,19.630775111109287,5.75807407739336,4.374572204968388,3.4751307021716187,2.7530777592510702,1.7229430773016645,1.352564966147142,0.9649620157087284,0.6708721856752078,0.46475806945355913,0.3278061815411135,0.20828313264044596,0.1217837825717254,0.0819380339550051,0.04625495215146458,0.02414155351892333,10.3381311083354,8.126733079994153,6.271656899188834,5.415461393852457,4.538321857415987,3.0137471612651154,2.5928963088113086,2.1032723599562253,1.4595053120577006,1.1263651576420486,0.8966107379454584,0.6149143830319588,0.4250990602744693,0.28965142209154493,0.15273458706622733
0.0,25,25.0,0.0,121.0,0.0,0.0,0.0,0.0,-90.0,0.0,-45.0,0.0,0.0,0.0,58.892325333327804,19.630775111109287,6.131462822101085,4.0603615190014395,3.2425848354432816,2.2215169089940403,1.806910950713771,1.3445745854201476,0.9146116234883337,0.6077869139219345,0.45204879890819427,0.3338008727347983,0.19835984299201925,0.130716489260422,0.08394068593344173,0.04657932245093832,0.022284197019935448,9.263075649873695,7.437220318249597,7.061413293188863,5.258268423396,4.1300460257374,3.5118207875340737,2.603727662471009,2.2414496308356533,1.6079760162246899,1.220226698549851,0.8264003299468321,0.6503293028534181,0.42265354312641534,0.26099301716238443,0.16038792891923848
0.0,26,26.0,0.0,121.0,0.0,0.0,0.0,0.0,-90.0,0.0,-45.0,0.0,0.0,0.0,58.892325333327804,19.630775111109287,5.604284023497115,4.006728133761669,3.300989856821907,2.755151081288062,1.718918595676712,1.2486146134795035,0.8053386750824671,0.5949659006508696,0.48463465138359396,0.3470089241264347,0.20465244819520478,0.13952853952213928,0.07336615014030201,0.04555537338396931,0.020144177433749633,9.375073481819477,6.913693334650066,6.42921865810186,5.636283516763953,4.326356120606878,3.759712844392485,2.639337404077871,2.006876133719633,1.571229111213274,1.2624961844517308,0.8418474500881743,0.6301830844118754,0.44437613331782444,0.27549258279132616,0.14936787466446688
0.0,27,27.0,0.0,121.0,0.0,0.0,0.0,0.0,-90.0,0.0,-45.0,0.0,0.0,0.0,58.892325333327804,19.630775111109287,6.2719870615853495,3.892880946617126,3.2602722091542873,2.6476017609301152,1.826215847539892,1.2549147382059331,0.8955780756784222,0.5879158527716086,0.43560868407187314,0.29908541080426687,0.21390711938492757,0.12826847105374384,0.08470663431337044,0.044707861453460396,0.02041417563571457,10.140292408667264,7.717259244605781,6.335714887326269,5.724357138801004,4.105219241825527,3.354919971984689,2.4473822671524346,1.9555373594165637,1.4107776829779972,1.2098656264801484,0.8615657549918687,0.6265405642972119,0.43212090604347964,0.262552576264639,0.1567850936238031
0.0,28,28.0,0.0,121.0,0.0,0.0,0.0,0.0,-90.0,0.0,-45.0,0.0,0.0,0.0,58.892325333327804,19.630775111109287,5.381438235865488,4.047581062952936,3.267388580257652,2.500817059746389,1.7375070533827355,1.265823170309531,0.8580070519314447,0.5907583004064278,0.450218945677733,0.299471502042735,0.19227232098088365,0.12274576068268317,0.07842835180963448,0.04058901074245824,0.017257234481974137,8.564611873238682,7.438946002891576,6.467765254517946,5.364672006129712,4.065000605699879,3.447271228707393,2.600465665015104,1.9333277959047344,1.5531491384226541,1.2611176679123304,0.9318327738911769,0.6436284248816797,0.4376568861595409,0.2642198679879115,0.14996141411923247
0.0,29,29.0,0.0,121.0,0.0,0.0,0.0,0.0,-90.0,0.0,-45.0,0.0,0.0,0.0,58.892325333327804,19.630775111109287,6.138619286057889,3.884454299539385,3.350626020933177,2.611294277415908,1.9257127672347139,1.285534428358062,0.9186603047387507,0.6500094675293084,0.48965719829648435,0.3063153483401422,0.19555115416697078,0.1415442503643689,0.07739831746480519,0.038721722617943044,0.01599570977142406,9.899233344986765,7.458256851114044,6.357983536365879,5.826968425952526,4.419697181347189,3.457920465913123,2.469562161517519,1.9661993953910262,1.502379599857619,1.1938677310079058,0.8769441317977318,0.6270561741096472,0.35854267215527713,0.2852228218973849,0.16224233740518912
0.0,30,30.0,0.0,121.0,0.0,0.0,0.0,0.0,-90.0,0.0,-45.0,0.0,0.0,0.0,58.892325333327804,19.630775111109287,5.912508981225656,4.1964224248954025,3.0389554356585364,2.545866993247813,1.8602806631354056,1.2705395291017894,0.9264259467436347,0.6371837613914053,0.4111566953715098,0.3056551263511622,0.20518521946519286,0.12695822082386599,0.07736979205771632,0.04190601083930545,0.02117102958599304,9.791523510037162,7.605657429244211,6.366932571729436,5.641463218977581,4.420458628298519,3.1420094824385636,2.5326538194163355,1.9608567180511578,1.5183986660275508,1.2358520224458864,0.895998029856024,0.6065144688523034,0.4015266220642353,0.2707781359745738,0.1522932667029515
0.0,31,31.0,0.0,121.0,0.0,0.0,0.0,0.0,-90.0,0.0,-45.0,0.0,0.0,0.0,58.892325333327804,19.630775111109287,6.1517365704587235,4.1975571309839665,3.2763593418264136,2.5379164902608977,1.8450561703358588,1.253117728170011,0.8984032564275637,0.5891295749549741,0.44185874357181376,0.3029809413213087,0.1784680304894053,0.11899990182760689,0.07922551032038427,0.040996687137443644,0.022637628461332326,9.092254382737032,7.608367734359,6.0094373528031895,5.676452703799846,4.815599065589801,3.5509430727119984,2.5998470117162,2.061758711918465,1.5934272661549436,1.1203239010932045,0.8060894126448055,0.6441952021645392,0.4065197213308167,0.2584109671118249,0.16187337298587678
0.0,32,32.0,0.0,121.0,0.0,0.0,0.0,0.0,-90.0,0.0,-45.0,0.0,0.0,0.0,58.892325333327804,19.630775111109287,5.6459277960099,4.308449190131583,3.0990994553773916,2.3113788626789713,1.623718311327849,1.23130802517516,0.8579438347359698,0.5806194740215531,0.41207391609142974,0.2909047327231775,0.1751738539854344,0.12258580049179812,0.07291973673584096,0.042789165360268555,0.016052585621963544,9.96302192129815,6.936634478227912,6.177232664093438,5.851197688891883,4.805729268183651,3.373353954322493,2.522762898142318,2.0656833673505908,1.5521357527101145,1.0992646735299623,0.8662285811655615,0.5976232701641777,0.38182140447183954,0.25977134334793206,0.1499598640317643
0.0,33,33.0,0.0,121.0,0.0,0.0,0.0,0.0,-90.0,0.0,-45.0,0.0,0.0,0.0,58.892325333327804,19.630775111109287,6.156421837965567,3.8455109242046888,3.2508868546232605,2.490997491571356,1.95787916565763,1.1828356503633444,0.8647910965502206,0.6194158562770298,0.4429196743813151,0.27771818117533087,0.20436129395591252,0.12089239200987834,0.07235416760173052,0.046816038345475874,0.020976084015771335,9.286832046358935,7.546245974027574,6.857472654916474,5.68011679547039,4.619064818101741,3.249511549924968,2.5184509659567134,1.7207292748438299,1.4771225106292043,1.1368554293364852,0.7951349479222394,0.6110677944973304,0.4012485237697909,0.24892713542291034,0.13547719075227604
0.0,34,34.0,0.0,121.0,0.0,0.0,0.0,0.0,-90.0,0.0,-45.0,0.0,0.0,0.0,58.892325333327804,19.630775111109287,5.877946318500307,4.374345576057451,3.141277929743218,2.456381535629909,1.952159581168111,1.2667162296808243,0.796356248814476,0.5470328787091248,0.4016034477962549,0.26604464485762946,0.1766061892863533,0.1259644597661591,0.0646238977851894,0.03672805010103275,0.0219605264487015,9.068392260270588,7.930722331162787,6.691959341272405,5.57240781941341,4.550998441961994,3.1512687061153812,2.5116684064777033,2.2253724058990265,1.5947859996464544,1.1131661736555145,0.8554602863183476,0.5939240894579108,0.38086753670049944,0.2667979155175786,0.14884189075375076
0.0,35,35.0,0.0,121.0,0.0,0.0,0.0,0.0,-90.0,0.0,-45.0,0.0,0.0,0.0,58.892325333327804,19.630775111109287,5.529059226213846,4.004452572040989,3.5572673834599655,2.5320630580959786,1.8410020449314928,1.2258738209361297,0.8540780769943765,0.6003667952929987,0.3806746534604599,0.2712976733523931,0.19383404434467622,0.12146845390021355,0.07345389453184481,0.038850680497731105,0.018357632084459397,9.828908780806,7.349878718827206,6.5109312701723105,5.435226890080827,4.386733586019226,3.7423301204721824,2.5077477254552996,1.9619442457928642,1.468715768079793,1.0767465083789993,0.7885897755371225,0.5938018051616396,0.3913252051543026,0.2640125664587458,0.14734785020939256
0.0,36,36.0,0.0,121.0,0.0,0.0,0.0,0.0,-90.0,0.0,-45.0,0.0,0.0,0.0,58.892325333327804,19.630775111109287,5.780498433546327,4.4324563174707166,3.23731596262499,2.6747339280978295,1.7538669487673033,1.2403340499113895,0.8468543587063522,0.6020020321029165,0.39125310832567806,0.28658991978028325,0.1849091673152543,0.11371734429806679,0.07409969280231365,0.03802727806198902,0.014707207205681527,10.375451721497871,6.895906606579331,6.705070842450876,5.565867364865355,4.283982662366398,3.185017105278277,2.7074784881778697,1.9610733037833725,1.5332100179461712,1.1818936942985232,0.8030255049891721,0.575532426741578,0.4001444769643072,0.257617070722187,0.13967229203885978
0.0,37,37.0,0.0,121.0,0.0,0.0,0.0,0.0,-90.0,0.0,-45.0,0.0,0.0,0.0,58.892325333327804,19.630775111109287,5.959587044808458,4.165219210338542,3.380907810186976,2.3989178790310888,1.9715609887201921,1.2170773742157266,0.781528071676739,0.5607852829611062,0.3771540371315325,0.29240615276017934,0.18864844235834966,0.12596724393944925,0.07634559139378183,0.03509745111934848,0.01827904065579844,9.472406712690635,7.363767414935136,6.745760845720586,5.188062784368739,4.422155254328057,3.3923787693715894,2.3464577667098645,1.8688700466636803,1.2827586600394447,1.1403346717178344,0.7254673481913478,0.5689311420936178,0.37985791221942833,0.25538286682747113,0.14100398655814317
0.0,38,38.0,0.0,121.0,0.0,0.0,0.0,0.0,-90.0,0.0,-45.0,0.0,0.0,0.0,58.892325333327804,19.630775111109287,5.506928589263836,4.20232672058782,3.4705217161459956,2.7175594273171058,1.8105234958208385,1.2567056638404281,0.9054809341648706,0.5511455454580343,0.3810624441638666,0.29286476535291683,0.1835022711751506,0.10686237000680876,0.06827438450845591,0.03838388729514719,0.01649023362148938,9.026849638283661,8.046340169239606,6.682923998319648,5.72798837341654,4.378626438304579,3.17224467033628,2.4413785015690976,1.974559646377287,1.5023453325802905,1.101322184009632,0.7292883417053986,0.535546197534984,0.40630295957742035,0.23154976652381976,0.15229239995215238
0.0,39,39.0,0.0,121.0,0.0,0.0,0.0,0.0,-90.0,0.0,-45.0,0.0,0.0,0.0,58.892325333327804,19.630775111109287,6.10839091892953,4.045333742209429,3.3642305750065518,2.572142062391883,1.8812570478249455,1.154613393908349,0.8471779335148426,0.5430385065736445,0.3744041143157588,0.26136435308712436,0.1923684777034751,0.11783107795470471,0.06506280199926806,0.03245236996224321,0.01776078920971713,8.692661807082438,7.979807391507439,6.462221731276188,5.113367782965565,4.3913360606879515,3.2086806268387846,2.5600479571909993,1.8489151576458163,1.479685965855424,1.0953467912606492,0.8688018244257378,0.5214672708201178,0.3831372051054238,0.2772673004281323,0.1483185950621504
0.0,40,40.0,0.0,121.0,0.0,0.0,0.0,0.0,-90.0,0.0,-45.0,0.0,0.0,0.0,58.892325333327804,19.630775111109287,5.786416391142723,3.914912909078616,3.4271135542763034,2.765789510346103,1.9268728227357954,1.1475338655986178,0.8155928801052852,0.5716662113171935,0.370182241788541,0.28825584495003653,0.17123760904897267,0.09959725202280367,0.0713179455528703,0.044225603830490456,0.02296843614969646,9.239446685794942,7.662630766195321,6.717675290074933,5.695299183239186,4.459073700227979,3.414665261566789,2.4755532470135364,1.975879339491442,1.3384804023246026,0.9504549703037064,0.8181492591088997,0.5600429502702617,0.38994261679142284,0.2531545876244401,0.13563215046569255
0.0,41,41.0,0.0,121.0,0.0,0.0,0.0,0.0,-90.0,0.0,-45.0,0.0,0.0,0.0,58.892325333327804,19.630775111109287,5.8169669211693105,4.369938351385088,3.344998329400461,2.3237742085346937,1.912462296413814,1.288474890806448,0.8538931133065191,0.5954415164207845,0.3760103573368312,0.26339826138789846,0.1739795944073279,0.11545339479214078,0.06456902667795106,0.039634428558834145,0.019218024580027304,10.226592304558643,7.439816978040778,6.184956733175081,5.2084824523367,4.189882927120596,3.4494152649673886,2.3516459206144233,1.9309567558568013,1.4409906712717238,1.1885452417451887,0.766403522417832,0.5536884436143303,0.3821159024378993,0.21167159434648042,0.14132683770883148
0.0,42,42.0,0.0,121.0,0.0,0.0,0.0,0.0,-90.0,0.0,-45.0,0.0,0.0,0.0,58.892325333327804,19.630775111109287,5.859671319679393,4.023405822250972,3.5039447211932355,2.437543393800567,2.0418057111037555,1.2771432533237501,0.8469372552579699,0.5658605022314518,0.3493278224626195,0.24761137177333836,0.17131304904725653,0.11177377520854748,0.06026396920530175,0.04271297641449934,0.018917286556799695,9.421942248691224,8.07264377941484,6.295774664647489,5.697013220985141,4.014637966192492,3.4240192970655663,2.4779407556500743,1.86867321937153,1.5144463219727768,1.0405905622513032,0.7919605241020662,0.5458962812424062,0.38201878028007386,0.25774276418160724,0.14150252377563888
0.0,43,43.0,0.0,121.0,0.0,0.0,0.0,0.0,-90.0,0.0,-45.0,0.0,0.0,0.0,58.892325333327804,19.630775111109287,5.506311589304389,4.427960836230589,3.36626594451414,2.694391274894933,1.9741887704736385,1.297575425791166,0.8748086201496932,0.521353024140609,0.37490284271400043,0.24931038639257252,0.1749099833417631,0.09967603076013631,0.06369546096328094,0.03413401490773538,0.019281536365241436,10.456744823600463,8.408153310214633,6.899529937567198,5.911354584641998,4.712274322386058,3.444232913222457,2.352412033117851,2.020472476409516,1.3248753257167927,0.9832558380760901,0.7014529151195639,0.5598844928242848,0.35863599312109784,0.21702301590582707,0.15454644167024867
0.0,44,44.0,0.0,121.0,0.0,0.0,0.0,0.0,-90.0,0.0,-45.0,0.0,0.0,0.0,58.892325333327804,19.630775111109287,6.42552980405145,4.261374186454482,3.188899445782063,2.3698943892462836,1.826728857115512,1.2327106354880186,0.7418174548467746,0.5566604662610999,0.3459092510336248,0.23820711608512823,0.17101734909076782,0.10954117962687349,0.06474408963762102,0.034380811645398524,0.021312512809849693,10.18442125407989,7.430296191256378,6.877597222162546,5.785579926997194,4.62780953672884,3.222786594571776,2.7212676770623396,1.9445658409144606,1.3781556156499768,0.9123614778288776,0.8125303647942097,0.5235989320178192,0.3706937689418943,0.23833311821097425,0.14469091088867714
0.0,45,45.0,0.0,121.0,0.0,0.0,0.0,0.0,-90.0,0.0,-45.0,0.0,0.0,0.0,58.892325333327804,19.630775111109287,5.603138263337883,4.1805117074468185,3.229897831123573,2.652905020734792,1.9666150096598471,1.293250958076328,0.8962548843840494,0.5922357406456769,0.3799924754085211,0.2736928392389544,0.16505080817184847,0.12018258053995368,0.05883422734514454,0.0350996234374108,0.019791688309318545,10.327714109968895,7.675336399944307,6.568830018479137,5.4040922108072955,4.745527857913675,3.4666513890134745,2.4984220836596336,1.855798372933883,1.3757809045103109,0.9805057657084362,0.7528141685130372,0.49929973030149455,0.3503670037806792,0.2147405061418297,0.13747527834961915
0.0,46,46.0,0.0,121.0,0.0,0.0,0.0,0.0,-90.0,0.0,-45.0,0.0,0.0,0.0,58.892325333327804,19.630775111109287,6.502312251129567,4.338915055922854,3.504448867838285,2.618106554905097,1.8747242313643895,1.4118322001162156,0.804011969799987,0.5358670049414656,0.3632521797893986,0.2551044122872739,0.15740144067230233,0.1146445459166543,0.06366202738254856,0.03758926483229885,0.020150479316264125,10.455349566933599,8.011036288842877,7.074871826926877,5.710125064936186,4.509443206331667,3.3723919892846403,2.5055933803697457,1.827632217126265,1.2386779557436434,0.9674042248250032,0.7271254927931174,0.4377403266749269,0.36200099392558016,0.24827240600629708,0.1305008292851504
0.0,47,47.0,0.0,121.0,0.0,0.0,0.0,0.0,-90.0,0.0,-45.0,0.0,0.0,0.0,58.892325333327804,19.630775111109287,5.220498661171277,4.143437456596743,3.4844241467155115,2.4665555852995382,1.8199742232157021,1.177685951708284,0.8727416650050372,0.5520611062607159,0.3635516402524104,0.22354780209705183,0.17605225584453166,0.09990459370154525,0.06180368423704152,0.0369949068970854,0.0218965089535601,10.243549009031348,8.154285011865927,6.697358021918713,5.870892465646982,5.110247199600849,3.569373729140203,2.5335328847428222,1.7356171461405445,1.3787380150390405,1.0455819270041395,0.7206438923535998,0.5317945265484383,0.3913362259652331,0.24041503566168743,0.13749702209827674
0.0,48,48.0,0.0,121.0,0.0,0.0,0.0,0.0,-90.0,0.0,-45.0,0.0,0.0,0.0,58.892325333327804,19.630775111109287,5.988742963443926,4.244188936760082,3.341876588588299,2.8175406231769884,1.8228545112821806,1.1941354993914715,0.7527813885122399,0.5522268189456554,0.3472122941917135,0.24031258433961966,0.15331415863295916,0.11339499286703614,0.05902263189893375,0.034161534958180084,0.01705076800287486,9.555511256633245,7.3337836642690775,6.678808776207475,5.983621743202047,4.6104811747909515,3.2235461337840725,2.410494381180097,1.6872335601918707,1.1853416333510367,0.9455343848363604,0.744672573048625,0.4851066964863193,0.3625526193464559,0.23286264573013327,0.13730356928713405
0.0,49,49.0,0.0,121.0,0.0,0.0,0.0,0.0,-90.0,0.0,-45.0,0.0,0.0,0.0,58.892325333327804,19.630775111109287,5.97252504066401,4.1213853532125455,3.280851341185425,2.7722897298072553,1.754745533605103,1.2385870255787808,0.8663554371486342,0.5062879636495481,0.35946206991325624,0.23354309881383273,0.1598238646272847,0.10172461897528962,0.06225586100053704,0.03689248465453687,0.019515088156992988,10.749387415968755,8.223598944897393,6.822567865413397,5.923153707809636,4.773995269878451,3.677797880551797,2.2665003144840945,1.851507372329614,1.3572691938576114,1.067264847787765,0.7325087779889934,0.5196794260511126,0.34862310274084507,0.21613085958732725,0.13602071995986975
0.0,50,50.0,0.0,121.0,0.0,0.0,0.0,0.0,-90.0,0.0,-45.0,0.0,0.0,0.0,58.892325333327804,19.630775111109287,6.578494608218094,3.9244405277710257,3.235061399565197,2.658776100257434,1.8140732026748836,1.3828111864135337,0.8518110742415601,0.5263171194241067,0.3600184301199434,0.24869939706373145,0.16663927404822232,0.10506399870131844,0.06776946112300664,0.03857566958939884,0.019458992651529172,9.38273895294784,8.36818862215609,6.546850559363232,5.602471634336048,4.361662667864593,3.2803367008899826,2.4927249566931167,1.6277229442546037,1.3165359641330312,1.000038187206588,0.7006121664963487,0.489903440470858,0.34752076142854094,0.2360665049723032,0.12775175236582115
0.0,51,51.0,0.0,121.0,0.0,0.0,0.0,0.0,-90.0,0.0,-45.0,0.0,0.0,0.0,58.892325333327804,19.630775111109287,5.997152144083898,4.643599007568042,3.545092839856828,2.580689053780766,1.8863597739113729,1.2809129290706451,0.8313407620606554,0.5445482219670623,0.35981250058178915,0.2336607806901725,0.14839246937888362,0.10436566905401179,0.058531919688483924,0.03454223969420411,0.015372421487278132,10.09558958558905,8.383779739449388,7.134383055575736,5.52103896197314,4.305675050653264,3.342022861371884,2.3894078141976394,1.7381610504844858,1.3339583127841657,0.9781659354877696,0.6924254728455921,0.5460443897439049,0.34336428244783335,0.2179376192861504,0.1447137505531657
0.0,52,52.0,0.0,121.0,0.0,0.0,0.0,0.0,-90.0,0.0,-45.0,0.0,0.0,0.0,58.892325333327804,19.630775111109287,6.066617414163687,4.280145333923585,3.369993724193641,2.6851409816585488,1.7879499622433173,1.276471913816664,0.860587365957926,0.4976265222464491,0.36873505663482575,0.25562395476554656,0.1526455501114583,0.09874580500603258,0.05832508148403548,0.033881937252566274,0.01705102518496915,9.713596898698327,7.904772300447046,6.451625101425641,5.936708821001403,4.475738327324869,3.6400973225178177,2.403693651781282,1.8676086304550523,1.1145096373163348,0.8935255965166107,0.7407176628520418,0.519156896485935,0.35081107430362124,0.24857969083380027,0.13346113071596122
0.0,53,53.0,0.0,121.0,0.0,0.0,0.0,0.0,-90.0,0.0,-45.0,0.0,0.0,0.0,58.892325333327804,19.630775111109287,5.370141975586975,4.399448036834428,3.5021290777703484,2.7672138062204255,1.9224668666033793,1.3746333899832948,0.7798855058055878,0.5118316020045341,0.36130102513604356,0.21984653530360987,0.14937750132084915,0.10677841398943144,0.060903128600884315,0.03160464223275028,0.018023450445681988,9.76942648708189,7.556771569334014,6.959898711674796,5.978765557497699,4.674524268276553,3.418608254686813,2.551764443303984,1.8401261587979327,1.3215173274243845,0.9457878565795248,0.6971811056223345,0.46717160134596725,0.3491899602651998,0.22446225397129993,0.13264863034156704
0.0,54,54.0,0.0,121.0,0.0,0.0,0.0,0.0,-90.0,0.0,-45.0,0.0,0.0,0.0,58.892325333327804,19.630775111109287,6.046743566833683,4.204160095546051,3.387043805847348,2.6629734973140557,1.9721823705519057,1.2091769858093997,0.7896753365008067,0.48642044285568886,0.36564568075407067,0.23734245345892901,0.15014152091993083,0.09410481468793819,0.06969843854510316,0.03678132180370142,0.016132103363354133,10.23760091574401,8.669432917071152,6.478372588599541,5.885074997382578,4.679903181823061,3.469932166411688,2.6581074797871445,1.7881538912375738,1.1433600353484081,0.8881913679258844,0.6463527613041471,0.5034721540264222,0.3102580732371578,0.2217938003490758,0.13393601864057558
0.0,55,55.0,0.0,121.0,0.0,0.0,0.0,0.0,-90.0,0.0,-45.0,0.0,0.0,0.0,58.892325333327804,19.630775111109287,6.863742498336691,4.283150455990757,3.6007181307705167,2.523885608691799,1.7893311248370836,1.2655513311672664,0.7377280858521047,0.49103165937894744,0.33264666718990554,0.21852917016205708,0.15852026299162247,0.10204177387321067,0.05622421914019782,0.030449142756992842,0.019821852933418427,9.529452901017564,8.045443558126067,6.632002010181061,5.869844187369804,4.166814431031131,3.686590763907809,2.47677136789196,1.63457221777076,1.326726531887882,0.9709765021904211,0.7130809280921149,0.4490718475197717,0.31812125994769147,0.23679354369953387,0.13245727431506182
0.0,56,56.0,0.0,121.0,0.0,0.0,0.0,0.0,-90.0,0.0,-45.0,0.0,0.0,0.0,58.892325333327804,19.630775111109287,6.502948309127206,4.410956024168975,3.223386277062879,2.668859809501704,1.9509676654676227,1.2695274827225802,0.7427078308059052,0.5643473540695467,0.3489777273249288,0.2302789583150613,0.14884372504089782,0.09717434306516282,0.05564644097310634,0.03461010111178808,0.018618187771593853,10.327028345300395,7.158729312548289,6.975609689452057,5.942135105894863,4.852949475764465,3.214872916571938,2.540780802982461,1.898238348155676,1.3233384391936873,0.9549330207309943,0.7601993760189316,0.5168920145441227,0.35372627934809486,0.22891069190793445,0.12965487913460194
0.0,57,57.0,0.0,121.0,0.0,0.0,0.0,0.0,-90.0,0.0,-45.0,0.0,0.0,0.0,58.892325333327804,19.630775111109287,6.102671165624315,4.146482224912496,3.6014812616010303,2.689803224056959,1.8782634746605353,1.2222439055051595,0.7965625317338976,0.5498433196917674,0.3299182878420055,0.2190979485262261,0.1500075854967946,0.09506570418790261,0.060829096946648065,0.03247839180949086,0.01555887790089372,9.869021193185894,7.636536508442376,6.907653375433007,5.428709391220075,5.0592099648957145,3.4476215851365843,2.5349492646982235,1.9047454240032167,1.185744704240694,0.9288078789495771,0.7126926018187802,0.44574640374905883,0.32617110731500887,0.23003546204255088,0.12425127936251457
0.0,58,58.0,0.0,121.0,0.0,0.0,0.0,0.0,-90.0,0.0,-45.0,0.0,0.0,0.0,58.892325333327804,19.630775111109287,6.669156724005532,4.543397913831498,3.327476258882399,2.5613500013856907,1.826801238500373,1.2886410950293055,0.8958976978518862,0.4407173800543376,0.32474679418687913,0.21831898594616916,0.13678817317174463,0.09095816815786151,0.048214529881654755,0.0369248849632271,0.016986051513462996,10.614585075129764,7.17360017887469,6.9376597787586505,5.803297557153154,4.626332764674693,3.443056445987107,2.4172092913600522,1.8139263891979134,1.361632357400481,0.9546913821814869,0.6292321313060718,0.5092932985142014,0.29180125009319013,0.2322265186653567,0.13613188996811232
0.0,59,59.0,0.0,121.0,0.0,0.0,0.0,0.0,-90.0,0.0,-45.0,0.0,0.0,0.0,58.892325333327804,19.630775111109287,6.0277885163374805,3.8581485877879302,3.7299034419812855,2.5541552557974256,1.8917154967437284,1.3749661955952064,0.7865539906014121,0.5101945453367875,0.33578199230154127,0.2192053643748153,0.14273290034406472,0.08538064703719783,0.05992813947780462,0.030051676657926407,0.016371852851747803,9.923584658697301,7.794262092874515,7.005548757503117,5.174809309386806,4.55830186216339,3.5116082771278627,2.501320472364686,1.7413985251025217,1.2588307953420177,0.8149191334043309,0.6965434241987971,0.49016868490642906,0.3354535286047593,0.2274912382003862,0.12853997396567252
0.0,60,60.0,0.0,121.0,0.0,0.0,0.0,0.0,-90.0,0.0,-45.0,0.0,0.0,0.0,58.892325333327804,19.630775111109287,6.146869383175769,4.451938018745373,3.5630477189518572,2.868741649649344,1.9649881413366472,1.3251256266645655,0.7811893373478185,0.49816453584463005,0.31547413180130945,0.22300367317836134,0.1322763397265021,0.09563377564489883,0.055534636141246096,0.03139419423095546,0.017693663958020522,10.035227340925257,8.335662063499448,6.718943383051471,5.604610660380253,4.583770640433595,3.3360498756756876,2.410641766650592,1.6954195159898617,1.339043057354182,0.9939068804324478,0.6458685627400484,0.46320965811757375,0.3199694282188581,0.21161128490257042,0.12612004085809758
0.0,61,61.0,0.0,121.0,0.0,0.0,0.0,0.0,-90.0,0.0,-45.0,0.0,0.0,0.0,58.892325333327804,19.630775111109287,6.5555917318092725,4.310854448528659,3.481453367032614,2.9137982621607748,1.8376387867724802,1.2435016982261473,0.8450886070503785,0.5423695968802207,0.3389868467695436,0.21969279933303199,0.14255532666059167,0.08702065784057567,0.05453014331536821,0.029498388293404787,0.020798126569879116,10.28546865609659,8.29540821064612,7.2952771445641496,5.566789713287271,4.390292306865099,3.426728613714488,2.4943959411370287,1.847745160181475,1.314063195286952,0.8953402237311572,0.6555122846080081,0.49447827840558034,0.3272299206964995,0.1964442648944278,0.12457757976687844
0.0,62,62.0,0.0,121.0,0.0,0.0,0.0,0.0,-90.0,0.0,-45.0,0.0,0.0,0.0,58.892325333327804,19.630775111109287,6.468047926558924,4.622745622115779,3.4001688548172027,2.69201288335843,2.008292028322785,1.3740530547502345,0.7460861068804974,0.5013596266157236,0.3403607682660166,0.22901072830053693,0.14153298196647057,0.09168910371971606,0.052462941778955496,0.034904400590825446,0.018867793180042725,10.462178383092429,7.453669321191395,6.708183453619892,5.867502580671886,4.506006501295548,3.2354735187349846,2.5686717404569492,1.7977630909091253,1.3020702404917337,0.8945242000102169,0.6980291334443756,0.45592714098729203,0.32579762268786894,0.20511786710634183,0.11926838101562254
0.0,63,63.0,0.0,121.0,0.0,0.0,0.0,0.0,-90.0,0.0,-45.0,0.0,0.0,0.0,58.892325333327804,19.630775111109287,6.028159071690325,4.096322158626464,3.8750555613499813,2.8577051736968784,1.8426295120298875,1.273222284395402,0.8403229616110508,0.4851168640450112,0.33136287324524716,0.208401158014766,0.139974355057511,0.09130017472099894,0.05074884154765158,0.032762760677748304,0.012649785252413892,10.152290954060735,8.118557619850318,6.995005297974689,5.474594615828131,4.6428516247684755,3.6158215756170122,2.5216634849292916,1.8259849425406394,1.3857483632406584,0.9048170223099845,0.6830779850580342,0.49087543264282374,0.3541410494168815,0.2275724738909517,0.1303554548140582
0.0,64,64.0,0.0,121.0,0.0,0.0,0.0,0.0,-90.0,0.0,-45.0,0.0,0.0,0.0,58.892325333327804,19.630775111109287,6.723024559114236,4.595671919099509,3.316061615897489,2.692518032214174,1.890029297993074,1.3167595048557104,0.9219747656107344,0.4971596083505503,0.3321404444741134,0.2083273738648046,0.143241134433147,0.08920986809113174,0.04896013426952095,0.02531322823931248,0.0118129605133106,9.892553939988105,7.907468747837964,6.548956218336368,6.115565305329849,4.692368206783012,3.4574575791342355,2.3791836334975542,1.6012808653869612,1.2643112324329167,0.9220547542766475,0.5807579455831018,0.47724230389115974,0.33987075738209427,0.21503561076409738,0.1119180201193295
0.0,65,65.0,0.0,121.0,0.0,0.0,0.0,0.0,-90.0,0.0,-45.0,0.0,0.0,0.0,58.892325333327804,19.630775111109287,6.305533107304598,4.65104370668746,3.3351197521585974,2.519656864628857,1.9307673759057522,1.1477430593998648,0.8502204388580523,0.5255369471249551,0.32908171658336016,0.20429904734370297,0.13301422844896393,0.08646986997415951,0.054182267470103795,0.02695005754451074,0.014678897776917665,10.40716555717777,7.681627081179098,7.446651324977804,5.815987132585036,4.728969253152975,3.451649335934011,2.486476495193372,1.789991406273895,1.1355889315226229,0.9099032353308587,0.6085679204750818,0.4515816079941892,0.3051351084511573,0.19720779553841794,0.12847701639651632
0.0,66,66.0,0.0,121.0,0.0,0.0,0.0,0.0,-90.0,0.0,-45.0,0.0,0.0,0.0,58.892325333327804,19.630775111109287,6.197176173294636,4.569413060432765,3.2691907672480838,2.412229630561356,2.007147740853874,1.383824465529358,0.8854756246566993,0.5091276806035197,0.3273940938668076,0.22475589223370918,0.1380592565556995,0.0792247701543829,0.05287125940169801,0.024380150835604297,0.019916394645896673,10.389261396774433,8.303304460343362,6.344857871772511,5.802115687666703,4.90403538361387,3.637517674512072,2.6070068508267497,1.6724724610085566,1.2760771789712173,0.8995237448808879,0.6293712813600685,0.48063903866325575,0.29359411128535484,0.21788351396781636,0.12292199572210549
0.0,67,67.0,0.0,121.0,0.0,0.0,0.0,0.0,-90.0,0.0,-45.0,0.0,0.0,0.0,58.892325333327804,19.630775111109287,6.353577034258365,4.429297188949882,3.4502156031740014,2.569870087383997,1.969276974478035,1.2449771663137525,0.84710634778871,0.5075067028793896,0.3138903694888313,0.18082563043144262,0.12561124402684243,0.08662547582021318,0.047587591845051236,0.027763443181378022,0.016327459127452926,10.434553731107965,8.421155372746085,6.9608967020550985,6.178659631887619,4.4644316400161514,3.3852516295241806,2.502033396409761,1.7725688466627538,1.2664049420202836,0.9522389925837551,0.6285598101638783,0.45373150647538907,0.31136943672691686,0.18311380974273916,0.13119365365781022
0.0,68,68.0,0.0,121.0,0.0,0.0,0.0,0.0,-90.0,0.0,-45.0,0.0,0.0,0.0,58.892325333327804,19.630775111109287,6.1197453009544915,4.693293506048704,3.583987308229723,2.80072957889692,1.984882578084445,1.4250823090664753,0.8205286963554386,0.5133273841340653,0.31410155519634486,0.18869005607260192,0.1395397603526618,0.08868963432944099,0.04373627830083393,0.028057489767412847,0.017200993581148794,9.706463622566716,7.905141096596097,7.7902963024616305,5.805639030201807,4.541060180732341,3.261272375014311,2.4978952879335843,1.909458595674547,1.3433576015441595,0.9158905415574523,0.6314012353751082,0.44152586910129443,0.2746070008486896,0.19791322540569567,0.12249742205598224
0.0,69,69.0,0.0,121.0,0.0,0.0,0.0,0.0,-90.0,0.0,-45.0,0.0,0.0,0.0,58.892325333327804,19.630775111109287,6.175503991833352,4.4013127642552945,3.434685148798195,2.579058811630084,2.0897461438423406,1.3439556017633478,0.8132258871392608,0.4875928455959908,0.3021167718147595,0.20717287539282836,0.1301034873364344,0.07824289462090661,0.0504921297470986,0.031766202134811294,0.015629974139621083,10.347271048204647,8.346286551790044,6.840997377524182,5.928533118341715,4.618732334352824,3.607257639595506,2.6056134307462457,1.6654053064900047,1.2215320213476097,0.8894029004880615,0.6168967915102037,0.46568380003773413,0.3086476293731728,0.1869815675465034,0.1157872789816281
0.0,70,70.0,0.0,121.0,0.0,0.0,0.0,0.0,-90.0,0.0,-45.0,0.0,0.0,0.0,58.892325333327804,19.630775111109287,5.818285304311985,4.8195618545442755,3.521049025010562,2.741584010027431,2.029315211118231,1.3739047034990293,0.7758755982873922,0.5412280394092832,0.298215588153802,0.20112228444435942,0.12653880399106043,0.08092755678949715,0.049145245164396556,0.02640061097890367,0.014810334841072859,10.6628174778543,8.701036438206614,6.915168311209236,5.785147537905019,4.430582061171027,3.6202089707286262,2.486622935387704,1.700296112540034,1.2249148361731592,0.8432268835429753,0.6573535271616642,0.46528351345154917,0.3248453966791125,0.20504568655730537,0.12247285733511148
0.0,71,71.0,0.0,121.0,0.0,0.0,0.0,0.0,-90.0,0.0,-45.0,0.0,0.0,0.0,58.892325333327804,19.630775111109287,6.988931269328887,4.859693924087466,3.5227591666560087,2.807312785024095,1.7836447544600134,1.3169335113794958,0.8616184806738616,0.474769595618902,0.3045454011954334,0.19312518477693885,0.1292870790074474,0.07964234022802685,0.05897859963073415,0.02836517096748281,0.01441798115463655,10.668837766382474,8.27224216353223,6.264620010042179,6.394399275644144,4.4805961349369845,3.497063634047361,2.847497741594566,1.8717694843934396,1.1642501909058645,0.8587192837515083,0.6559062030882252,0.41154789214419907,0.28495423194491565,0.1934783120685566,0.11498428478359557
0.0,72,72.0,0.0,121.0,0.0,0.0,0.0,0.0,-90.0,0.0,-45.0,0.0,0.0,0.0,58.892325333327804,19.630775111109287,5.924370826895441,4.519781337340959,3.7508627766963727,2.7869483086159903,1.9625675036879784,1.2549273466248252,0.7273757496189148,0.4846355253439185,0.294850580290138,0.21093745277228493,0.13142399186224196,0.07135041790067476,0.05184878519184366,0.028651387696328356,0.015336672499849158,10.832577943333998,7.956566269922643,7.155056000492827,6.030797912828497,4.6682973883131105,3.786585174264278,2.3586898981899047,1.8107465496560273,1.2890993292643635,0.8811296734122891,0.5952971622197545,0.42020999026143,0.28695269326712847,0.19649064813769002,0.12113711007862094
0.0,73,73.0,0.0,121.0,0.0,0.0,0.0,0.0,-90.0,0.0,-45.0,0.0,0.0,0.0,58.892325333327804,19.630775111109287,6.115246877719159,4.703059174364618,3.6289586009195602,2.7851742030482,2.085796459072725,1.2658443376709272,0.9006839795990444,0.468088248909595,0.32228268948408356,0.19315986478110858,0.13667273087764187,0.0759369370051104,0.05534642443607396,0.023516959130617465,0.011471901347043456,10.576351528138979,7.9231519177635334,6.903294793570826,6.468187688931977,4.513321369405272,3.5744146050862824,2.471135779593496,1.7776667230881174,1.178202466874783,0.8766273653862804,0.6132430867381373,0.43306042429306757,0.27676535020239257,0.20169701056426703,0.11560176904009367
0.0,74,74.0,0.0,121.0,0.0,0.0,0.0,0.0,-90.0,0.0,-45.0,0.0,0.0,0.0,58.892325333327804,19.630775111109287,6.27022844392414,4.440350938841654,3.5930919563754813,2.719876179027054,2.030597721943913,1.2417369866788022,0.8304569045434036,0.45863945877735546,0.2969634279204172,0.18292970463071612,0.1213486494050855,0.07697531489974097,0.051591524627653484,0.03011878541127544,0.016194944912214737,10.600583932090803,7.934429881972953,7.315436885245774,5.120369390376304,4.473647401002818,3.310498566227306,2.4264505983852693,1.654046778376248,1.1434018096480436,0.8286154747879699,0.6005223375581288,0.4596540705180381,0.2813680993442418,0.1957812435293924,0.12197009716918572
0.0,75,75.0,0.0,121.0,0.0,0.0,0.0,0.0,-90.0,0.0,-45.0,0.0,0.0,0.0,58.892325333327804,19.630775111109287,6.152139389809221,4.428684805071988,3.956768368366234,2.7855405490642084,1.9332737397162916,1.3759598096674495,0.7727652986742584,0.5046877741319946,0.3213132346674499,0.2071860411054942,0.12732895580511894,0.07577477839959101,0.039920406584045054,0.02641875977734287,0.015937650099075995,9.916796910288397,8.142784531484967,6.483526456956259,5.872462994208508,4.9425197847354845,3.5317187935272365,2.42717987282548,1.7224519738582167,1.2294342996089043,0.8786279322737975,0.6209559633026664,0.4448604681623003,0.32265931727884833,0.19523916823461818,0.1142247470234885
0.0,76,76.0,0.0,121.0,0.0,0.0,0.0,0.0,-90.0,0.0,-45.0,0.0,0.0,0.0,58.892325333327804,19.630775111109287,6.344260738296697,4.822568600452996,3.403207154098453,2.8989032195823867,2.0303968033769095,1.2544560416211752,0.8939196217671466,0.49791469544501155,0.27906288984433303,0.20151233945868086,0.11721862430970731,0.0806695376192792,0.04415506650157397,0.024190004688122713,0.013255113090473003,10.841807567877183,7.658805554140152,6.746338433473685,5.668083231329462,4.741960448568975,3.933422496062491,2.805282830875214,1.7612805514281824,1.256100901001922,0.845910987973916,0.6497764045277563,0.46760009096911404,0.29053321787898057,0.19934675300615368,0.11804679362496984
0.0,77,77.0,0.0,121.0,0.0,0.0,0.0,0.0,-90.0,0.0,-45.0,0.0,0.0,0.0,58.892325333327804,19.630775111109287,6.696959162458029,4.45478603135647,3.797497988776996,2.679789920887586,1.9754597821221225,1.2984530528073748,0.8887081720453125,0.5417995972578993,0.30484881747308634,0.19060675052835307,0.1202354726032766,0.0769648699636889,0.043419792630530196,0.02639057166167902,0.012492977431335817,9.845890746046635,8.746667033409075,7.427872876481246,5.431797461844976,4.622191919086752,3.7854031144468507,2.5957856384644664,1.7831954864974335,1.2388881673788106,0.8000967016023708,0.5902596857969833,0.4173434138830032,0.2754416187322235,0.1895337491764657,0.10495865128593707
0.0,78,78.0,0.0,121.0,0.0,0.0,0.0,0.0,-90.0,0.0,-45.0,0.0,0.0,0.0,58.892325333327804,19.630775111109287,6.600661897466509,4.2916885118819295,3.583821174567653,2.812664064313765,1.8800190194979436,1.3588168712828264,0.795971526617258,0.47182602551613684,0.270925509554381,0.19213991124886576,0.1275912966529873,0.06804969488656809,0.0458279882230741,0.02513505489261547,0.01460523241829037,9.90878313921165,7.831369843812084,7.076738251403199,5.768551091550982,4.966081371395486,3.608120676119217,2.6905954694037746,1.7380775548195722,1.2808366399020876,0.9247001542212558,0.6049629761740647,0.4100508616741614,0.28318149434095474,0.19966086470034128,0.10824221443337834
0.0,79,79.0,0.0,121.0,0.0,0.0,0.0,0.0,-90.0,0.0,-45.0,0.0,0.0,0.0,58.892325333327804,19.630775111109287,6.4476999042936995,4.23455056170274,3.669192675481007,2.8408420273009014,1.8991296230624997,1.203555513762062,0.8609228100921129,0.4905829699573161,0.26242670600545637,0.19034244607349393,0.12973819647524465,0.08283020344467218,0.04553090400927573,0.02739611088941274,0.010885311983869883,9.36384821738265,7.597464720865439,7.582200198209367,6.103763313218188,4.716358646230368,3.570385621377426,2.668808846934912,1.569606756861372,1.1918332896781685,0.8225927141758191,0.6576940432479361,0.3920848141738169,0.2754933389912466,0.18753113477948702,0.11844776240252486
0.0,80,80.0,0.0,121.0,0.0,0.0,0.0,0.0,-90.0,0.0,-45.0,0.0,0.0,0.0,58.892325333327804,19.630775111109287,7.110772316057947,4.485105704820725,3.84537598071784,2.7803508541672173,1.818868350685591,1.2738550818143395,0.8388648782415729,0.5277854177861983,0.31385672573264145,0.20184432806049557,0.10338242099759043,0.07726962929067582,0.04941341300290958,0.024899217505200966,0.017610605722396144,9.85114184438551,8.409901682000921,7.245166843300826,5.601514525937084,4.80606164314899,3.502941188247121,2.6421305101879433,1.7984086681928133,1.330967647877788,0.8756654736110363,0.5845468519312789,0.44959365559386555,0.2942361659067636,0.1706121298395793,0.10707619909752353
0.0,81,81.0,0.0,121.0,0.0,0.0,0.0,0.0,-90.0,0.0,-45.0,0.0,0.0,0.0,58.892325333327804,19.630775111109287,6.116388704777705,4.3524056783081235,3.3831957036189806,2.6371366473237856,2.0952492623014294,1.3406242552050074,0.8259912272147929,0.45377787388412827,0.3168937751169594,0.1837327581530559,0.11899481217265873,0.07375734838969095,0.0463147276182454,0.0231172967222264,0.01638976058813313,10.981039922690226,9.02524932071773,6.8924277689615465,5.804167769627913,4.939211407848216,3.450077747490816,2.6578718644561725,1.6489363016922347,1.2711452879208132,0.8150303559563419,0.6148132959727839,0.41375470513993307,0.2812069834876567,0.18038248167719928,0.10060791818640169
0.0,82,82.0,0.0,121.0,0.0,0.0,0.0,0.0,-90.0,0.0,-45.0,0.0,0.0,0.0,58.892325333327804,19.630775111109287,6.280460345718794,4.215536402095957,3.7880779282128287,2.86643212061842,2.1287904176779406,1.3199424459048998,0.8351964418011164,0.4884881823818148,0.2791219943587251,0.1872091586575877,0.11092752973271303,0.0781302222234217,0.04667250362657427,0.021378557991013736,0.012052754746996186,10.82224312255438,8.020259133217756,7.323934118688303,6.221277385063377,4.61704818374832,3.613485173339864,2.4380825645740494,1.8110491921674488,1.3174548391524006,0.8021332678042974,0.6273852396579969,0.4199346173582086,0.2859055132788413,0.18360358662535248,0.11629424461940019
0.0,83,83.0,0.0,121.0,0.0,0.0,0.0,0.0,-90.0,0.0,-45.0,0.0,0.0,0.0,58.892325333327804,19.630775111109287,7.01188768274335,4.594893497967853,3.8057202162285293,2.5907160903767803,1.9396634443088487,1.2209244762450737,0.8203562426794377,0.4758184849053819,0.3213179926096785,0.1798301139582179,0.11923519938111582,0.06798182888878301,0.05203132122538534,0.02099847509937547,0.014294436182801462,10.554401846350043,7.976875144944877,6.243815517080378,6.164249818018096,4.838069384852037,3.8927914989350363,2.6357756384848123,1.7632045900448574,1.207173446229941,0.7810968363694251,0.5900678704549023,0.402954846509612,0.2623881457277122,0.1948580428787814,0.11094366919296661
0.0,84,84.0,0.0,121.0,0.0,0.0,0.0,0.0,-90.0,0.0,-45.0,0.0,0.0,0.0,58.892325333327804,19.630775111109287,6.528673475251566,4.693818452299553,3.422472108903264,2.480542309015547,1.9831421132726348,1.2117913944192864,0.8603218056327506,0.4659595337385838,0.3210163370599517,0.18950167641980897,0.11471040198691895,0.07801257937343564,0.04844168514028979,0.028743336967366417,0.019143757703822928,10.47696073228271,8.166798767237214,7.371918970413663,6.359403372348655,4.892802312469655,3.7857803826017857,2.2807418450494943,1.7201550369137664,1.2067533288575518,0.8406484018400739,0.5902734326619168,0.4237373486396834,0.28176045871447286,0.19186296898570276,0.11039517729820503
0.0,85,85.0,0.0,121.0,0.0,0.0,0.0,0.0,-90.0,0.0,-45.0,0.0,0.0,0.0,58.892325333327804,19.630775111109287,7.139602254296278,5.056234474041702,3.5035277160173592,2.6356571144509715,1.9187099913998935,1.367598052947173,0.8496867029434085,0.4768887371458206,0.30699904807514855,0.18385042742968238,0.10335716170803266,0.0648372149038039,0.038295403385639304,0.02490806976522464,0.016089649592785804,9.157798901397069,8.322409074766622,7.036779501193369,5.829990901861269,4.581510779369399,3.796583877273008,2.598024520125982,1.7761357496325623,1.279218355603465,0.7451951067453138,0.5534437031445556,0.41067319667510205,0.2825491694169635,0.1813381812979138,0.10929575471377362
0.0,86,86.0,0.0,121.0,0.0,0.0,0.0,0.0,-90.0,0.0,-45.0,0.0,0.0,0.0,58.892325333327804,19.630775111109287,6.327622689776277,4.534376797241038,3.7721939739787302,2.8306325357583404,2.1849181411976204,1.348232614265008,0.8404579983223144,0.49674138601627504,0.289389315265538,0.17951292980760059,0.10723909300661205,0.07442649533614798,0.04235005985599827,0.028625297289480045,0.01676751166563406,10.472081655804157,8.58652030963436,7.2686481961460245,5.721037683866758,4.837179539274537,3.886892243722656,2.71162216613531,1.742144265482061,1.1175436421028877,0.8355776197617715,0.5654603867868104,0.38471783398305703,0.2859304918546144,0.17875646261917666,0.11430109966112312
0.0,87,87.0,0.0,121.0,0.0,0.0,0.0,0.0,-90.0,0.0,-45.0,0.0,0.0,0.0,58.892325333327804,19.630775111109287,6.265753772435971,4.983256988160633,3.71754285231885,2.8624043116745526,1.9640586690531379,1.302381093757269,0.8785239903203106,0.5274615317648994,0.331569370818265,0.1843783210365899,0.11911945218707132,0.06633997997182917,0.03986566566609895,0.025076722368908122,0.016236514689339288,10.466465150387087,8.496493528230623,7.597929223627347,5.9787167754699375,4.792239736895095,3.899604625932902,2.500634983707492,1.7966678853386213,1.2201056559969459,0.8360796113341209,0.5882976862018054,0.41749906014960914,0.27543463032441906,0.16887934857633624,0.1154179423066104
