Line_number,Fiducial,Easting,Northing,Height,Elevation,tx_pitch,tx_roll,tx_yaw,txrx_dx,txrx_dy,txrx_dz,rx_pitch,rx_roll,rx_yaw,PX,PZ,S0X_time_1.086e-05,S0X_time_3.256e-05,S0X_time_5.426e-05,S0X_time_8.680e-05,S0X_time_1.411e-04,S0X_time_2.279e-04,S0X_time_3.689e-04,S0X_time_5.860e-04,S0X_time_9.115e-04,S0X_time_1.411e-03,S0X_time_2.192e-03,S0X_time_3.418e-03,S0X_time_5.339e-03,S0X_time_8.301e-03,S0X_time_1.338e-02,S0Z_time_1.086e-05,S0Z_time_3.256e-05,S0Z_time_5.426e-05,S0Z_time_8.680e-05,S0Z_time_1.411e-04,S0Z_time_2.279e-04,S0Z_time_3.689e-04,S0Z_time_5.860e-04,S0Z_time_9.115e-04,S0Z_time_1.411e-03,S0Z_time_2.192e-03,S0Z_time_3.418e-03,S0Z_time_5.339e-03,S0Z_time_8.301e-03,S0Z_time_1.338e-02
0.0,0.0,0.0,0.0,120.0,0.0,-0.6431615722588724,5.814704539932247,4.741772168434284,-106.77351352137241,0.0,-45.036844301055496,3.0384823685108366,-5.30021020285774,-1.517724182516961,34.26675005680039,17.578289281573518,1.7048942459587753,1.5285392129097624,1.4841628830095877,1.3459300238740617,1.365270726043686,1.202638917585083,1.1453751828829408,0.9948117384499401,0.8602086733845541,0.7344004522081806,0.5899997832085063,0.44732449976859945,0.3404763967131631,0.2399940375278413,0.15447048131871705,3.1833034457892975,3.0258218624283812,2.9315574457573854,2.7810067674913883,2.686465842668688,2.5653356544105916,2.5087557949518415,2.1311659291774405,2.0392861091138337,1.7499665203729988,1.496322266345792,1.2665597208910608,0.9739778292313301,0.7562115738714954,0.5541284061803553
0.0,1.0,1.0,0.0,120.0,0.0,6.1814170477412524,18.844575040116766,1.4850977247925705,-107.5225077710168,0.0,-45.01049857537724,1.0689766690375655,6.811655288679873,-3.1037840205539844,34.26675005680039,17.578289281573518,1.5987411991470637,1.3752451971850204,1.3446218065238429,1.3025320570032999,1.2271580252146121,1.122538521127968,1.0390438154692898,0.8962895484343805,0.8033105102049836,0.6748839876899091,0.5440610648605831,0.4364344276044606,0.33569851814747825,0.22192798677098913,0.15035135560936438,3.137543885941153,2.826586933671318,2.774746691042894,2.6755377735389274,2.6579634709542233,2.5037413715411696,2.267319887476916,2.141355397661752,1.8798461931886514,1.6621607496054844,1.3948280900848768,1.2091617460057602,0.9501042448499295,0.7420746210060666,0.5278340061260417
0.0,2.0,2.0,0.0,120.0,0.0,-0.7095003179499866,2.792978909588534,-3.9820854753229273,-106.90130020181006,0.0,-44.998280199132665,5.218865789275751,-3.1092514173635344,-1.2034773751638204,34.26675005680039,17.578289281573518,1.589092902787132,1.3147378451037517,1.2637420439234583,1.223671870963979,1.1920745711806975,1.065178814374035,0.9541195961966823,0.8482741280575905,0.7365694749062306,0.6343691482007369,0.5023385717645427,0.41813704729081125,0.308119796017666,0.19495261915832682,0.13985600314592375,3.1201104196421903,2.651310725442304,2.592492844772391,2.5297337225922445,2.3175571469008904,2.316367880563012,2.1601325462064853,1.9791876549332825,1.772283942858693,1.6763026935278977,1.438078158997007,1.1545972728610663,0.9284006065912099,0.6880183498780662,0.5047653175642807
0.0,3.0,3.0,0.0,120.0,0.0,-5.463367180675764,13.70107766470494,12.23329441773322,-106.70906525665576,0.0,-44.76064121289008,-0.4099927704683063,0.597785007957734,1.000217933502575,34.26675005680039,17.578289281573518,1.5362762665707026,1.2655733057075984,1.1086232962682647,1.105580622293528,1.09370017285308,0.9652169095094593,0.8926694903077813,0.8225519420486924,0.7258131543099002,0.6074578319941305,0.5103284104690222,0.39376470534571323,0.2614661823917811,0.21103724152892434,0.12409761975325675,3.0083145189008347,2.591924455048732,2.5184678879978377,2.4867461155853046,2.2723099063565386,2.2287311456331365,2.0829736447761045,1.8738061749072144,1.712961479227788,1.5298748440620773,1.332419910825949,1.062770265551913,0.8759540792245851,0.7007374669416756,0.5155252004691226
0.0,4.0,4.0,0.0,120.0,0.0,-6.690404742145118,6.921701720632562,10.603186816014183,-107.12884711136954,0.0,-45.05087728095914,2.5361972534849495,-3.496364824534817,0.5397807289031569,34.26675005680039,17.578289281573518,1.5028642530258023,1.176284727353666,1.1126963913037864,1.0669244350171692,1.0176060202011994,0.9108589996138811,0.8275130603039695,0.7750065447509165,0.673299138158987,0.5723631855216017,0.46740812612073834,0.37868176767939804,0.2645445871383217,0.18650025757611893,0.10249336554292408,3.0507686945348778,2.5614847216423606,2.3281903772726436,2.2733928327007735,2.166364830287421,2.1546154584734283,1.9543388248986482,1.7791890442167264,1.6591861342229146,1.4869449287186105,1.2414113093630466,1.0721480596227184,0.8272817230618914,0.6436725891237708,0.45535364606071466
0.0,5.0,5.0,0.0,120.0,0.0,9.908844136825856,-9.465305973706068,-2.422886452282947,-107.21196241822251,0.0,-45.022585511510925,3.198421794132984,-3.1467257913400655,2.96981956467027,34.26675005680039,17.578289281573518,1.5225452985114372,1.1205246659160615,1.04886049145382,0.9739280374760477,0.955505002465779,0.864263224869607,0.7867229148310583,0.7016273306478763,0.6264822180249862,0.5517582385222267,0.43607954554130557,0.3803272073520723,0.2704646722194426,0.1900647966257845,0.11781548815735486,3.078289840630289,2.4016086598236654,2.3324122788761867,2.247136954302672,2.195286134502116,1.955690823600921,1.9162545624875158,1.8166753980672259,1.531290124548182,1.4705333444451567,1.173270552187763,1.0234076569504922,0.8201830200942977,0.618669573107195,0.47985549001029937
0.0,6.0,6.0,0.0,120.0,0.0,-8.453257924464195,-11.65454259841104,9.194281605121521,-106.639197582718,0.0,-45.092284166852906,2.246503846440434,-4.7094531968986875,4.413329822489164,34.26675005680039,17.578289281573518,1.4721373449912774,1.0254679781117058,0.9869366656485431,0.9072137723451247,0.8884754089094742,0.8165567429776339,0.7549475946040299,0.6650905224836425,0.5875373900052396,0.48922007066117557,0.4271966008200308,0.32496947288765243,0.2546987096973538,0.171600915331022,0.13360726483447963,3.0368687998963013,2.3548432066340745,2.2115334743611457,2.076866432470528,1.9658664673798605,1.9012867547453047,1.731240035199963,1.6893117863890161,1.479879665237904,1.3387513626049306,1.1805377224074785,0.979069077166533,0.7856286906069384,0.6082498573570438,0.41796591225563623
0.0,7.0,7.0,0.0,120.0,0.0,0.9725725930046245,6.681555972484887,-5.54073326654458,-107.35206719294142,0.0,-45.12682302738824,-2.727929844401609,-7.133194754947192,2.838136482083982,34.26675005680039,17.578289281573518,1.544150083573925,1.0342906363585134,0.9384325953317744,0.8813813253277872,0.8642801178888846,0.7526670463935344,0.6747133550212919,0.6206800481323911,0.546648145205318,0.49235361808617195,0.40619833352275286,0.3129980124740472,0.22526506241465627,0.14955400876624036,0.11970745740368122,3.0699290728401163,2.2814221724167965,2.0905585839413803,2.0319812037609757,1.967013721819235,1.7974311701827566,1.6881581547207292,1.525945694425246,1.4965599375225345,1.3082549608960912,1.1492221542807703,0.9892807152738325,0.7658519973103765,0.6095184161691686,0.42504046302782256
0.0,8.0,8.0,0.0,120.0,0.0,0.9528645458712113,-9.36682224146943,-3.9413529363854867,-107.06144136728332,0.0,-45.13496370405274,-0.4569905770318322,1.1927654312797742,-3.7725182716300676,34.26675005680039,17.578289281573518,1.538491663241001,1.0128672361100965,0.888880298757935,0.821115773397686,0.7595880511676806,0.7407965152973474,0.6789313903671126,0.5892333999340521,0.5341461289291771,0.45741084141654426,0.39394134948275,0.2578730484498609,0.22828164220463434,0.14779382499947258,0.1009924773222473,3.112657338193322,2.2014873195041065,1.9743882106180866,1.9279023690365313,1.8635186253554858,1.7979435563441937,1.6157210828142994,1.5251917937157393,1.395229293871048,1.1666642402450769,1.0319420481018136,0.916006210328117,0.7148692274422763,0.5640378820364679,0.39897767919997923
0.0,9.0,9.0,0.0,120.0,0.0,-8.669846177961238,21.767756601271664,0.8496115265571493,-106.92186870618711,0.0,-45.33865967046853,-1.1106872267125616,4.3093175432743855,2.1251224138581986,34.26675005680039,17.578289281573518,1.5614237468155614,0.9562963281981925,0.8324922879506609,0.7660705721200134,0.7587598126079339,0.65374972974693,0.6360863790972177,0.5641962505958207,0.5249800829383189,0.42526666795643403,0.3352819166082976,0.2969955270084708,0.23166098735557752,0.1623870660051275,0.09516871367835984,3.112759214236475,2.131996516077517,1.99363191695653,1.886729531926848,1.7737146184541404,1.6694945679655713,1.5278108270858333,1.4629046270107362,1.2927517488817066,1.1582141860249275,1.0629175298196216,0.8515758125340582,0.7249996556990298,0.5680128091897204,0.3895678965309313
0.0,10.0,10.0,0.0,120.0,0.0,2.260320798915103,-14.61572897465302,-12.667480403141425,-106.87687857563452,0.0,-45.15705718041964,3.2982755516702,-7.9122691416955515,-2.2511877418618043,34.26675005680039,17.578289281573518,1.5652139861956635,0.8781823421271168,0.7989669439496987,0.7295042068372014,0.6961528596152485,0.650647235834999,0.5882234745415154,0.5140137650640197,0.44467863945829955,0.40506045575530475,0.31715096991084035,0.26555081015646026,0.21350249472973443,0.14045053769622937,0.10484648481329333,3.1978866178525553,2.2506870326088384,1.9222987336235897,1.7737428860437279,1.7026872473685404,1.5780625263770491,1.4975337176915748,1.3461433963243248,1.2210879410801927,1.150134388400454,0.985012625962229,0.8594227633883272,0.6641771113104813,0.5557048018470114,0.3986959368178717
0.0,11.0,11.0,0.0,120.0,0.0,-6.356262212370083,-10.297810295928317,11.445177713229196,-107.01146004390739,0.0,-44.858621112131985,-0.7898619476271674,-4.714855105884965,-4.7775271225957,34.26675005680039,17.578289281573518,1.6193752198055331,0.9081390215659352,0.7885921055025339,0.6958913863587888,0.6774819370756141,0.6088442482499081,0.5343590731977796,0.4697793605559062,0.4520287515146434,0.3824159825295186,0.3058249864746661,0.25448097214244286,0.1848237519295359,0.1321663155785451,0.10506406305105542,3.303190586699402,2.2000484543990204,1.8531445106445539,1.7495412577427483,1.6483850467098917,1.5545468728697331,1.4388507317484076,1.3337374449619928,1.2199640967915164,1.1135232230117316,0.9681555458901804,0.8314595112226886,0.6367361218384603,0.4825628830102059,0.38868772234663657
0.0,12.0,12.0,0.0,120.0,0.0,-1.6078801081645206,0.03939810478985706,-0.19831917377993769,-106.72797913134299,0.0,-45.142222126058314,-1.9014738318362836,-3.834926213241392,-2.5640072881404787,34.26675005680039,17.578289281573518,1.6103373709853428,0.949530210548631,0.7609053500395024,0.6599681512174462,0.6187131274515141,0.5579490239243583,0.5075792328073491,0.46679021183976166,0.4212078583098428,0.3521110842629033,0.3034573039032718,0.2170052536128745,0.19433214958127853,0.10857458844285488,0.07380861895589921,3.2368656375679095,2.186434151635378,1.8434333419546531,1.6582357907720338,1.5425416980318278,1.5017055540996644,1.3535853898569576,1.282035757623834,1.1674722249838092,1.069422424865448,0.915830007476886,0.7769263981180369,0.6146524820908219,0.5039331435721838,0.36460946095978847
0.0,13.0,13.0,0.0,120.0,0.0,4.153504358626975,12.870093977733553,-12.310804682863061,-106.42024494041937,0.0,-45.48218699625636,-2.277310075351966,7.421044451872973,-2.6215729829952004,34.26675005680039,17.578289281573518,1.5945348928948475,0.9293028450787193,0.7428381045469582,0.6250468241971778,0.5524913976846189,0.5238624328944672,0.5175808251934549,0.4648280859529374,0.3842698413994258,0.3377437355280888,0.31143435446913587,0.2384900654129973,0.17745894517331037,0.126858647870494,0.08074232728869457,3.334543984995803,2.1264673547708304,1.8446526045937877,1.6602938038987858,1.4962438025808833,1.4443995110512757,1.336120813665329,1.2021907678202817,1.1277328627491723,1.0162832565709028,0.8694962006353182,0.7517782786166188,0.6086230534643599,0.47599555238998464,0.3347519223751988
0.0,14.0,14.0,0.0,120.0,0.0,2.062952647432928,-9.774198044104192,2.0360903504175205,-107.34320592042883,0.0,-44.67507772922745,-1.252486003777636,5.539742523608197,-3.336519480287551,34.26675005680039,17.578289281573518,1.6700065532636987,0.9233026884854579,0.6901469926789741,0.5876661298437008,0.539973015680983,0.4822787373355814,0.4742494373510852,0.405078793426586,0.36441231297178694,0.34460454124832335,0.2660802132587011,0.21417206521770746,0.18382455976162718,0.12348051383270804,0.06049012100695575,3.3096113201037034,2.23916805113629,1.747486386300529,1.5531431969051122,1.393026903107915,1.3138098229417652,1.292103314245882,1.2172432743903607,1.0204847388031968,0.9945112899008155,0.8654908838895079,0.7326952445823137,0.6201684219788851,0.5065268258287947,0.3596567302733986
0.0,15.0,15.0,0.0,120.0,0.0,-1.5131242274895058,-4.585053789829104,10.851057806253035,-106.75452306870164,0.0,-45.33154547846203,-1.5437288091137022,-3.702186258531004,0.5075897439445498,34.26675005680039,17.578289281573518,1.651739138808351,0.8855579276563716,0.6886194134653638,0.5822417242336966,0.5194473807773817,0.49178090593838425,0.42971572589005036,0.38871017092620425,0.34778657011204256,0.3264386426351942,0.2739066757589424,0.21255801830765605,0.14388981972185855,0.12458216019866356,0.0782923119255814,3.322324047481075,2.0985780222773984,1.7794158642412106,1.491259322944146,1.3760851416276532,1.3165537137970866,1.24480940926323,1.0897865133235056,1.0731798408786803,0.8989582963871469,0.8282106719419704,0.6816780970790881,0.5720660780738753,0.4309017875185192,0.3303183503718037
0.0,16.0,16.0,0.0,120.0,0.0,-0.38359959915650776,0.61389135676691,-6.514570299568172,-106.64579435334045,0.0,-44.92876961234157,-4.119562801808535,-1.1780628732878995,-4.639484090360827,34.26675005680039,17.578289281573518,1.612645339653874,0.903471681425212,0.652251218396336,0.5338263077266729,0.4972039298061442,0.4395518630041067,0.4168342158096964,0.3791013016506833,0.3240105425174658,0.27950375942873573,0.23464175531380968,0.1918267296029532,0.1632673678080078,0.09997465631849066,0.07417861876212485,3.3252518640943687,2.1622102042411746,1.679980203910378,1.4484825084489894,1.3243004354599224,1.2414164989429914,1.1898448893112525,1.0965080856756853,0.9936636970547651,0.870122892315144,0.7561561642382051,0.656583181254187,0.5368193726047207,0.43844053445310277,0.3313395505894953
0.0,17.0,17.0,0.0,120.0,0.0,2.763667021306448,0.10310123043456088,-5.289586542148157,-107.2067318169569,0.0,-44.84732789917426,3.2601404764645396,-0.47759091725310654,-0.2776827267613813,34.26675005680039,17.578289281573518,1.7124723714334302,0.9220421892121154,0.6524768496994624,0.5385322795397037,0.4626913825039282,0.4234706144996653,0.40803263953763297,0.35799892742155626,0.314905627872972,0.2717021041488006,0.2300732383708279,0.19168905894846403,0.15034089950000434,0.10914057648669093,0.06996638432036159,3.371458838994827,2.229215995977203,1.7225377151597427,1.492965957288561,1.2925113865817535,1.2148506863502715,1.1684942266635523,1.005366190419299,0.9751893119320914,0.8658117974104047,0.76994842890713,0.6005200527041269,0.5129155181006423,0.4171630653667351,0.3184622206378967
0.0,18.0,18.0,0.0,120.0,0.0,8.889629584782853,12.444148214453534,-9.450575196963609,-107.77643653264609,0.0,-45.02651575418719,-0.4621423796684724,-2.170154030674718,1.506668082476522,34.26675005680039,17.578289281573518,1.6930359555639576,0.9639504236244755,0.684378231164505,0.5213110167363881,0.46161099964347335,0.4027954699951956,0.38162566675296433,0.3395283138443877,0.30594350259765857,0.2542452862095012,0.23413193073373115,0.17508188049247944,0.1443590277923093,0.11170254766823645,0.07820600431785978,3.386052805343853,2.2951000112533473,1.7245741327137363,1.4249912922454595,1.2735634274285368,1.1853282821758,1.0696345820177429,1.0187200119431832,0.904880897377236,0.8362475552739975,0.7126579374175049,0.6221519523141013,0.5052020946682748,0.41908244460045085,0.31119746010464855
0.0,19.0,19.0,0.0,120.0,0.0,2.839468293456129,-9.174480655836526,-10.443066072994428,-107.06961501320951,0.0,-45.120248403527924,-1.5157086672619031,-3.0757973845577924,-3.8878857862434666,34.26675005680039,17.578289281573518,1.752414056753391,0.9570945114954713,0.6705187659415043,0.5044171310229579,0.4385217753274859,0.36602218327130276,0.3437589874145065,0.30561907749785316,0.3064786237736492,0.2545576313250221,0.20044384908435767,0.19464036678371918,0.11908736732329205,0.12122425194766565,0.06885383595205877,3.4354142589560555,2.1741078021593228,1.7301135130140854,1.310522066208698,1.2464176094658477,1.1241236375220216,1.0346384097972214,1.0165949387905384,0.8868936193750451,0.8151942178092949,0.705892092746496,0.5970706453375643,0.4665270596657434,0.3922357750992486,0.3036954477532514
0.0,20.0,20.0,0.0,120.0,0.0,-6.742651740309011,8.91678065946352,5.595362294729696,-106.99788096794641,0.0,-44.991495660345166,-3.4335254186455226,-3.0631986256583517,-0.048672699835253574,34.26675005680039,17.578289281573518,1.7517414142119745,0.943918766276991,0.6471840100764952,0.4914954308113381,0.417039032347163,0.40207638207023555,0.3213776557036553,0.2861225855161738,0.28069261490353625,0.24082120497961276,0.21585716291467136,0.16720907865190776,0.10638133150900062,0.09962056051129922,0.05950268608757735,3.3448112234191534,2.2173925123459926,1.762936524283448,1.403743805764165,1.1847230625341603,1.105783120530421,1.0146920736126384,0.9488146150864686,0.8120951947197167,0.7770668030282953,0.6369313459363114,0.5842186840252614,0.48221204073116103,0.38745747900207733,0.28218833713974906
0.0,21.0,21.0,0.0,120.0,0.0,6.951503616429665,-24.0551110338943,13.700257254493543,-106.71493330897678,0.0,-45.22814370409492,-5.13549088281396,-3.0814423246822216,-1.0269248389258943,34.26675005680039,17.578289281573518,1.7107500359601424,0.930202333296072,0.647662031263134,0.48805780316004344,0.39412739054428125,0.3657548700767488,0.33306221172911354,0.29203963564588775,0.26742173425449517,0.24350802905829882,0.19184695260597945,0.15201127171828685,0.121231463745407,0.06543463602632128,0.04406886113355758,3.503505634592517,2.2115959488680157,1.7128806223742732,1.431594690959389,1.1962090457719932,1.101866585050606,0.9107253238174878,0.8660885352490385,0.776754871943687,0.7320635400373007,0.6589490142443748,0.5301963953850233,0.46736936379111016,0.36474293161935456,0.28865931848866416
0.0,22.0,22.0,0.0,120.0,0.0,-9.033061635219982,21.64923231258397,-5.702371608084709,-107.02982172544027,0.0,-44.805415365880506,-2.177248040970197,8.66755631152861,-1.2904995331006255,34.26675005680039,17.578289281573518,1.7149950719912628,0.9539138067580809,0.6526904112685311,0.4668673255990341,0.37689396920867146,0.32685797921516474,0.2954653002515255,0.27979299607097236,0.2761896678500277,0.21896754297512927,0.17143717579354534,0.14723475916574505,0.11356937493781862,0.08100275429780689,0.06274959747804373,3.5775057903727285,2.2709500825237434,1.694942560068973,1.3168438538756813,1.1272092903202213,0.9953976541682701,0.9391239199824782,0.8156800286262246,0.7756542479203716,0.7209364967954351,0.6433282017413586,0.551845728354582,0.41722816056633044,0.35901289703379613,0.2629852323155667
0.0,23.0,23.0,0.0,120.0,0.0,8.037766741734732,12.134006955803443,-11.755635400160909,-107.27884315275303,0.0,-45.03275567507366,4.524879619896604,-3.1298607197795487,2.3270553312357656,34.26675005680039,17.578289281573518,1.7809510594084308,0.9478576677717635,0.6609656803542165,0.4776139180237555,0.38716521228826123,0.32734770056336404,0.2787676825466238,0.2810640294396131,0.2252417812373673,0.21352009700997354,0.16757487102898155,0.132082392329476,0.10582678383404527,0.100718249705001,0.06327539061138204,3.5856836725060495,2.2990150428967646,1.6950244470825322,1.4031666086196928,1.1281688759655497,0.9820882462252386,0.9393041609109114,0.8265005721806821,0.7684504524227206,0.7041316863472824,0.643952320250516,0.5605069851253452,0.431441430901762,0.34885783213434646,0.25307354568260093
0.0,24.0,24.0,0.0,120.0,0.0,-0.2466522330255181,15.927222491612774,8.239272511540456,-106.88490456650918,0.0,-44.69497428735458,-1.1614210638379137,4.625589323075783,-1.1024508850914092,34.26675005680039,17.578289281573518,1.8318107909660337,0.9645666104489132,0.6978578884357007,0.45978800384342766,0.37522305934122574,0.29541151995225345,0.27943533544586063,0.22815706273555222,0.228137305111716,0.19510394474454876,0.1485811951282192,0.14597733122126982,0.09811140696778385,0.07737019590969049,0.04704325704646398,3.571432044543153,2.2593199138948203,1.7208615236493068,1.3847004813896862,1.1329541101318223,0.9477497821551475,0.8543834595672847,0.7883732001501166,0.7442536189348347,0.6585721142451775,0.554687114350074,0.4992848125961961,0.3936691510641468,0.33482955557290534,0.28075552818059335
0.0,25.0,25.0,0.0,120.0,0.0,5.722301984803266,-8.693362919743098,-14.415773159575027,-107.104389325273,0.0,-45.09535149540899,0.8908456361902383,2.953212440522641,-3.3605528376991636,34.26675005680039,17.578289281573518,1.8252786265551109,0.9807306672768382,0.6377911907987784,0.46236251776182996,0.34098429401986036,0.30532785857676953,0.2552033828412891,0.24423381416673992,0.22574424968090281,0.20481825997947337,0.14978021815640055,0.1440960259445391,0.11905270717660804,0.09250827480181127,0.052096459605563854,3.5831881757563067,2.3098002897548113,1.7831713084579748,1.3863211407004452,1.0586539077107602,0.9045722411383188,0.836927370633822,0.755528355310489,0.6870884215090542,0.6334722573478702,0.5579149200913671,0.4959729609312084,0.42157314986410643,0.3225636353381518,0.250768077135949
0.0,26.0,26.0,0.0,120.0,0.0,6.698088400168654,-14.460900001331673,4.6400465715185994,-106.86210030155151,0.0,-44.66562880457913,-4.968365717874145,-4.985178296470584,-2.2364824948961495,34.26675005680039,17.578289281573518,1.794264691412253,0.9385261652473212,0.6890543540022871,0.45107022593056945,0.3288677624101573,0.2782005182718212,0.2406361800258618,0.2323955994728242,0.20937223420612755,0.17927381339156495,0.15535979876877715,0.11787740305321236,0.09450158391281732,0.06944590974613216,0.04564968641033341,3.6547592456170204,2.356611517434238,1.7454423455406665,1.333397628095624,1.0179883367534022,0.8815016388815535,0.7977571079015208,0.7698427186621909,0.7037002750670887,0.593985957574986,0.546414120047243,0.4984692600841967,0.4071166691431097,0.3385137726957985,0.25848235068155007
0.0,27.0,27.0,0.0,120.0,0.0,7.363587891851985,17.351720239651186,-12.886779047682886,-107.22231269007585,0.0,-45.30720855967293,2.5217728009471694,3.3187151155666523,-4.289784502715931,34.26675005680039,17.578289281573518,1.8046052058268194,0.969993679100988,0.6764998195256189,0.4461161786503141,0.31685836972968806,0.2643534927800545,0.26195156041520273,0.21896409410915635,0.19219525285239128,0.15707063366034657,0.13892688085826357,0.10875860920290017,0.11172262422434037,0.06894540141058142,0.051112711064595605,3.7307202959925263,2.3091161341887987,1.7315188193688118,1.3148728778021175,1.0073434698057528,0.8636894429419548,0.7702408960766289,0.7318811774637113,0.7083697831331341,0.6158276265471367,0.5227592782101183,0.4561983647799491,0.38758543380390065,0.29541070926646557,0.22559109447632186
0.0,28.0,28.0,0.0,120.0,0.0,2.1792428691635237,-3.7178892859616113,-7.047959558523782,-107.23339255694364,0.0,-45.03879196249663,2.8722808996153897,-0.9216852831757105,-2.5513186415925917,34.26675005680039,17.578289281573518,1.9909171826673708,0.986433792219309,0.6958530709767131,0.4813570509547699,0.3225728154337899,0.270979393469422,0.20965737867205597,0.21037307633593375,0.17592616379146686,0.1532103649259372,0.13411631732387083,0.08978497043322405,0.0946560062581189,0.07679792730843575,0.05109705436660963,3.7197036906558014,2.510167535651132,1.7410281985575686,1.3284842689757816,1.0344108110500772,0.8379100468934736,0.7417111937082281,0.6929820848733561,0.6295634535768554,0.6011561720854613,0.5070460020953237,0.4545375128248155,0.367221455398439,0.30497652352132454,0.23886649195911544
0.0,29.0,29.0,0.0,120.0,0.0,-9.544438443398581,11.640159771106788,-0.1759693152249131,-106.96445748944826,0.0,-44.74817683950218,-4.345871798888,-6.616734827681794,3.552847353535501,34.26675005680039,17.578289281573518,1.838347898301743,0.9975732969226514,0.6900175252094424,0.4518718062976683,0.3218433466475281,0.24105786596719742,0.20024194043278673,0.182633385252829,0.18332112774166992,0.16334000774217255,0.12295085692267853,0.11247996153591151,0.08124375717686003,0.08736029012344466,0.06660547155180309,3.71534980815361,2.46998427660158,1.8002194689163642,1.3356443307139785,1.0262472916294143,0.8417300261728576,0.7228103522811096,0.680869127206822,0.6080816832154166,0.5412167738258061,0.5115989007923123,0.45019225499423127,0.36880611837602817,0.2910452518202206,0.23703895087815294
0.0,30.0,30.0,0.0,120.0,0.0,-7.582429853433199,13.335946779993549,1.6287617579583653,-106.78444980433504,0.0,-45.1536076243102,2.7486591227105253,1.3993303313341539,1.3420619300580334,34.26675005680039,17.578289281573518,1.8861588677869123,0.9930865222843607,0.6593540009588991,0.43640249700430195,0.3022161140692672,0.25968849907983177,0.21361370377307007,0.18384948027319403,0.17520828385968207,0.13733320300349583,0.1201599638775885,0.1015063535973951,0.0751165319669905,0.08532228964425333,0.04459282527350244,3.7273129022038805,2.393572961850462,1.812081640544877,1.3467081118796347,1.0058752067073842,0.8134303940632265,0.7091087135071992,0.6670299693926898,0.5801370084726493,0.5650365219323454,0.47764893678463904,0.41193733243588776,0.3324558008770947,0.28456410046745095,0.23204408239241442
0.0,31.0,31.0,0.0,120.0,0.0,-8.335201450376575,-16.014044036577207,-8.249404491298403,-107.02861984723033,0.0,-44.97900380771874,4.398864187375248,5.6552254593054805,-3.449342006040197,34.26675005680039,17.578289281573518,1.8323392710440851,1.0209508881440563,0.6741032918617124,0.45089481248080765,0.3061618113570627,0.24334050368813095,0.2070515429800639,0.19484062186193105,0.14503854250202455,0.1461516831433121,0.12586221871801453,0.09347119350842606,0.07083024520756619,0.04606421553055631,0.027749902314726304,3.815394295522792,2.4715830873704294,1.8889832016445303,1.280398292174315,1.0066868583363686,0.7958769025550111,0.687531702000094,0.6045690576877614,0.5702571761594647,0.53331086667948,0.47098727426899245,0.40596168425553014,0.34204929415981583,0.2686208033610698,0.20225050901778466
0.0,32.0,32.0,0.0,120.0,0.0,2.952978388113861,-21.17993210893293,-1.5267933816287922,-106.80420086797095,0.0,-45.161559355689064,3.160000812573029,6.2672320996291795,0.21088531864866944,34.26675005680039,17.578289281573518,1.910894262037786,1.0333076625739528,0.7103398418661002,0.47786989177577327,0.3171854142920714,0.2260046965856993,0.17153452667413416,0.18266867198373307,0.16280981162028046,0.1453260046613455,0.10193750587504034,0.10050283311877717,0.08579283063714664,0.050672046188698666,0.04001003867742162,3.668317927108968,2.4523640431304243,1.9852155040108541,1.3459739104151713,0.9925065963758355,0.8024945598086558,0.653960621478509,0.6426592839136699,0.5476369894011425,0.5159664017099718,0.46727829853156544,0.3969261163819564,0.3190663042027436,0.2628541935654888,0.19476092184592755
0.0,33.0,33.0,0.0,120.0,0.0,9.847190776009711,-24.409478251412004,1.2540379294354622,-107.21788009635026,0.0,-45.0189071414552,0.6180924555028021,-7.361316423797552,0.02377621592923873,34.26675005680039,17.578289281573518,1.9767052585693887,1.0284127434409103,0.6851318834136941,0.44932199121169547,0.30712720742256583,0.2423910194399322,0.19949745407383268,0.16235907624944115,0.14308743781308067,0.11705369383505028,0.12515400071412794,0.09428630544395664,0.06531899636928477,0.05454512028113626,0.028031655153401988,3.809639225455541,2.420426463774586,1.8918509022739647,1.3572789427745462,1.0115652173527279,0.7678143781272824,0.6554521188197452,0.5933578860281907,0.5480701396139211,0.49902435669024087,0.4306926382538901,0.3433535374160905,0.30557223917865084,0.27494097943875717,0.19814307188414387
0.0,34.0,34.0,0.0,120.0,0.0,5.988593938658616,-4.7252738446846365,9.9249897290697,-107.01347546901832,0.0,-44.81902573172361,-1.6251997856551146,-5.346930972343555,-0.3172331329798439,34.26675005680039,17.578289281573518,1.9614005640816843,1.0765424410375788,0.7137225141330287,0.46744647087257735,0.30969549624954057,0.20437956286743408,0.18000555863559767,0.14340451623277445,0.16625788073160522,0.11775390236028054,0.09918811842242081,0.10732897317940669,0.06128801539145525,0.040175691385155386,0.054593420673519,3.832706259194571,2.5314675907953843,1.8987022709921342,1.3832783827246873,1.0288287133422989,0.7357086795671106,0.6359444725894917,0.5609078294184153,0.5315868916728878,0.4946078026060583,0.43095204439635065,0.37467568668985274,0.3069670296907411,0.2319891034395518,0.1855904318540037
0.0,35.0,35.0,0.0,120.0,0.0,-5.808219591040129,-1.3358110622388075,12.99896891096677,-106.81509604292867,0.0,-44.93861108118601,0.29899226947246427,2.3798305284651438,-3.2278458714116987,34.26675005680039,17.578289281573518,2.0160712176745474,1.0470820219721624,0.7254873316274564,0.4814697168389552,0.3146092561729809,0.20913942561178261,0.1586160559528716,0.14910309952641007,0.13493681061774185,0.12875454217672666,0.11049057778661756,0.09088007940754463,0.06665916846670641,0.0416298750623537,0.030750795532707893,3.9400797658659514,2.4826327924722555,1.942216266809397,1.401588892450359,0.9926099558528931,0.7553069969732675,0.6285360869077283,0.5425653883385075,0.49956011695134706,0.44474673097504774,0.424633851534599,0.35918654282571666,0.3113143876690505,0.24647061033445197,0.18018458225890227
0.0,36.0,36.0,0.0,120.0,0.0,8.221911589547801,4.626707983826943,13.170406488531455,-107.06840215364642,0.0,-45.35305611480412,-0.9415060313908872,1.9221952342758648,0.37137702865613154,34.26675005680039,17.578289281573518,2.0298976739369436,1.0679053977771646,0.7296236688413766,0.4767694845361105,0.2965188558262108,0.22164188402749932,0.15981886177820562,0.13902368779317448,0.1321445667884696,0.11048933453814616,0.10307105305459291,0.07242893487290104,0.06535298264305252,0.054332894699419425,0.04287146165201868,3.7497939025841966,2.5753744058339123,1.8880982195126783,1.3819529109178785,0.9740458982777528,0.7347372740647972,0.5960189158707012,0.5388503855684601,0.504607281184216,0.46766038959551115,0.40765053698763315,0.32687396391036866,0.2791965579584712,0.22813108643442584,0.1854809371419476
0.0,37.0,37.0,0.0,120.0,0.0,3.557542673311291,22.432001479564498,-4.533410191061964,-106.95907515487292,0.0,-45.471079768524845,5.176765619170569,-4.709056087308934,-2.2634821868816832,34.26675005680039,17.578289281573518,2.0661322655952796,1.111140285758604,0.7254872564631701,0.4591189087976403,0.28838019617922883,0.20590581761441876,0.14017282852013063,0.1561321238848454,0.13501480390950651,0.07604947708769474,0.0801068386182673,0.07849901490313238,0.06620185115840116,0.03915589111903049,0.04707738196311155,3.8882198629025178,2.3703520389434507,1.961238221664626,1.3776433599466136,1.0085934446995355,0.7137897826664505,0.6015410675182008,0.5619472664920776,0.48023141021568444,0.4133165025448471,0.3837244675619304,0.3180300199018818,0.3029964874558055,0.2267722811798574,0.18674738390005147
0.0,38.0,38.0,0.0,120.0,0.0,-8.322143481167544,-8.498181041443924,-3.750470562146578,-107.09011977029121,0.0,-44.92903456049528,2.4730621885536914,9.921404604134885,-3.3419257907720756,34.26675005680039,17.578289281573518,2.0245584500028175,1.0809814482032825,0.7259469056700121,0.49236948710678935,0.2987935743684442,0.19841813665063496,0.1519413783023753,0.11847471462042725,0.13078191531555902,0.11746799902883408,0.11048468738301298,0.08104293188625739,0.04135290853922742,0.04652680900894123,0.02816536814020912,3.816174176493739,2.5101448478921067,1.867091503891735,1.4303909380172333,0.9589530469715177,0.7223426366376656,0.5656610866478696,0.5153762981441571,0.4755630860470463,0.3941941156293528,0.3808236262211994,0.29893848356883973,0.280477550774167,0.22782347708667294,0.19066090242059405
0.0,39.0,39.0,0.0,120.0,0.0,8.392232861180954,-21.281700238834134,10.49572924546315,-106.82518858066314,0.0,-44.730954424409106,-1.803174531659319,1.3921933990846505,1.4344162909568823,34.26675005680039,17.578289281573518,2.083578924340256,1.075250791892625,0.7474718363620073,0.4747991702221193,0.2981870060650034,0.1833599468804339,0.15536799374269386,0.10980470971184514,0.10847860622898602,0.10132066812150135,0.07301705765791157,0.08342544229651797,0.04282118796076611,0.031820998610162986,0.04166963535103245,4.018643640564519,2.634732155816172,1.9813798820076165,1.443411712228617,1.004711581390489,0.7025665385469205,0.5925071220171406,0.4771967461703049,0.4535004178946462,0.4213911979209294,0.35606193258695484,0.2961780003550481,0.2693895415224159,0.22099850105566726,0.18535813120758404
0.0,40.0,40.0,0.0,120.0,0.0,-3.9872994838950993,1.5959668245970455,14.312819859326115,-107.10021896116133,0.0,-44.947553480529535,-1.6786138799436112,0.9352886234541913,-0.4874864221547712,34.26675005680039,17.578289281573518,2.1117003696475907,1.0922300589418528,0.7530768949166022,0.4835507615427499,0.313035287759355,0.20811915288231125,0.1350345830707313,0.10910955612055774,0.14046085914743583,0.1140299173751938,0.055212256481827454,0.03973283828205547,0.08112994497218415,0.042895336713895525,0.061514690015935646,3.913902035830668,2.633400210026599,1.8978224244953792,1.4896768805570353,1.0002876738365718,0.7255988633214316,0.5568823080005607,0.4716221594364304,0.432040496570225,0.3984156693684198,0.35130687296872704,0.29173118971880924,0.2641813602297018,0.2118517046372691,0.1804025522839587
0.0,41.0,41.0,0.0,120.0,0.0,-0.27423587482032374,5.798361040052601,10.909308206766479,-107.13682060759507,0.0,-45.550105338145855,-2.356088574707571,7.0086007343911625,-1.8206906086477637,34.26675005680039,17.578289281573518,2.1162403910008853,1.1042842350974638,0.7448392205401424,0.5291328025391586,0.3208004296644171,0.19872412563488553,0.11039077133650986,0.1180278041368115,0.09724795115830528,0.0880872954555785,0.0761435711852269,0.0669879681955251,0.0748036084000027,0.03712867038779931,0.02434200122501788,4.020247588995279,2.509988182613801,2.0093450499345757,1.4920396410120706,0.9784423197039867,0.6813849684980343,0.5527220530593012,0.49619463509296535,0.4333165713110774,0.37376870472912255,0.3488174920032985,0.3027227751710983,0.2652619636556362,0.211211958508546,0.17036872129150285
0.0,42.0,42.0,0.0,120.0,0.0,-5.003987159656019,-9.058079904597705,-11.025664057825075,-107.33229411461521,0.0,-44.6811291426373,1.0431530384906247,2.932162003620517,-0.38293429319225414,34.26675005680039,17.578289281573518,2.135055145954651,1.1109287878057073,0.7597630971863117,0.47379663955266504,0.316731328613567,0.2392318002006628,0.1372399220105403,0.11218120280078345,0.11956136332207952,0.10532041681346134,0.08445037806219478,0.0428914657548453,0.05941932371347711,0.04905295352417484,0.03104166783012684,4.101261640217861,2.6600053027241057,1.9761707251177678,1.467888682879121,0.9997224491416493,0.7008541415926326,0.559072883341775,0.4588485172903539,0.4141408494245872,0.39125644328612996,0.32911254608298735,0.29292687778477094,0.2517427539219215,0.22669391382979057,0.15757741293698738
0.0,43.0,43.0,0.0,120.0,0.0,8.157886133544125,8.990574218258551,-4.745435088988588,-107.2761407505435,0.0,-45.1090176972604,-1.428453593577137,-3.4485044913147522,-4.799014976448311,34.26675005680039,17.578289281573518,2.0249311067999636,1.1311777023512466,0.7555739488593664,0.49387823506385764,0.313333518097789,0.17102809045415962,0.1210347489401383,0.1197500773636658,0.10795494952653148,0.08179380751053643,0.08177224740868445,0.055360072345499174,0.04503694992781557,0.023298537937086868,0.014013486438748023,4.090474999068716,2.6540344332317094,2.0038047308452613,1.5171816377337417,1.003303007617919,0.7104072969879138,0.510038629784286,0.44585639382073095,0.4025604836739681,0.3699206301005728,0.32311215810747784,0.3070384933640988,0.25474239816643407,0.19188191715949626,0.1556109303159645
0.0,44.0,44.0,0.0,120.0,0.0,6.299905414909933,-7.164574969086075,0.7111347076587329,-106.6675660718344,0.0,-44.79612232435332,4.294865891814775,8.41778065345332,2.8947794065400068,34.26675005680039,17.578289281573518,2.1967246954465613,1.1315988623486384,0.7702904838302939,0.49363945739369836,0.28195181611032216,0.1721098000145479,0.14135692928406518,0.10599311314858167,0.10693042642310577,0.08353973750604361,0.0600722172539673,0.05582158917183486,0.056150282238225845,0.04790335100528497,0.017801225132878948,4.074361441827363,2.6539770101790414,2.035393375405897,1.482253978550475,0.9625408066622245,0.7066284631353242,0.5028426449361629,0.4219562619980368,0.3902307023795772,0.33253027102300386,0.2769898818170528,0.29375108449341075,0.23401197980331745,0.1930804682297363,0.14255291971334877
0.0,45.0,45.0,0.0,120.0,0.0,2.3301579546486177,-9.551592257625252,-8.362665570252634,-107.20661980672485,0.0,-45.007209779782855,-1.633510413330483,0.5652587459833285,-3.446977580615629,34.26675005680039,17.578289281573518,2.2070077158204335,1.1253091472296435,0.7644577739251129,0.49119872176790064,0.290223165281203,0.194223202828364,0.1323841652907632,0.10210798108116867,0.08409032092066067,0.0768548660632663,0.0755134127711336,0.05365644139177875,0.04483137338404536,0.042380989323429236,0.014309233456222755,4.128820383801478,2.6850532877343865,2.0480136956022843,1.5426742189694789,1.013035722827709,0.7273548387545676,0.4855113566357272,0.40331271522272244,0.37866709128770887,0.3630052820609306,0.3025207098177873,0.2806506105809213,0.23635753402192064,0.1981269919713804,0.16581510893478238
0.0,46.0,46.0,0.0,120.0,0.0,-4.830147727623022,-20.080050751932667,-0.06467353605286341,-107.15080960153999,0.0,-45.44180606385285,0.5964957538199006,4.691975739935618,4.090608673857318,34.26675005680039,17.578289281573518,2.205752654265563,1.1359309468200545,0.7881200512911186,0.4931963018028653,0.30024676434691067,0.1790431061191471,0.1419309939875989,0.08490595764991925,0.0880560524116137,0.09033834534946247,0.06435371540459706,0.03808652411965158,0.043736493292548105,0.05638502903691839,0.018367703709588457,4.312179282884941,2.7216351253003235,2.007718965121093,1.4683890019990316,1.0332488890326215,0.6927777271880774,0.45226464413229295,0.4141562562245096,0.3851872498370912,0.32915744715926726,0.2739034027562812,0.2586260493194197,0.22772649471691853,0.19665965920620349,0.15261434954180716
0.0,47.0,47.0,0.0,120.0,0.0,-3.7641933410733213,3.9061322465258,-3.9278843740129155,-106.96400076766864,0.0,-44.9380765455286,-3.4319556382340832,-0.6787360185287419,-1.9148545152033956,34.26675005680039,17.578289281573518,2.2529414014968414,1.19907372316838,0.7965576832615191,0.543330700807154,0.3069007329280498,0.17388648455848,0.11928378337047074,0.07611263164827589,0.08282196382162699,0.07415714860213275,0.06041507544093555,0.03841528562459037,0.042469528693942146,0.04486810575076325,0.04514141432791065,4.183102922429631,2.7548593518404485,2.015167977321861,1.4930603833335465,0.9930026732129617,0.6924365299593048,0.4899192357832139,0.40366975783931697,0.3598686932960878,0.3276270376163427,0.2727931818508315,0.2580904281138716,0.22511768421969133,0.19278752193310886,0.14892383135786988
0.0,48.0,48.0,0.0,120.0,0.0,3.3467960518711273,-3.6315962375510047,-12.13092612490272,-107.31104068626877,0.0,-44.736952866116454,-4.754263560832909,-7.406871513802282,-2.370894578003131,34.26675005680039,17.578289281573518,2.3072415348066815,1.1683450212710451,0.787120331372497,0.5216350791395453,0.2915888351330125,0.1723582116565941,0.12078665137210699,0.1141756643578628,0.09187566037294037,0.04845287323103438,0.06475200618254742,0.060611389283320986,0.05761962959674136,0.048212809972097245,0.026968862419397475,4.287106456970815,2.799459346021479,2.089570486705371,1.4850756193323358,1.0192278029225856,0.7136069730620321,0.47414039839522537,0.3834522789945744,0.3455262241811871,0.329798419284821,0.29467980714393227,0.2427916163870172,0.21338552998511748,0.18364510550356916,0.1494036984145791
0.0,49.0,49.0,0.0,120.0,0.0,-5.934337172338726,11.441461297916554,9.052277841921729,-106.80293435538346,0.0,-44.82021375496909,-2.5727623804250737,-8.099432218814165,-4.1348856808290835,34.26675005680039,17.578289281573518,2.242338822350304,1.2456153316927043,0.7905342287947471,0.5104419128839592,0.3199001873048877,0.17644198053528828,0.11780325071345317,0.11847235881100317,0.09210901757028164,0.06825826519520709,0.07780749695446004,0.046457804751975626,0.027351262918295746,0.025349816052608783,0.04264239418792726,4.179570728770564,2.732957956304274,2.0620513218816714,1.549937036901011,1.0461302219740916,0.6908343937263215,0.5038930084796448,0.3611408905838177,0.3125608818396386,0.29687883839133106,0.28046529009086285,0.2386343526783079,0.2122073453345099,0.17395223343042948,0.14463837116553926
0.0,50.0,50.0,0.0,120.0,0.0,-0.38945997641163643,-0.5591786869873339,-8.392009372466376,-106.9428292334064,0.0,-45.4171537644352,-1.0567149340340638,1.4266020779576642,-0.405306359958713,34.26675005680039,17.578289281573518,2.2225095110715474,1.1901819810304275,0.7998930258697402,0.5427648329625033,0.3241932057368746,0.17924188959469603,0.11713217468454194,0.09127587612114019,0.08308047110986146,0.07563880894183596,0.05617449016828969,0.0489610553953539,0.03812769280254003,0.05469087097928217,0.03547548239228516,4.414144363645162,2.7523209969880678,2.070877824575289,1.6112077905359343,1.0636170593398029,0.6978113189503233,0.4902824069232921,0.3944228986054272,0.3180854096005447,0.2896669254118501,0.2555846975051092,0.21790694807818184,0.1857731681770369,0.15772037837342776,0.152999713037592
0.0,51.0,51.0,0.0,120.0,0.0,1.4184619601940813,-13.554546755594982,-5.115504410308407,-106.88172191961905,0.0,-44.98414587754223,-1.7294577236806927,-9.003529000131461,2.345338820097517,34.26675005680039,17.578289281573518,2.331057343626743,1.2121961749457815,0.804836024111879,0.506089350002016,0.29286141195276216,0.16679672692836184,0.11432253197366657,0.06009215916394185,0.07425471145359348,0.06490617697726359,0.06063546507480718,0.05587732432652103,0.05270627859741676,0.016143778253843992,0.027059044103275934,4.34094791898083,2.8998814288588286,2.186568982706855,1.5260793655817044,1.0470127403422371,0.6893687279016971,0.448284537369506,0.37165861336419637,0.31924165570888297,0.3013251452325626,0.2425432591761665,0.23571778721305064,0.19228374474407098,0.17126404686728366,0.1161298978598484
0.0,52.0,52.0,0.0,120.0,0.0,-6.314063421004534,-8.843330665720323,13.369437196416001,-106.7074977243584,0.0,-45.09905633513108,-4.20350877347978,4.992464053247389,1.1820606872431885,34.26675005680039,17.578289281573518,2.3786795580328945,1.2560928343657884,0.8307464127622554,0.531806118703714,0.314799803449023,0.19050087426377113,0.10866396692565292,0.07232124805063585,0.06802539324331298,0.06777221236384928,0.0648572437824108,0.03630214739403538,0.07347117752717956,0.019241271324264675,0.013954665524860743,4.340317083489954,2.8109652810818115,2.226519803863898,1.543212192984415,1.0482658033185703,0.7138499115585027,0.4610549996878474,0.3818354636016355,0.3163479832883412,0.2710227891534228,0.240558931237193,0.2273207365922742,0.21260949917265623,0.1560154560136738,0.11572057342746561
0.0,53.0,53.0,0.0,120.0,0.0,9.517084248532136,-16.82991183054567,2.8931810105374964,-106.92150379055903,0.0,-45.228284867879935,2.62807767051781,6.1284207158993915,0.4892730941549486,34.26675005680039,17.578289281573518,2.278931374394942,1.2614131125219878,0.8600174067668135,0.537019071909528,0.3140088269108161,0.17407685349643004,0.11978445983824258,0.08378576372373907,0.07141192220723494,0.0634205904987222,0.038358970817143304,0.06102747181436059,0.0519000847642203,0.030441482348001946,0.014971598039890375,4.485498180850556,2.8922802651811144,2.223313169058375,1.598635423659619,1.1016016072739763,0.7478882096510872,0.44988367782538335,0.3596236499398895,0.3085440400168938,0.2605479524896146,0.22683679332173462,0.2206380589288473,0.17944637535164923,0.14739081705157991,0.12517063381640883
0.0,54.0,54.0,0.0,120.0,0.0,-7.126143453851523,22.74811978219138,2.438045067859541,-107.08920215099242,0.0,-45.08142964570766,-0.07843753641129894,-6.329023760766981,1.5956078465896306,34.26675005680039,17.578289281573518,2.3488639415496633,1.2399067478917887,0.8770541168174433,0.5493682044887813,0.30864872554589534,0.18705502349663783,0.10766667676474867,0.07908236075208015,0.06011661249356735,0.04385260822136647,0.06031850972904068,0.058792911565058704,0.03621366650711146,0.049191286429221034,0.021558128539267182,4.392980914943926,2.78750787212635,2.233543818529949,1.5465982700038554,1.1028007906078663,0.6991023072405756,0.4631793053314518,0.3664363390333071,0.2944320749898236,0.28120848132266374,0.24605202305911178,0.19036313118822903,0.20561070482425067,0.14709521380640977,0.12764216694153624
0.0,55.0,55.0,0.0,120.0,0.0,-5.0322895660444855,-20.26411917637652,-2.6585078043017614,-106.91413266606767,0.0,-44.76265019019088,-0.5463554720749219,8.93096543766281,-3.271293950007851,34.26675005680039,17.578289281573518,2.3930212000830053,1.2081207334590691,0.8178260830112606,0.5413599078730666,0.308257782912283,0.17226897387546386,0.10093192071303243,0.0773898699666261,0.059212087368628825,0.03959485971135742,0.04188011200893376,0.03551710127298314,0.026031754632328326,0.03036533388700442,0.030389797725810866,4.485611159042029,2.880039991683568,2.2008479629995366,1.566978565596638,1.0988841083410794,0.682352073277499,0.46863710257451735,0.3541436262686738,0.3201389134628544,0.2544110411566033,0.2658727820488457,0.19569118109801917,0.1857517382587039,0.1586837169414275,0.12449165409747852
0.0,56.0,56.0,0.0,120.0,0.0,2.841489275445978,-22.93834680880325,-1.7575713688023633,-107.19682121338386,0.0,-45.0465161679093,-3.4285991791186996,-8.727917149235303,2.960114160260635,34.26675005680039,17.578289281573518,2.4560454455533187,1.1868567683796896,0.8309441936164464,0.5118783923694717,0.32317112342028154,0.20141619170348446,0.12094287536468784,0.08570841321484941,0.06690340980447897,0.058137290710388013,0.03982960571481889,0.047526007415743136,0.036386972449920806,0.042619053933779016,0.013603277308479107,4.4090513041106,2.9291936120115736,2.1687784106293417,1.6191308744890038,1.057322331961801,0.6827257313322393,0.4900946955332332,0.35759721129241306,0.2953011282245188,0.25496919978617577,0.2186213243908467,0.21848861706614203,0.16352664794092198,0.1446770068291882,0.11358299233483807
0.0,57.0,57.0,0.0,120.0,0.0,-1.0526624426458966,22.672010479395325,8.323422887779671,-106.96905056264595,0.0,-44.88069208954779,3.8124873048363885,-4.416963718357585,1.9107097224856062,34.26675005680039,17.578289281573518,2.488890201120638,1.2272242694847488,0.853462341191782,0.5521197794076503,0.30353150423087555,0.16151010320104242,0.1068009100294622,0.07032985850664335,0.04027366800854909,0.03991862627414392,0.042930715214770626,0.03445846781862475,0.034886763428728755,0.02863110417910623,0.02729981573857096,4.572919613157656,3.011145902784717,2.134194540505937,1.6390757130675573,1.0822433277796164,0.712583616381481,0.4833104771211996,0.3655848654212435,0.28940718992702935,0.21878023732398397,0.23761693644030388,0.19045143236000014,0.15791436743578258,0.1303175613127294,0.1113665292637549
0.0,58.0,58.0,0.0,120.0,0.0,-6.464564251198032,-18.869433961283217,5.291680471279186,-107.23542323822238,0.0,-44.817296788600416,2.270616076537007,3.116132784197948,-1.7095393523953373,34.26675005680039,17.578289281573518,2.4836712673529617,1.2684204982778178,0.8515161203710518,0.5621386763987513,0.2992842219298648,0.2019635268805404,0.09859915249790908,0.06595573555671444,0.07141393718213628,0.045468350510520505,0.06944934835300152,0.04037802849668481,0.0325381338421828,0.028345527258674213,0.015606501842239908,4.496838217011753,2.942905217076527,2.205691185730277,1.6898443335770326,1.1285851051499198,0.7111962667613899,0.4841180617112635,0.3353063849246535,0.2826122075081583,0.2537519795180276,0.23422533096273424,0.19440166320758911,0.1775511638472284,0.16559480853381542,0.13438412170213573
0.0,59.0,59.0,0.0,120.0,0.0,-6.407963792345641,-15.490536457378756,-4.543328162399581,-106.89762891719455,0.0,-45.09116015383461,-3.0409925898247887,2.8078926711445042,-2.6917350766600903,34.26675005680039,17.578289281573518,2.452448477945061,1.2642320562031164,0.8100467146118265,0.5691775067912608,0.31321157233526487,0.17358800595498106,0.10081667840934033,0.06758601857044585,0.048714238605389,0.052216247446803525,0.04685299604571774,0.04450172480023576,0.011340653716114275,0.01078524305686573,0.009076084782535476,4.669025140989,2.9047302034650198,2.285551163906792,1.6971824768669312,1.074909278321063,0.7276026350053563,0.44041618387315973,0.3304006260520615,0.26557526241066076,0.2643783258498672,0.19751460193627718,0.18419420783190626,0.1668437423089162,0.13621119404448867,0.11208769572217163
0.0,60.0,60.0,0.0,120.0,0.0,-2.182897917110722,24.119987081822373,-7.169548790626968,-107.5153254395461,0.0,-45.042024015415066,-2.793811447185988,-8.212369710389613,-1.841716703525468,34.26675005680039,17.578289281573518,2.5513534282540284,1.2773757943607864,0.855715064427672,0.5826267948457308,0.2954856846748561,0.19151053242407412,0.08942562721806865,0.07985965535434833,0.056046857884414214,0.03910109934492214,0.04152575601803915,0.03456597573241534,0.01584495784923918,0.007923073099062507,0.007124835127179284,4.447771651053685,3.0059598004882098,2.199406483577084,1.6681582584344554,1.1102848724132082,0.7292770292229964,0.4617121051562197,0.330440508884926,0.2471142069800076,0.2502442823283981,0.2225756764052017,0.18766430387895994,0.15066422857066214,0.1271403336501731,0.10702660355581975
0.0,61.0,61.0,0.0,120.0,0.0,9.321692957657593,-5.412065521717313,-10.149197898993211,-106.79532630894323,0.0,-45.168099442600635,-3.7600864432957453,2.637979586112941,-3.0728004528018396,34.26675005680039,17.578289281573518,2.5658770419586157,1.319359005046713,0.8527522885814861,0.5699919026213106,0.34247185057711643,0.1815999398009486,0.11701645798013877,0.08194619997069132,0.05520921765161074,0.04540425425605895,0.03248226417779549,0.04299914623041268,0.03885240555806303,0.0390102291925244,0.02858334941955379,4.605685793652849,2.9145300441012907,2.3723877921214096,1.6764241505374669,1.113423758150666,0.7609194490530767,0.4782245916970924,0.31285432431547866,0.26630981115911145,0.21111371009091617,0.2037531862345585,0.19932983300575177,0.1587400174145742,0.13964582515851837,0.09867427655888769
0.0,62.0,62.0,0.0,120.0,0.0,-8.341809090018991,-7.976400395941074,-6.585647508855155,-106.9300173639669,0.0,-44.53551935865781,-1.8204516762713172,4.118541065203612,-1.170128141122814,34.26675005680039,17.578289281573518,2.648309009814152,1.3352448365792076,0.8572636714397512,0.5686408910656805,0.33484948807639114,0.20742855396789403,0.10138476523307874,0.05928276203217653,0.058542979309037145,0.038402451331620145,0.03584832395406603,0.02244661258040721,0.0313359875079717,0.01803439293538979,0.014764206034311033,4.596065275278669,2.993368321242072,2.2671606323809055,1.706257671927469,1.132973165907469,0.7181824223737319,0.4539132641611852,0.30458080036502205,0.2616063423537789,0.23976908710014258,0.21691361864614203,0.18740009471840943,0.1580319058641546,0.13343235822896507,0.10693482173738135
0.0,63.0,63.0,0.0,120.0,0.0,1.6203230374491362,0.5886726421107333,5.004746164663626,-106.58058191061673,0.0,-44.911469305178784,0.27145254229014604,-6.947089669277069,0.28811676757030025,34.26675005680039,17.578289281573518,2.5774225496813723,1.3553419050121818,0.8813027738401202,0.5668378424975641,0.3689663401916693,0.1895275727385454,0.07973062102199668,0.07508701221078963,0.04934772256551765,0.035592598227199575,0.04413039970962252,0.026915277516047973,0.04378925590454799,0.022361053175196995,0.010772337442824553,4.605547812554673,2.9617051460825463,2.3607100427383134,1.63727525993422,1.123349066413654,0.7293619580308103,0.48638648187786643,0.30197747050265505,0.2424374563247364,0.2151709445440676,0.19054627825354511,0.19254672289645902,0.13761508872247366,0.11633765167307503,0.13255126860723657
0.0,64.0,64.0,0.0,120.0,0.0,8.702574593786668,3.0029371670910976,-4.553567278159971,-107.24792358238875,0.0,-44.65985066256219,1.2316084324035907,4.073574142920721,-2.008148644205029,34.26675005680039,17.578289281573518,2.5779005348603583,1.3874797045203067,0.9009984080291875,0.5674528828044743,0.3336299572597899,0.18542172733301204,0.12090088238885466,0.06486409111172148,0.04539914613759133,0.04620547576952041,0.040565634206865306,0.01452829945682349,0.04321114807595205,0.03002772646857594,0.03269322965311107,4.813955098639639,3.13417001007881,2.319441963550537,1.7212412659450342,1.1480329593434129,0.735511816381286,0.454161427231379,0.32583344645022244,0.22069971391323945,0.21169669729601995,0.20067784382747125,0.1744324485205576,0.14127871945434503,0.12044510049134942,0.09790602338068558
0.0,65.0,65.0,0.0,120.0,0.0,7.702166468293239,-4.955788785729563,8.349277727746138,-107.17132203171167,0.0,-44.78561398417264,2.789507969601215,-1.941764862267954,-3.6308168809078136,34.26675005680039,17.578289281573518,2.634109986698768,1.345547826010767,0.8936916932131235,0.5493016720100604,0.3127601193178043,0.19359353166245252,0.11620914445504918,0.055139146615159895,0.04711030354128121,0.04474226966493981,0.021891739584154794,0.01112128540014105,0.029084055052318435,0.015613931540218135,0.036042067403695595,4.689635689440741,3.004095477121981,2.320551985893867,1.6524526409786493,1.1177653020633287,0.7213614884808373,0.46203388009700996,0.30189843869240074,0.23323935275282223,0.20039160727533853,0.18752581703352428,0.16957421949979123,0.15304265282859042,0.11066292249510559,0.10533796990905667
0.0,66.0,66.0,0.0,120.0,0.0,6.215013083438588,6.989603164817364,10.802173194435127,-106.78098756198017,0.0,-45.38440428191949,4.59405267589183,2.9643642221570836,-0.15596043082750022,34.26675005680039,17.578289281573518,2.643536485948589,1.356383767037346,0.8733327185495023,0.5972420972754752,0.3435498468109617,0.18434811574628043,0.09214482717003528,0.04197174935499748,0.0510998152762784,0.028527429911494182,0.0399117585626757,0.037270598822859435,0.016424171445170742,-0.0003391328119897036,0.01882477754038712,4.875998016299363,3.0941016375068773,2.386854448053158,1.7255747641988355,1.1893852709158241,0.7421384724822577,0.44875732540183144,0.3153566708957917,0.20589922351249673,0.2109418940978337,0.18694321676539666,0.1700726808454672,0.1457307132933938,0.10290318058975018,0.10486418337281334
0.0,67.0,67.0,0.0,120.0,0.0,-5.613411548319178,17.324983108060763,3.379067624763273,-106.92129341906605,0.0,-44.703695754291786,-3.014651958761246,2.2046811250811764,-4.638510201710021,34.26675005680039,17.578289281573518,2.5772256182795927,1.37365415178049,0.9173182957246885,0.5975648079351348,0.34083425696126196,0.19140597143056118,0.10770149838997635,0.04724475375065928,0.06056339470793832,0.038390320471964175,0.02003572621797268,0.032169055909371025,0.015031780652101782,0.020990173126782044,0.015874932905017347,4.662990625111455,3.062521660582706,2.310234228558331,1.723328205134375,1.1439830394626853,0.6991899760171923,0.4420055089008733,0.3060709753303505,0.24049768847681824,0.18323713689366264,0.18511508749207028,0.15178199672918444,0.1523893630158159,0.10859598325454276,0.09735603150230462
0.0,68.0,68.0,0.0,120.0,0.0,4.926375603987873,8.641021028152373,-6.393065904841023,-106.84886895893273,0.0,-45.20970096361306,-2.364487227158591,-3.8007108482561662,-0.7006917838923918,34.26675005680039,17.578289281573518,2.691118928928442,1.3781966733342799,0.9313893637293185,0.5890226731432194,0.3678939944241054,0.19495543848798197,0.09928545220881115,0.058304267696687576,0.04941434592786978,0.05715037759414301,0.02062807194168232,0.04049646417591933,0.011235027555471648,0.018824811255417462,0.015541070160848275,4.740555694915017,3.1010744065829936,2.3951347730900028,1.7340662435683953,1.1559504475155165,0.7840980711190517,0.47436368253390765,0.2849344349646131,0.2105705486610267,0.2015285689957767,0.15984573889152837,0.1338301427282372,0.13255373701262038,0.1227052482605703,0.08406399359519694
0.0,69.0,69.0,0.0,120.0,0.0,0.5979659261534191,-20.858692254298433,-7.5608348823527685,-107.21715464037082,0.0,-44.836730762352886,3.3273684924057196,6.668324866352318,-2.1377772163874473,34.26675005680039,17.578289281573518,2.730667241176561,1.3546618632991392,0.9636332511287998,0.6006797443362639,0.3556341369850338,0.2090648005867829,0.10174103302314828,0.0529871674332453,0.04431763461344004,0.024007077641039713,0.047216253593455236,0.028381908820424996,0.008238491813426918,0.03510008043057778,0.008262648184004484,4.904226609288613,3.3043996214111684,2.397763092088316,1.7431336087701599,1.2287015366556193,0.7852208566436066,0.4836234923800147,0.2745767993968066,0.2158066197295011,0.1634312659181894,0.16132083794202515,0.1516464467898359,0.1088372929542149,0.11400233944933377,0.08863049459509002
0.0,70.0,70.0,0.0,120.0,0.0,8.165927517384677,6.878105070991069,10.175866108211128,-107.16782080937799,0.0,-45.14269870328252,-2.81623941997175,1.5973228368935626,-1.621636123895632,34.26675005680039,17.578289281573518,2.6976576194898976,1.3882973179179117,0.9434368883563823,0.6123541187652191,0.35066912645258363,0.21934335824919282,0.12652284184870027,0.058873870757809366,0.031418782340642354,0.041304006466110064,0.026887726796537427,0.013242053970925392,0.021099825203643514,0.02037285082463395,0.01471361873998411,4.795545012699696,3.2043008440917564,2.364379450560298,1.7235977122360815,1.2276290632353464,0.7831948184651205,0.4428277011351739,0.29143625374652016,0.24946949183273093,0.19251806290500778,0.17171458503421963,0.15780867623597514,0.12440759092965271,0.10220754687206511,0.08225435405492088
0.0,71.0,71.0,0.0,120.0,0.0,-0.4473008949193602,-3.967658578371779,9.458861003757356,-106.98876269436619,0.0,-44.96198974886059,-2.1334348210826586,8.574321978013813,-2.221878820490819,34.26675005680039,17.578289281573518,2.758004435328594,1.453106107188457,0.9036264327767177,0.5848273998160389,0.35974832688788067,0.18089609624787023,0.11096497810335822,0.060873850343672944,0.030765584996381008,0.02260521713230143,0.032041139005186334,0.01686977143979957,0.01648568377975502,0.02281285221325886,0.02165069831884688,4.915703275289825,3.229497208621534,2.366577420588664,1.7778313684778375,1.2338520280184009,0.779182152894487,0.4539186334785673,0.30747245712763516,0.21350862114398445,0.1805492577270276,0.16667506204026047,0.12543464318987943,0.12694324913520694,0.08128704481728007,0.10606073713445173
0.0,72.0,72.0,0.0,120.0,0.0,-3.875386178012114,5.3632188448923195,-11.404223009121285,-106.95623991937339,0.0,-45.13190002766919,-0.6347993370462042,9.168227461031616,-0.4120422890743294,34.26675005680039,17.578289281573518,2.84007405013444,1.424472083262858,0.9400428756160873,0.6159826041514789,0.3682995699540189,0.17928201796809332,0.09846118098216873,0.048077636750537,0.05051129543930071,0.03684668613002743,0.04045560421320169,0.013667764025200722,0.01210015358697486,0.01766453146061414,0.004708457767114644,4.8987296191331025,3.1868554736312116,2.383472723792741,1.7167671018665267,1.2068917808399535,0.7564411154844424,0.48403079292271245,0.30399286550383153,0.21911484631417727,0.1839948277888308,0.15232476858300778,0.16725619320541835,0.14211243658091968,0.09451855708952277,0.0818383417352542
0.0,73.0,73.0,0.0,120.0,0.0,4.792038443808195,-10.63525754017558,11.098526814080603,-107.51738953152639,0.0,-45.150216505966156,-1.1174465087490637,-6.019794600955355,4.337126159788255,34.26675005680039,17.578289281573518,2.8730684790914016,1.425110551485525,0.964182238158876,0.6058332410673807,0.3613514495094671,0.20931618722416515,0.1137515656623899,0.06611013263959263,0.0394517758589906,0.021631210954353143,0.03167587306156822,0.03051679776919334,0.017675245117767576,0.021496487193027814,0.02338090138363371,4.944892664595546,3.333130225956114,2.4261746013108607,1.7721700770188535,1.1780283519081558,0.7741497462467873,0.4787198280534793,0.3110455104062772,0.2079896943654651,0.19387966843602028,0.13264258000788132,0.12137436316403964,0.13188672500550241,0.11033266687407889,0.09002696505399481
