Line_number,Fiducial,Easting,Northing,Height,Elevation,tx_pitch,tx_roll,tx_yaw,txrx_dx,txrx_dy,txrx_dz,rx_pitch,rx_roll,rx_yaw,PX,PZ,S0X_time_1.086e-05,S0X_time_3.256e-05,S0X_time_5.426e-05,S0X_time_8.680e-05,S0X_time_1.411e-04,S0X_time_2.279e-04,S0X_time_3.689e-04,S0X_time_5.860e-04,S0X_time_9.115e-04,S0X_time_1.411e-03,S0X_time_2.192e-03,S0X_time_3.418e-03,S0X_time_5.339e-03,S0X_time_8.301e-03,S0X_time_1.338e-02,S0Z_time_1.086e-05,S0Z_time_3.256e-05,S0Z_time_5.426e-05,S0Z_time_8.680e-05,S0Z_time_1.411e-04,S0Z_time_2.279e-04,S0Z_time_3.689e-04,S0Z_time_5.860e-04,S0Z_time_9.115e-04,S0Z_time_1.411e-03,S0Z_time_2.192e-03,S0Z_time_3.418e-03,S0Z_time_5.339e-03,S0Z_time_8.301e-03,S0Z_time_1.338e-02
0.0,0.0,0.0,0.0,120.0,0.0,0.0,0.0,0.0,-107.0,0.0,-45.0,0.0,0.0,0.0,34.27253218749016,17.55503396713325,5.882553229630938,3.3634865661513618,2.2792803787165563,1.4791395409271642,0.8810795590717402,0.5042323072181614,0.2765164336009016,0.1484113000972237,0.07897375751268924,0.040773252686450004,0.020164574967515267,0.009554022645441938,0.004346736966352704,0.0018986129418867026,0.0006628458754571694,8.121375666504536,5.7906611689641005,4.51572258435017,3.3870460174498387,2.3756666761755945,1.6035553276100984,1.041924333128433,0.6626926807941954,0.41668184514813456,0.25488376608508484,0.15015528948061957,0.08511151809543893,0.04648506136478578,0.0246105546175501,0.011894400008422222
0.0,1.0,1.0,0.0,120.0,0.0,0.0,0.0,0.0,-107.0,0.0,-45.0,0.0,0.0,0.0,34.27253218749016,17.55503396713325,5.882098533143369,3.35360643786453,2.258958495427341,1.4534750513356205,0.8575572725327415,0.48772430443912324,0.2670339797551393,0.14358288833193666,0.07665797280527673,0.039727604593500096,0.019721849083997888,0.00937704323879151,0.004279480764154347,0.0018741589533980481,0.0006555599525976028,8.121049832911705,5.780172474927519,4.489974769872074,3.3481507331966336,2.3324085684364557,1.566604015780209,1.0160227753888438,0.6466774299490249,0.4074299245174528,0.24985521376934192,0.14758429681833174,0.0838675792635191,0.04591202769921458,0.024356887074485953,0.011794468613153863
0.0,2.0,2.0,0.0,120.0,0.0,0.0,0.0,0.0,-107.0,0.0,-45.0,0.0,0.0,0.0,34.27253218749016,17.55503396713325,5.881641432298226,3.3442447459717974,2.239906301325214,1.4293721634079357,0.8353266543178246,0.472024852235838,0.2579721163934257,0.1389494280870091,0.07442616981445713,0.03871527304369901,0.01929124915770709,0.00920416305241154,0.004213528906203965,0.0018500962826950085,0.0006483460991354661,8.120720371963449,5.7701463535844715,4.465573236141687,3.3112048053617675,2.291057806315308,1.5310679279749,0.9910072377638887,0.6311623514196815,0.3984404949131465,0.2449536298803142,0.1450697718829519,0.08264696556152451,0.04534804868655667,0.024106560773550563,0.011695570244883848
0.0,3.0,3.0,0.0,120.0,0.0,0.0,0.0,0.0,-107.0,0.0,-45.0,0.0,0.0,0.0,34.27253218749016,17.55503396713325,5.8811752676515265,3.3352883715297077,2.22194451534688,1.4066728913210644,0.8142923923888992,0.4570854944596237,0.2493078959859153,0.1345009954289122,0.07227445521276493,0.0377348891021881,0.018872344251896683,0.009035258044738842,0.00414884781664685,0.001826416720425375,0.0006412048038875993,8.120382116701187,5.76047979705114,4.442332650965187,3.2760255219605687,2.2514942562739573,1.4968806092027005,0.9668406125353439,0.6161274994684672,0.3897038378021248,0.240174791246556,0.14261007442204363,0.08144909787136412,0.04479293462917027,0.023859517727784812,0.011597692779133119
0.0,4.0,4.0,0.0,120.0,0.0,0.0,0.0,0.0,-107.0,0.0,-45.0,0.0,0.0,0.0,34.27253218749016,17.55503396713325,5.880694455388241,3.3266438255889907,2.204917609754091,1.3852335660734227,0.794364935937703,0.44286061348762384,0.2410199078884787,0.13022833271985348,0.07019917773741845,0.03678515986872421,0.018464724252011146,0.008870209359752124,0.00408540516158755,0.0018031122996244788,0.0006341364124872483,8.120030685001598,5.751087231322723,4.4200913142636855,3.242444697522738,2.213602295083576,1.4639776228305028,0.9434875264855179,0.601553988714981,0.381210730693218,0.23551467032603193,0.14020363077356737,0.08027341725174916,0.04424650144135401,0.02361570136780881,0.011500824220588228
0.0,5.0,5.0,0.0,120.0,0.0,0.0,0.0,0.0,-107.0,0.0,-45.0,0.0,0.0,0.0,34.27253218749016,17.55503396713325,5.8801941422348625,3.3182331363168274,2.188690577953736,1.3649240253244714,0.7754604629433641,0.4293072507928233,0.23308813180962576,0.126122787726997,0.06819690797815642,0.035864862811749505,0.018067998506687923,0.008708903022809683,0.004023169780066594,0.0017801752855974226,0.0006271411483320095,8.119662217115483,5.741896759318813,4.398707891599286,3.2103081605115618,2.177271357141833,1.4322966225254936,0.9209142094121991,0.5874239114183974,0.3729524116266698,0.23096942259237754,0.13784893010488097,0.07911938395015765,0.043708570414535144,0.0233750564924252,0.011404952699894083
0.0,6.0,6.0,0.0,120.0,0.0,0.0,0.0,0.0,-107.0,0.0,-45.0,0.0,0.0,0.0,34.27253218749016,17.55503396713325,5.879669972515229,3.309990689347284,2.173146068390668,1.345626663300293,0.7575007734736278,0.41638495449015556,0.2254938114321521,0.12217625975663474,0.06626442028459041,0.034972840631908746,0.017681794582012925,0.00855122966058568,0.0039621116205127115,0.001757598166353927,0.0006202191292651626,8.11927320040489,5.732847304549014,4.378058543197535,3.179474998555241,2.1423962851912024,1.4017774220441477,0.8990883824573718,0.5737202631899474,0.3649205469278492,0.22653537496522239,0.1355445209272056,0.07798647647925233,0.04317896799574147,0.023137529221587915,0.011310066471086639
0.0,7.0,7.0,0.0,120.0,0.0,0.0,0.0,0.0,-107.0,0.0,-45.0,0.0,0.0,0.0,34.27253218749016,17.55503396713325,5.879117925560326,3.3018607862646814,2.158181887849111,1.3272354222863951,0.740413122030185,0.40405564559761675,0.21821934508770324,0.11838115189399234,0.06439867653324899,0.0341079965970504,0.017305757117651924,0.008397084242814077,0.0039022016821916197,0.0017353736435649272,0.000613370381034987,8.118860348441213,5.723886425156635,4.358034440897362,3.149816672606252,2.1088775177047414,1.3723620550181697,0.8779791631965266,0.5604268762454429,0.35710720187467276,0.2222090151818717,0.1332890078606715,0.07687419075231018,0.042657525578290105,0.02290306695155726,0.011216153909786185
0.0,8.0,8.0,0.0,120.0,0.0,0.0,0.0,0.0,-107.0,0.0,-45.0,0.0,0.0,0.0,34.27253218749016,17.55503396713325,5.878534198508064,3.293795744826438,2.1437088504183364,1.3096547810534782,0.7241300032521931,0.39228349707795135,0.21124819079652168,0.11473032856326275,0.06259681153035052,0.033269290297893286,0.01693954677477628,0.008246365843726953,0.003843411961174386,0.0017134946240003745,0.0006065948483203239,8.118420514819768,5.714968628172596,4.33853964127697,3.1212160766007426,2.0766211453016266,1.343994820005834,0.8575569846571145,0.5475283594022121,0.349504813970875,0.2179869820193677,0.1310810486277989,0.07578203927277043,0.042144079303756216,0.02267161831208883,0.011123203512119694
0.0,9.0,9.0,0.0,120.0,0.0,0.0,0.0,0.0,-107.0,0.0,-45.0,0.0,0.0,0.0,34.27253218749016,17.55503396713325,5.87791511915279,3.285754409568146,2.1296489366209173,1.2927987759143686,0.7085889045317493,0.38103482157154966,0.20456478336488423,0.11121707773328661,0.060856119856704194,0.03245573377971111,0.016582839266857254,0.008098977421284258,0.0037857154003890776,0.00169195421142308,0.0005998924039137743,8.117950629620061,5.7060540588155355,4.319489273875173,3.0935665934983354,2.0455388654873627,1.3166223085019673,0.8377935257247878,0.5350100441043952,0.3421061685541102,0.21386605628614233,0.128919351255674,0.07470955037354514,0.041638469874394714,0.022443133125538275,0.011031203894261786
0.0,10.0,10.0,0.0,120.0,0.0,0.0,0.0,0.0,-107.0,0.0,-45.0,0.0,0.0,0.0,34.27253218749016,17.55503396713325,5.877257079169703,3.2777009751056587,2.1159337239549094,1.2765900759369289,0.6937320374390347,0.37027796513175504,0.1981544615783797,0.1078350771867481,0.05917404398698487,0.03166638801074758,0.016235324465412437,0.007954825612477588,0.0037290858433479484,0.0016707456989041626,0.0005932628565017054,8.11744765092178,5.6971074727556354,4.300808002047939,3.0667711800816355,2.0155478610079482,1.290193415369928,0.818661650720469,0.5228579358290883,0.3349043764999075,0.2098431525112961,0.12680267146916097,0.07365626750217355,0.041140542375265765,0.02221756236775769,0.010940143792472243
0.0,11.0,11.0,0.0,120.0,0.0,0.0,0.0,0.0,-107.0,0.0,-45.0,0.0,0.0,0.0,34.27253218749016,17.55503396713325,5.876556481462707,3.26960404932271,2.1025030512920004,1.260959123939789,0.6795060578638837,0.3599832052957532,0.19200340383880976,0.10457836434858783,0.057548163537624736,0.030900359652704254,0.015896705573660627,0.007813820543184365,0.0036734979911844995,0.0016498625615393554,0.0005867059573614672,8.116908526507526,5.688097423376601,4.282428716555327,3.0407414999097293,1.9865706229154003,1.2646593323699709,0.8001353562627695,0.5110586702866444,0.3278928538102459,0.20591531126725207,0.12472981025928835,0.07262174854832566,0.040650146105417846,0.02199485813069478,0.010850012063502817
0.0,12.0,12.0,0.0,120.0,0.0,0.0,0.0,0.0,-107.0,0.0,-45.0,0.0,0.0,0.0,34.27253218749016,17.55503396713325,5.8758096975018494,3.261435901927123,2.089303882848262,1.2458433481928768,0.6658617827850883,0.35012265254103414,0.18609857086545772,0.1014413092354687,0.05597618551642549,0.03015679810267842,0.015566698361816846,0.007675875651200359,0.003618927362665061,0.0016292984495331847,0.0005802214062068454,8.116330162573238,5.6789956136136315,4.2642914262118286,3.0153971149147774,1.958534735483992,1.2399735262224973,0.7821897238482787,0.49959947388361176,0.32106530289970175,0.20207969206829055,0.12269961161255538,0.07160556521048712,0.040167134417520844,0.021774973586589797,0.010760797685249856
0.0,13.0,13.0,0.0,120.0,0.0,0.0,0.0,0.0,-107.0,0.0,-45.0,0.0,0.0,0.0,34.27253218749016,17.55503396713325,5.875013031855721,3.253171857316669,2.076289341491563,1.2311864453513133,0.6527539097539029,0.3406701546592115,0.18042765431823893,0.09841859014481327,0.05445593546311251,0.029434892779445044,0.015245030458435721,0.007540907521248483,0.003565350256884583,0.0016090471816326713,0.0005738088563620816,8.115709397336644,5.669776374725803,4.246342314640858,2.9906647401671926,1.9313726365969421,1.2160917030710112,0.7648008768738568,0.48846812796771855,0.31441569541306313,0.1983335667933926,0.12071096038826916,0.07060730239897932,0.039691364565426615,0.021557862953693475,0.01067248975756637
0.0,14.0,14.0,0.0,120.0,0.0,0.0,0.0,0.0,-107.0,0.0,-45.0,0.0,0.0,0.0,34.27253218749016,17.55503396713325,5.87416269198776,3.2447898006258415,2.063417885272264,1.21693773239052,0.6401407436010307,0.33160120388605985,0.17497903040273788,0.09550517175086447,0.05298534938393113,0.028733870630035137,0.014931440692812077,0.007408835730884758,0.003512743718382925,0.001589102738886133,0.00056746791938994,8.115042978121364,5.660416243707965,4.228532936736625,2.9664775624504327,1.905021364214257,1.192971761391586,0.7479459410833162,0.4776529364218382,0.30793825642659134,0.194674313587059,0.11876278033228262,0.06962655767273074,0.03922269755916682,0.021343481463423568,0.010585077503143834
0.0,15.0,15.0,0.0,120.0,0.0,0.0,0.0,0.0,-107.0,0.0,-45.0,0.0,0.0,0.0,34.27253218749016,17.55503396713325,5.873254761953322,3.2362697731869274,2.0506526049177083,1.203051563679434,0.6279839335656066,0.32289284680833774,0.16974171768789306,0.09269628531770706,0.051562466395297255,0.028052993835249472,0.014625678483968845,0.007279582706351562,0.003461085504454251,0.0015694592587091939,0.0005611981692755603,8.114327540941266,5.650893617918695,4.210819532573419,2.9427746208487493,1.8794222970302028,1.170573735410004,0.7316030076426971,0.4671426962182856,0.30162744990100976,0.19109941119640075,0.11685403221656882,0.06866294070744336,0.03876099802694479,0.021131785328888316,0.010498550268406112
0.0,16.0,16.0,0.0,120.0,0.0,0.0,0.0,0.0,-107.0,0.0,-45.0,0.0,0.0,0.0,34.27253218749016,17.55503396713325,5.872285179014972,3.2275936391296667,2.037960623470361,1.1894868084634471,0.6162482229879725,0.3145235971627464,0.16470533850943087,0.08998741077618641,0.050185422001814126,0.02739155769509913,0.01432750327222307,0.007153073587531039,0.003410354054446443,0.0015501110292341308,0.0005549991462370121,8.11355959190436,5.641188470585404,4.19316244011549,2.9195002461044792,1.85452089539231,1.1488597309931339,0.715751098234658,0.45692667058624037,0.2954779652682319,0.1876064337069285,0.11498371209502835,0.06771607279301384,0.0383061340837195,0.02092273171470215,0.010412897524355338
0.0,17.0,17.0,0.0,120.0,0.0,0.0,0.0,0.0,-107.0,0.0,-45.0,0.0,0.0,0.0,34.27253218749016,17.55503396713325,5.871249712452897,3.218744808965743,2.0253125822349687,1.1762063836707923,0.6049012128768253,0.30647335167914763,0.1598600834495588,0.08737426044403582,0.04885244194285751,0.026748888677226253,0.014036683989742478,0.007029236101251373,0.0033605284608793297,0.0015310524839356285,0.0005488703602264049,8.112735489950728,5.631282114635217,4.175525591164502,2.896603554722911,1.8302664469228407,1.1277938558214642,0.7003701317153243,0.4469945644836539,0.28948470504605406,0.18419304564310524,0.113150849666805,0.06678558635824947,0.03785797720600422,0.020716278708040374,0.010328108867342135
0.0,18.0,18.0,0.0,120.0,0.0,0.0,0.0,0.0,-107.0,0.0,-45.0,0.0,0.0,0.0,34.27253218749016,17.55503396713325,5.8701439440279675,3.2097080091206323,2.0126821997475752,1.1631768369249742,0.5939131400226565,0.29872330912015427,0.15519667847933366,0.08485276419676169,0.04756183654963954,0.026124342613174104,0.013752998566837964,0.006908000442265714,0.003311588442217371,0.001512278196503936,0.000542811294155824,8.111851430570294,5.6211570051435,4.1578760775769545,2.8740379934658855,1.806611819996721,1.1073421454562262,0.6854408920000234,0.43733650210049974,0.28364277338581384,0.18085699740302769,0.11135450673911763,0.0658711245210616,0.03741640211252921,0.020512385290857065,0.010244174019716126
0.0,19.0,19.0,0.0,120.0,0.0,0.0,0.0,0.0,-107.0,0.0,-45.0,0.0,0.0,0.0,34.27253218749016,17.55503396713325,5.868963249682891,3.2004690887477496,2.000045892629322,1.1503679748171318,0.5832566698494873,0.2912558926473768,0.15070635442788835,0.0824190559215893,0.04631199556138117,0.0255173030289894,0.013476233471087047,0.006789299161315807,0.0032635143171731483,0.0014937828759613628,0.0005368214068889365,8.110903430235485,5.610796572841207,4.1401837769481675,2.8517609298241307,1.7835132272268124,1.0874724867089174,0.6709449969414661,0.42794300615277775,0.2779474654675399,0.17759612099950264,0.10959377578232128,0.06497234066249534,0.03698128665045646,0.020311011313222643,0.01016108283034393
0.0,20.0,20.0,0.0,120.0,0.0,0.0,0.0,0.0,-107.0,0.0,-45.0,0.0,0.0,0.0,34.27253218749016,17.55503396713325,5.867702782099871,3.1910148569255163,1.9873824489551057,1.137752531785625,0.5729067039006377,0.2840546756064655,0.14638081849861698,0.08006946111011849,0.04510138335512945,0.024927179597852286,0.01320618327670869,0.006673067059714337,0.0032162869804148956,0.001475561362000347,0.0005309001358774478,8.10988732200732,5.60018511266121,4.122421071357219,2.829733327033649,1.7609300018387084,1.068154508498591,0.6568648836127357,0.4188049733635257,0.2723942591346643,0.17440832579394505,0.10786777861220422,0.06408889801856024,0.03655251168618502,0.020112117468782675,0.010078825593599466
0.0,21.0,21.0,0.0,120.0,0.0,0.0,0.0,0.0,-107.0,0.0,-45.0,0.0,0.0,0.0,34.27253218749016,17.55503396713325,5.866357454025971,3.1813329450605243,1.9746727466139824,1.1253058755356526,0.5628402014615059,0.2771043106199443,0.14221222771057332,0.07780048542824447,0.04392853455713288,0.0243534067025358,0.01294265026192457,0.006559241089978029,0.00316988787957366,0.0014576086205463899,0.0005250469015504774,8.10879872472798,5.589307617125543,4.104562501085977,2.8079193479469424,1.738824382127158,1.049359550988302,0.6431837548203102,0.40991366501871973,0.26697880350039643,0.17129159522187318,0.10617566504556243,0.06322046930444904,0.036129961002730054,0.01991566526852422,0.009997392560132696
0.0,22.0,22.0,0.0,120.0,0.0,0.0,0.0,0.0,-107.0,0.0,-45.0,0.0,0.0,0.0,34.27253218749016,17.55503396713325,5.864921922245875,3.171411689789014,1.9618995093661482,1.1130057441384493,0.5530360144215575,0.27039046269054284,0.13819316378702792,0.07560880425738067,0.042792049968370265,0.023795442104954875,0.012685444030911697,0.00644776026226553,0.0031242989934338974,0.0014399197394999055,0.0005192611074663656,8.107633013265128,5.578149630250585,4.086584460813223,2.786285999143007,1.7171613093483618,1.0310606304471905,0.6298855284925461,0.4012606979858195,0.26169690840976034,0.1682439837115248,0.10451661163657103,0.06236673635742365,0.03571352120175073,0.019721617015647137,0.009916773492626992
0.0,23.0,23.0,0.0,120.0,0.0,0.0,0.0,0.0,-107.0,0.0,-45.0,0.0,0.0,0.0,34.27253218749016,17.55503396713325,5.863390571334021,3.161240032776019,1.949047095588055,1.1008320124333764,0.5434747356351429,0.26389974541741484,0.13431660963285066,0.07349125299984051,0.04169059281155303,0.0232527657036114,0.012434381160563746,0.006338565555788178,0.0030795028112898526,0.0014224899246795617,0.0005135421421578883,8.106385340324698,5.566697258769777,4.06846513130225,2.7648030104939814,1.6959082449661884,1.0132322567295047,0.6169548622814088,0.39283801100656296,0.2565445415134406,0.1652636124423933,0.10288982068073092,0.06152738977670468,0.035303081606918085,0.0195299357864627,0.009836958747279785
0.0,24.0,24.0,0.0,120.0,0.0,0.0,0.0,0.0,-107.0,0.0,-45.0,0.0,0.0,0.0,34.27253218749016,17.55503396713325,5.861757497897065,3.150807435159018,1.9361013152179818,1.0887664840870366,0.5341385591419885,0.2576196606340342,0.1305759272406091,0.07144481808435905,0.04062288525674448,0.022724878376430665,0.012189284868843768,0.006231599835187703,0.003035482313331101,0.0014053144959502483,0.0005078893820862154,8.105050606592895,5.554937049629572,4.0501842310326905,2.7434425337622423,1.6750349928223711,0.9958504030797858,0.6043771031167905,0.38463785816840157,0.2515178187326634,0.16234866670788162,0.10129451908001655,0.06070212860247255,0.03489853417460278,0.0193405854069776,0.009757938806948464
0.0,25.0,25.0,0.0,120.0,0.0,0.0,0.0,0.0,-107.0,0.0,-45.0,0.0,0.0,0.0,34.27253218749016,17.55503396713325,5.860016494824646,3.140103803921796,1.9230492705928306,1.0767927062974665,0.5250111517630794,0.25153854149845756,0.126964836816819,0.0694666286304499,0.03958770519444097,0.022211300902067837,0.01194998470327743,0.0061268077714533966,0.0029922209520029074,0.001388388883511372,0.0005023021936007324,8.103623446332062,5.542855920781329,4.031722853349571,2.722178928431633,1.6545135355886458,0.9788924324668783,0.592138260193956,0.3766527953479478,0.24661299736114053,0.15949739304138075,0.09972995732867704,0.05989066000442289,0.03449977340760663,0.01915353043186626,0.009679704280724283
0.0,26.0,26.0,0.0,120.0,0.0,0.0,0.0,0.0,-107.0,0.0,-45.0,0.0,0.0,0.0,34.27253218749016,17.55503396713325,5.858161035504384,3.129119428415862,1.9098792179603004,1.0648958047022872,0.5160775352697434,0.2456454988681914,0.12347739707758489,0.06755394869356693,0.03858388323693662,0.021711572952598446,0.011716316248188502,0.006024135767084631,0.002949702634295171,0.0013717086243520786,0.0004967799347589147,8.102098212852017,5.530441100026844,4.013063323602313,2.700988569429682,1.6343178827081855,0.9623370262218996,0.5802249785997706,0.36887566743474315,0.24182646960962415,0.1567080965145609,0.0981954085544887,0.059092698985545034,0.034106696272678705,0.018968736124239674,0.009602245903347325
0.0,27.0,27.0,0.0,120.0,0.0,0.0,0.0,0.0,-107.0,0.0,-45.0,0.0,0.0,0.0,34.27253218749016,17.55503396713325,5.8561842579263015,3.117844925492266,1.8965804468395409,1.0530623362284106,0.507323978351685,0.23993037085051025,0.12010798663414507,0.06570417003503937,0.03761029992755472,0.021225252151765933,0.011488120849304855,0.0059235318852162554,0.002907911704888978,0.0013552693588549432,0.0004913219570050835,8.100468963797193,5.5176800706756515,3.994189073585625,2.679849674456319,1.6144239292700975,0.9461641152088051,0.5686245135942971,0.3612995962575753,0.2371547565553179,0.15397913819491377,0.09669016761169925,0.058307968100196596,0.033719202121599456,0.018786168436162726,0.009525554534470484
0.0,28.0,28.0,0.0,120.0,0.0,0.0,0.0,0.0,-107.0,0.0,-45.0,0.0,0.0,0.0,34.27253218749016,17.55503396713325,5.854078948614274,3.1062711919776946,1.8831431748281446,1.0412801578769646,0.4987378976354952,0.23438367540632302,0.11685128639855585,0.06391480536773489,0.036665883139460426,0.02075191319352571,0.011265245354482234,0.0058249457824560225,0.002866832930118495,0.0013390668275423665,0.00048592760671779583,8.098729446196733,5.504560523000728,3.975084530998049,2.658742148877751,1.5948093252199942,0.9303548136837068,0.5573247055658606,0.35391796914641305,0.23259450246206634,0.15130893275073132,0.095213550222231,0.05753619718563445,0.033337192615655084,0.018605793989890738,0.009449621157785847
0.0,29.0,29.0,0.0,120.0,0.0,0.0,0.0,0.0,-107.0,0.0,-45.0,0.0,0.0,0.0,34.27253218749016,17.55503396713325,5.851837526332284,3.0943893634478346,1.8695584558103524,1.0295383096662438,0.49030776703912893,0.22899656587668624,0.11370226294742017,0.06218348203438456,0.035749605647631626,0.02029114701610835,0.01104754186940676,0.005728328645200256,0.0028264514826983763,0.0013230968679624792,0.0004805962266298108,8.09687308122989,5.491070310661673,3.955735021973033,2.6376474463640927,1.5754533542914277,0.9148913559392048,0.5463139556770481,0.34672442807212195,0.22814246944045954,0.14869594619269413,0.09376489216195588,0.05677712310621599,0.03296057165332608,0.01842758005979373,0.009374436880025042
0.0,30.0,30.0,0.0,120.0,0.0,0.0,0.0,0.0,-107.0,0.0,-45.0,0.0,0.0,0.0,34.27253218749016,17.55503396713325,5.849452025521232,3.0821907784287093,1.8558180998220675,1.0178269101597863,0.4820230347868388,0.22376078929528795,0.11065615278776651,0.060507936080696566,0.0348604828592535,0.019842560027260703,0.010834867527214975,0.005633633129209834,0.002786752927171954,0.0013073554117019584,0.0004753271571258582,8.094892948663556,5.477197411410004,3.9361266850232104,2.6165484436473667,1.556336822041584,0.8997570357809841,0.535581202217111,0.3397128593141187,0.22379553242001976,0.14613869374216606,0.09234354848909787,0.056030489509528505,0.03258924530101901,0.018251494554935487,0.009299992929847933
0.0,31.0,31.0,0.0,120.0,0.0,0.0,0.0,0.0,-107.0,0.0,-45.0,0.0,0.0,0.0,34.27253218749016,17.55503396713325,5.8469140794288945,3.069666947302087,1.8419146030822118,1.0061370631879267,0.4738740474507954,0.2186686473471177,0.10770844747414496,0.058886006689835874,0.03399757068927807,0.01940577337673205,0.010627084271068107,0.005540813302249053,0.0027477232060422515,0.001291838481522927,0.0004701197374256623,8.092781770922143,5.46292989150884,3.9162463949802024,2.5954293279538114,1.5374419523849894,0.8849361488442904,0.5251158976733119,0.3328773836127867,0.21955067440826695,0.14363573781714023,0.09094889281203854,0.05529604659376502,0.03222312172668692,0.01807750600227592,0.009226280656630042
0.0,32.0,32.0,0.0,120.0,0.0,0.0,0.0,0.0,-107.0,0.0,-45.0,0.0,0.0,0.0,34.27253218749016,17.55503396713325,5.8442149029006485,3.0568095253101557,1.827841086914842,0.9944607745317013,0.4658519804283125,0.2137129598327232,0.10485487953010765,0.057315630948724106,0.03315996356921642,0.018980422272412194,0.010424058648791713,0.005449824589597866,0.002709348626545012,0.0012765421886157184,0.00046497330665714535,8.090531896752623,5.4482558733936575,3.8960816957171076,2.5742754958225627,1.5187522920377645,0.8704139377262986,0.5149079865304019,0.3262123467693058,0.21540498201389563,0.14118568612750523,0.08958031659400364,0.054573550885697514,0.03186211113618714,0.01790558353047107,0.009153291529164503
0.0,33.0,33.0,0.0,120.0,0.0,0.0,0.0,0.0,-107.0,0.0,-45.0,0.0,0.0,0.0,34.27253218749016,17.55503396713325,5.8413452748027845,3.0436102891533907,1.8135912444686126,0.9827908774797813,0.45794877430609754,0.20888703049841845,0.10209140913061725,0.05579483891992021,0.032346792578410166,0.0185661553368588,0.01022566161875322,0.005360623722263055,0.0026716158480277045,0.0012614627299595996,0.00045988720482285954,8.088135284449324,5.433163506178195,3.8756207406151724,2.553073462163651,1.5002526223093464,0.856176539885478,0.5049478838037269,0.31971231066035427,0.21135564121346967,0.1387871898720166,0.08823722849229276,0.05386276502864835,0.031506125712237716,0.017735696854243296,0.009081017134285824
0.0,34.0,34.0,0.0,120.0,0.0,0.0,0.0,0.0,-107.0,0.0,-45.0,0.0,0.0,0.0,34.27253218749016,17.55503396713325,5.838295520053169,3.030061116757362,1.7991592942950199,0.9711209662942171,0.4501570766043192,0.20418461509522706,0.09941421150481668,0.05432174899574854,0.03155722368807897,0.01816263400123007,0.010031768366230955,0.005273168687732998,0.0026345118699056184,0.001246596385792537,0.00045486077367192033,8.085583484604149,5.417640938672472,3.8548522398846035,2.5318107785334316,1.4819288777063742,0.842210938239884,0.49522645430793966,0.31337204463935014,0.207399933343015,0.13643894202995716,0.08691905372989181,0.05316345757990533,0.03115507955583995,0.017567816259297295,0.009009449175433273
0.0,35.0,35.0,0.0,120.0,0.0,0.0,0.0,0.0,-107.0,0.0,-45.0,0.0,0.0,0.0,34.27253218749016,17.55503396713325,5.835055491236402,3.0161539698529496,1.78453993997855,0.9594453367311564,0.44247018843300273,0.19959989153290783,0.09681966502103102,0.052894563513799286,0.030790456109376446,0.01776953193390838,0.009842258129572786,0.005187418683122049,0.002598024020161127,0.0012319395171785808,0.00044989335747824935,8.082867622348257,5.401676294632175,3.8337654139763377,2.5104759597167448,1.4637680708433218,0.8285049143818293,0.4857349926597206,0.3071865172993375,0.20353523129763565,0.13413967574106003,0.08562523349746108,0.05247540281704734,0.030808888630044134,0.01740191258775844,0.008938579471158111
0.0,36.0,36.0,0.0,120.0,0.0,0.0,0.0,0.0,-107.0,0.0,-45.0,0.0,0.0,0.0,34.27253218749016,17.55503396713325,5.831614549781823,3.001880879072249,1.7697283351243516,0.9477589328598696,0.43488201563094475,0.19512743199974694,0.09430433991807001,0.051511564615110084,0.03004572073752452,0.01738653450131878,0.009657014035498224,0.005103334070561599,0.002562139944354806,0.0012174885636701874,0.0004449843037328051,8.079978379051,5.385257650002105,3.8123499524304054,2.4890584178039052,1.4457582231850223,0.8150470043158045,0.4764652040097222,0.30115088857564287,0.19975899592390062,0.1318881627677621,0.08435522438383031,0.051798380552688365,0.030467470705935792,0.017237957224108605,0.00886839995359026
0.0,37.0,37.0,0.0,120.0,0.0,0.0,0.0,0.0,-107.0,0.0,-45.0,0.0,0.0,0.0,34.27253218749016,17.55503396713325,5.827961546683462,2.9872339313115694,1.7547200531048708,0.936057299509082,0.4273870239926922,0.19076217692384134,0.09186498764880567,0.05017111032820012,0.029322278684847568,0.017013338258674876,0.009475922942955267,0.005020876334712304,0.0025268475951234766,0.001203240041059445,0.0004401329637551295,8.076905973440688,5.3683730119530475,3.7905959775994393,2.4675484030382515,1.427888301176769,0.8018264566191726,0.4674091854959598,0.295260502168873,0.19606877259116673,0.1296832120343437,0.08310849783327898,0.0511321759571873,0.030130745310735084,0.01707592208159761,0.008798902666866885
0.0,38.0,38.0,0.0,120.0,0.0,0.0,0.0,0.0,-107.0,0.0,-45.0,0.0,0.0,0.0,34.27253218749016,17.55503396713325,5.824084802740966,2.9722052591550447,1.7395110610491606,0.9243365397450837,0.41998019822224947,0.18649941065698566,0.08949853080376981,0.04887163086375593,0.028619419896183912,0.016649650468562007,0.0092988752949763,0.004940008042271796,0.0024921352221396772,0.0011891905392187579,0.0004353386932323241,8.07364014211026,5.351010299542781,3.7684940127662627,2.4459369507879534,1.4101481573476904,0.7888331929204708,0.4585594084082517,0.28951087827097666,0.19246218792928346,0.1275236682379368,0.0818845396279941,0.05047657938888519,0.02979863367790595,0.016915779589116768,0.008730079765540947
0.0,39.0,39.0,0.0,120.0,0.0,0.0,0.0,0.0,-107.0,0.0,-45.0,0.0,0.0,0.0,34.27253218749016,17.55503396713325,5.819972088299895,2.956787032188481,1.7240976976288003,0.9125932768525135,0.4126570042827704,0.18233473876795428,0.08720205358411551,0.04761162510619933,0.027936461840766688,0.01629518864544946,0.009125764978028228,0.0048606928033643,0.0024579913625056697,0.0011753367200192674,0.0004306008526871972,8.07017011936837,5.333157325858898,3.7460349542430906,2.424215834064924,1.3925284760018466,0.7760577705875005,0.4499087010509692,0.2838977065788306,0.1889369467213035,0.1254084105267726,0.08068284939421018,0.04983138623146825,0.029471058699172596,0.01675750267850511,0.008661923512964543
0.0,40.0,40.0,0.0,120.0,0.0,0.0,0.0,0.0,-107.0,0.0,-45.0,0.0,0.0,0.0,34.27253218749016,17.55503396713325,5.815610602468364,2.9409714500647612,1.7084766542548586,0.9008246203473262,0.40541335483981955,0.17826406683777574,0.08497279279482758,0.04638965728960752,0.027272748275183643,0.015949680124373023,0.00895648918838202,0.004782895234704483,0.0024244048315586477,0.0011616753153285495,0.0004259188078845441,8.066484616393334,5.314801781524945,3.7232100470996046,2.402377521075371,1.3750207231390945,0.7634913475165203,0.4414502322894634,0.2784168395813671,0.18549082894084634,0.1233363512413965,0.07950294013065008,0.04919639673807878,0.029147944878350252,0.016601064772277362,0.00859442627966692
0.0,41.0,41.0,0.0,120.0,0.0,0.0,0.0,0.0,-107.0,0.0,-45.0,0.0,0.0,0.0,34.27253218749016,17.55503396713325,5.810986951785182,2.924750737209459,1.6926449593521362,0.8890281356029901,0.3982455775219108,0.17428358065545663,0.0828081293304314,0.04520435384654561,0.026627648072519584,0.015612861652181021,0.008790948305069081,0.004706580924436516,0.0023913647140702226,0.0011482031250841156,0.0004212919301787326,8.062571799643427,5.2959312194722585,3.7000108642183394,2.3804151373411124,1.3576171002738395,0.751125648914309,0.4331774957637563,0.2730642861074597,0.18212168692470304,0.12130643471492172,0.07834433775796823,0.0485714158818172,0.028829218286908053,0.016446439771753786,0.008527580541721024
0.0,42.0,42.0,0.0,120.0,0.0,0.0,0.0,0.0,-107.0,0.0,-45.0,0.0,0.0,0.0,34.27253218749016,17.55503396713325,5.806087128312088,2.9081171390798977,1.676599965421713,0.8772018167165266,0.3911503857458403,0.17038972771837102,0.08070558012685881,0.044054400419333645,0.02600055411320286,0.01528447899985549,0.00862904576901572,0.004631716398554845,0.00235886035581216,0.0011349170154346243,0.0004167195968085138,8.058419268472553,5.276533040899037,3.6764292884205183,2.358322431979772,1.3403105018441186,0.7389529359663208,0.42508429475187026,0.26783620512293094,0.1788274426721086,0.11931763612867578,0.07720658068800189,0.04795625321230607,0.028514806521174274,0.016293602045573223,0.00846137887911361
0.0,43.0,43.0,0.0,120.0,0.0,0.0,0.0,0.0,-107.0,0.0,-45.0,0.0,0.0,0.0,34.27253218749016,17.55503396713325,5.800896487119423,2.891062919912288,1.6603393386411913,0.8653440622809798,0.3841248518763026,0.16657919994724746,0.07866279055436075,0.042938539024134324,0.025390882233471038,0.01496428659454759,0.008470687967981571,0.004558269088814987,0.0023268813554746122,0.00112181391695022,0.00041220119114297434,8.054014031894518,5.256594482355173,3.6524574974439696,2.336093747775123,1.3230944759263965,0.7269659762865498,0.41716472766397594,0.2627288997659289,0.17560608526285904,0.11736896041987373,0.07608921941170281,0.04735072271799532,0.028204638661109383,0.016142526418579294,0.008395813974116427
0.0,44.0,44.0,0.0,120.0,0.0,0.0,0.0,0.0,-107.0,0.0,-45.0,0.0,0.0,0.0,34.27253218749016,17.55503396713325,5.795399723131066,2.8735803619112033,1.6438610507854106,0.8534536537662648,0.3771663825092087,0.16284891753119346,0.07667752722762154,0.041855565358969685,0.024798070227716816,0.01465204717006571,0.008315784126955768,0.004486207302059076,0.0022954175569175816,0.0011088908228973665,0.0004077361028850849,8.049342484433318,5.236102603907615,3.6280879515886633,2.3137239947077144,1.305963187992626,0.7151580160475649,0.4094131741477937,0.2577388116106906,0.1724556683871324,0.115459441238213,0.07499181610471485,0.04675464269392284,0.027898645230572304,0.015993188161055535,0.008330878609667467
0.0,45.0,45.0,0.0,120.0,0.0,0.0,0.0,0.0,-107.0,0.0,-45.0,0.0,0.0,0.0,34.27253218749016,17.55503396713325,5.78958084728984,2.8556617658529837,1.6271633732790254,0.841529736241464,0.3702726956863894,0.1591960138235405,0.07474767121039376,0.04080432624748581,0.024221576901277082,0.014347531434658636,0.00816424620368049,0.004415500190871697,0.002264459041736331,0.0010961447875744719,0.0004033237282341864,8.044390380989205,5.215044278355728,3.6033133838748412,2.291208626650207,1.2889113874657383,0.7035227536926063,0.4018242817850609,0.2528625151504207,0.16937430798046588,0.11358813994850708,0.07391394424961184,0.0461678356146533,0.027596758159011567,0.01584556297830725,0.008266565667762231
0.0,46.0,46.0,0.0,120.0,0.0,0.0,0.0,0.0,-107.0,0.0,-45.0,0.0,0.0,0.0,34.27253218749016,17.55503396713325,5.7834231619999565,2.8372994530907807,1.6102448732172223,0.8295718011989587,0.36344179986593483,0.15561782121440523,0.0728712115931094,0.0397837172108474,0.023660881170525363,0.014050517755018822,0.008015988789008697,0.004346117725499282,0.002233996122125803,0.0010835729247053918,0.0003989634700142869,8.039142810642755,5.19340618148038,3.5781267925846074,2.2685436209625034,1.2719343768479048,0.692054315135278,0.3943929533584801,0.24809671249055193,0.1663601799579055,0.11175414467668236,0.07285518827390332,0.04559012801213165,0.027298910744513794,0.01569962700056464,0.008202868127861527
0.0,47.0,47.0,0.0,120.0,0.0,0.0,0.0,0.0,-107.0,0.0,-45.0,0.0,0.0,0.0,34.27253218749016,17.55503396713325,5.776909235797237,2.818485768963531,1.5931044112123598,0.8175796712649329,0.35667197448755616,0.1521118579107752,0.07104623942302486,0.03879268016071407,0.023115481207366177,0.013760791855519218,0.007870929011809899,0.004278030666962513,0.002204019334030291,0.0010711724058917536,0.00039465473777072736,8.033584169309632,5.171174783323968,3.552521436080891,2.2457254607490214,1.255027983212544,0.68074723035628,0.3871143346683921,0.24343822824420575,0.16341151804182238,0.1099565693966775,0.0718151432029435,0.045021350358211865,0.027005037618148122,0.015555356773202134,0.008139779065314861
0.0,48.0,48.0,0.0,120.0,0.0,0.0,0.0,0.0,-107.0,0.0,-45.0,0.0,0.0,0.0,34.27253218749016,17.55503396713325,5.770020877191973,2.799213087624822,1.5757411409428854,0.8055534866019536,0.34996175198607,0.1486758155595448,0.06927094196749715,0.03783020120670861,0.02258489362546178,0.01347814653176165,0.007728986448163353,0.004211210541298143,0.002174519430560395,0.0010589404591135325,0.0003903969478369515,8.027698131149247,5.1483363405117775,3.5264908298179023,2.2227511195646423,1.2381885318664234,0.6695964113105961,0.37998380287833805,0.23888400462206283,0.16052661167832438,0.10819455305593265,0.07079341432695967,0.04446133695163052,0.026715074709550195,0.015412729247258056,0.008077291649804913
0.0,49.0,49.0,0.0,120.0,0.0,0.0,0.0,0.0,-107.0,0.0,-45.0,0.0,0.0,0.0,34.27253218749016,17.55503396713325,5.7627391076224495,2.7794738183203016,1.5581545102970107,0.79349369282788,0.3433099011186104,0.14530754765337062,0.06754359729199741,0.03689530857225004,0.022068652705733566,0.013202381377592947,0.00759008303460207,0.004145629614872263,0.0021454873756671876,0.001046874367287607,0.00038618952337933314,8.021467618619113,5.124876889637951,3.500028745475471,2.1996180483773133,1.2214128220022333,0.6585971310626011,0.3729969553687441,0.2344310967092901,0.1577038040376079,0.10646725873734413,0.06978961688145936,0.04390992580920788,0.02642895921368427,0.015271721770244629,0.008015399143815709
0.0,50.0,50.0,0.0,120.0,0.0,0.0,0.0,0.0,-107.0,0.0,-45.0,0.0,0.0,0.0,34.27253218749016,17.55503396713325,5.7550441334500615,2.7592604131543372,1.5403442640174547,0.7814010302916771,0.3367154114824929,0.14200505866336824,0.06586256913545246,0.0359870706130001,0.021566309658859147,0.012933302524799755,0.007454142985172244,0.0040812608707083,0.0021169143380594508,0.0010349714668690608,0.00038203189441793996,8.01487477105488,5.10078224175209,3.4731292121658948,2.176324164614277,1.2046981041748253,0.6477450040706156,0.36614959907824135,0.2300766679224908,0.1549414900939308,0.10477387285570422,0.06880337574031785,0.04336695856107608,0.026146629558738747,0.0151323120772341,0.007954094901122534
0.0,51.0,51.0,0.0,120.0,0.0,0.0,0.0,0.0,-107.0,0.0,-45.0,0.0,0.0,0.0,34.27253218749016,17.55503396713325,5.746915316901184,2.7385653764616613,1.5223104478492924,0.769276524532243,0.33017747909959794,0.13876649385126125,0.06422630206695001,0.035104593931889486,0.021077431922865944,0.012670722394701742,0.007321092712114133,0.0040180779857744075,0.002088791685351071,0.0010232291465037228,0.00037792349798728976,8.007900909940968,5.0760379780924465,3.4457865215157413,2.1528678438225373,1.1880420585438036,0.6370359678647245,0.3594377402559168,0.22581798564026168,0.15223811478346982,0.10311360438599756,0.06783432512111523,0.04283228034968733,0.025868025375112503,0.014994478282217673,0.007893372364230121
0.0,52.0,52.0,0.0,120.0,0.0,0.0,0.0,0.0,-107.0,0.0,-45.0,0.0,0.0,0.0,34.27253218749016,17.55503396713325,5.738331147287228,2.7173812761923934,1.504053413027012,0.7571214769709411,0.32369549370227596,0.13559012945664928,0.06263331696283735,0.034247021580870354,0.020601602493241816,0.01241445946134857,0.007190860749837105,0.003956055309217669,0.0020611109784212066,0.0010116448457237546,0.00037386378050284784,8.000526491274389,5.050629447341288,3.4179952464776027,2.129247917802029,1.1714427687372757,0.626466267808537,0.3528575742855557,0.22165241700594093,0.14959217124788643,0.10148568411770066,0.06688210830327092,0.04230573973212679,0.025593087465505024,0.014858198869712878,0.00783322505387059
0.0,53.0,53.0,0.0,120.0,0.0,0.0,0.0,0.0,-107.0,0.0,-45.0,0.0,0.0,0.0,34.27253218749016,17.55503396713325,5.7292692086895975,2.6957007547820644,1.485573822161144,0.7449374588360196,0.3172690257365167,0.13247436385107564,0.06108220661543766,0.03341353137549975,0.020138419280443878,0.01216433802576775,0.00706337768212387,0.00389516784144264,0.0020338639659915887,0.0010002160536833182,0.000369852192282216,7.992731115936506,5.02454176141221,3.389750198058875,2.105463649835286,1.154898728859348,0.6160324315998922,0.346405477936422,0.21757742487433504,0.14700219906920514,0.09988936396549644,0.06594637734951395,0.04178718858780555,0.025321757775603637,0.014723452686628108,0.0077736465983691575
0.0,54.0,54.0,0.0,120.0,0.0,0.0,0.0,0.0,-107.0,0.0,-45.0,0.0,0.0,0.0,34.27253218749016,17.55503396713325,5.719706145595753,2.673516545328578,1.466872660750534,0.732726304212704,0.3108978136655591,0.1294177094431275,0.059571631617138895,0.032603334255023146,0.019687494508028727,0.011920187997703094,0.006938576072925472,0.0038353912139114446,0.0020070425794178927,0.0009889403079411465,0.0003658881911535447,7.984493442207471,4.997759797983194,3.3610464874509267,2.081514750148819,1.138408800991289,0.6057312625608786,0.34007799884725654,0.21359056392971382,0.14446678269615582,0.09832391626391324,0.06502679284980953,0.041276482026427246,0.02505397936634802,0.014590218934358785,0.007714630702015603
0.0,55.0,55.0,0.0,120.0,0.0,0.0,0.0,0.0,-107.0,0.0,-45.0,0.0,0.0,0.0,34.27253218749016,17.55503396713325,5.70961763008872,2.6508214871890585,1.4479512443177638,0.7204901039358479,0.30458175363269985,0.12641878447941238,0.05810031652579343,0.03181567274517143,0.019248454128089194,0.011681844689667549,0.006816390399386236,0.0037767016698729014,0.0019806389276452777,0.0009778151932801605,0.00036197124174236034,7.975791160902078,4.970268200327268,3.3318795195149904,2.057401366890384,1.1219722082725898,0.5955598215860939,0.33387184754438654,0.20968947694768494,0.14198454984571146,0.09678863311850622,0.06412302366680488,0.04077347830120661,0.024789696386673627,0.014458477161118501,0.007656171153344549
0.0,56.0,56.0,0.0,120.0,0.0,0.0,0.0,0.0,-107.0,0.0,-45.0,0.0,0.0,0.0,34.27253218749016,17.55503396713325,5.698978326189664,2.627608544160377,1.4288112286449506,0.7082312003358697,0.29832088905692566,0.12347630556605897,0.05666704620784066,0.031049819490165602,0.018820937266394555,0.011449148619048225,0.006696756987844588,0.003719076045778275,0.0019546452923507925,0.0009668383405613793,0.0003581008154045391,7.966600951774442,4.9420513799152,3.30224500608212,2.0331240848427643,1.1055885204104572,0.5855154128892205,0.32778388929970675,0.20587189120074204,0.13955416998628548,0.0952828257745696,0.06323474669270798,0.04027803872459419,0.024528854047229043,0.014328207254484755,0.007598261823817075
0.0,57.0,57.0,0.0,120.0,0.0,0.0,0.0,0.0,-107.0,0.0,-45.0,0.0,0.0,0.0,34.27253218749016,17.55503396713325,5.6877618525276326,2.6038708247418896,1.4094546211009709,0.6959521825335515,0.2921154007998955,0.12058908062255466,0.05527066238080771,0.030305075855846537,0.018404595692556758,0.011221945318731098,0.006579613952439901,0.0036624917534087455,0.0019290541232632455,0.0009560074256200688,0.0003542763901506716,7.956898437177359,4.913093520760535,3.272138981314579,2.008683925375151,1.0892576401220282,0.5755955704544833,0.3218111363447466,0.2021356150022324,0.13717435287784618,0.09380582400976281,0.06236164661506699,0.039790027586896114,0.024271398594929407,0.014199389434162614,0.00754089666653702
0.0,58.0,58.0,0.0,120.0,0.0,0.0,0.0,0.0,-107.0,0.0,-45.0,0.0,0.0,0.0,34.27253218749016,17.55503396713325,5.675940743200938,2.57960160460851,1.3898837930204662,0.6836558821960669,0.28596559784198045,0.11775600223732308,0.05391006034419456,0.029580770600390445,0.017999093313938987,0.011000085155798773,0.0064649011361864175,0.0036069267626734043,0.0019038580336437174,0.0009453201681931614,0.0003504974505551701,7.946658132719828,4.883378585664024,3.241557819165455,1.9840823475442915,1.072979790411709,0.5657980451430221,0.3159507404243817,0.19847853438365787,0.13484384716649592,0.09235697554950771,0.061503415691032015,0.039309312077660176,0.024017277288306955,0.014072004244951995,0.0074840697149995035
0.0,59.0,59.0,0.0,120.0,0.0,0.0,0.0,0.0,-107.0,0.0,-45.0,0.0,0.0,0.0,34.27253218749016,17.55503396713325,5.663486406687603,2.554794351433646,1.370101493096199,0.6713453696704755,0.2798719084099235,0.11497604139673313,0.052584185888398007,0.028876258609285943,0.017604105692109143,0.010783423157888867,0.006352560054397217,0.0035523595850492254,0.0018790497959223266,0.0009347743308785423,0.0003467634876538623,7.935853394644219,4.852890324534788,3.2104982529807167,1.959321250261673,1.056755502591327,0.5561207924069573,0.3101999856743547,0.1948986099004333,0.13256143903121761,0.0909356455040968,0.060659753529710266,0.03883576220970558,0.02376643837362684,0.013946032549909596,0.007427775081867659
0.0,60.0,60.0,0.0,120.0,0.0,0.0,0.0,0.0,-107.0,0.0,-45.0,0.0,0.0,0.0,34.27253218749016,17.55503396713325,5.650369082656455,2.5294427522132232,1.3501108617464448,0.6590239504140606,0.27383487150324454,0.1122482415614269,0.05129203237192264,0.02819091969141545,0.017219319580707982,0.010571818846817162,0.006242533840335795,0.0034987692576338115,0.0018546223374868507,0.0009243677181306019,0.00034307399882879745,7.924456363621939,4.821612284988036,3.1789573972946097,1.9344029754461345,1.0405856049558009,0.5465619605668518,0.3045562818074625,0.19139387356138748,0.13032595088061558,0.08954121582649564,0.05983036688223842,0.0383692507456893,0.023518831061744256,0.013821455523706904,0.007372006957781218
0.0,61.0,61.0,0.0,120.0,0.0,0.0,0.0,0.0,-107.0,0.0,-45.0,0.0,0.0,0.0,34.27253218749016,17.55503396713325,5.636557796525794,2.5035407432539674,1.3299154464180414,0.6466951616432152,0.2678551287706093,0.10957171306588792,0.050032637957725924,0.027524157433262603,0.016844432483677875,0.01036513607910813,0.006134767192990648,0.0034461353277794285,0.0018305687366132277,0.0009140981752849116,0.0003394284876807041,7.91243790464243,4.7895278254435665,3.1469327718753557,1.9093303120831433,1.0244712120313242,0.5371198796107992,0.29901715759389663,0.1879624258774844,0.12813624009761096,0.08817308478991226,0.05901496943922735,0.037909653127090596,0.023274405505663065,0.013698254646168645,0.007316759610188276
0.0,62.0,62.0,0.0,120.0,0.0,0.0,0.0,0.0,-107.0,0.0,-45.0,0.0,0.0,0.0,34.27253218749016,17.55503396713325,5.6220203116142695,2.4770825430015155,1.309519217783573,0.6343627691244343,0.26193341669119846,0.10694562781908162,0.04880508300009235,0.02687539810841619,0.01647915223285392,0.010163242893081263,0.00602920632686616,0.0033944378382821695,0.0018068822185309673,0.0009039635876105303,0.0003358264638862674,7.899767542646361,4.756620130976401,3.114422328083414,1.8841065011128726,1.008413714317037,0.527793050475976,0.29358025462193993,0.18460243302537632,0.1259911978301572,0.08683066648423626,0.058213281635251045,0.03745684740551817,0.023033112778774158,0.013576411695987044,0.00726202738219617
0.0,63.0,63.0,0.0,120.0,0.0,0.0,0.0,0.0,-107.0,0.0,-45.0,0.0,0.0,0.0,34.27253218749016,17.55503396713325,5.606723078728199,2.450062687896462,1.2889265867876982,0.6220307640320543,0.2560705590196513,0.10436921428579986,0.04760848757393834,0.026244089639698886,0.016123196583987177,0.009966011362180997,0.005925798923696302,0.0033436573131036635,0.0017835561516207528,0.0008939618793916954,0.0003322674430449316,7.886413393528423,4.722872232200305,3.081424477608989,1.8587352410688265,0.9924147684446758,0.5185801347758381,0.2882433213258132,0.18131212412160663,0.12388974782615277,0.08551339033052711,0.057425030460062684,0.03701071417624252,0.022794904853747588,0.013455908744608638,0.007207804691438604
0.0,64.0,64.0,0.0,120.0,0.0,0.0,0.0,0.0,-107.0,0.0,-45.0,0.0,0.0,0.0,34.27253218749016,17.55503396713325,5.590631183032353,2.4224760714592186,1.2681424224930389,0.6097033597981578,0.25026745945639417,0.10184175273001751,0.04644200913895753,0.02562970061138726,0.015776292830310408,0.009773317454241048,0.0058244940859902465,0.0032937747435998585,0.0017605840437383855,0.000884091013040898,0.0003287509465160623,7.872342090110223,4.688267027497431,3.047938123659251,1.833220694387607,0.9764762876838441,0.5094799449384487,0.28300420726818015,0.1780897886034004,0.12183084531081623,0.08422070061275763,0.05664994927625735,0.03657113651386018,0.022559734582054024,0.013336728150289905,0.007154086028954789
0.0,65.0,65.0,0.0,120.0,0.0,0.0,0.0,0.0,-107.0,0.0,-45.0,0.0,0.0,0.0,34.27253218749016,17.55503396713325,5.5737082883642834,2.394317987036798,1.2471720706982288,0.5973849886297666,0.24452509442985632,0.09936257080156292,0.045304840300537316,0.02503171933350095,0.015438177433000078,0.009585040896141747,0.00572524229241361,0.0032447715752044236,0.0017379595386615172,0.0008743489882318396,0.00032527650184535834,7.857518708989148,4.652787324583715,3.01396271212775,1.8075674995379891,0.9606004181720776,0.5004914407706428,0.2778608555750171,0.1749337743884534,0.11981347574792779,0.08295205605392876,0.05588777763890089,0.03613799991045198,0.02232755567415759,0.01321885255219386,0.007100866041477597
0.0,66.0,66.0,0.0,120.0,0.0,0.0,0.0,0.0,-107.0,0.0,-45.0,0.0,0.0,0.0,34.27253218749016,17.55503396713325,5.555916580393615,2.3655841754131717,1.226021373218282,0.5850802962471385,0.23884450570947466,0.09693103989907385,0.04419620652183031,0.024449652971357334,0.01510859567042964,0.009401065041935202,0.005627995355459278,0.003196629694403972,0.001715676412692081,0.0008647338410578166,0.00032184364600165645,7.841906728946356,4.616415979132982,2.9794983893169227,1.7817808149961154,0.944789428756563,0.491613762306417,0.2728112831770066,0.17184249015799952,0.11783665270542086,0.08170692957410049,0.05513826109605445,0.03571119221841515,0.022098322680725948,0.013102264863976991,0.007048140109996225
0.0,67.0,67.0,0.0,120.0,0.0,0.0,0.0,0.0,-107.0,0.0,-45.0,0.0,0.0,0.0,34.27253218749016,17.55503396713325,5.5372166961662455,2.3362708691021274,1.2046966872183684,0.572794145206857,0.23322679551436126,0.09454656848026835,0.043115364973258935,0.02388302658249847,0.014787301292615861,0.009221276755710384,0.00553270637739722,0.003149331417098902,0.0016937285711470013,0.0008552436432334236,0.0003184519098405707,7.825467768340663,4.5791355068193385,2.944545569152845,1.7558661855407243,0.9290460952705637,0.482846057668374,0.2678536322493117,0.16881438476256644,0.11589942109220666,0.08048480711673309,0.05440115113736468,0.035290603579794404,0.021871990971913204,0.012986948271329578,0.006995902095186329
0.0,68.0,68.0,0.0,120.0,0.0,0.0,0.0,0.0,-107.0,0.0,-45.0,0.0,0.0,0.0,34.27253218749016,17.55503396713325,5.517567667722,2.306374853096825,1.183204906570959,0.5605316037404943,0.22767311737521742,0.09220860109993681,0.042061601754804695,0.02333138243898311,0.014474056201092222,0.009045566284650773,0.00543932971298642,0.003102859475867085,0.0016721100453158545,0.0008458765012838817,0.0003151008359795717,7.8081616713717645,4.540928579323791,2.909105484361223,1.7298297028410439,0.9133732671234142,0.47418765104794885,0.26298610438765946,0.16584796472795535,0.11400085161004696,0.07928518805507456,0.05367620491273006,0.03487612638280166,0.02164851672130401,0.012872886223363236,0.006944146770389519
0.0,69.0,69.0,0.0,120.0,0.0,0.0,0.0,0.0,-107.0,0.0,-45.0,0.0,0.0,0.0,34.27253218749016,17.55503396713325,5.496926850378053,2.275893521260379,1.1615534822539457,0.5482979438554804,0.22218467036483672,0.08991661371187475,0.041034230459186055,0.022794279206975986,0.014168630138305986,0.008873827146302206,0.005347820930114936,0.0030571970086714804,0.0016508149892716993,0.000836630555787322,0.0003117899719936276,7.7899463378262155,4.501777911069542,2.873180054464722,1.7036779610830501,0.8977740057092454,0.4656379732558029,0.25820697715243907,0.16294178527261768,0.1121400414071264,0.07810758451840698,0.05296318512056638,0.03446765520236718,0.021427856887487294,0.012760062428543908,0.006892868976753122
0.0,70.0,70.0,0.0,120.0,0.0,0.0,0.0,0.0,-107.0,0.0,-45.0,0.0,0.0,0.0,34.27253218749016,17.55503396713325,5.475249850742883,2.244824939714965,1.1397504435084298,0.5360986365580738,0.21676269247811852,0.0876701101745069,0.04003259050958549,0.022271291213134644,0.013870800390507695,0.008705956018019148,0.005258136772690008,0.00301232754769174,0.0016298376768370303,0.0008275039806243785,0.00030851887030114346,7.7707776090686345,4.46166631031329,2.8367719332099393,1.6774180654343944,0.8822515756038216,0.4571965537189356,0.2535145996511111,0.1600944482511543,0.11031611317846386,0.07695152101316599,0.05226185985876626,0.034065086746907156,0.021209969196871313,0.012648460849617037,0.006842063622066817
0.0,71.0,71.0,0.0,120.0,0.0,0.0,0.0,0.0,-107.0,0.0,-45.0,0.0,0.0,0.0,34.27253218749016,17.55503396713325,5.452490451379958,2.2131679152134742,1.1178044191908232,0.5239393465332023,0.21140845404725794,0.08546861892723412,0.039056045590578896,0.021762007746634893,0.013580351503237576,0.008541852630665182,0.00517023512485981,0.002968235008534069,0.0016091724986488822,0.0008184949822564931,0.0003052870880939466,7.750609145514259,4.420576736947979,2.7998845589366046,1.6510576405013926,0.866809435664002,0.4488630127042061,0.24890738830476772,0.15730460018008569,0.1085282142988514,0.07581653405691603,0.051572002480449936,0.03366831980670143,0.020994812126982964,0.012538065698671347,0.00679172567960123
0.0,72.0,72.0,0.0,120.0,0.0,0.0,0.0,0.0,-107.0,0.0,-45.0,0.0,0.0,0.0,34.27253218749016,17.55503396713325,5.428600532164364,2.180922068786055,1.0957246591733227,0.5118259261995833,0.20612325117482896,0.08331168982919014,0.038103982167708314,0.021266032395162664,0.01329707500882903,0.008381419666377132,0.00508407497649559,0.0029249036797910914,0.0015888139593062047,0.0008096017990166603,0.000302094187308763,7.729392294997733,4.378492367705511,2.762522207937603,1.6246048386509522,0.8514512299729542,0.4406370537493042,0.24438382279108853,0.15457093034294805,0.10677551598713951,0.07470217182467973,0.05089339145430287,0.03327725520381026,0.020782344890226602,0.012428861432319872,0.0067418501869532035
0.0,73.0,73.0,0.0,120.0,0.0,0.0,0.0,0.0,-107.0,0.0,-45.0,0.0,0.0,0.0,34.27253218749016,17.55503396713325,5.4035299884320915,2.1480879149602106,1.0735210556248478,0.499764409056754,0.2009083991699705,0.08119889115305684,0.03717580809138008,0.020782982413292843,0.013020769165407575,0.008224562660211373,0.004999616389893007,0.002882318212950471,0.0015687566746118986,0.0008008227004296369,0.000298939734654846,7.70707595143621,4.33539666951041,2.7246900508447025,1.598068348059475,0.8361807785757361,0.4325184562839661,0.23994244215633576,0.15189216897189736,0.10505721250077851,0.07360799380714288,0.05022581022933049,0.03289179574348544,0.02057252741809883,0.01232083274701169,0.006692432244919806
0.0,74.0,74.0,0.0,120.0,0.0,0.0,0.0,0.0,-107.0,0.0,-45.0,0.0,0.0,0.0,34.27253218749016,17.55503396713325,5.377226646089638,2.1146669468569677,1.0512041639796295,0.4877610022388845,0.19576522597535836,0.07912980672747093,0.036270951281076526,0.020312488121745215,0.012751238706852325,0.008071189905499805,0.004916820467628946,0.0028404636126253273,0.001548995368887821,0.0007921559865398446,0.0002958233016850169,7.6836064031717,4.29127348180144,2.6863942120571362,1.5714574003389217,0.8210020679510135,0.42450706842587704,0.23558184108961708,0.1492670855031093,0.10337252035950714,0.07253357048027435,0.04956904710384803,0.03251184616700316,0.020365320345823758,0.012213964574451208,0.006643467016414191
0.0,75.0,75.0,0.0,120.0,0.0,0.0,0.0,0.0,-107.0,0.0,-45.0,0.0,0.0,0.0,34.27253218749016,17.55503396713325,5.349636173930948,2.080661727466318,1.0287852233725363,0.47582207818845107,0.19069506557527788,0.07710403322243259,0.03538885848608757,0.019854192336090322,0.012488294603250434,0.007921212362759437,0.004835649321536972,0.002799325227104407,0.0015295248723757036,0.000783599987265648,0.0002927444649107814,7.6589271703667,4.246107108708102,2.6476418322075426,1.5447817775768418,0.8059192411661459,0.416602799937526,0.2313006663530631,0.14669448690339326,0.10172067759719508,0.07147848298593697,0.04892289509855681,0.03213731310588421,0.020160684997412984,0.012108242077136849,0.006594949725448279
0.0,76.0,76.0,0.0,120.0,0.0,0.0,0.0,0.0,-107.0,0.0,-45.0,0.0,0.0,0.0,34.27253218749016,17.55503396713325,5.320701993503343,2.046075987401894,1.0062761762887475,0.46395416536131745,0.18569925137781626,0.0751211775728528,0.03452899411922991,0.019407749823538597,0.012231753831365547,0.007774543571992484,0.0047560660427456505,0.002758888739202569,0.0015103401187121011,0.0007751530617685078,0.00028970280593706185,7.6329788308202025,4.19988242204287,2.6084411336314406,1.5180518186129672,0.7909365876643383,0.40880561533181575,0.22709761336206155,0.1441732160655308,0.10010094304083955,0.07044232282306287,0.04828715183353287,0.031768105037436,0.019958583371126284,0.012003650644010355,0.00654687565620062
0.0,77.0,77.0,0.0,120.0,0.0,0.0,0.0,0.0,-107.0,0.0,-45.0,0.0,0.0,0.0,34.27253218749016,17.55503396713325,5.290365186976371,2.010914729426266,0.9836896871401901,0.45216393787343506,0.18077910956705837,0.0731808545361454,0.03369083916021254,0.01897282678652211,0.011981439154685266,0.007631099568238516,0.004678034672741503,0.0027191401574023716,0.0014914361424759274,0.0007668135978370837,0.0002866979115892472,7.605698833568459,4.152584976147947,2.568801488771115,1.4912784243590707,0.776058532634365,0.4011155271160621,0.22297142291008987,0.14170215026997246,0.09851259561577663,0.06942469154900915,0.047661619409000565,0.03140413224157742,0.01975897812531595,0.011900175886205764,0.006499240152179127
0.0,78.0,78.0,0.0,120.0,0.0,0.0,0.0,0.0,-107.0,0.0,-45.0,0.0,0.0,0.0,34.27253218749016,17.55503396713325,5.25856440360242,1.9751843400231415,0.9610391594423686,0.4404582039985784,0.1759359524241074,0.07128268438037574,0.0328738901255405,0.018549100371834444,0.011737178912619191,0.007490798800235331,0.004601520175413695,0.002680065807275416,0.0014728080768083125,0.0007585800112921828,0.00028372937399749647,7.577021299637401,4.104201135717831,2.5287334914019297,1.4644730619519895,0.7612896259154011,0.39353258916551626,0.21892087803315083,0.1392801997106176,0.09695493367619672,0.06842520049071149,0.04704610428973301,0.03104530675889638,0.019561832564652895,0.011797803632910922,0.006452038615488469
0.0,79.0,79.0,0.0,120.0,0.0,0.0,0.0,0.0,-107.0,0.0,-45.0,0.0,0.0,0.0,34.27253218749016,17.55503396713325,5.225235765521368,1.9388927082687877,0.9383387512224443,0.42884389342631524,0.17117107161885486,0.06942629070012792,0.032077658102034744,0.01813625820415667,0.011498806818445525,0.007353562052057574,0.004526488410037427,0.0026416523231704786,0.0014544511510985463,0.0007504507454028688,0.0002807967905907962,7.546876809323581,4.0547182178053855,2.4882490305167013,1.437647767511405,0.7466345303919458,0.38605689021929196,0.21494480100923236,0.13690630608251136,0.09542727436010005,0.06744347046527735,0.04644041719295546,0.03069154234989933,0.019367110626710742,0.011696519927322001,0.006405266506180962
0.0,80.0,80.0,0.0,120.0,0.0,0.0,0.0,0.0,-107.0,0.0,-45.0,0.0,0.0,0.0,34.27253218749016,17.55503396713325,5.190312773861785,1.9020493522197246,0.9156033882429742,0.4173280431901699,0.1664857314776075,0.06761129835779575,0.031301667841207394,0.01773399794284925,0.01126616176561972,0.0072193123676104675,0.004452906105167121,0.00260388664016361,0.00143636068873767,0.0007424242703204264,0.0002778997639647619,7.515192175400407,4.004124649309574,2.447361366641137,1.4108151472545956,0.7320980098368138,0.37868854749312825,0.21104205048855698,0.13457944122937485,0.09392895296784363,0.06647913150967553,0.045844372979623654,0.030342754455408755,0.01917477686890246,0.011596311022696192,0.006358919341667581
0.0,81.0,81.0,0.0,120.0,0.0,0.0,0.0,0.0,-107.0,0.0,-45.0,0.0,0.0,0.0,34.27253218749016,17.55503396713325,5.153726216338847,1.8646655529837382,0.8928487745756287,0.40591778217783064,0.16188116223489607,0.06583733154854643,0.03054545691192382,0.017342026860938962,0.01103908764207213,0.007087974977851473,0.0043807408333892146,0.002566755986250438,0.0014185321049314215,0.0007344990825261047,0.00027503790158170583,7.48189020168145,3.9524101413366712,2.4060852102788295,1.3839883766998908,0.7176849161636178,0.37142770040503675,0.20721151875086402,0.13229860584897954,0.09245932236347805,0.06553182261918844,0.045257790548942474,0.029998860158064203,0.018984796455749357,0.011497163378496917,0.006312992696128722
0.0,82.0,82.0,0.0,120.0,0.0,0.0,0.0,0.0,-107.0,0.0,-45.0,0.0,0.0,0.0,34.27253218749016,17.55503396713325,5.115404077857796,1.8267544965720777,0.8700914000057739,0.3946203141386775,0.1573585532810792,0.06410401198773613,0.029808574908902968,0.01696006144529522,0.01081743315214658,0.0069594772306353836,0.004309960986918032,0.0025302478747855858,0.001400960904579881,0.0007266737042949382,0.00027221081530106066,7.446889426429644,3.899565881921537,2.3644368020961957,1.357181197669168,0.703400176054372,0.36427450441148884,0.20345212908626437,0.13006282825448304,0.09101775239809341,0.06460119149431706,0.044680492736031474,0.029659778144905485,0.018797135146491006,0.011399063656635774,0.006267482199863876
0.0,83.0,83.0,0.0,120.0,0.0,0.0,0.0,0.0,-107.0,0.0,-45.0,0.0,0.0,0.0,34.27253218749016,17.55503396713325,5.075271464183136,1.7883314205715597,0.8473485356520307,0.383442903852443,0.15291904459664796,0.062410957755314314,0.029090582604266498,0.0165878270283825,0.010601051645865264,0.00683374852268665,0.0042405357541544465,0.0024943500970945726,0.0013836426802226254,0.0007189466831678036,0.00026941813357188386,7.410103815228534,3.845584792068695,2.322434027633723,1.3304078789461171,0.6892487904883144,0.35722912164952164,0.19976283372918763,0.12787116320874808,0.08960362933441454,0.06368689430210149,0.04411230621088381,0.0293254286713943,0.018611759282913507,0.011301998717793745,0.006222383513575307
