Line_number,Fiducial,Easting,Northing,Height,Elevation,tx_pitch,tx_roll,tx_yaw,txrx_dx,txrx_dy,txrx_dz,rx_pitch,rx_roll,rx_yaw,PX,PZ,S0X_time_1.086e-05,S0X_time_3.256e-05,S0X_time_5.426e-05,S0X_time_8.680e-05,S0X_time_1.411e-04,S0X_time_2.279e-04,S0X_time_3.689e-04,S0X_time_5.860e-04,S0X_time_9.115e-04,S0X_time_1.411e-03,S0X_time_2.192e-03,S0X_time_3.418e-03,S0X_time_5.339e-03,S0X_time_8.301e-03,S0X_time_1.338e-02,S0Z_time_1.086e-05,S0Z_time_3.256e-05,S0Z_time_5.426e-05,S0Z_time_8.680e-05,S0Z_time_1.411e-04,S0Z_time_2.279e-04,S0Z_time_3.689e-04,S0Z_time_5.860e-04,S0Z_time_9.115e-04,S0Z_time_1.411e-03,S0Z_time_2.192e-03,S0Z_time_3.418e-03,S0Z_time_5.339e-03,S0Z_time_8.301e-03,S0Z_time_1.338e-02
0.0,0.0,0.0,0.0,120.0,0.0,-0.9811927701564478,0.2594941081448481,0.8556027952777872,-107.05436801481952,0.0,-44.88735563803574,-0.5884531675975772,-0.5176441819741722,-0.21280856210078736,34.2899281565393,17.53971554092155,5.9067869500316466,3.38160987895986,2.244635705842204,1.4947709934640374,0.8731020909769415,0.5162740466663917,0.25489714735731844,0.11267194009439155,0.07779973005323021,0.06607980259797731,0.05320329271770695,0.018233773880205716,-0.0074645381742939765,-0.003575705501953028,0.012431314336659324,8.117738516116841,5.778539038308896,4.514033342001551,3.405624535329812,2.3829776356574834,1.6254569652680708,1.0426916581328567,0.6687136717382415,0.4089648788993026,0.27377561083892377,0.12559805863439272,0.07967792758668407,0.051522164817150065,0.0012248248726428497,0.009119538326974135
0.0,1.0,1.0,0.0,120.0,0.0,0.48340289620559473,-0.46592497363459073,-0.2464474735466724,-107.01353631842188,0.0,-45.0854192038813,0.2552177394886129,0.2914246603711459,-0.45905924757151917,34.2899281565393,17.53971554092155,5.884107429225371,3.4074677673791567,2.2800235281674417,1.4337143800970484,0.917717609411324,0.450401978757499,0.2783416422457299,0.1942636116915881,0.07701169123879704,0.010903284346634703,0.03192530634212228,0.025694890916510914,-5.571788612439288e-05,0.024379080612468455,0.019448389199435753,8.123750500580684,5.795848693419145,4.504519335739156,3.356714203553043,2.3220593930317124,1.5489424419340119,1.0087709220427363,0.6639316888262927,0.42285645538676325,0.25728046240810076,0.15510296227194809,0.10356687711582485,0.042821705458947826,0.030842712185512763,0.03295267243176876
0.0,2.0,2.0,0.0,120.0,0.0,-0.2256960375215884,-0.4838766895941984,0.42664873027982986,-106.928224869631,0.0,-44.90138178884824,-0.800594930644752,-0.23984159372548963,-0.0792126409206646,34.2899281565393,17.53971554092155,5.873139022607222,3.360450444078409,2.26575680816804,1.433930408558622,0.8141023160315286,0.46026250768262783,0.2606845282262709,0.14461790760925203,0.0897429234195934,0.03998660109572664,0.009655828345805587,0.06180241704670028,0.026891174458490062,0.016091869297256506,0.014569709986449356,8.11310517539985,5.741208691992807,4.462663238228504,3.311475178191551,2.2910968054888037,1.5469720955950823,0.9694752156381679,0.637499941463195,0.3893815087020675,0.2629667408535743,0.14754173922591607,0.11139249921531091,0.046957595418913645,0.04158518774763463,0.005089417693384894
0.0,3.0,3.0,0.0,120.0,0.0,0.5157614173682938,-0.16875368608333763,0.20475601752047323,-106.96222718791819,0.0,-45.00082422751689,0.8434683403975687,0.14700138556213926,-0.7238866051951871,34.2899281565393,17.53971554092155,5.902900292717646,3.3646651897647226,2.2014879400883385,1.392335329842396,0.8213224571754609,0.44137835271626596,0.2412598077822213,0.12154144350496976,0.04528423367820436,0.03694030565903256,0.02183530488800442,-0.007246428271703794,0.002116502855829645,-0.028147538697062935,-0.01891366932592562,8.106301512448967,5.7559870628629675,4.433052582325906,3.2797203885287534,2.2358823061569892,1.5084558660116494,0.9598027091702019,0.6429916295384387,0.3881310056780991,0.24677715616037407,0.14404273220219088,0.07482039039124164,0.03240470851298673,0.012670474168904466,0.021836388719335492
0.0,4.0,4.0,0.0,120.0,0.0,0.38544243223519903,-0.04246482696364873,-0.2721054422675553,-107.04637747385254,0.0,-44.98005821644641,0.5889457529206674,-0.5505235466559517,0.23927636092689375,34.2899281565393,17.53971554092155,5.881491685519165,3.324518277357767,2.199950128531351,1.3799621473200896,0.7742076168780885,0.45314094682371436,0.28524323895059045,0.15058109708541717,0.03282129821426528,0.0376598604084457,0.029131850827076613,0.008190901609208021,0.030867792608362702,-0.0023667631171812656,-0.016555769838785116,8.150757305212613,5.754705796448157,4.417599983605831,3.225857426903181,2.2284415553854813,1.4853698686269226,0.9399131980651977,0.5924576998969575,0.37545625365200214,0.21580325940449313,0.15936350215429715,0.08032457200653849,0.04424427125328394,0.04577628702309697,0.0003335869855032349
0.0,5.0,5.0,0.0,120.0,0.0,-0.04472013650908924,0.8351799637390487,-0.5442334699148361,-107.00279108564455,0.0,-44.94718578980135,-0.7134065073923771,0.354765300803187,0.0937182749092369,34.2899281565393,17.53971554092155,5.871282343825331,3.315858991895867,2.210581779648876,1.3970548328292482,0.7946987437971309,0.44448458664989005,0.2445343048036852,0.06814635226524629,0.060015660376112265,0.021142159248482038,0.04491415519592426,-0.0026988220328832413,0.04674949477757427,-0.005768855885885424,-0.01789134025941681,8.145419942108491,5.745224003940406,4.403525329119505,3.227388843099796,2.1743423610176715,1.4222276282617228,0.9327782735983788,0.5824398149408669,0.36608527326406737,0.22092869787897282,0.13717567813283857,0.0701579904674655,0.056278169349726986,0.021253040909162288,0.016144390267028005
0.0,6.0,6.0,0.0,120.0,0.0,0.01726543161507066,0.35498293877835474,0.3707070512295605,-107.08648129687641,0.0,-44.92723773941209,-0.9101111099784085,0.8052526994138818,0.3461568297624362,34.2899281565393,17.53971554092155,5.848510755427537,3.327949540651888,2.1874709310099796,1.3621807067285023,0.7890948348815193,0.4242909342230105,0.23900831057524863,0.1294575321003445,0.05627207913813155,0.032170640189505925,0.014896337045809626,0.029294995319676928,-0.013664175105735856,-0.03526998802174877,0.02089803349154609,8.133977621419202,5.725708330285929,4.355947006336006,3.1623640986052837,2.1559215534730614,1.402975094619602,0.9171256561447731,0.5640086028921184,0.35996388945524893,0.21921769044588543,0.14029141696816694,0.09451287414508802,0.05397055177508892,0.049016300290871166,0.01026235016635217
0.0,7.0,7.0,0.0,120.0,0.0,-0.8195898945942584,-0.36004907260300123,0.8046636617090865,-106.96266810702672,0.0,-45.044764828010614,0.9033282912119139,-0.3308193233330792,0.27653328078964257,34.2899281565393,17.53971554092155,5.908347961553783,3.303593319188665,2.118481671336895,1.3689303796425636,0.7353864179052988,0.4007826549758077,0.22911107196894412,0.07885054060944695,0.08370941490934279,0.05157213027191439,0.01975056200807757,0.018774003653971458,-0.0001886325765342355,0.017529011196202697,0.019332108417395574,8.123144666296994,5.74683149177306,4.342669311419722,3.1347362503469935,2.071573499263903,1.3838754252279952,0.8767449174022529,0.5479111155187515,0.3664174117988704,0.21862740906053726,0.13667148095908874,0.08947185594080692,0.05239846999670829,0.046415171582999064,0.022074591909881206
0.0,8.0,8.0,0.0,120.0,0.0,0.29672037302148224,0.5311043509875291,-0.20300342065226817,-107.0751077023891,0.0,-44.97538244400661,0.8104052643383555,-0.8726769935950691,0.8479208161368428,34.2899281565393,17.53971554092155,5.860668914555338,3.276165704650574,2.1142276227628423,1.301132830377593,0.7456698886783214,0.3607115020030689,0.20122841546391704,0.12745014650219083,0.07956885782621992,0.03588418034301313,0.028811091089703103,0.05170552354623277,0.022298251829475917,-0.014526116580757054,-0.02821860370001619,8.124941026057824,5.728446608816566,4.332267727299364,3.1323951673601154,2.076118404338984,1.318726757310133,0.866173527277574,0.5328252062812691,0.36006459670779073,0.23172714140384001,0.13842190493188286,0.09957706676644784,0.049561417324573545,0.027382256831915915,0.01858445542036466
0.0,9.0,9.0,0.0,120.0,0.0,0.281510165264095,-0.1146864487421222,-0.8070627205989012,-107.02932849392242,0.0,-45.02012213017068,-0.44964615761910054,0.8788261780363471,0.03429378962537877,34.2899281565393,17.53971554092155,5.882031291701565,3.32806104392589,2.144487440187374,1.3494003886465176,0.6822094832316608,0.38236066855145073,0.1918853038304656,0.1258249726517697,0.05777756963034481,0.03909178659854348,0.009511148686760586,0.01523248285263994,-0.005875736067166558,0.007713901259876813,0.010194050335833555,8.120988291849994,5.715694730932612,4.3305642704407425,3.0875192189037914,2.0557410681300863,1.3240133578283924,0.855772007140889,0.536541235960034,0.35226226637154856,0.20415725140609514,0.11022823305468354,0.0775293257901352,0.04444644107164192,0.012693130085788666,-0.017815980729610673
0.0,10.0,10.0,0.0,120.0,0.0,0.6316641688749927,0.1788032454164783,-0.4387847056242167,-106.93126898605463,0.0,-45.10774894882647,-0.6474298791217686,0.0980902325075943,-0.9750479029808947,34.2899281565393,17.53971554092155,5.933272889039016,3.2915138026861017,2.1241420170721037,1.309491502684763,0.6630935153805768,0.3778617182249282,0.19783622287813926,0.1326166193740192,0.050544697249729445,-0.0033272185714315825,0.033179743948285795,-0.028642175473671636,-0.01812918921770087,0.016699317092401175,0.0245076663321644,8.123180152238719,5.691159684191005,4.269678989004409,3.0601422559005678,2.0014881545969962,1.285494969444029,0.8051390917773088,0.5151386239468335,0.3591068989239044,0.173199826915677,0.09394868077552038,0.08120322020809297,0.03565268255669137,0.006718784438889673,-0.007825117027968004
0.0,11.0,11.0,0.0,120.0,0.0,-0.9016618375445131,0.31259616367709575,-0.19869296072727516,-106.96972614786714,0.0,-45.07406494447018,0.3172856405776467,0.663557718454483,0.760663416421713,34.2899281565393,17.53971554092155,5.881083613736906,3.27566408532095,2.1191601736625,1.2889202286792583,0.670618777873959,0.36192822700016947,0.1899175887862287,0.10348812591748774,0.0525485071736914,0.005388304199780852,0.020412298678494502,0.01291921154701714,0.0055535102998024045,0.020952832202198984,0.014290136466125659,8.086834467129114,5.672631232678447,4.298688380537833,3.034130684523571,1.990636413557187,1.2603548959414839,0.8183754066935665,0.5133085704101912,0.329238503238879,0.1842415432932922,0.10095054505313505,0.06694614434209138,0.054209469755691006,0.010790093368221523,0.03151543061093739
0.0,12.0,12.0,0.0,120.0,0.0,-0.624452819225441,-0.34973960392171666,-0.18588469633528493,-106.97546918994065,0.0,-45.01671297282847,1.0434228724674535,0.8924026355244961,-0.758048200307492,34.2899281565393,17.53971554092155,5.86236361998203,3.2707390405118164,2.078710077038366,1.2555138860018518,0.6950868387146847,0.3700817856770525,0.22067252692113828,0.086453973541882,0.032520869343507425,0.004702261765103726,0.010879743885529307,-0.01884813895162803,-0.015605784900644019,-0.01406410585903835,0.06702036661997661,8.12101914615289,5.678460606375871,4.254636972696808,2.9990532721339336,1.9586510182854482,1.2249371484518645,0.7591026921188841,0.475746017817504,0.3458540499936258,0.19248639010528149,0.09866793172302896,0.06678472629879002,0.049963985820960954,0.021623980068617613,-0.005595479792669852
0.0,13.0,13.0,0.0,120.0,0.0,0.3259168629801743,0.0012575341431897424,0.27535013705707834,-106.96764138722318,0.0,-44.92622435137707,-0.39136849667781504,0.7497400039991058,0.45838893550414905,34.2899281565393,17.53971554092155,5.873290629355872,3.2404000469383343,2.0984712315609158,1.2621460663836312,0.6578976316251192,0.3021060345430555,0.17613361167471872,0.10033084771419074,0.04323272072750042,0.019080796501515684,0.023207049567715986,0.019690886034247828,0.027469931412675338,-0.01381285143093483,-0.004448933947401946,8.114339874447069,5.674620385579685,4.254977062435204,2.992576595296423,1.9234463931302297,1.2286026632840654,0.780222434826326,0.5120475149574906,0.3279707200689883,0.16540009145029463,0.11002490492723749,0.07129296558179946,0.042375849590863955,0.002691316146338364,0.00046832296805900293
0.0,14.0,14.0,0.0,120.0,0.0,0.10346524862972273,-0.7978730390615896,-0.7696995617833495,-106.86676700341812,0.0,-45.06082756410862,-0.32527493157994103,0.04075516605099283,-0.6051520109118067,34.2899281565393,17.53971554092155,5.870387614921141,3.2560351262913447,2.0500421565390576,1.2163819914262903,0.6252062896078439,0.34173960228730454,0.17323565435910482,0.1321701927868046,0.04382868281730319,0.006397753762210846,0.004351009076403603,-0.0017940973504670214,0.04250672037769744,0.029180241739795103,0.006838355872573412,8.113986324362811,5.624822317946072,4.21672998887468,2.966848182200622,1.8967656812556537,1.2205051714387196,0.7614403812442434,0.4810990153346856,0.3204245532571499,0.17763733424983139,0.14228007487720024,0.1025607700816002,0.03661452588848627,0.02942135091909818,0.007706660639646855
0.0,15.0,15.0,0.0,120.0,0.0,-0.1702577553037019,0.6940889633336544,-0.774787039712022,-106.88876537939103,0.0,-44.99043532687675,-0.28738534313831443,0.9546213455493131,-0.7534006270325568,34.2899281565393,17.53971554092155,5.861009775068074,3.2490983450915047,2.0757795315557583,1.2387484614185478,0.6672661186816966,0.2981416532480239,0.16259158715542482,0.09078319255141772,0.052178511724786804,-0.01806224916734546,0.01436057989789422,0.04402720400470162,-0.033052819679607916,-0.001850330514935204,-0.005550644685903409,8.122070909782503,5.646839342437384,4.199023117840032,2.9520009199761033,1.8791133718834268,1.1891159461164842,0.7403832869166742,0.478902611569004,0.3194403844048824,0.16695425316370988,0.12765417703235396,0.07121984071375384,0.023881736377808008,0.0167296563769316,-0.0015600648472268233
0.0,16.0,16.0,0.0,120.0,0.0,-0.9460697801980342,0.904833353210517,-0.6529134342380722,-106.88735493165409,0.0,-45.032072583698096,-0.08413492827519428,-0.12450045288537726,0.909491326523717,34.2899281565393,17.53971554092155,5.859977320590444,3.222750922780402,2.029624165631467,1.2265794444824842,0.6067634547780947,0.3103276059834692,0.1482362591595447,0.10559284899888394,0.06150913268579464,0.014924170757142153,-0.00784042708838246,0.002325435201155612,-0.011676868316908666,0.013993489212710389,-0.03883013554793426,8.10645182122678,5.67123935055224,4.20252027896659,2.902297978874398,1.8514194178696226,1.1624349010012807,0.7308618317072535,0.44332607173155714,0.3095608902766799,0.18113209222787185,0.0959413474390375,0.08169446568430984,0.03641914483725227,0.018885824212032453,0.006400258951378633
0.0,17.0,17.0,0.0,120.0,0.0,0.6680390106460774,0.8036772323380792,-0.6685334046556675,-106.96623290762953,0.0,-44.96363736485331,-0.36071523263800853,-0.5005427915557445,-0.9285785201473322,34.2899281565393,17.53971554092155,5.876093693828239,3.225040232378331,2.0021414619788915,1.1632096886363177,0.5859917934764528,0.34020958212594465,0.14281072498489983,0.10096225356482835,0.07639844486544367,0.011482264424508995,0.014766654723956735,-0.012738602665283792,0.001129559458074741,-0.0093079745297424,0.017878356866478123,8.102945227336336,5.629561610672619,4.205179894931266,2.8814451082241774,1.8501877267408475,1.127653087922603,0.7085579415257736,0.4451558934786739,0.29658336610880265,0.19227859929637117,0.10656969155209282,0.058004334975284184,0.022430673745845488,0.013459194687629617,0.003311916718311197
0.0,18.0,18.0,0.0,120.0,0.0,-0.4197442112763001,-0.9104927355196493,-0.6484812299246114,-106.89692199149101,0.0,-45.01122824882111,0.1785044351341433,0.7364575875906463,-0.9396010180026906,34.2899281565393,17.53971554092155,5.868387065751844,3.1887130033985422,2.012690424446352,1.1616139260172922,0.595877140105868,0.32421834581182246,0.15482944243816865,0.07509865721437549,0.05213433912251042,0.05598906159172094,0.022638792793646056,0.0289385143600045,-0.030195936654115744,-0.02298235578277602,-0.02228155263128764,8.133204558677544,5.599779771296758,4.170034656874339,2.8775068240900774,1.8114567787603228,1.125901333985566,0.6995955899038261,0.46840032270217147,0.2725615204627076,0.20689082643952933,0.1063101135229045,0.06029070383939468,0.04150016240059971,0.0047573309685856775,0.01382625258670862
0.0,19.0,19.0,0.0,120.0,0.0,-0.27042213677048754,0.7057473063223834,-0.9895497905241051,-107.07498926779036,0.0,-45.024017535568746,0.5295927069460046,0.7640422904504982,-0.10332324459791598,34.2899281565393,17.53971554092155,5.862371450035569,3.2104875906386714,2.0206350068744037,1.1811614149894,0.5697467500964138,0.28355555970231844,0.17174940463007152,0.10723618217543009,0.06861564483016101,0.017381866834383364,0.011371596944809662,-0.042175267614617575,-0.004007248003397076,-0.02060580300309493,0.01199455639971806,8.082377229005608,5.600078903356005,4.141469802891603,2.8525612307336177,1.7901543121838979,1.0735154188426197,0.6900118367310953,0.44484179255446044,0.2852011033955728,0.18090658432734968,0.10076321670545174,0.03859268597008172,0.036344371055119146,0.05568220468288935,0.02363832747595717
0.0,20.0,20.0,0.0,120.0,0.0,-0.0889381933298179,0.6841481548331805,-0.451593456429803,-107.07114889982992,0.0,-44.97070582259616,-0.27041162914017036,-0.8812329823776981,0.17140524091513543,34.2899281565393,17.53971554092155,5.864529810135059,3.192119826725574,2.017793895178229,1.1616779492076483,0.5544758405023745,0.2744305268577079,0.16376665881919739,0.07725856026549431,0.06069449325895393,0.045464082190716154,-0.019035794420821955,-0.0002597712425107569,0.0085448494401885,0.013900972868973436,0.0042118203105618954,8.123281540395396,5.617757360956093,4.117007198672379,2.8402523964364668,1.7538400072406315,1.0647486255611402,0.6628484028891952,0.42295368511895315,0.283640372732525,0.18040464883099044,0.10595894426017632,0.07974519783050257,0.02473781012610648,0.041041476098193475,0.02575693797318744
0.0,21.0,21.0,0.0,120.0,0.0,0.08985397364533054,-0.7386619368968859,0.1313823043819784,-107.08465138158368,0.0,-45.019252230948,-0.48674010586379723,0.47356750383296076,-0.6467798481168865,34.2899281565393,17.53971554092155,5.8612728240563765,3.145043674278038,1.9987414805759374,1.147941810669349,0.5548636310797658,0.27299956793201735,0.11327386609645151,0.07648166624424872,0.04155847793322223,0.016445780165829992,-0.005334242012093824,-0.010559449242127029,0.0331484727076915,-0.03260713639884475,-0.05240062824509518,8.090320372350119,5.595444575890066,4.120287403264328,2.795951410860884,1.7680981433389704,1.0546889132740114,0.6448420555166016,0.4058397607827679,0.2736809299910401,0.1800258247646304,0.09845480958966517,0.06400592886793897,0.010599960108055966,0.019181827052674825,0.03881603919531174
0.0,22.0,22.0,0.0,120.0,0.0,-0.5181179421028224,0.44191546558663886,0.984383660611639,-106.9343045161825,0.0,-44.959622118303415,0.7917906388796363,-0.32973400743293246,0.44935585940323297,34.2899281565393,17.53971554092155,5.9015338962640564,3.2030967612166314,1.949305029828739,1.087558978608746,0.5389642769285842,0.25445791684151287,0.14317295359955018,0.05774368962765364,0.009027689719095684,0.060699548399976766,0.02047770458732327,0.038850446578611586,-0.02672164349500756,0.018821415003073674,-0.02426597136670457,8.102547567012534,5.566151452828492,4.076874531895593,2.811836610401343,1.7079077265272162,1.0383451807824158,0.6422699241626078,0.3869793097272104,0.24070793403396817,0.17743219927800205,0.09646918286148265,0.05504238439369682,0.03730676219836033,0.01235149348813647,-0.007342051983231309
0.0,23.0,23.0,0.0,120.0,0.0,-0.0025775440294020235,-0.8923011429045065,-0.1778642903669363,-107.02289929583621,0.0,-45.12425761774959,0.03799998473075361,0.7201951405499858,0.8784043198469675,34.2899281565393,17.53971554092155,5.8809660280691105,3.1632787840505703,1.9502342140948892,1.1250869625825741,0.5597667801368389,0.27514525916476,0.15953137853527233,0.11640297926008192,-0.009644406984889504,0.014535155351103633,0.033275465899313864,-0.009190330452750233,0.004750950594492013,0.013009119782725556,-0.008001304036069698,8.109550228569551,5.558644272358195,4.062728285178895,2.765936999718952,1.699860974908829,0.9978973477025991,0.6098589918140269,0.3934129889028498,0.2504695209982537,0.16547073454739114,0.08843744587529792,0.049685505159158205,0.03850974324659214,0.011693561483455062,-0.012491144550452504
0.0,24.0,24.0,0.0,120.0,0.0,0.8507615211079771,0.6237214990520346,0.692111274303401,-107.00416334062716,0.0,-45.108386165237334,-0.48541050474872194,-0.5141361468210732,-0.003039201987639295,34.2899281565393,17.53971554092155,5.852076102899796,3.160306875337844,1.9310416274349373,1.054535555345444,0.5410561468454469,0.2086398976297324,0.1357906577852023,0.06674503761727239,0.04743062350504769,0.04231551916668332,0.012129722423910735,0.014399594473476222,-0.004822482810030332,-0.013480616262103206,0.02035498963335374,8.089364229795867,5.548194990547567,4.070927660095171,2.744382139055196,1.6948728020050026,0.9956859560417413,0.5728224981676594,0.38049754207371533,0.267049359379992,0.1552833812961918,0.11660009404882993,0.053320056407289006,0.026473285132173573,0.04572472777157549,-0.00840977402085342
0.0,25.0,25.0,0.0,120.0,0.0,-0.5965913607757258,0.6040542889735496,-0.5810570467891689,-107.1070376141383,0.0,-44.997464469156526,-0.25950323053527924,0.16060508961266384,-0.7564765677069305,34.2899281565393,17.53971554092155,5.916767375618914,3.111922300541697,1.8962217832683235,1.0542548344513012,0.53244389123802,0.29861681840581605,0.16063750700964474,0.08862112087159695,0.04824732792195373,0.03665241899757733,0.017655426264900742,0.007366627866162835,-0.002619196344502562,0.0009413749821222061,-0.02181509363399877,8.109493820264259,5.530377379963695,4.023283754231452,2.72324077328697,1.6576944960430082,1.003091736934238,0.6061424395017467,0.37499682225927417,0.25254729846018714,0.16402975125291916,0.09908960670122105,0.03895621827574809,0.013502821964688962,0.003986645417633102,-0.0058754131527978485
0.0,26.0,26.0,0.0,120.0,0.0,0.10112843052607512,0.9352970450212885,0.8795394539230126,-107.00976967340294,0.0,-45.07848470858221,-0.05443232541788911,-0.7395052343299746,0.6869619102352433,34.2899281565393,17.53971554092155,5.835828070468767,3.1513475327491256,1.956546665021433,1.0613352331270085,0.5078077490773544,0.22884418008838117,0.1170312884409464,0.10347087456143184,0.04815627197622609,0.013611966393943586,0.00021532149772440258,-0.021062218016254793,0.0019170143605792603,-0.0054752705716039855,0.013690564043753215,8.104916125683486,5.557251949476036,4.03849817647503,2.712977794604646,1.6363497253712103,0.9428662557749885,0.5733397948675955,0.3645399067164251,0.23544913120067984,0.16979327499991334,0.10931919257509393,0.07244050491872311,0.05844848400181393,0.03979942376635603,-0.02669868733596679
0.0,27.0,27.0,0.0,120.0,0.0,0.9462202759259661,-0.13210646354460898,-0.9659595185100398,-107.10532058830493,0.0,-44.92525154915364,-0.8295323941767864,0.766660169292736,0.8858185663559173,34.2899281565393,17.53971554092155,5.865999957373634,3.11943722742014,1.8895431782935355,1.0898991759654473,0.5151190765996546,0.23427893116019075,0.08698448677192108,0.08020413543739231,0.047116060684229744,0.0701057079069061,0.021769306251431836,-0.0015558480500152353,-0.032995409440530185,-0.02258635877074725,0.00023478227267061347,8.100025578564075,5.538692373868627,3.9981810667584985,2.6637989037667564,1.5928236543674896,0.9491010718184123,0.5631676769858228,0.35133801431613226,0.2633057202206575,0.16112655817417304,0.10752144900771642,0.08988911987196518,0.03491976967660765,0.009059507922685393,0.02428182624502217
0.0,28.0,28.0,0.0,120.0,0.0,-0.040466370892495496,-0.006198706299547663,-0.9457335792145163,-107.10376367520952,0.0,-45.01754468030545,-1.0272964620510858,-0.7279752303245082,0.6656448411648854,34.2899281565393,17.53971554092155,5.841298669034483,3.124905403606927,1.8409381197608627,1.0560366121659683,0.4994020993472127,0.2702901159173485,0.1389954751082644,0.041874147441794476,0.03219106442240852,0.0573120083366527,0.006426222701344088,0.05712804388012406,0.007847766658291608,0.0372256760711343,0.00929070587812352,8.087783346442574,5.523229274204919,4.010944137007105,2.6571139481473125,1.601871449533966,0.949547184323193,0.5997240773482428,0.37596539929231787,0.2159532603584006,0.133272542750842,0.08670650786056396,0.06594189253150137,0.06405338070055008,0.01787370592432685,0.01524361450298136
0.0,29.0,29.0,0.0,120.0,0.0,0.810241179782146,-0.13778458924853254,-0.27586239786484046,-107.0834724298001,0.0,-45.069091150819474,0.48537181201766466,0.29582608229681817,0.12938080632097382,34.2899281565393,17.53971554092155,5.870427835378448,3.081029890086653,1.8425522794630511,1.0245951803815523,0.45755260712195633,0.22789849196457154,0.10306580745372165,0.06713113680462408,0.017512235737869617,0.02631636396509778,0.01626572348254269,0.03363390213010536,0.006546045669276373,-0.018455672616046144,-0.0032761065693618268,8.150349710272646,5.516194190902659,3.9400970926640313,2.6351757267273315,1.5816187182523782,0.9175086459680641,0.5514860614640461,0.34281651055827733,0.21646631413935058,0.14936603490109585,0.09261096606610184,0.07228061402785022,0.01702219857189329,0.009699968175849494,0.059311937180427675
0.0,30.0,30.0,0.0,120.0,0.0,-0.9240394290849545,0.02074862407426936,0.7506307186729186,-107.01352983287387,0.0,-45.06246383386038,0.5148179921418905,-0.5488533187307425,0.6794920990363009,34.2899281565393,17.53971554092155,5.838614969883663,3.067208440570266,1.878959169886986,1.0208328167976988,0.4723850153008327,0.22743224085999109,0.12779238297312673,0.04426163570995639,0.016622860684543224,0.03837852597953821,0.0037819062569657757,0.014662758615124288,-0.01411718291982663,0.017258357488400843,0.007730796840447656,8.136447000074243,5.455093717164795,3.930394074002703,2.626845379519426,1.5437226774089878,0.9116991845110947,0.5343019007153916,0.32858374244686367,0.22974116082452156,0.14239053578602393,0.09131721822583228,0.051701443956406676,0.03472064501055568,0.017868133706737784,0.03256613855066806
0.0,31.0,31.0,0.0,120.0,0.0,0.04783487740255232,0.6307318467641372,0.13384894787141732,-106.91507054937813,0.0,-44.9141755827623,-0.09665273124212395,0.5132785870772347,-0.2462326903973311,34.2899281565393,17.53971554092155,5.826908160965108,3.070365086194164,1.8352642517832827,0.9744311710212185,0.4634342100113108,0.23973691839607975,0.1073300509486262,0.06635497389839574,0.05046245737882754,0.044422311626387975,-0.0027995058814891064,0.01286237271186282,0.00787306967514226,-0.0044634419998720925,0.012556961559637089,8.133255495289905,5.484100485759834,3.9328037695201425,2.607448522551211,1.5539696135614025,0.8833974129530965,0.5280089000768688,0.3356968189098331,0.2138213045332056,0.16041838881125525,0.11129439681268975,0.08597688579926213,0.005692749124278123,0.0006177294075875861,-0.009911394596235272
0.0,32.0,32.0,0.0,120.0,0.0,-0.9942509754808151,0.7367463977177731,-0.9297308470482202,-107.04843569029111,0.0,-44.967194821780225,0.6752160497697823,-0.631611807381204,-0.0006480074802814872,34.2899281565393,17.53971554092155,5.85430317484582,3.081149215658331,1.847370472925116,1.0255407294025796,0.4486054928661244,0.23478628068710794,0.09044149129342605,0.026727132511444422,0.01786583188827229,0.006213162440659222,0.02150437111206353,-0.00037286268428884765,-0.0002677757721059803,-0.015069903188594412,-0.01221884070030169,8.090326011334161,5.450643774638486,3.9016540089339253,2.5530736131071814,1.527538622730319,0.8731459743647193,0.49493244744674425,0.3357910127905726,0.18271515373503427,0.13090839595121306,0.0852506801278746,0.04337759882497847,0.021528763931792178,0.05760400291121738,0.002705059011462903
0.0,33.0,33.0,0.0,120.0,0.0,-0.45802470151862806,-0.9692713691262327,0.6807008202762754,-107.03732341729396,0.0,-44.92583147023285,0.11475924215299985,0.5165700622314937,-0.8373951767513059,34.2899281565393,17.53971554092155,5.8292438374477795,3.05482065405347,1.8143252924510536,0.9994300292353637,0.47514354521727015,0.20637064272463354,0.11937083416045403,0.044373474893533806,0.019480248285260182,0.021003199637984988,-0.0019023473973697937,0.012731746740685303,0.015223118625328026,-0.03356922814976316,0.006677352612612572,8.07291382007562,5.444790701546923,3.8678690546423966,2.5743495856429472,1.504566219553339,0.8625754794736757,0.5067880780585329,0.30664323803702226,0.2147727003720014,0.12136215194978894,0.0633618030415454,0.06244008851427338,0.01737471568596868,0.021568800891020357,0.01640010601851284
0.0,34.0,34.0,0.0,120.0,0.0,0.8332657263251642,0.33647360007455984,-0.6756376417746226,-107.09458949472841,0.0,-45.053833474706494,0.5683556010645902,0.011980460823315164,-0.35168959333416017,34.2899281565393,17.53971554092155,5.850887019187017,3.0117545350094854,1.8076005787110314,0.946615781865942,0.4813539020344554,0.15648392909609515,0.12446102467937215,0.04928487205850776,0.006676924438327229,0.012141961407641842,0.011302919960720323,-0.008928563661142256,0.015661697724998865,0.005676907111017119,-0.00914156693512808,8.088035072143658,5.406935467846225,3.8957339247286864,2.5665424654806963,1.506452645868543,0.8526507969134878,0.471113378421801,0.2900728243034099,0.2223395959674497,0.13431431758500872,0.09716299450775008,0.06437016794268793,0.02320270188461039,0.014747059536529833,0.04088700983841116
0.0,35.0,35.0,0.0,120.0,0.0,-0.16910594078917152,0.2483892269161483,-0.24800406231558636,-106.96150175929684,0.0,-45.01591293004597,0.9255056143237619,0.4173722282709389,0.8313026124013945,34.2899281565393,17.53971554092155,5.826782874951996,3.0459621357362656,1.7807396604316716,0.9624065965888762,0.4401603480246828,0.22055344789676534,0.08248426479160623,0.05865201830619282,-0.011624434015023902,0.005987418358008742,0.0035232784939694855,-0.0013259438446024206,-0.015757736570255986,-0.046696041343289654,0.01034752956005643,8.08446518645366,5.403407920826308,3.847066123679884,2.485261110224952,1.4321676203005267,0.8475714431221627,0.4715000423475869,0.3092823531831752,0.19322707518089927,0.11751618868265165,0.06905733326937452,0.04088223211072033,0.05299382408272379,0.04876260543219253,0.01999990154995774
0.0,36.0,36.0,0.0,120.0,0.0,-0.07392306970268114,0.22374118036133783,-0.8291991055197592,-107.0640030468526,0.0,-45.02999753433777,0.6007164354354894,0.04121564370471775,0.7069047432596125,34.2899281565393,17.53971554092155,5.86808091720264,3.005871787970775,1.740941111095336,0.9854617218838275,0.4497947385783183,0.19111558105541496,0.08494984859096,0.057366951917629555,0.004051595140737826,0.024878556224353487,0.0168587033001207,0.015277574993126616,-0.015668848697145805,-0.025317484405802324,0.013398418520338325,8.089970565347755,5.362333107537236,3.8081732167793403,2.4810718631909414,1.4378168778892801,0.8181340801877147,0.49077524287741764,0.3342630371855452,0.2173516984949695,0.14006253207166366,0.08486952396431106,0.0362006123220927,0.0320938936706676,0.014127732884285952,0.034520655471852964
0.0,37.0,37.0,0.0,120.0,0.0,-0.19385243235785454,0.49918259085844063,0.8624184378719468,-106.97250132780965,0.0,-45.11856059982432,-0.39409537013459717,0.11308454372689924,0.18831300273532192,34.2899281565393,17.53971554092155,5.851068160487318,2.985699613418648,1.769060662218588,0.9148238425321407,0.39568471526557847,0.19409792524557123,0.10959712918365085,0.01516719999003057,0.054536672438586176,0.014542347571410649,0.02812009896217537,0.00027134934213382533,0.03978117356657954,0.001480667777093549,-0.01614229669704627,8.085441954489015,5.370847711324052,3.782554990969627,2.454824412747194,1.4450752929999684,0.800218696893118,0.4822746143718055,0.2978812687874973,0.19712532425581275,0.12863489910935444,0.09191559146540797,0.060536929317411725,0.02956923912239417,0.02639953131806,0.03074325458388913
0.0,38.0,38.0,0.0,120.0,0.0,0.4789382695132127,0.4660023039161898,-0.9875251380505239,-107.01836365458459,0.0,-44.987269854718576,-0.746249684949922,0.20886443218141437,0.8107310955967102,34.2899281565393,17.53971554092155,5.793321790516428,2.9791728690371477,1.7247171491221007,0.905683312647769,0.38210676532964266,0.19457178276420348,0.08347337790137364,0.047401634322607744,0.038857855058825594,0.027475568583197427,0.011875143831953029,0.05209397106629264,-0.005292100959802535,-0.007269298354464943,0.0058221902522505534,8.05505491843971,5.338301043956937,3.7675741048775855,2.458625387794394,1.406255719990401,0.7810659444969639,0.4498511620135063,0.29782071454659576,0.19455833650489462,0.12721459493993034,0.059925131146679494,0.022785003235370915,0.044072143052948265,0.0134853672702886,0.027945258579239553
0.0,39.0,39.0,0.0,120.0,0.0,-0.20365181072721827,-0.7851862201046993,0.7569131429061648,-106.91359997742403,0.0,-44.998288641413964,-0.9504097358431737,-0.5433123106771875,-0.1461445695882857,34.2899281565393,17.53971554092155,5.823727074705283,2.9522259552710337,1.7386548968487097,0.8973006065600982,0.4073770992645864,0.19173692013028204,0.08541095727261097,0.022214881903208143,0.0042184769475341645,0.03642124133654888,0.005774864375572385,-0.050903788189124013,0.02353076949978976,-0.03227454492969145,0.009385050845596082,8.09422731498556,5.312661221897117,3.7513346121380504,2.4143620638355157,1.4170138694395367,0.7784974389498243,0.44972897495861563,0.2572698885026466,0.17539009174265457,0.11179085435318363,0.06732338051384591,0.059235325589602594,0.030981071472565395,0.034481222532212155,0.005470621231722598
0.0,40.0,40.0,0.0,120.0,0.0,0.021991704036285586,0.42059011531350654,-0.6632760279032015,-106.9433537557711,0.0,-45.119808050880835,-0.3118101256499672,0.1514961843792939,0.8752214344032478,34.2899281565393,17.53971554092155,5.8104669894330145,2.9148390015834473,1.6971964700672446,0.904533471752551,0.4197604282676136,0.18312394618237995,0.09449297230551114,0.03394710700052909,0.01062827256969568,0.004200401678938212,-0.028850735360400576,-0.004684635377583766,-0.006733594691221615,0.029659738978528558,-0.014358653489209557,8.044658344102643,5.342752539167545,3.708434613244591,2.4137667605845468,1.383956970048244,0.734144375027187,0.46343868405633837,0.2778581526277509,0.19265244415378688,0.1179990636225422,0.07389770632971095,0.06688871648114261,0.033862137984617235,0.029601652740082012,0.04022868767906787
0.0,41.0,41.0,0.0,120.0,0.0,-0.8731455779054123,0.6582234952123698,-0.5954845785095564,-106.89100139192571,0.0,-45.06192589911697,-0.8941231676159889,-0.4723211606429363,0.8917416013846058,34.2899281565393,17.53971554092155,5.840698163901934,2.9728790381300843,1.697313783760703,0.8561597974262968,0.35234127299506346,0.17570499105325724,0.05061146707452979,0.02447968671592531,-0.0016556099215058497,0.019109087483451477,-0.01006326172322524,0.027321579814791917,-0.001679162727183586,-0.016922763326726924,-0.010392383938174807,8.070501959064018,5.298718701423593,3.688616256098307,2.384094775566476,1.3751899615862822,0.7532248833926357,0.412259222292324,0.2678452628720012,0.1692065839406053,0.08801435963620577,0.07873583604297073,0.04129266966416722,0.007788716032110496,0.04217678507595528,-0.010697971628662251
0.0,42.0,42.0,0.0,120.0,0.0,0.42659128882780006,-0.9754729444518113,-0.5585693940159617,-107.05014534326669,0.0,-44.98885340863501,0.558974384384381,-0.40108022221989725,0.1399356629282582,34.2899281565393,17.53971554092155,5.7628626639412985,2.9033551103978374,1.6921767145341606,0.8931009377657081,0.4217420811246836,0.1694083286420018,0.06933090183581377,0.01908835280457175,0.04864937071012303,0.0189953981136454,0.01064282128398674,0.01704204223244528,-0.030129213773206064,-0.04797467345172957,0.005043832641366727,8.066418800047954,5.243486900356379,3.6777600861505544,2.345112487158368,1.3370059170263737,0.7431899377163093,0.4232638398714253,0.2601737381248193,0.1695514632742898,0.10626235165069163,0.08716455417449465,0.0438065511137432,0.05835244304719131,0.0528745798618204,0.006677598853529888
0.0,43.0,43.0,0.0,120.0,0.0,0.06864271182960802,-0.36054593806568547,-0.7153066033167357,-106.95082442107532,0.0,-44.96877919451268,-0.02146326879486718,-0.0019532371599511045,-0.8995936273498626,34.2899281565393,17.53971554092155,5.809811559050401,2.9217189853240084,1.654278250253524,0.8545069287553527,0.38720055473214937,0.16817628373204457,0.09944124525887092,0.07262844611385612,0.014001291297977317,0.01402683131382311,-0.01122893554368748,-0.03137809255400285,0.013707730761991615,0.031024158672934163,0.025787447904333075,8.055481607879473,5.270050626626111,3.6551858237504318,2.314338616046973,1.3350917595656773,0.7202202015675153,0.3945019937777655,0.2592000575044368,0.18787012853494317,0.11280108876312066,0.06231426162243697,0.042461500906726124,0.030401946454858674,0.021388319582219185,0.032555912445169796
0.0,44.0,44.0,0.0,120.0,0.0,0.947136426084896,-0.5996817106379251,-0.7138063570563096,-106.99997136908539,0.0,-45.02272311180778,0.38598194684968895,-0.5434888065606673,0.7693238757231284,34.2899281565393,17.53971554092155,5.779943975241555,2.909396269445341,1.651935220072175,0.8300815079104665,0.3744880346522457,0.17494927918523315,0.13268862268940781,0.04589201732808634,0.06624210906373396,0.008179248286905944,-0.022564741342751025,-0.005474518120605725,-0.009032965679746388,0.01899150694461048,-0.008721978354571135,8.044252694602607,5.236363640790672,3.6306125423461895,2.3288462542333876,1.328388120700553,0.7302351629958975,0.3846827159995704,0.23995525940162707,0.1716803783664227,0.12455394699511924,0.04447288637789896,0.04808754974200687,0.0569567999496473,0.017970463809472113,0.012182180387008669
0.0,45.0,45.0,0.0,120.0,0.0,0.7422540907326347,-0.9624098000783483,0.7431790830272906,-106.97220642390565,0.0,-45.002814043061136,0.025001861235191318,0.2379605900953936,0.8227766573189421,34.2899281565393,17.53971554092155,5.80208883633758,2.844573084805784,1.624553214405246,0.7999159567806895,0.35702867692865337,0.162986853102849,0.046961888204055974,0.07787148240301123,0.009870034718114951,0.005173054285423747,0.0022816522812681922,-0.0096585448895105,-0.01035406670201624,0.00022781809571658122,-0.02232544830758281,8.056772271289121,5.209277889712559,3.601532892683342,2.284212917950906,1.3103331825570308,0.7039624452517468,0.408166038471951,0.2659763659546975,0.15090530266444244,0.10188499472247972,0.07702738165710499,0.06216992294544067,0.04303442124212501,-6.289430429830267e-05,0.005220718187397038
0.0,46.0,46.0,0.0,120.0,0.0,-0.3091088772635413,0.7373713604272125,-0.16583268285396224,-106.91414393319683,0.0,-44.8956142086501,-0.9240505187167548,-0.40086407828197035,0.8861072067500826,34.2899281565393,17.53971554092155,5.807605423957116,2.8379154617455145,1.6144745246391543,0.8289502512972948,0.3838546406387523,0.13536260871421826,0.06335852452927876,0.05459527767733422,-0.021541320674740874,0.012975148195415714,0.008848724971200634,0.030040333105138192,0.014273907391318291,0.030452996519155767,0.02028834372856521,8.044984439412122,5.197519014875872,3.581315107436418,2.2585975180212845,1.2665546365209586,0.6852572524987457,0.39256095339060637,0.24043849179119595,0.16227505840398615,0.1200678815422411,0.05854473011955627,0.02241798107049159,0.035048069934761145,0.01477230776752559,-0.00044984392333834167
0.0,47.0,47.0,0.0,120.0,0.0,-0.25508474776143863,0.07523742996086624,-0.274646719369642,-107.02074880412931,0.0,-45.00633280200543,0.7205713539019233,-0.6279171718851937,-0.055960649177163146,34.2899281565393,17.53971554092155,5.768078865318361,2.807963062157084,1.6119695460348606,0.7983279479853356,0.2819356972959283,0.12916717833586552,0.06520910366799831,0.04044843756661799,0.06452107869939219,0.024866412942515743,-0.00655061688348116,-0.008808207771567288,0.01619919859074319,-0.034569718854988336,0.0025212146647723248,8.015182699501521,5.157997876690613,3.5495367375361093,2.227131817422352,1.2453408830377142,0.6823571980812863,0.3988377034105661,0.24729962888430299,0.14706293395762088,0.09877506930101299,0.06794294043305497,0.033112591154141155,0.016315916462307616,0.020496554752257666,0.01788045232748406
0.0,48.0,48.0,0.0,120.0,0.0,0.3205565450367842,0.4738714372174688,-0.5090727853625823,-106.89435093944019,0.0,-44.9347785830049,0.8114550253769237,0.7974398653250196,-0.4174136465588958,34.2899281565393,17.53971554092155,5.795246370391574,2.7741363894951228,1.5673110867446725,0.8006568258369346,0.29691420378974615,0.13967119896543848,0.05405530454859507,0.05209277355599185,0.05853103920491101,-0.005014011131091574,0.03043283666912245,0.036292382763462756,0.017038159960400097,0.007133750007998294,-0.01041507777108037,8.007255904049453,5.151841264798479,3.5187345207059337,2.2212388621287618,1.2425598362489159,0.6670188564694532,0.3735378514764144,0.21547785645310266,0.1477329644552362,0.1389162167519387,0.07936305809403943,0.04217713698208497,0.004905072699394927,0.013892807226186802,0.015222204840203826
0.0,49.0,49.0,0.0,120.0,0.0,-0.08310691292263872,-0.5647954602363827,0.8098208685335035,-107.05071562006879,0.0,-45.05435603461656,0.26288229939170354,-0.12835509358487251,-0.8249740504666787,34.2899281565393,17.53971554092155,5.793206656008543,2.7680815012146045,1.5694802543432458,0.7921373349057436,0.2993983892640095,0.11088386421706875,0.07147314137597283,0.03838666573777594,0.055605242164826915,0.009907056426093193,0.026347849861611095,0.005089166997341736,-0.0008937295376627071,-0.025050974873509362,0.02574806421064591,7.984098722567694,5.138257016621797,3.4767905020020162,2.195163601120365,1.2135515848203622,0.6585778055306768,0.3869866653852774,0.24925115059762848,0.131964774335117,0.1109934536762081,0.06227037834979057,0.033741113264228725,0.0038962686616634927,0.0012417381880874684,-0.003677044497236279
0.0,50.0,50.0,0.0,120.0,0.0,0.1092227565531192,-0.7506846384869426,0.16999051207820326,-106.89331104120419,0.0,-45.07270054132378,0.34089818296970087,0.8858551326427491,0.7586696473965653,34.2899281565393,17.53971554092155,5.748497471177115,2.7616524143840215,1.5508260571532022,0.7712267076489198,0.32785159771579064,0.13951599452827673,0.0658639226840031,0.021316246752524144,-0.0023154795604713625,0.03890213922213054,-0.011318602308470229,0.013584464248537674,-0.016383965462889505,-0.014412608480814182,0.023756729045400698,8.01147067898914,5.101981245314935,3.488776649431583,2.2024522255969465,1.2216214215331596,0.653696414336535,0.3766347122828658,0.2299435655061043,0.1290807598582958,0.10883907859449492,0.0733073741132802,0.03737055493043842,0.01871335865228733,0.048894210316975315,-0.005072427649325688
0.0,51.0,51.0,0.0,120.0,0.0,0.9419322389377929,-0.6882437859030699,-0.3095341563412599,-106.97752814514715,0.0,-44.98855205569494,-0.8372062218733488,-0.17055985518189432,0.44604055078912874,34.2899281565393,17.53971554092155,5.746275801130015,2.752403806937701,1.4963904943420738,0.7620072683138275,0.3404462289126855,0.12133327995118418,0.04166902759916222,0.058498652032290904,0.03231711358556444,-0.028576664782952732,-0.0032774525370742333,0.03634769216615394,-0.028554233635476305,0.02515581747002868,0.003914007524343581,8.00619559316522,5.048794407461974,3.4492462235201287,2.148696692052191,1.1981776707751108,0.6396902113667278,0.35474118724056525,0.24365054931743357,0.14862676277429077,0.11028202073696447,0.08639833057474242,0.039720674548827106,0.003246931566330182,0.03036909806057523,0.0014430155299302895
0.0,52.0,52.0,0.0,120.0,0.0,-0.8186846527324452,0.6918280854756305,-0.6046459538916815,-107.00728792256396,0.0,-44.95964169452404,0.38309011739988463,-0.9788239491102815,0.6036112353921488,34.2899281565393,17.53971554092155,5.753126483227649,2.707670843392446,1.4893175745594058,0.7487454915797838,0.30825577477133137,0.11459293664059357,0.06735267911995753,0.023511984165075776,0.05721201360957856,-0.007825003820390185,0.041563670104751385,-0.022154842056629258,0.0054021419640563765,0.01280082864617819,0.01731961918169673,7.9891136148033715,5.039175832947518,3.4096330564426305,2.1228922066136944,1.151548744554654,0.6298668645103074,0.3356918032456382,0.21879806670794893,0.13967910737155034,0.10325677747957132,0.059510848089041224,0.05732220097411396,0.025545738948095146,0.0011988155036056266,0.008586297627467238
0.0,53.0,53.0,0.0,120.0,0.0,0.18957126195963814,-0.48308633068734985,0.8258385734120228,-106.95960019169787,0.0,-44.98745850266994,-0.9298973199985425,-0.6015640243804581,0.5381326677090619,34.2899281565393,17.53971554092155,5.751323645543648,2.72678291109299,1.5006158474206173,0.7439424750763328,0.3173392955440454,0.1307625209626945,0.06856226865744408,0.05716868542507268,-0.005476577576280079,0.024578733185596016,-0.03148133782362963,-0.0021872423601056856,-0.009230101032954182,-0.02637866288523724,0.0006711708916205983,7.995003060874371,5.044052713839591,3.3903255590333305,2.114000086984468,1.144830112845925,0.6104508154698479,0.3461644156448521,0.21314405534100317,0.1302974498597288,0.10414237103813055,0.049599379879424824,0.019582600263362202,0.041314504822547726,-0.010064764249295598,0.01012389610181207
0.0,54.0,54.0,0.0,120.0,0.0,0.35517985092687665,0.2353304179151512,-0.5903791852795572,-106.84052875523932,0.0,-44.90147397955259,-0.46771498205291706,0.6707007008785308,0.6347309200251672,34.2899281565393,17.53971554092155,5.800584552014857,2.6915940995468155,1.4534639591508969,0.7201355565339788,0.3160364680990813,0.13125727619445549,0.06690332441109628,0.046817110630370064,0.020305208894833233,0.010549741332022317,-0.006116676216497113,0.0002471075634174445,-0.015030361023980225,0.005011624880753384,-0.004097894062529137,8.003497988272034,4.9859830669132865,3.337525525840456,2.0869659488697705,1.143496404599559,0.6252197992184735,0.35099763452232774,0.19622827405267962,0.15003572883795482,0.099926976333811,0.07852411776291866,0.0592493754730562,0.04021058507470021,0.0042696127983118375,0.013483196188685924
0.0,55.0,55.0,0.0,120.0,0.0,-0.5612585188394783,-0.2910780578695604,-0.8693420152740787,-107.05672851200589,0.0,-44.910322756227586,-0.4731004625712676,-0.2796274339669298,-0.7780206682540474,34.2899281565393,17.53971554092155,5.682477495864337,2.615308686604447,1.4613472572761455,0.7137681181292083,0.3509114170540468,0.10567046280877654,0.11178006404257154,0.04680758188215668,0.05718599234819989,0.0336899818205501,0.019810768266914233,-0.03329122686200825,0.006161262562989722,-0.012050019465347636,-0.04232585570408821,7.971113693893407,4.959462023910612,3.330773790434366,2.0461405183563675,1.1278237679588514,0.5733594168654254,0.3296075682448396,0.2148614996309343,0.12803657616087571,0.09227550707731696,0.020422381694212413,0.02264460232506719,0.029209282158012603,0.014269241939355793,0.007479552908318315
0.0,56.0,56.0,0.0,120.0,0.0,0.17218946809334645,-0.11920885819172677,0.2610714282085562,-107.01111140021072,0.0,-44.96957760884226,0.7327699458091899,0.6927538447737678,-0.32344383023587064,34.2899281565393,17.53971554092155,5.6984390336973325,2.6038925677367812,1.4406765921567535,0.6943013392624711,0.3063883562680663,0.16402093005101553,0.044678694507983535,0.04865995506896409,0.012024746199088311,-0.004669663985492746,0.018018001151156884,-0.0007300310064117408,0.012216811258028103,0.03840955174710242,-0.0013568126240259292,7.9638984112726305,4.950196719044352,3.30561600574875,2.037114836743366,1.087773557952138,0.5711729053850905,0.31614056166008037,0.22244903509041625,0.15103248581859696,0.11310031042813479,0.04054833153760059,0.05046527156237845,0.028649406892355817,0.04625224222833205,0.022866636689960182
0.0,57.0,57.0,0.0,120.0,0.0,0.5498993203820095,0.7103476603480858,-0.4458113061581481,-107.13723512594161,0.0,-44.993762279089,-0.0797124272415114,-0.22358208133548696,0.6283408991826271,34.2899281565393,17.53971554092155,5.687375808567582,2.601202204752438,1.4171255710028687,0.6673050056974053,0.26248563078846815,0.11519223992850551,0.06875868196732302,0.03894230490451872,0.024465288735383242,0.008009431393588598,0.025928741454888223,0.0008566337151483831,-0.014928077721911025,-0.02462745191775556,-0.00940884679586739,7.937738604698748,4.89998106115012,3.2506231236962764,2.0244209446208656,1.0764609420518938,0.5678276696742088,0.3298967417643133,0.18089507297405436,0.1214817786368618,0.12101282762438359,0.049895597115383196,0.047172644801287335,0.05245059935771248,0.023179463047538304,0.013593712413529803
0.0,58.0,58.0,0.0,120.0,0.0,-0.42898421591670655,0.4685629558688269,-0.6442156812341557,-107.12488521970809,0.0,-44.98673603227894,-0.8881665234128383,-0.40655252288808774,0.46855222401141994,34.2899281565393,17.53971554092155,5.727674729995289,2.561897007966323,1.3517733456713652,0.6702413704522017,0.270354653319929,0.11754513339397517,0.041066574308308686,0.04846223985608003,0.031068541708931,-0.016053112912897308,0.023411257999302333,0.0013439128365591289,-0.048848174490114776,0.015312521479916612,-0.033758696561976165,7.972456274309488,4.883257992803141,3.238104289106568,1.9963558490123603,1.0745651055411407,0.5810769324257152,0.3242976175779724,0.19327360058737625,0.1586541345716742,0.05889426777709001,0.052332801209528504,0.024724442102278886,0.019337938182143022,0.016382700205105835,0.007593891896266432
0.0,59.0,59.0,0.0,120.0,0.0,0.9540218826194589,-0.32866910094127255,0.2101822389123209,-106.97290882734679,0.0,-45.00428766284145,-0.49262569220928365,0.6014535094335356,0.5335127159709756,34.2899281565393,17.53971554092155,5.693690071765317,2.557381992793982,1.387436549466318,0.6568240745959718,0.26453064888442746,0.11984685954997722,0.052269060436290427,0.052365135784376626,0.0073762095485831215,0.024682677529906483,0.008740341940082823,0.0308955759394688,0.0009011753011160353,0.0024803895346151086,0.023301381852443476,7.913640806854046,4.862346200775167,3.205795328241896,1.9494491291030385,1.0706664342951304,0.5510192598139693,0.31780265456037843,0.2195816996599993,0.1498227982910402,0.12752454344902084,0.046449684860764624,0.013520517541639451,0.028475113661159415,0.031128352060288488,0.011463209462613543
0.0,60.0,60.0,0.0,120.0,0.0,-0.7394687629908709,0.7944009703469181,-0.08725588972162712,-107.04699915760209,0.0,-45.01414755408554,-0.24650840953816214,-0.8554226260825597,0.5192214383821867,34.2899281565393,17.53971554092155,5.592792063412543,2.5348984629902414,1.3496335146410432,0.6770428322150587,0.2445386068467499,0.13291365382328696,0.0211710188124927,0.002962532847711759,-0.036352908444971285,0.04696371858963161,-0.04296519349212673,0.021319451511345237,-0.0017783670084406443,-0.0058983433904067194,0.027462708403662005,7.934134512042346,4.831335253496315,3.216181385185656,1.9545240607281582,1.081285137158886,0.5300132895029971,0.27855054804094626,0.19256582512883258,0.1339814877009633,0.09314750869810712,0.06941949866298697,0.042046567235364436,0.020962087811782236,0.021709996321379554,0.004951366611502647
0.0,61.0,61.0,0.0,120.0,0.0,-0.05214578071029141,-0.368409087205293,-0.6858594063316383,-107.06315383560927,0.0,-44.97802247810621,0.9935368598726322,0.7519032573211513,-0.8661599305286698,34.2899281565393,17.53971554092155,5.651724360193003,2.530294464346107,1.2812452260772502,0.6405956048451006,0.2812258868437492,0.08875767870103875,0.08479919804851632,0.048024061348023867,0.026604146568328657,-0.013225489570935145,-0.009208962675750106,-0.001835850855921813,0.021315833385177885,0.017235556418829588,0.03406212248909896,7.911056661081335,4.773432575621623,3.147265265789435,1.8893767276670739,1.0418971313927048,0.5232602373094177,0.3088408165142131,0.2025629798513345,0.11620113913062037,0.07300634269502332,0.03141000258148098,0.0386297529297204,0.026784228043561065,0.015042036584519445,0.009840436579776577
0.0,62.0,62.0,0.0,120.0,0.0,0.4577421954395824,0.5004976717530112,0.1489128672395792,-107.04705257700536,0.0,-44.95160883259946,-0.515275022324408,-0.16026705680231124,0.6521471471665024,34.2899281565393,17.53971554092155,5.6155997177508725,2.4372315359027468,1.295664010480859,0.6056544515137541,0.2558190972759175,0.09472480094902702,0.028161366037086487,0.00529921475405393,-0.0005138798320933266,-0.016809068822860776,0.015354155604025964,0.02730440109395804,-0.009070888678830252,0.00945344939390572,0.02056753840646136,7.931189379429862,4.740763184751699,3.12343776510044,1.8752119335564126,1.0158735654745008,0.5269141816142572,0.304667018980024,0.1654310451084861,0.11970048386029611,0.09559476330359344,0.05749338769609693,0.03198866140611675,0.0013330072785870846,0.014483760057747317,0.01631157135012693
0.0,63.0,63.0,0.0,120.0,0.0,-0.11961840328207685,0.5796649782534464,0.3344632926144018,-107.01617900922832,0.0,-45.02304740743227,0.5123526314698588,-0.34257975323044243,-0.8281747021036097,34.2899281565393,17.53971554092155,5.626249251156239,2.4569752370193068,1.2898714957047508,0.5811043981978302,0.28729140647946066,0.06347789279401977,0.0355127410326051,0.04036558339361128,0.028741983402061095,-0.016897878374015966,0.011166589690472448,0.022175740882982204,0.010897978667317445,0.02737612036629551,0.0024777315659405266,7.908050107215653,4.714370449876614,3.0739281718336158,1.8682830382762057,0.9978894004675726,0.5348859893839633,0.31080546791563185,0.1476758892192197,0.13241091621351203,0.061290737324931316,0.03746065998959813,0.0204099457501383,0.01623410324850777,0.009219352930538518,-0.00859093467536325
0.0,64.0,64.0,0.0,120.0,0.0,0.028981596223732087,-0.2785117515541311,0.38755330816094546,-107.07732486668436,0.0,-45.09524365631964,-0.6038396945030448,-0.5601587293815993,0.6448106794887607,34.2899281565393,17.53971554092155,5.61966705623961,2.4257954352363966,1.238720960890287,0.5923207783838002,0.24474298704394126,0.1329696305862051,0.02978067288897994,0.003160434648993536,0.06513103588906882,0.0014321650494126849,-0.004018838663171345,6.586179613519766e-05,-0.011805195098942999,0.006807796084337374,0.00025541736141177293,7.871372555379344,4.691009695690217,3.0536869835037925,1.7958978210390137,0.9543962646739115,0.5155539186454219,0.2949277215256939,0.15637170384933188,0.13994182404987976,0.07085487481163615,0.04264127879061792,0.026820269835943315,0.008653014459783118,0.014665544506504926,0.03299166916173875
0.0,65.0,65.0,0.0,120.0,0.0,-0.050368559790965106,0.048985783415643525,-0.4957123061652635,-107.00436807308188,0.0,-45.094286768202394,0.3300520696855793,0.18881474195935666,-0.36582342716747496,34.2899281565393,17.53971554092155,5.5667306435863955,2.3606388053477767,1.26373174631872,0.5958866775114581,0.2595325260712019,0.08183246903755936,0.05425039634278451,0.010203015791612827,0.004968731241997371,-0.005178871722656948,0.009692076239203913,-0.034357855306986644,-0.03006819061043604,-0.008634301160239674,-0.009158286269274282,7.8619669600702125,4.620399971072445,3.037556759167699,1.8200689924147266,0.9548165255913603,0.5187131525933073,0.2976589693563835,0.14453060895113504,0.12469104519754134,0.10248076463983745,0.0542269661182037,0.03453867742995874,0.013004243910580653,0.020001905467486546,0.008493288661688282
0.0,66.0,66.0,0.0,120.0,0.0,-0.8927738527749958,-0.0811361184091639,0.0377096294017123,-106.98617194782041,0.0,-44.982642283344106,-0.6007971004172735,0.8958919757775514,-0.5757517726109957,34.2899281565393,17.53971554092155,5.551357683912032,2.3958680411863122,1.2160747628394668,0.5671566106488567,0.2777376964254126,0.09414331023198487,0.03675396887266261,0.03464347010609975,0.01957675585843647,-0.018158014480168995,0.029940102045610748,0.006642617739216294,0.0007692893096754099,0.006970742865215648,-0.017312950830118207,7.838068102193491,4.623645408173368,2.988889745908055,1.7723628218667682,0.9465266880753044,0.4901154884255323,0.28582618152581507,0.17687650488251325,0.1225059557078325,0.09140620511787917,0.060481872955450135,0.017022546257549467,0.05226919492381215,0.008532210002801459,0.005609096340778963
0.0,67.0,67.0,0.0,120.0,0.0,-0.3570352451063119,0.24904930710029105,-0.32497229775592174,-106.9741991048806,0.0,-45.02292500508854,0.5849648453221676,-0.2951620823400831,-0.6081881390894561,34.2899281565393,17.53971554092155,5.5366078382699735,2.305741109498347,1.1922054890508664,0.5821106170330058,0.23012987561981402,0.09105993093622514,0.051114839399084,0.006155162888367899,0.002882286446249129,0.04461258072658676,-0.008902118595928467,-0.002597083793739512,-0.019475037793451985,0.027933142587221148,0.006030186880473718,7.8385208524383065,4.575142336697964,2.943848239417901,1.7550099183965298,0.9176892807895407,0.45724843883832894,0.28706347982610114,0.18174345139559855,0.1347815075640301,0.06076421521215336,0.05491376878672729,0.04004019932047118,0.030772135666841366,0.032415980276714274,0.0066670755386162815
0.0,68.0,68.0,0.0,120.0,0.0,-0.8341731312294436,0.4597160194380776,0.8533477171800061,-106.96594770431798,0.0,-44.992323080223315,0.06611721790913451,-0.538662687590074,-0.8455472911705122,34.2899281565393,17.53971554092155,5.556134728026222,2.2649470234541162,1.1940617740507773,0.5391571662629943,0.24088372687688553,0.12513526627786106,0.028827880031053892,0.052675447951728196,0.01583219854521664,0.04747709484016864,0.019443161331190437,-0.005994513835694242,0.0045500484001849625,-0.01365857390792415,0.01545397082485657,7.796528066794768,4.53525417417625,2.866014360592991,1.71698830789095,0.9011382553618372,0.49203033947124075,0.27520828488550503,0.1709382044174176,0.11741828502238132,0.09254625752587717,0.053773183228323106,0.0576086776499295,0.027433203282635356,0.005775128706315796,0.019142490495483992
0.0,69.0,69.0,0.0,120.0,0.0,0.5206302516790176,0.8242814337098383,-0.03755699052180539,-107.02224638035435,0.0,-45.05591530372283,0.6985915596064783,-0.5046960120777115,-0.0034739853708654067,34.2899281565393,17.53971554092155,5.497726280847045,2.2989908828620464,1.191115935782454,0.5148216804718925,0.22266209974998494,0.10730087428282849,0.008374365128973417,0.01642116846322738,-0.0020095702269721342,0.02588297508978396,-0.014836295901253883,0.0003934991634967225,-0.022407729119928974,0.026788022625313764,0.008382670882093685,7.787654001435928,4.477639476292634,2.8744014534472604,1.714252791058842,0.8982429260479329,0.46855745517502145,0.26188168288610614,0.13665074904710606,0.095036430923615,0.06376078236842626,0.06177803043835423,0.037382673999276264,0.011657200534985026,-0.006870178940119164,0.01750917980331122
0.0,70.0,70.0,0.0,120.0,0.0,-0.04482069822763535,0.16771172017321345,0.14110627254469188,-106.98756277433883,0.0,-45.035931081836395,-0.7811891944647072,-0.8179364233549853,0.5692048610453659,34.2899281565393,17.53971554092155,5.471010303240894,2.1869207761918936,1.1126967283556681,0.576798765088889,0.2201275315644575,0.05868928958569989,0.06914082215028738,0.023573554016932338,0.03649064181012199,-0.00952072977439065,0.043845956025520036,0.0007637057453421768,-0.0046799690776077926,-0.013782851183430577,-0.007760889304915364,7.759493404600062,4.492329446025995,2.8283526866894517,1.6924513343553778,0.8928047176597251,0.45156781772164,0.2394218193131669,0.1591184668665227,0.12671812853241937,0.08639759025748078,0.07005199630341571,0.05023745762874246,0.008199953555369363,0.012403609935245254,0.02906920237708368
0.0,71.0,71.0,0.0,120.0,0.0,-0.18567675717329224,0.8047188678265746,0.06277326971541486,-107.04383657453403,0.0,-45.003452736830894,-0.6771469272990011,-0.5265702609542637,0.30088235104039684,34.2899281565393,17.53971554092155,5.40699186349595,2.212575963637041,1.1225670182022278,0.5436648511448118,0.22017417063304012,0.06117326658303382,0.03482681487144351,0.04150334018157539,0.04631146116702289,0.024868935835707526,-0.006194749099843376,-0.010889426294618438,-0.012766954803976273,-0.027984868371461788,-0.011248702409751586,7.756975526126313,4.443265351910937,2.798829045246938,1.6548988476960758,0.8740629529195818,0.4536335888463389,0.27036290465531043,0.17253262245539114,0.10125585981978776,0.03845899896017054,0.03138460202215796,0.039360430731392754,0.022908140790866054,0.021338414109820573,-0.0024601059282547254
