Line_number,Fiducial,Easting,Northing,Height,Elevation,tx_pitch,tx_roll,tx_yaw,txrx_dx,txrx_dy,txrx_dz,rx_pitch,rx_roll,rx_yaw,PX,PZ,SX_time_1.086e-05,SX_time_3.256e-05,SX_time_5.426e-05,SX_time_8.680e-05,SX_time_1.411e-04,SX_time_2.279e-04,SX_time_3.689e-04,SX_time_5.860e-04,SX_time_9.115e-04,SX_time_1.411e-03,SX_time_2.192e-03,SX_time_3.418e-03,SX_time_5.339e-03,SX_time_8.301e-03,SX_time_1.338e-02,SZ_time_1.086e-05,SZ_time_3.256e-05,SZ_time_5.426e-05,SZ_time_8.680e-05,SZ_time_1.411e-04,SZ_time_2.279e-04,SZ_time_3.689e-04,SZ_time_5.860e-04,SZ_time_9.115e-04,SZ_time_1.411e-03,SZ_time_2.192e-03,SZ_time_3.418e-03,SZ_time_5.339e-03,SZ_time_8.301e-03,SZ_time_1.338e-02
0.0,0,0.0,0.0,121.0,0.0,0.0,0.0,0.0,-90.0,0.0,-45.0,0.0,0.0,0.0,58.892325333327804,19.630775111109287,5.848688416971596,3.751132850680751,3.0692194670613837,2.6361402642862437,2.043633756978401,1.7002983326504757,1.3205551865009404,0.9976161511405157,0.6979213834588827,0.4495966629351443,0.31552386018278983,0.17672490954252656,0.10383912601999568,0.054930318007293984,0.025865009944597454,9.15718560615609,7.677879676622555,6.391085720137926,5.274389822723861,5.389434487411129,4.005741464849782,3.1588575967049457,2.704502719547239,2.1064894650193584,1.588890625245993,1.168645790137369,0.8540648063823535,0.5261520779957711,0.352366980490852,0.19213594390259026
0.0,1,1.0,0.0,121.0,0.0,0.0,0.0,0.0,-90.0,0.0,-45.0,0.0,0.0,0.0,58.892325333327804,19.630775111109287,5.90959907035289,4.106767088253621,3.267814585958616,2.3820297530274437,1.9316597774477737,1.6294604476237065,1.3481237449697132,0.9412614471405647,0.6768743002919544,0.4526560682496506,0.3061583337359899,0.18651006268015366,0.09889025582441739,0.05380702668753049,0.0228361537048897,9.573244108486156,7.158695601320758,6.773089081105872,5.48760253305477,4.819104095636223,4.116846221198587,3.196200309736091,2.3971659057371237,1.862042326452804,1.5814000226888854,1.1300311793140354,0.785185603469435,0.5142624574541659,0.32204276945041216,0.19101498471445164
0.0,2,2.0,0.0,121.0,0.0,0.0,0.0,0.0,-90.0,0.0,-45.0,0.0,0.0,0.0,58.892325333327804,19.630775111109287,5.172965954480627,3.66573670939421,3.289746596969509,2.4763714533843255,1.841422836544299,1.6415728270827892,1.2490576775974715,0.8876064449504986,0.6613572998290745,0.4436730608090682,0.26708023413021065,0.16712288819415558,0.10203542497014378,0.0578615046349989,0.026140030503678257,9.493903959234173,7.116658551676016,6.658294378627399,5.311667775632791,4.990954049174453,3.8768051062204827,3.2780945170232254,2.6458770517559342,2.0938043583256154,1.6039154587190938,1.1002912572642178,0.7517249729307042,0.5108747750155359,0.3166733501635918,0.1729077090062446
0.0,3,3.0,0.0,121.0,0.0,0.0,0.0,0.0,-90.0,0.0,-45.0,0.0,0.0,0.0,58.892325333327804,19.630775111109287,6.024387321777738,3.798294219090007,3.088458521742353,2.3929877697907136,1.819166046970923,1.422000848187059,1.0685140431156435,0.9025919771100646,0.6515528663604799,0.41878915843936787,0.27946089796119705,0.16231378822185993,0.11156846068675377,0.053195457482247965,0.026303346485278274,9.242087164790444,7.405091114685562,6.3983977472814,5.835703045678913,4.460083045893309,3.756098105110749,3.1211865627133646,2.3195710577316495,2.0842703300488252,1.4969859871510212,1.1658256371585032,0.8416164868348526,0.5307591070487211,0.3312444452527183,0.17085930108866038
0.0,4,4.0,0.0,121.0,0.0,0.0,0.0,0.0,-90.0,0.0,-45.0,0.0,0.0,0.0,58.892325333327804,19.630775111109287,5.137124229486602,3.914211553473525,3.0297174675019103,2.4624741598438775,1.981593242443168,1.605232365673214,1.1214618130091085,0.8518133616094551,0.6467535590179126,0.4765102847803943,0.27626599383243056,0.16928464634762194,0.10792296668502269,0.050741903817456066,0.02468806108595245,9.993043018847931,6.9493018845240435,6.282371508607878,5.099325180739617,4.043301070192821,3.91623266013314,3.291230369790973,2.508545882034658,2.0817525057593165,1.5055248805389436,1.1396642483774728,0.7944529865194838,0.5085419229587002,0.3163710320257946,0.18611040173161178
0.0,5,5.0,0.0,121.0,0.0,0.0,0.0,0.0,-90.0,0.0,-45.0,0.0,0.0,0.0,58.892325333327804,19.630775111109287,5.472030767243075,4.111771604904028,3.342218308800327,2.3800776319516,2.1256236416514476,1.5826819668784526,1.1640839088316748,0.7860665024574013,0.5967754640892344,0.4449835336135555,0.2913984815709046,0.17868053283959248,0.09865782782979819,0.05356570476358082,0.02344788310784029,9.100628874881096,7.086748961544712,6.387513335909156,5.596921947929507,4.636036950597191,3.9393134063127637,3.16313129848135,2.4861627116431855,2.0433768717620393,1.462878529178447,1.1371859697913327,0.737402680931236,0.5305003220449472,0.33374806671438645,0.17949781534248574
0.0,6,6.0,0.0,121.0,0.0,0.0,0.0,0.0,-90.0,0.0,-45.0,0.0,0.0,0.0,58.892325333327804,19.630775111109287,5.548306261018064,4.104040787543378,3.419152697920919,2.3072988679519106,2.0405099289858066,1.6287014100620096,1.06825724364001,0.8431097410158821,0.5728002931163007,0.4382946534036417,0.2872423352432263,0.172615098437103,0.10713538740023394,0.046914893992536684,0.02788348476308761,9.958340933752087,7.301377408733102,6.639578007865657,4.946254371049258,4.1997353109142885,3.7401051364908304,3.231639845657494,2.3815171141006766,1.77409967766148,1.4747119573117542,0.9944498503609326,0.7267251931671574,0.47455941638433413,0.31733685559399216,0.19196188800358707
0.0,7,7.0,0.0,121.0,0.0,0.0,0.0,0.0,-90.0,0.0,-45.0,0.0,0.0,0.0,58.892325333327804,19.630775111109287,5.490349920557697,3.9747398589997793,3.003672612920702,2.436620088105107,1.8260671602671392,1.4417128588386856,1.1294461076498854,0.8767393787853461,0.5729381886951026,0.37698265101621037,0.25965496352785244,0.16354197000998988,0.09976647125456989,0.05588477288977487,0.026337911877380344,9.497106016636275,7.392903808620334,6.762659116936211,5.260560642235043,4.547435579542293,3.80990046617211,3.1574721429990484,2.4323714059061925,1.9457310376525938,1.377319614344368,1.0899800271928788,0.7377591628121147,0.47629626637880423,0.29224423474854455,0.17235413532160648
0.0,8,8.0,0.0,121.0,0.0,0.0,0.0,0.0,-90.0,0.0,-45.0,0.0,0.0,0.0,58.892325333327804,19.630775111109287,5.783545502784079,3.931982590163027,3.2052945579160794,2.4737232513566845,1.905173389558426,1.440440540126493,1.1740791067907956,0.780434662386874,0.5996081022916988,0.4205066992593753,0.27760449083977756,0.18206422632577016,0.09005444313208658,0.052716800295745284,0.024426330994860967,9.520974759657639,7.82237882189026,5.438861377899615,5.544826688767715,4.231191162358611,3.7602928785801364,3.032084383462442,2.4900329209509033,1.9451042196004809,1.5093315457027368,1.1249670833470915,0.6837417135862386,0.4856512624931968,0.3096744427161069,0.18765044965319194
0.0,9,9.0,0.0,121.0,0.0,0.0,0.0,0.0,-90.0,0.0,-45.0,0.0,0.0,0.0,58.892325333327804,19.630775111109287,5.797087372170214,4.1561877456383325,3.1792827290656414,2.265818607698075,1.7922800577751972,1.457864541313674,1.0290157563635518,0.884028593026464,0.6081367036584245,0.403275555334805,0.2837035732694629,0.16725619318124998,0.09405991811686708,0.04852939692604271,0.023155835531184235,9.227466478435398,6.915410339586681,6.013972843635536,5.272458260194026,4.341229549988509,3.325950390758146,3.2135316111891457,2.3210710313549248,1.9029034819063542,1.5121217719946953,1.0333842759369878,0.7682424522538616,0.5198284501440953,0.3001898641764382,0.17314004507096553
0.0,10,10.0,0.0,121.0,0.0,0.0,0.0,0.0,-90.0,0.0,-45.0,0.0,0.0,0.0,58.892325333327804,19.630775111109287,5.591123001596677,4.057652728988343,3.155308962918704,2.553958825794406,1.7674405587418343,1.4360834834637175,0.9927810604169712,0.7497193101347385,0.5506922823476832,0.38011362766217455,0.23731632174982575,0.16583685334923012,0.09840365967486407,0.05117187659627487,0.023283122534205645,9.789631668946376,6.744363377209897,6.7055978262194715,5.0708832724656405,4.510631339501858,4.139184491727437,2.8756969073509238,2.483306601395604,1.8498120778670968,1.407021421986528,0.9684029480352243,0.6905851207042066,0.5012174956402619,0.30278588424444985,0.18563518501820003
0.0,11,11.0,0.0,121.0,0.0,0.0,0.0,0.0,-90.0,0.0,-45.0,0.0,0.0,0.0,58.892325333327804,19.630775111109287,4.9555381559433425,4.312951053725119,3.0513342050623957,2.495695466624948,1.82259345216012,1.3957999686096851,1.006677580482983,0.7693476887953395,0.5884334523469281,0.40938938174979445,0.2559836538820589,0.15972788916052671,0.08954342050969895,0.04821223344870407,0.024976660017657772,9.045303083208722,7.25593909800256,6.410982761057899,5.6014910693287465,4.140636249988738,3.8959352950351156,2.908962584633639,2.1913366936769143,1.781435176273669,1.4160930426353726,1.0936628439100906,0.7037007771824417,0.46899234715075483,0.3162804073640478,0.17720149282629924
0.0,12,12.0,0.0,121.0,0.0,0.0,0.0,0.0,-90.0,0.0,-45.0,0.0,0.0,0.0,58.892325333327804,19.630775111109287,5.4699535071367436,4.116669922690322,3.066543571219344,2.4746861184359354,1.8074952691622839,1.346186630814936,0.955799600857854,0.7658382606900979,0.5548710709283199,0.4115485068126312,0.2582823315593099,0.15472271043494826,0.08712111278365867,0.04796821545989708,0.02513332979332932,9.065016395271313,7.423900661521969,6.356671972672614,5.281010857230091,4.207632182780745,3.608036157272157,2.9656403805510547,2.3870371138875233,1.969473276515286,1.265271189307675,0.924972879243865,0.7483848255798512,0.48862842457307926,0.2841627982331219,0.17286380242542151
0.0,13,13.0,0.0,121.0,0.0,0.0,0.0,0.0,-90.0,0.0,-45.0,0.0,0.0,0.0,58.892325333327804,19.630775111109287,5.603191288324567,3.5671014068393543,3.0601754042560403,2.5389900610921163,1.7138767016722871,1.2633303722674605,1.0048282067857093,0.8046978831059841,0.5268726162446651,0.33821553663800313,0.2629631389638346,0.15924597054968342,0.09137766947174523,0.04849809477584359,0.025888319932410985,10.126502046306834,7.110620436818948,6.668135947379162,4.786862333112262,4.831527133094642,3.7518561222070614,2.8109293688931514,2.562931429576549,1.6967033513194387,1.3380131568217937,0.9825955699752649,0.715272483239687,0.43335333165380235,0.3133894389793285,0.1625245270500198
0.0,14,14.0,0.0,121.0,0.0,0.0,0.0,0.0,-90.0,0.0,-45.0,0.0,0.0,0.0,58.892325333327804,19.630775111109287,5.599329511399103,3.8734315881770542,3.02074731812257,2.6043955343167826,1.7623128035987958,1.3293376317778847,0.991310843525045,0.796670504806464,0.5248669932352981,0.3668537056830245,0.24441275970840134,0.14653718377286726,0.08332041530004344,0.048745250877092236,0.026049948718975792,9.035531412432238,6.995122877050205,6.485227509207976,5.735273551738186,4.377130026652298,3.628191527309574,2.915983387382026,1.9577987435043083,1.8545755177622383,1.3519631987550023,0.9995368338150852,0.6831358967384871,0.4849583407199031,0.2986191760416215,0.16908202701323014
0.0,15,15.0,0.0,121.0,0.0,0.0,0.0,0.0,-90.0,0.0,-45.0,0.0,0.0,0.0,58.892325333327804,19.630775111109287,5.5147938470588205,3.899111553291998,2.9646072094621236,2.440360143685337,1.8709403955110633,1.405945601957158,0.9847772925797169,0.721189951640598,0.5537782903970443,0.3591736380740982,0.23780381273297005,0.15496823273929689,0.09119515983939656,0.0492685537304201,0.023242111243953693,9.960186185858376,7.0929636454906175,6.362519579922818,5.539075168907646,4.672955561342474,3.3107047545392714,2.715105082080827,2.2630842075123443,1.7930850319193332,1.3175115918126796,1.0737472760741475,0.6837931351808411,0.4081967840870924,0.309143036985267,0.17232819014296263
0.0,16,16.0,0.0,121.0,0.0,0.0,0.0,0.0,-90.0,0.0,-45.0,0.0,0.0,0.0,58.892325333327804,19.630775111109287,5.613443439367873,4.503866269509492,3.0956163541230124,2.535648345533446,1.6296139534411656,1.4016837261441075,0.9980481688172597,0.7572483030743904,0.5284599038812751,0.3678678039965029,0.26779901973984405,0.16010278069348444,0.0901200387961684,0.048881134727527656,0.026076566844774583,9.907544976532442,7.214434234546023,6.301772769414495,5.64134216155497,4.117725932952828,3.5031521948337563,2.8158808523467265,2.3812513310695036,1.7145542760273658,1.3885209793881885,1.0718283608236652,0.6451999006070771,0.48325916214524217,0.30726376501208486,0.15720943191235312
0.0,17,17.0,0.0,121.0,0.0,0.0,0.0,0.0,-90.0,0.0,-45.0,0.0,0.0,0.0,58.892325333327804,19.630775111109287,6.157437600653265,4.174424247256059,3.2746328770003195,2.4846264667636215,1.8994466646040913,1.4317266213294646,1.072887920203302,0.7572134530682285,0.5126577045616636,0.3928148393491586,0.22096297402999399,0.1513664657632747,0.08764123328079525,0.04867434455931167,0.023883740726052663,9.885473544642064,7.219702738297695,6.676522528836461,5.395358565324323,4.259668323675346,3.4774535315901742,2.8536198286776697,2.364738264900985,1.576461936118866,1.2441907599756543,1.035609123551611,0.6823262639352524,0.48451704909260995,0.2768585978980952,0.15488221941221894
0.0,18,18.0,0.0,121.0,0.0,0.0,0.0,0.0,-90.0,0.0,-45.0,0.0,0.0,0.0,58.892325333327804,19.630775111109287,5.6515509371570545,3.8873625188786183,3.1951193485519735,2.6990011163538723,1.7905226481099394,1.3908866153448527,0.992849520396559,0.7351379609228084,0.49128837687340743,0.36097869220511825,0.2416055610083902,0.1557420852008231,0.081373347845206,0.04516113708092039,0.022695798023097395,8.752729611193596,7.391442861294166,6.538913929655584,4.713380047794232,4.562011283558282,3.358879661432841,2.720239908432448,2.1766199204162775,1.6781610199195076,1.252130684023193,0.9830197340978235,0.6611233588306645,0.45105796793411107,0.2815915770469421,0.1686252326715219
0.0,19,19.0,0.0,121.0,0.0,0.0,0.0,0.0,-90.0,0.0,-45.0,0.0,0.0,0.0,58.892325333327804,19.630775111109287,5.664835306557907,4.058956173998038,3.0593284060571815,2.351390313342525,1.709451446782223,1.3233472698809288,0.973546377662159,0.6938613759699547,0.5444761271026014,0.38744848152866446,0.24263241637100613,0.1360074883330705,0.08342926409392774,0.05035169615697885,0.02186529099259388,9.60136775095739,7.873430310154769,6.336126180611104,5.134814851580035,4.753067996103299,3.67476312862064,2.4340410940407993,2.104099278349851,1.7468713406924972,1.364232279567271,0.9568502732976089,0.647594857983975,0.44209588303361813,0.270000990653193,0.15218927395363596
0.0,20,20.0,0.0,121.0,0.0,0.0,0.0,0.0,-90.0,0.0,-45.0,0.0,0.0,0.0,58.892325333327804,19.630775111109287,5.902449796415656,4.026869926789017,3.22162366113082,2.3644544167590857,1.9533318002351492,1.3642776611201206,0.9438645872647979,0.6721964195284637,0.4629658068292597,0.353860372401661,0.24505193667312716,0.15247348449879036,0.08269557109882972,0.043965991011052426,0.02316784834359539,9.73357748587787,7.6281907375148235,6.767425040562197,5.11128537879757,4.668152043846525,3.7824968061165594,2.710403647583624,2.1519872556036233,1.6232252400063065,1.4351097362764182,0.9186760125485709,0.6537468960154763,0.4389622791225372,0.2837059067248155,0.17586773913992435
0.0,21,21.0,0.0,121.0,0.0,0.0,0.0,0.0,-90.0,0.0,-45.0,0.0,0.0,0.0,58.892325333327804,19.630775111109287,5.550724194386555,3.829267034207957,3.040055176746735,2.636395880246396,1.7969523079604743,1.2631004139856306,0.8981327686097029,0.6404166995449025,0.47949482119883763,0.3410222666030766,0.2073643275797453,0.13679256777204452,0.08578649099030204,0.04659537499405052,0.023255133581702007,9.422877797640457,7.151538044836203,6.488864113494622,5.691568746653316,4.2312607714989525,3.281897644677767,2.8393589745406427,2.2906158655078697,1.8183808032074245,1.2659335891080195,0.8742446955883206,0.7219924761064008,0.47226477985725396,0.28941375083267185,0.18128778582253202
0.0,22,22.0,0.0,121.0,0.0,0.0,0.0,0.0,-90.0,0.0,-45.0,0.0,0.0,0.0,58.892325333327804,19.630775111109287,6.050832758922242,3.889601310405211,3.5650198031125067,2.305693477921607,1.9163201887332253,1.3252148192793374,0.8799172275209748,0.6903285288943936,0.4849950872285026,0.30173660310038825,0.20709467663077225,0.14294053718728456,0.0875201125573403,0.04612225128426047,0.01591614265692222,9.233400976910083,7.43217142793587,6.014982750233066,5.586385236136126,4.619196465687442,3.416988457260689,2.694188599369719,2.2466845893783427,1.6976392456974363,1.2829598926255712,0.8394790560075637,0.647414424925598,0.4072783543254394,0.2929921526400107,0.1639264029615569
0.0,23,23.0,0.0,121.0,0.0,0.0,0.0,0.0,-90.0,0.0,-45.0,0.0,0.0,0.0,58.892325333327804,19.630775111109287,6.405378262373788,4.1700072340300585,3.272854220486733,2.6254793937750684,1.7866938510951262,1.3056678800639854,0.9038663144946391,0.656627267795607,0.44099364971041827,0.3272078669358519,0.21585583377682332,0.12167709871240417,0.07858177126094672,0.044614463029269795,0.02293827304482647,9.017043486849937,6.839663901617129,6.506397515950067,5.744869764608314,4.4976860753099785,3.1781561762873913,2.707324770798799,2.0829840784972355,1.6225584925710463,1.2281745884213673,0.8909827795220701,0.6429406054594323,0.4337221693020881,0.2779957656506109,0.15700266723831352
0.0,24,24.0,0.0,121.0,0.0,0.0,0.0,0.0,-90.0,0.0,-45.0,0.0,0.0,0.0,58.892325333327804,19.630775111109287,6.142060004956184,4.0799526769337415,3.359045545729298,2.546945155744432,1.741020463666671,1.442795152978313,0.9152693721380186,0.6170219734923417,0.45848023234800545,0.31318489397583105,0.21613323453178437,0.1452257579437342,0.08655958695823834,0.0443276162073741,0.018180233267951526,9.223573428681496,8.634554893859518,6.395949006634621,5.9208717909975075,4.471171958389909,3.2513226842470218,2.865885269137337,1.966615071617435,1.6121618724756785,1.1881846562464808,0.9435027396957283,0.6597065542637344,0.4149618399121127,0.27244876955284647,0.17519365871856796
0.0,25,25.0,0.0,121.0,0.0,0.0,0.0,0.0,-90.0,0.0,-45.0,0.0,0.0,0.0,58.892325333327804,19.630775111109287,6.156192066462603,4.137974336119809,3.1607301975615902,2.408151447297199,1.8134275652465701,1.3257258730376797,0.9705544479112966,0.6347883169999371,0.4682258298419755,0.3030546847243216,0.21248254035535719,0.12490867136774718,0.07899253221880032,0.04655588234765619,0.023207206228413213,10.012641193781407,7.736337607772675,5.895352754480345,5.246613633118935,4.287470972472118,3.3279821997205676,2.504919068053899,2.1680533292791635,1.6283248202653762,1.1915173341739176,0.9292495690127615,0.6036219470354225,0.46796095821108796,0.2678825032088517,0.15848551343172587
0.0,26,26.0,0.0,121.0,0.0,0.0,0.0,0.0,-90.0,0.0,-45.0,0.0,0.0,0.0,58.892325333327804,19.630775111109287,5.467278187307698,4.044166450113693,3.4695863144008436,2.4437556079611618,1.7060258076886337,1.3333844335773335,0.8616559612680459,0.6680006750370252,0.45378828824043504,0.30907024767508157,0.2238415962628992,0.13255120741431,0.0757666548759714,0.043296029141753706,0.020286361224076687,9.136878734473123,7.340702985015975,6.541823469838454,5.2762101029148205,4.532038349775987,3.444429569095643,2.664560487449388,1.8868312435489312,1.6646814008348612,1.2506541301379237,1.0134308085485806,0.68183783795952,0.3900306127045884,0.27795257137045787,0.15656339266688385
0.0,27,27.0,0.0,121.0,0.0,0.0,0.0,0.0,-90.0,0.0,-45.0,0.0,0.0,0.0,58.892325333327804,19.630775111109287,5.973905959001212,4.013127620387396,3.15816402336677,2.5468298914523486,1.7462245651699775,1.330504977123036,0.8802063228097005,0.6406043660085717,0.4124524172685484,0.2981125613246248,0.1903335927302497,0.13600530228943514,0.07607234892104013,0.04219516711467032,0.019492319898037992,8.872995029208111,7.036818893337174,6.656112671337742,5.793619898416976,4.353406505846419,3.219601051980334,2.662545948749185,2.0297605100460463,1.6173509490497862,1.1374721259933136,0.8421429012911776,0.7136346998002031,0.4566388058060715,0.2683924728149167,0.16931859867683036
0.0,28,28.0,0.0,121.0,0.0,0.0,0.0,0.0,-90.0,0.0,-45.0,0.0,0.0,0.0,58.892325333327804,19.630775111109287,5.764272869269178,4.059388279130756,3.235158615319644,2.5361119841695725,1.8343523684026775,1.366179294527111,0.8985017367544874,0.6398446527010383,0.403433801170321,0.339591054898474,0.20681798493353143,0.1400215454058261,0.07579602374758765,0.043863302030114876,0.018263674375070954,9.463317627901205,7.761972855893476,6.4908251987380705,5.174746791538082,4.452832437153935,3.457240893227821,2.5382897001898486,1.7268049998847959,1.5868280344400312,1.14458571776233,0.8740165593233455,0.6063800988318855,0.401978722338618,0.2722778817491594,0.16736265776280992
0.0,29,29.0,0.0,121.0,0.0,0.0,0.0,0.0,-90.0,0.0,-45.0,0.0,0.0,0.0,58.892325333327804,19.630775111109287,6.335547480221477,4.074492979530566,3.327221579270934,2.448390601622006,1.5902973902185202,1.3029860169182608,0.9343446140138287,0.5600156231001092,0.4184871300980168,0.315761744429059,0.1976712023091331,0.12345735161385138,0.06774428241485281,0.04287064569495187,0.02567464719587003,9.21526380261028,7.335547116587693,6.266002163715689,5.404588714655205,4.66805619477917,3.526407462429349,2.7609929763923806,1.975585312919008,1.6056224421146936,1.2534200400792017,0.9006240033431663,0.625227941005295,0.37153410007093,0.2709332881935261,0.15503062503563492
0.0,30,30.0,0.0,121.0,0.0,0.0,0.0,0.0,-90.0,0.0,-45.0,0.0,0.0,0.0,58.892325333327804,19.630775111109287,5.6594250431362125,4.340566484762977,3.1825895888889377,2.752402553954916,1.574084113746918,1.2976191644473138,0.901975612020478,0.6217410716325922,0.41710599888452937,0.26964131256040624,0.20409344955323047,0.12482804429835682,0.07129663664746373,0.04065757705652033,0.0204844575175889,9.524259520047416,7.124268813804484,6.563299678444077,5.3499008811412665,4.292692517852631,3.228814520254246,2.709721655645313,1.8709636434797072,1.6238137929084149,1.1356143505168206,0.8881970548285345,0.6134633197229994,0.4376170552988902,0.24117912848786457,0.14685019368850594
0.0,31,31.0,0.0,121.0,0.0,0.0,0.0,0.0,-90.0,0.0,-45.0,0.0,0.0,0.0,58.892325333327804,19.630775111109287,5.862073328093843,3.79537725117484,3.094323145100225,2.47315441816814,1.7789268012200166,1.2779972116106595,0.9428893410616317,0.6701444131850363,0.44305321276016074,0.32340776225371737,0.18417117723617685,0.13638534791462742,0.07983671262820843,0.043278629574301196,0.02409458613413909,10.110428985398139,7.331613085998515,6.430010261630527,5.803582741680399,4.596782400977268,3.54216205194928,2.4266032946296017,1.9166317776322532,1.4922427504008464,1.1389123170099484,0.8227921750615617,0.5569637017316603,0.3893571329160763,0.2780374039344722,0.15623723157582006
0.0,32,32.0,0.0,121.0,0.0,0.0,0.0,0.0,-90.0,0.0,-45.0,0.0,0.0,0.0,58.892325333327804,19.630775111109287,5.406083090610539,3.902835052741369,3.610233640934882,2.5460637329023936,1.8531019621814753,1.3015476570278284,0.7916570362300146,0.5606483755841046,0.4563451468554011,0.2749183978646161,0.19055003473911586,0.12759190520965302,0.07355678334561763,0.04169193890130664,0.016430173154518963,9.337371013487417,7.965839435627245,6.428431715837814,5.1669802831226175,4.576333450679462,3.480791701818203,2.572008794649275,1.8410922956960307,1.4945456524919596,1.0797465285059473,0.794592094367359,0.56147954135903,0.39145727667032365,0.263969899246512,0.15739043063123542
0.0,33,33.0,0.0,121.0,0.0,0.0,0.0,0.0,-90.0,0.0,-45.0,0.0,0.0,0.0,58.892325333327804,19.630775111109287,5.809516620958076,4.125720751402921,3.259502540159598,2.6624785301990683,1.926145327847488,1.2225176519808933,0.8806737654377398,0.5744791027405585,0.3821816855004271,0.2608661575082798,0.1891600648013567,0.131471821543976,0.06621747686341076,0.040967352711756555,0.023845457748965238,9.234402780181073,7.553418067087918,6.654447262923598,5.09642136498558,4.261939130847441,3.3464163305499213,2.7887060667664847,1.7607471208460865,1.501641513667454,1.1386939566287837,0.7831598186927353,0.5656958919950575,0.39656309659855327,0.24296828001582946,0.14911652033923734
0.0,34,34.0,0.0,121.0,0.0,0.0,0.0,0.0,-90.0,0.0,-45.0,0.0,0.0,0.0,58.892325333327804,19.630775111109287,5.608112209002565,4.317926756507392,3.0822695842591594,2.406748200351216,1.783035631808337,1.2879392153602118,0.8513861142227193,0.5807913554801047,0.42963952790866844,0.2976684946311101,0.1792990622123456,0.11715526522709263,0.07044974215747782,0.04338209852511228,0.013063234039280773,10.594650795899366,7.922917846121536,6.42827015102682,4.936238704124991,4.74896127816632,3.3908153245386443,2.699419422368451,1.8062403562811835,1.5153557267385742,1.0778960237229218,0.8430008942318575,0.6153956912077724,0.373974098095347,0.2515123016553182,0.14660780142524635
0.0,35,35.0,0.0,121.0,0.0,0.0,0.0,0.0,-90.0,0.0,-45.0,0.0,0.0,0.0,58.892325333327804,19.630775111109287,5.94333078984267,4.026942018828996,2.966888932340036,2.5177122188079815,1.8584107945340018,1.412523207845082,0.8939043583514232,0.5812130955850291,0.43449356227064534,0.2864054607999032,0.1974336575329893,0.12268396629360886,0.07152644360833567,0.03660815171457941,0.017778825828603798,10.236909028327677,7.513462226141234,6.588469170870333,5.3481616608984135,4.532658892881799,3.617532896593008,2.447692520609679,1.9462355179584498,1.3995260289466596,1.2409227754718912,0.8019672552619772,0.6179836793573104,0.423732366525302,0.2707483750514904,0.14760680093704612
0.0,36,36.0,0.0,121.0,0.0,0.0,0.0,0.0,-90.0,0.0,-45.0,0.0,0.0,0.0,58.892325333327804,19.630775111109287,5.3398271904154795,3.7764103822399995,3.4308554552109785,2.421728542187741,1.8763054637169332,1.2524864675515694,0.8545682877724705,0.6005232074043015,0.39571188622972675,0.30239318282040234,0.20698361885264796,0.11610138765007878,0.06467356286885645,0.04193749236082741,0.01937073058496201,9.72125594684696,7.768991869663537,6.382804373339988,5.502941901169195,4.335562280460389,3.3142935510775584,2.614642886660136,1.9628749528772789,1.481818533272285,1.117744292529407,0.7904149079510261,0.5930703441757974,0.3868573972336351,0.2550967420618693,0.15904371304400886
0.0,37,37.0,0.0,121.0,0.0,0.0,0.0,0.0,-90.0,0.0,-45.0,0.0,0.0,0.0,58.892325333327804,19.630775111109287,5.706791467079527,4.522781219328401,3.1801322228923405,2.873376098948396,1.925511084763596,1.4356405444756042,0.8450706186489764,0.6021275812442821,0.40168195976011223,0.27595310267613216,0.1737399652063815,0.11954492314162116,0.06886288736501237,0.042084507641957244,0.02109782251184927,9.904839260379083,7.5005707692329455,7.020144428974959,5.0942854003774105,4.548777428741855,3.14929143946706,2.39786281166314,1.641230813526818,1.5038288549442935,1.1997771674558884,0.770742330343109,0.5558557582602204,0.40800377021320217,0.26830530657665413,0.14603199669629074
0.0,38,38.0,0.0,121.0,0.0,0.0,0.0,0.0,-90.0,0.0,-45.0,0.0,0.0,0.0,58.892325333327804,19.630775111109287,5.792034517572677,3.9221625673428484,3.26899637125401,2.6178071914475662,1.852368901119792,1.197278236609948,0.867779924372777,0.5608915138321557,0.40059030942036766,0.27022899802958056,0.18034591937437844,0.1032302618007066,0.06318868946954657,0.04155972050231033,0.023521020413344963,9.380498060286495,8.05556214230713,6.961221005388358,5.326789625659066,4.276965363689829,3.6525926069403747,2.3275480369272636,1.878815994284815,1.4858163264939208,1.038651707786273,0.7754421851416495,0.5354295972444414,0.4017484370693867,0.24635335867675018,0.13337027433985896
0.0,39,39.0,0.0,121.0,0.0,0.0,0.0,0.0,-90.0,0.0,-45.0,0.0,0.0,0.0,58.892325333327804,19.630775111109287,5.766283268596011,4.621874127950674,3.3040827838940294,2.517613272053765,2.013568693401847,1.2146470660108852,0.8662014951067736,0.5182900724691308,0.3979675026044588,0.2619721036317436,0.18065026784608254,0.11704323580783545,0.07130264744293699,0.0318975734424973,0.018184396087569863,8.638940845268985,7.892904693826423,6.771730997533682,5.6504325730585485,4.366277698214146,3.5398677573551542,2.6266406488843357,2.0247753397921335,1.4081965600680764,1.0501737705769019,0.7439946331247488,0.5793070254725543,0.3772706876949209,0.24772723515136952,0.15337685259005346
0.0,40,40.0,0.0,121.0,0.0,0.0,0.0,0.0,-90.0,0.0,-45.0,0.0,0.0,0.0,58.892325333327804,19.630775111109287,5.464688758344395,3.874605841244717,3.1395168215756626,2.6641881503765723,1.8160526891511313,1.214932647658866,0.8547776389599896,0.5800471838310511,0.36806174866842606,0.26836722021706855,0.1772062914817052,0.12436178247501392,0.06789366651992375,0.036780973049046574,0.017536035664680327,10.595272104660928,7.382661235495876,6.415466490561217,5.712064244055474,4.498634880107644,3.365971070857735,2.6232324190090766,2.0298934184736193,1.2642046159254243,1.0876593855344046,0.7906366484722768,0.5729912041901766,0.42216465326745756,0.23650192609844004,0.14087291400466478
0.0,41,41.0,0.0,121.0,0.0,0.0,0.0,0.0,-90.0,0.0,-45.0,0.0,0.0,0.0,58.892325333327804,19.630775111109287,6.117641344653146,4.208982512346253,3.4835010475720214,2.4870048844458528,1.8569018348858655,1.3318836244897772,0.868898972988321,0.5607860619568752,0.35528214618922127,0.26972784341858863,0.17715072236701168,0.10577950549402304,0.07300912398901237,0.035496396689307756,0.018216285163877913,10.33630123364052,7.791903789766544,6.1633565592196815,5.866952654368486,4.96631820658877,3.6590242482080493,2.5736105545157946,1.9174639907600608,1.3748022085705123,1.0386473934288305,0.8234019043358847,0.5957408236078507,0.3374686576173761,0.24286564607777533,0.13834218465725392
0.0,42,42.0,0.0,121.0,0.0,0.0,0.0,0.0,-90.0,0.0,-45.0,0.0,0.0,0.0,58.892325333327804,19.630775111109287,5.871269779366281,4.303629931246282,3.5353553561575564,2.648518900144953,1.8562971356120175,1.3063343771866562,0.8238394595938126,0.5440182652965906,0.37238557582487375,0.2715689990541552,0.17028047489502382,0.11082495845579751,0.06693203098704753,0.03804610462205838,0.019178167567664845,9.285792549683432,8.140955074324184,6.602490026285893,5.483552991786145,4.419103034831058,3.3119339596701063,2.4790750548913993,1.841681691658068,1.4768225205949912,1.1237686711829513,0.8104504573219107,0.5501483554990236,0.38831634266008236,0.24885913030199613,0.14499534762372335
0.0,43,43.0,0.0,121.0,0.0,0.0,0.0,0.0,-90.0,0.0,-45.0,0.0,0.0,0.0,58.892325333327804,19.630775111109287,6.116774431871356,4.463010936103173,3.379956078190495,2.732002158365731,1.7735897406790768,1.2665133893403009,0.8977792652510341,0.5429488071348711,0.3582507592799206,0.24244285630981569,0.17258392172921322,0.10517172136438616,0.07287594590692471,0.03407129030820365,0.02371538337959682,9.767964284451812,8.02975748768964,6.80174343623113,5.970302317386428,4.435666825524132,3.4147140946331214,2.331296615864667,1.8535817389575324,1.3960629213620288,1.1564658066086653,0.7774515290717727,0.5701213100130762,0.378901193404117,0.24059930166256435,0.1270172400686602
0.0,44,44.0,0.0,121.0,0.0,0.0,0.0,0.0,-90.0,0.0,-45.0,0.0,0.0,0.0,58.892325333327804,19.630775111109287,5.910955704733141,4.580249385646494,3.1066260116504547,2.6603615149248343,1.9121351612928845,1.202945110862558,0.8310055576158566,0.515972795153589,0.35944798646712617,0.26508255509095746,0.17595707645799438,0.11288641460309749,0.05668536389990132,0.03128844910833214,0.02100380412237775,10.260916408969875,8.4771710640452,6.745874077188966,5.266495322861262,4.504177523436958,3.243246985195203,2.352907362149389,1.8433441157394805,1.4608869958973574,0.9831078184484519,0.7407806675543954,0.5407178452243726,0.34879526125359034,0.2287137566460466,0.12496208696337513
0.0,45,45.0,0.0,121.0,0.0,0.0,0.0,0.0,-90.0,0.0,-45.0,0.0,0.0,0.0,58.892325333327804,19.630775111109287,6.337509759546078,4.05921285348877,3.347798807273608,2.5823160926195774,1.9721335666816007,1.2404558284325597,0.812880401691905,0.49762243212209206,0.4040372898224399,0.25562526219711396,0.1573928032825252,0.10196294147378021,0.05715845374833475,0.03570800713248319,0.023448213609032403,9.893878658329484,7.097185731276296,6.910304553000954,5.377759532817147,4.5320869193480595,2.9714235521994197,2.33276269288843,1.880286332887264,1.3645164530027298,1.06152231327854,0.7520660961345786,0.5343292299390974,0.3322020457385202,0.2121461103226271,0.15221014205380606
0.0,46,46.0,0.0,121.0,0.0,0.0,0.0,0.0,-90.0,0.0,-45.0,0.0,0.0,0.0,58.892325333327804,19.630775111109287,6.404966230714546,4.08700840714282,3.646179073066062,2.61904946894818,1.8246958728172764,1.2737896716127823,0.8224274031396392,0.512574933723751,0.35100457292171666,0.2409520272980412,0.17442633993893294,0.10275365804407517,0.06639604969479816,0.03501879486949028,0.01846902428984228,9.922462564108047,7.934294039253161,6.942187891153715,6.0680116455970605,4.623112780342412,3.316824229509419,2.5903189790483983,1.7867273289885426,1.389026776387038,1.064234150384417,0.7385500411188827,0.499182502971916,0.3720906586801032,0.22525449699692535,0.14154579319152552
0.0,47,47.0,0.0,121.0,0.0,0.0,0.0,0.0,-90.0,0.0,-45.0,0.0,0.0,0.0,58.892325333327804,19.630775111109287,5.985454373898541,4.066875475367927,3.510792395238775,2.747367538266811,1.804592834884204,1.3354858801032616,0.8067191563667951,0.5627183209263124,0.37177558579399195,0.28180367391567573,0.16625334147979243,0.10561507354155505,0.06343862926556766,0.03343768150683302,0.019526350286398913,9.499002812628962,7.704749522019156,6.799350813131332,6.112972522497654,4.6504909924896145,3.3800448862571764,2.4563928585667556,2.0007574581544563,1.3176658637821028,1.00642716522177,0.7434878317093331,0.526432575965696,0.353315905767893,0.24068620141311023,0.12898087637189937
0.0,48,48.0,0.0,121.0,0.0,0.0,0.0,0.0,-90.0,0.0,-45.0,0.0,0.0,0.0,58.892325333327804,19.630775111109287,5.618045360771045,4.16612871356044,3.736659406571843,2.5559787189817915,1.91464065172668,1.183025032410269,0.8296703937194562,0.547750816145353,0.33308969078741313,0.2424216852796907,0.15026440005426822,0.10070238899877389,0.065329276394771,0.03596341136635836,0.015584416522966016,9.938687600219385,7.878339691120942,6.680989028129991,5.391977996965878,4.483084968552054,3.8807309603591547,2.4813870184334967,1.7275304264991864,1.229131561696932,1.0442208845106176,0.7621329433033875,0.4659069952908503,0.33094579340974356,0.2443938423946807,0.12553223384253362
0.0,49,49.0,0.0,121.0,0.0,0.0,0.0,0.0,-90.0,0.0,-45.0,0.0,0.0,0.0,58.892325333327804,19.630775111109287,6.582234747715596,4.255676940102467,3.304845772761702,2.3888553759226747,1.8626272662416794,1.2301823859079404,0.8186358322395385,0.5464416506644052,0.3278356031514393,0.21957042618984604,0.16631829993073793,0.10690267492885072,0.05613741196971533,0.032763817982407226,0.012301190698484349,9.458765782896842,7.45693861600727,7.0434888095584824,5.548556548001358,4.33196617757024,3.5238916086734826,2.390482775336123,1.9153650187576103,1.4128167515322336,0.9768091684382488,0.7140354914065729,0.5385138979894005,0.36611892173793903,0.23188289070567716,0.12799420882142948
0.0,50,50.0,0.0,121.0,0.0,0.0,0.0,0.0,-90.0,0.0,-45.0,0.0,0.0,0.0,58.892325333327804,19.630775111109287,6.135165705051597,4.206511691797071,3.3090194987217703,2.6463938357044654,1.8738355546493926,1.1769838602555005,0.8450418559171755,0.5040813526096727,0.3509196298698324,0.24009966898020554,0.16999807540548004,0.08975280453529681,0.06176394060431846,0.03139053559313003,0.014621174715172073,9.401874001027112,8.05233324730148,6.631656224883225,5.810460235174655,4.330855938991402,3.582470479075205,2.5442021178854444,1.8529664151704623,1.3652360964147847,0.9931278810379045,0.7341142167299364,0.5177328794613199,0.37509411827611416,0.2395171874797419,0.1343602203619559
0.0,51,51.0,0.0,121.0,0.0,0.0,0.0,0.0,-90.0,0.0,-45.0,0.0,0.0,0.0,58.892325333327804,19.630775111109287,5.999525774353786,4.692623693725088,3.5124324263239313,2.657977567089199,1.7697026768882709,1.1307572571235232,0.8277469397159417,0.5536420730824926,0.36198586638174635,0.22908443925354618,0.1529787717778514,0.10320577780608992,0.05697031097112811,0.038380945031511855,0.016766796504535914,9.663625358908124,7.550289865480668,6.801429283312014,5.923334871091706,4.608127468826655,3.445142083812419,2.536384601940492,1.791707348734071,1.4338819887990908,0.8473897513002729,0.6562556929761785,0.51071026542835,0.37890356313875906,0.22731476933200134,0.12679722367978633
0.0,52,52.0,0.0,121.0,0.0,0.0,0.0,0.0,-90.0,0.0,-45.0,0.0,0.0,0.0,58.892325333327804,19.630775111109287,5.909552435540685,4.520933393111691,3.4784098747645706,2.6166709648485496,1.966187326779545,1.222138992186082,0.7857436854247319,0.5288173417277391,0.3571751767963801,0.21752504678422432,0.1405796254825343,0.09985137990525102,0.06243340487154854,0.03573486719644125,0.01997561927266398,10.009800188543055,7.718980677285594,6.497090297544777,5.271945618577023,4.523209706790362,3.421049996288769,2.509763378932887,1.789117205284245,1.189708993261691,0.9977065831588378,0.7356504869643908,0.5321223987665178,0.3636163448345997,0.23593688340948663,0.14551671389802093
0.0,53,53.0,0.0,121.0,0.0,0.0,0.0,0.0,-90.0,0.0,-45.0,0.0,0.0,0.0,58.892325333327804,19.630775111109287,5.701948186911354,4.507621460871333,3.2406313010863284,2.6577582547060548,1.960782001957369,1.1946775012191453,0.8272267276662136,0.5239025574560973,0.34952422985372933,0.24190002504574307,0.16754641164097647,0.09778455991649282,0.05315738148529581,0.03333363266149971,0.020633424995647527,10.8994872897083,8.11924724994345,6.560441649920519,5.3773563540533,4.885898444014491,3.50808245032442,2.4000271066342753,1.7716089045581966,1.3739715047718855,0.937866423747621,0.7054368576479357,0.5175328611437766,0.3609880427495201,0.2380818280534763,0.14521118546033832
0.0,54,54.0,0.0,121.0,0.0,0.0,0.0,0.0,-90.0,0.0,-45.0,0.0,0.0,0.0,58.892325333327804,19.630775111109287,5.531920728633921,4.265781953160291,3.4371822854921175,2.3849447079857753,1.864150205358219,1.238261532034285,0.8105060558668334,0.5253246518194576,0.3366901534123332,0.22801067339699665,0.1680091691055118,0.10632919273440172,0.0559942293359758,0.03116172834221577,0.016231278015483585,10.217035864683817,8.120985205786377,6.574303654641127,5.4436410950245095,4.417382454448893,3.446060757942793,2.448074408778252,1.7759469970322945,1.436126139314539,0.9376352593803026,0.7237619640611083,0.5511108358464747,0.35438346978520396,0.22796243785753212,0.12917543686049204
0.0,55,55.0,0.0,121.0,0.0,0.0,0.0,0.0,-90.0,0.0,-45.0,0.0,0.0,0.0,58.892325333327804,19.630775111109287,6.396099822353498,4.771521602639774,3.5842739062837112,2.613086617242342,1.9631023097023903,1.3350283449610683,0.8141578683525483,0.5857312007973248,0.3369094233334039,0.2245975647400283,0.1580535484535639,0.09645042813701422,0.06036531692842588,0.037676133706605844,0.01977979299695309,9.185365762065564,8.476250099594761,6.665103866936589,5.620646926048308,5.0072017824428166,3.61858810236104,2.32631227902092,1.8896620801185249,1.2805970594858032,0.9546430598947007,0.6858968259220984,0.5429112911526554,0.3404375962753334,0.2511170063474679,0.12728892560008231
0.0,56,56.0,0.0,121.0,0.0,0.0,0.0,0.0,-90.0,0.0,-45.0,0.0,0.0,0.0,58.892325333327804,19.630775111109287,6.024106945807778,4.491938857410011,3.7819500745288397,2.7944616943114347,1.7913362530123371,1.2063821979151694,0.8092201549172358,0.5372285623504743,0.3880098907110189,0.22063965502573518,0.15051732233076495,0.09372405733095635,0.05362544812185299,0.03696691515910844,0.015286283272899166,9.54781762982743,8.4393167665304,6.737814355928717,6.204043640560851,4.7073389659609415,3.417302646443449,2.6536174522698026,1.7738892094779661,1.282283959607045,0.928271076730216,0.694618862557058,0.4592254022957881,0.32355928806332596,0.22202991574798278,0.1269939593890323
0.0,57,57.0,0.0,121.0,0.0,0.0,0.0,0.0,-90.0,0.0,-45.0,0.0,0.0,0.0,58.892325333327804,19.630775111109287,6.508785787869154,4.33575795486038,3.4386474539598724,2.600739378491549,1.7975153161069863,1.2594478323769849,0.7564013542000946,0.4983994594133407,0.3284918897689461,0.22664970001533763,0.1378614585010401,0.09897314713783806,0.05912595965102714,0.032429202065677745,0.016383836638930137,9.861794371079604,7.296733364274361,6.717995333970809,6.127151284178618,3.763762772177126,3.7299993719769375,2.5148201310545675,1.686361856708568,1.41360421539048,0.9773265408342228,0.7180729709300946,0.5322557813099422,0.3540110060600456,0.23022592530190908,0.14134539459903353
0.0,58,58.0,0.0,121.0,0.0,0.0,0.0,0.0,-90.0,0.0,-45.0,0.0,0.0,0.0,58.892325333327804,19.630775111109287,6.056567095569056,4.534283295814757,3.5832328410736327,2.717594992950836,1.9456634839992002,1.2741102726158076,0.8189848352082202,0.5593864089648155,0.34567103801652127,0.23588422221858485,0.14094799332522168,0.09569299902407391,0.04640220998736472,0.03132309351970538,0.013141886368976244,9.940636764546923,7.669083221992475,6.7595362879515015,5.668549644658456,4.572012927883716,3.5633053919676034,2.471042758423257,1.7057828127887567,1.374213156405929,0.9105271058341873,0.6705538243668618,0.47303309745190064,0.3431188288882087,0.2264234869308965,0.13707234423415365
0.0,59,59.0,0.0,121.0,0.0,0.0,0.0,0.0,-90.0,0.0,-45.0,0.0,0.0,0.0,58.892325333327804,19.630775111109287,6.063869304579507,4.316698301692802,3.2800912467867724,2.469855983755375,1.886492429086907,1.4116999589131802,0.8109282206741029,0.5057886270228347,0.3037939635064261,0.19999022930998314,0.1429755984888205,0.09035035037916023,0.05924407333920912,0.025350814347561843,0.018337198045021087,9.618004375311305,8.147357812004515,6.737590982921263,5.998254333499878,4.9003210902367655,3.8756894960518236,2.460511264570994,1.6475976166284299,1.2763206242382545,0.8665377630330127,0.6991176173665347,0.4999036673892741,0.3212280378420278,0.21317955962075003,0.1291106793121721
0.0,60,60.0,0.0,121.0,0.0,0.0,0.0,0.0,-90.0,0.0,-45.0,0.0,0.0,0.0,58.892325333327804,19.630775111109287,6.178655619462178,4.376443071181156,3.5750039277375847,2.6300081882102653,2.016259106364007,1.1485935720583056,0.8532705468231185,0.48191417466943864,0.3272737044728178,0.22982989760624756,0.1358244543600511,0.07864573676843248,0.06742243174311979,0.03670829616850027,0.018378436099253895,10.59573916986685,6.958318725943016,6.5771082985778495,5.803658106594494,4.291944038829414,3.3866038167743904,2.578907401304538,1.799103029094253,1.2846832559189496,1.0136718466573817,0.7038653485075557,0.48679146945353335,0.30918893244531964,0.20747938230082333,0.12713883490969358
0.0,61,61.0,0.0,121.0,0.0,0.0,0.0,0.0,-90.0,0.0,-45.0,0.0,0.0,0.0,58.892325333327804,19.630775111109287,6.550565793492763,4.251138837628412,3.5872171857916904,2.723859236369601,1.8546563169108126,1.2099198009797083,0.8231427110574181,0.4984609603358699,0.3185847427601381,0.21392035175786542,0.13032356507225343,0.08779906141979406,0.05164381527449557,0.029248004614301833,0.012389721497476086,9.48474439032368,8.431202087188995,6.856823448192947,5.98466733111979,4.6521767601988655,3.3827661762585346,2.3919890399753894,1.6845568923519985,1.2001732129574103,1.003196586570241,0.6803006159404253,0.4637786371966091,0.3201950685669925,0.20116498481111197,0.11968932499881396
0.0,62,62.0,0.0,121.0,0.0,0.0,0.0,0.0,-90.0,0.0,-45.0,0.0,0.0,0.0,58.892325333327804,19.630775111109287,6.685030853263106,4.027802988422069,3.5265141906695745,2.566530342901281,1.7799710634801689,1.308080221582589,0.802731458824824,0.5717363870933592,0.325012237217408,0.1980400275295414,0.14043533345994974,0.08891006992878842,0.0508895130055929,0.03068262645716987,0.013806190619218128,9.956710921676013,8.537110216850891,6.8146217844378,5.313123136238141,4.956502667619138,3.481527756178492,2.819403241421065,1.6828429973412922,1.2059358039192607,1.0258906775651842,0.7000082456797735,0.467998335888571,0.2981554624654452,0.20837655803602767,0.12374919129864874
0.0,63,63.0,0.0,121.0,0.0,0.0,0.0,0.0,-90.0,0.0,-45.0,0.0,0.0,0.0,58.892325333327804,19.630775111109287,6.076850001190641,4.153072328543252,3.5972054546170353,3.0383613273691177,1.9647349549581308,1.334229193782544,0.8428545358928676,0.550289385627523,0.32897263585572944,0.213901555247886,0.1301220415225751,0.0852236902092085,0.0599535769775924,0.030398041024814824,0.018021246402450636,10.675273126693716,8.391564652190334,6.562777124619822,5.833067145108087,4.815891904584267,3.346716222098372,2.5194720486376285,2.0203227174691203,1.2171169904377859,0.915047305841965,0.7038779093808556,0.5046300536738412,0.32596873471760424,0.22422890756174008,0.12449968617497333
0.0,64,64.0,0.0,121.0,0.0,0.0,0.0,0.0,-90.0,0.0,-45.0,0.0,0.0,0.0,58.892325333327804,19.630775111109287,6.457571345830255,4.183913418650219,3.4625656838482493,2.5939846268928637,1.9110685296369192,1.3767006760620688,0.7198431196058399,0.5722181964199516,0.31634514852991025,0.22271033027986512,0.13636722570405338,0.09158983270704779,0.052316735116702325,0.03140651678246159,0.012790212404065106,10.338796152728943,8.553424433918002,7.74277131250663,5.639670605574761,4.606599560406711,3.50865765381947,2.4013941504716056,1.6568426958821687,1.2609041818426379,0.9383936223561317,0.6108857261850459,0.4368267768373938,0.31763641627017697,0.22052922861846638,0.12773762900641517
0.0,65,65.0,0.0,121.0,0.0,0.0,0.0,0.0,-90.0,0.0,-45.0,0.0,0.0,0.0,58.892325333327804,19.630775111109287,6.401289029685104,4.440584713746633,3.7733392208654544,2.688249156563817,1.9743917118189143,1.357237263107872,0.8789494702406997,0.48066613810000264,0.28902400004227563,0.20767209112777427,0.13760029621312417,0.07972934181186854,0.052549447197751016,0.029419303347027175,0.014495102812153,10.322502015898312,7.896735943925683,7.2646336926948125,5.595343233530217,4.643307890952971,3.3981144605258717,2.695449463926775,1.8806474198579255,1.342456372287481,0.8608249286121589,0.6021126919881035,0.46590321899820786,0.3494902574889156,0.21129129472672517,0.12933618280110604
0.0,66,66.0,0.0,121.0,0.0,0.0,0.0,0.0,-90.0,0.0,-45.0,0.0,0.0,0.0,58.892325333327804,19.630775111109287,5.6371442350672565,4.112968749682842,3.318648452927127,2.6418610106212905,2.007290774825959,1.2788609955517003,0.8880177138680497,0.4893791518152245,0.3043320028859849,0.2223575935079665,0.12969190656168114,0.0877293559678359,0.05134519801172948,0.032525551405643054,0.015187371170483858,11.024815349660535,7.58656925302287,6.5504285684978365,6.472602755108915,4.572979044978714,3.640296749880962,2.5275192866797966,1.7377267774136034,1.295091731822224,0.8503627541913611,0.6674977525760267,0.47047658568816414,0.3116845876254529,0.2065432789018972,0.11863365089429703
0.0,67,67.0,0.0,121.0,0.0,0.0,0.0,0.0,-90.0,0.0,-45.0,0.0,0.0,0.0,58.892325333327804,19.630775111109287,6.492482370666634,4.446686522368344,3.8126168330283665,2.757220287134742,1.879402051957508,1.209466899735265,0.7999688495138441,0.4803994160297498,0.3024348380403144,0.18750571315839487,0.12775255977000471,0.08822709305284197,0.04678124500537816,0.028666669893807773,0.012509364800146331,9.605379595811279,7.674611424358282,6.227052796309815,5.9221646951658835,4.213423866157846,3.5301083539046565,2.3243121059550504,1.75029819778707,1.2989138042163786,0.9180458642530805,0.6657951049382141,0.4474023405942274,0.31314806498381287,0.1944998922462134,0.12246885362776624
0.0,68,68.0,0.0,121.0,0.0,0.0,0.0,0.0,-90.0,0.0,-45.0,0.0,0.0,0.0,58.892325333327804,19.630775111109287,6.5314353224854464,3.997158061512691,3.4697128689195047,2.704068269872455,1.9867736720507227,1.3244900800462893,0.8182647821785308,0.4761285779625858,0.2895571844153389,0.21334699698458237,0.12757260449469082,0.09148416655345683,0.04931138780690008,0.03069500268834867,0.016908484519285154,10.282879250286271,8.179662369505847,7.207755425144435,6.1374258728821385,4.652758559544637,3.778292137655987,2.435739841936014,1.724143853142278,1.219726142115925,0.9364374880085498,0.6178914022805587,0.43372744462090057,0.32640854635631966,0.19356490357869066,0.11892160929537639
0.0,69,69.0,0.0,121.0,0.0,0.0,0.0,0.0,-90.0,0.0,-45.0,0.0,0.0,0.0,58.892325333327804,19.630775111109287,6.477001719220863,4.534925035198581,3.467912850126459,2.5438143442643466,2.032551431478776,1.3474309620153588,0.8858460614537167,0.5070450677865761,0.320226377420794,0.19671844778376815,0.12458234834319162,0.07879406537311263,0.04475242694710006,0.029285472283490547,0.014534024544678786,10.573849971468404,8.194042474106402,6.831927434843796,6.166546892231195,4.435109140682232,3.3970257523092253,2.5064415928814032,1.6593831099372303,1.2357326662756114,0.9598495630060775,0.5680148509784123,0.4386240640625763,0.3072908964682604,0.19923870169973115,0.13337748770991478
0.0,70,70.0,0.0,121.0,0.0,0.0,0.0,0.0,-90.0,0.0,-45.0,0.0,0.0,0.0,58.892325333327804,19.630775111109287,6.214652343067366,4.143402048393866,3.687269226051357,2.6756392512622758,1.9979269568273361,1.402644128155038,0.7309073490229432,0.46936663529204015,0.3263473689795573,0.21196392139597015,0.12831791599649844,0.08765405344674225,0.04887023869769412,0.032718321595774535,0.017690772866671946,9.921735581341292,8.589023918695068,7.055870440449089,5.909131000841296,4.75267407438368,3.6269749722374036,2.6408869832093655,1.770005137487673,1.1535158280879048,0.8381713476321425,0.5852951949734901,0.4789014777033402,0.29467615456062435,0.17817363962311877,0.12592845412849227
0.0,71,71.0,0.0,121.0,0.0,0.0,0.0,0.0,-90.0,0.0,-45.0,0.0,0.0,0.0,58.892325333327804,19.630775111109287,7.033365705248203,4.3004875365869575,3.354080939861289,2.671181184871448,2.0060549902890394,1.227513915722883,0.850965654282767,0.5325946191102171,0.29403749675992635,0.19328742402381352,0.11733881066837579,0.0794453474464469,0.048885974928207836,0.028548571265569932,0.018251415748292976,9.603796315454249,8.510224341170051,6.900823730096302,6.063271758961397,4.8321330896413315,3.4637608192328315,2.452010050721879,1.8321262274677368,1.1931194925367317,0.8986979453870444,0.6267690381717386,0.4679774844767607,0.2755685433643854,0.19343915404321818,0.1045387607062835
0.0,72,72.0,0.0,121.0,0.0,0.0,0.0,0.0,-90.0,0.0,-45.0,0.0,0.0,0.0,58.892325333327804,19.630775111109287,6.662869284540048,4.671618979189485,3.4003438828555677,2.8081110358787265,2.0502653613717037,1.2861295831495938,0.8173119100994153,0.47666022106888717,0.3123571518929599,0.18984122136705456,0.14015752993255737,0.0765815820813866,0.0473915124379229,0.0287901727656418,0.013580617631608356,10.391443742574893,8.159106157903574,6.5797329973300425,6.16393344971906,4.614419629211792,3.7027661812477906,2.519866584438966,1.6156833286251722,1.2566888686592188,0.9198199797185509,0.5912710152502386,0.44755555178797546,0.2881258344019073,0.19645263978550714,0.11968399867049506
0.0,73,73.0,0.0,121.0,0.0,0.0,0.0,0.0,-90.0,0.0,-45.0,0.0,0.0,0.0,58.892325333327804,19.630775111109287,6.391836078576702,4.548892769121143,3.2356632500667457,2.5208584850835236,2.052360162377822,1.3018106028139882,0.8232233369068822,0.5071707734291518,0.3046816874475672,0.18439151899236578,0.1198391702996629,0.08977159239624781,0.050250260109225675,0.030983458725548755,0.015755955624751114,10.2345059049563,8.337610666624663,6.831141355719733,5.868359190734268,4.609297166851952,3.559818107517863,2.471270696244622,1.904456777951224,1.209405490338832,0.842502864851747,0.6085144832418677,0.47098917345189184,0.27223305824469085,0.20616270228777522,0.1242780867240104
0.0,74,74.0,0.0,121.0,0.0,0.0,0.0,0.0,-90.0,0.0,-45.0,0.0,0.0,0.0,58.892325333327804,19.630775111109287,6.309800306846967,4.472068372857957,3.660395573507411,2.8932460949124903,1.984140158534598,1.375675971208221,0.8922866485668104,0.4757148664662853,0.33226241236967696,0.21463797743830856,0.11803942233022105,0.07566731489821565,0.05256982738802254,0.02662718549717005,0.01525253314977329,10.922935752599036,8.167576893701645,7.014376181826309,6.078705779534059,4.3564300952668535,3.3779599607383455,2.5392927711041016,1.7476245374486257,1.239672365536656,0.8607437480524509,0.616822857188806,0.4128861543203638,0.27466316858187606,0.2078405306467707,0.11861712325789929
0.0,75,75.0,0.0,121.0,0.0,0.0,0.0,0.0,-90.0,0.0,-45.0,0.0,0.0,0.0,58.892325333327804,19.630775111109287,6.583054688288914,4.193066926923876,3.886854289679605,2.8599543532798686,2.0169923999236787,1.383505208846518,0.7782440811735831,0.48073564550032705,0.2909603927468939,0.20013585014222673,0.1326502825004465,0.0692964997151172,0.048405541697030006,0.029386309540324212,0.007804863712599547,10.987313935574294,8.526564209391205,6.885370121294888,6.036488204354076,4.466250452129503,3.781544041067519,2.5490745608771563,1.6964655879682347,1.2148142695844188,0.8494297159444998,0.6486937514368569,0.4164893899067143,0.2970434309488108,0.1841589074218607,0.11850176867250355
0.0,76,76.0,0.0,121.0,0.0,0.0,0.0,0.0,-90.0,0.0,-45.0,0.0,0.0,0.0,58.892325333327804,19.630775111109287,6.294822974365198,4.797362857012162,3.5863643029582484,2.7596485283895227,1.8944792428814865,1.3556601156555503,0.838438241923811,0.49149193771907146,0.2894027173257787,0.18799608286617922,0.12134579325321962,0.07978029182417651,0.05117480490248183,0.026614058311290212,0.01595279065061009,10.420370990970747,8.728146232548553,6.778082732911676,5.947806886154628,4.670108097002494,3.5719322818677344,2.604889725364341,1.7151749264133787,1.252616757794357,0.8998126051680729,0.6334584906154853,0.4407703132485473,0.2932587124152465,0.18875907405431455,0.11142651948633991
0.0,77,77.0,0.0,121.0,0.0,0.0,0.0,0.0,-90.0,0.0,-45.0,0.0,0.0,0.0,58.892325333327804,19.630775111109287,6.611624115351045,5.002355300234421,3.881677997335023,2.8259490266749983,1.7890540151567649,1.2464701712387132,0.7943893933168411,0.4747125027765181,0.2822461096729173,0.18691425396704633,0.11765717074465487,0.0748034394047459,0.05480179839532509,0.026847957498818867,0.016289160222978074,9.254147132664922,9.07559061331087,7.1474379982351035,6.1301850645473595,4.480030283682959,3.610816003251516,2.626823288550021,1.8510604587507116,1.1722445043677712,0.7994054511249994,0.5473102318384983,0.4170736623471796,0.2809239488203589,0.19566217610417755,0.1130160244309012
0.0,78,78.0,0.0,121.0,0.0,0.0,0.0,0.0,-90.0,0.0,-45.0,0.0,0.0,0.0,58.892325333327804,19.630775111109287,7.136366433451917,4.665725345891739,3.5813703289231658,2.614230019981216,1.9943924207277597,1.4066261890069587,0.8064783385287597,0.49664111126700433,0.32501145635434286,0.19930612964396885,0.12279199897180533,0.07603720691402388,0.04889108651277152,0.029344928772777112,0.01742272323186676,10.22745470397964,8.650156097126418,7.021935079243601,6.174212985260287,4.586418804317888,3.5523192396768373,2.5085167919079234,1.8391434647739489,1.1924297680076588,0.7822740722122179,0.5708923813976807,0.41681252483131165,0.3108959011989339,0.18607672923619453,0.1112939848679173
0.0,79,79.0,0.0,121.0,0.0,0.0,0.0,0.0,-90.0,0.0,-45.0,0.0,0.0,0.0,58.892325333327804,19.630775111109287,6.658393204272061,4.7227109992941605,3.6962447035470714,2.988008732801297,1.979232527794641,1.2922926550916907,0.8118414082436655,0.49772273783234905,0.3037114071046076,0.1904925138202466,0.1194986807448578,0.07593233860283927,0.04877008350027925,0.03172773568626915,0.012799184544876666,10.3507639811734,8.239493616318384,7.0554687817383295,6.360986391070712,4.976206734265897,3.549241766249833,2.5801965432409943,1.9103760237563434,1.1190389123741578,0.8613817010266046,0.5670499440492296,0.42490301629480715,0.29084906356304474,0.18124686281571423,0.11279836992258474
0.0,80,80.0,0.0,121.0,0.0,0.0,0.0,0.0,-90.0,0.0,-45.0,0.0,0.0,0.0,58.892325333327804,19.630775111109287,6.8559639473961855,4.633959904961515,3.7280366225543675,2.7539119164166523,1.980300807406253,1.2200525471517298,0.7365998975186224,0.4969430665827041,0.3096794261444769,0.18848719480031653,0.11555771283776718,0.07301316551158096,0.04132146337547154,0.027031215248506952,0.014593058485887989,10.471701295247744,7.924140193611817,7.13909209237131,6.182558005233672,4.711330357392353,3.4684156682823275,2.547201040454303,1.7045473509854479,1.2892915395750124,0.8783607114740943,0.5778760238445062,0.4151712528820755,0.2822125608222818,0.19949413386460502,0.11994202717049791
0.0,81,81.0,0.0,121.0,0.0,0.0,0.0,0.0,-90.0,0.0,-45.0,0.0,0.0,0.0,58.892325333327804,19.630775111109287,6.281515884437216,4.916348189612941,3.8555194049564876,2.6155045732757043,1.7861147253406524,1.260108107448418,0.9039127697666846,0.43897188063038506,0.33471628705648276,0.20064072169717892,0.11397221419000468,0.07039119838467547,0.04854564615271884,0.02610670911241308,0.01580441878023018,10.16346188061291,8.463688198732607,6.953223074962062,5.99230187970752,4.712077910674837,3.737089274651693,2.640101613034292,1.7924700336155885,1.2034583097698786,0.8763193207977874,0.581752032732593,0.3999078725484631,0.27197691009157393,0.1861016248577818,0.11445979823796336
0.0,82,82.0,0.0,121.0,0.0,0.0,0.0,0.0,-90.0,0.0,-45.0,0.0,0.0,0.0,58.892325333327804,19.630775111109287,6.300043071336556,4.636864323415957,3.629106853417144,2.7128033119548656,1.9412574975084287,1.3683816807117888,0.8367515541980581,0.5219788179385297,0.31186814210601715,0.1997709097919719,0.12265737563691656,0.062052708380244515,0.04821924025208027,0.02757117862003581,0.013077226180175348,10.69228550290022,7.764402718000422,6.98631300902639,5.312257147135173,4.925696704928986,3.581747107660709,2.4684861402500196,1.630067630206554,1.1759368360056293,0.8399333382965992,0.5983096981625227,0.4487427173597516,0.2696237044718503,0.19408415603383591,0.11714792941269235
0.0,83,83.0,0.0,121.0,0.0,0.0,0.0,0.0,-90.0,0.0,-45.0,0.0,0.0,0.0,58.892325333327804,19.630775111109287,6.890449831332056,4.635667847190444,3.6754552652005326,2.967704435380715,1.8179697947086093,1.395748298922784,0.8269239022367499,0.515391122327019,0.30717652027169684,0.2116211674519572,0.12714104136920457,0.07272339712830149,0.04720537592474726,0.028725158051425913,0.014525741272339644,10.251338169918435,8.061319994410027,7.554849994118524,6.786405917422732,4.657775110348449,3.5745757953394555,2.6229753899748833,1.8119595692598243,1.1818679455463226,0.8156851976088755,0.5593940686226472,0.45077378105117294,0.26339363962846446,0.17396386297070687,0.11691167517601259
0.0,84,84.0,0.0,121.0,0.0,0.0,0.0,0.0,-90.0,0.0,-45.0,0.0,0.0,0.0,58.892325333327804,19.630775111109287,5.997149186622666,4.3367518734956985,3.789688206397658,2.6916207578148823,2.2132649997262037,1.3122659973935822,0.7707301222442889,0.47267818513495813,0.27349881258003617,0.18407894770246297,0.11288666881625327,0.06564427854216431,0.046649815102566675,0.024574235437364506,0.018135620702502225,10.154666233492597,7.874057529301006,7.32694978102613,5.855956003603884,4.759935567891358,3.6414818674361515,2.5587958264883213,1.7790074543153462,1.2074740577299172,0.8395573123129303,0.6156065525566066,0.40040584334180446,0.27316882480762106,0.18415016279600366,0.10309371672023342
0.0,85,85.0,0.0,121.0,0.0,0.0,0.0,0.0,-90.0,0.0,-45.0,0.0,0.0,0.0,58.892325333327804,19.630775111109287,6.592040873257908,4.921303509373864,3.8569395517573,2.85546980938434,2.0137128779169657,1.2931361581208014,0.8892021335216366,0.5432300289692938,0.2983615625789108,0.1908040578794199,0.12051560547015443,0.07286142353167299,0.03212706572828788,0.024836512416246626,0.014957385064592413,10.990100896051647,7.695242657897956,7.377155472268245,5.921177143477176,4.718589708479325,3.7063393257221486,2.439741573810362,1.8528967975417439,1.2153382342573857,0.7921237063569728,0.53545909898012,0.4003516286472368,0.2635512287744078,0.17520781951961623,0.110526238439725
0.0,86,86.0,0.0,121.0,0.0,0.0,0.0,0.0,-90.0,0.0,-45.0,0.0,0.0,0.0,58.892325333327804,19.630775111109287,7.383397417122332,4.661548694624534,3.6320826566578477,3.042679950089314,1.9691899539003486,1.35172012201699,0.8554384478829771,0.4950775969715197,0.26972747064036956,0.1945738141176952,0.11751745611836599,0.07581454078514907,0.04502701364058195,0.026652647068054005,0.011145668050994529,9.956099612672068,8.277849192852857,6.662774287340133,5.78146815365563,4.574157339130933,3.8673110659308647,2.3952179448002955,1.7792108055462839,1.2767735242005345,0.8823958366447584,0.5418572561081156,0.3765784652397287,0.27468787722130145,0.1797750836979172,0.1154219505647738
0.0,87,87.0,0.0,121.0,0.0,0.0,0.0,0.0,-90.0,0.0,-45.0,0.0,0.0,0.0,58.892325333327804,19.630775111109287,6.45313519637175,4.484027828192859,3.765763672902205,2.6890161925012555,2.0309629658847337,1.3106437714197987,0.7970658858522828,0.5411173319390779,0.3431246696013057,0.17070402789915967,0.10994651898980345,0.06653525834549737,0.04011855473424166,0.02860776787846892,0.011376514273739865,10.526682779961252,8.677158904217844,7.8389675247989965,5.727654551934585,4.806625894142172,3.7206700677757856,2.6542477077381985,1.9233353711029615,1.1864924810733075,0.8319604268416784,0.5799250080218611,0.38399123393494,0.25919303224276097,0.16723743250864173,0.10916562928353853
