Line_number,Fiducial,Easting,Northing,Height,Elevation,tx_pitch,tx_roll,tx_yaw,txrx_dx,txrx_dy,txrx_dz,rx_pitch,rx_roll,rx_yaw,PX,PZ,S0X_time_1.086e-05,S0X_time_3.256e-05,S0X_time_5.426e-05,S0X_time_8.680e-05,S0X_time_1.411e-04,S0X_time_2.279e-04,S0X_time_3.689e-04,S0X_time_5.860e-04,S0X_time_9.115e-04,S0X_time_1.411e-03,S0X_time_2.192e-03,S0X_time_3.418e-03,S0X_time_5.339e-03,S0X_time_8.301e-03,S0X_time_1.338e-02,S0Z_time_1.086e-05,S0Z_time_3.256e-05,S0Z_time_5.426e-05,S0Z_time_8.680e-05,S0Z_time_1.411e-04,S0Z_time_2.279e-04,S0Z_time_3.689e-04,S0Z_time_5.860e-04,S0Z_time_9.115e-04,S0Z_time_1.411e-03,S0Z_time_2.192e-03,S0Z_time_3.418e-03,S0Z_time_5.339e-03,S0Z_time_8.301e-03,S0Z_time_1.338e-02
0.0,0.0,0.0,0.0,120.0,0.0,-0.9811927701564478,0.2594941081448481,0.8556027952777872,-107.05436801481952,0.0,-44.88735563803574,-0.5884531675975772,-0.5176441819741722,-0.21280856210078736,34.2899281565393,17.53971554092155,6.090473270371458,3.517245779241839,1.9845061895875498,1.6105681704655295,0.8139275652157988,0.6048821368121142,0.0959663167187231,-0.14967668812491497,0.06918246771417856,0.25163199142208115,0.2954007737450782,0.081856007933788,-0.09403567192888851,-0.04369884807640702,0.09868585155027527,8.088401817600888,5.700694681151569,4.501902681859157,3.5116934530435078,2.42315924724446,1.7444427820047967,1.0465671756957022,0.7002881650148925,0.3686775140557063,0.3715769890620387,-0.0010446416929735525,0.051728007877954243,0.07738081129260388,-0.1187364924410494,-0.005107389511477996
0.0,1.0,1.0,0.0,120.0,0.0,0.48340289620559473,-0.46592497363459073,-0.2464474735466724,-107.01353631842188,0.0,-45.0854192038813,0.2552177394886129,0.2914246603711459,-0.45905924757151917,34.2899281565393,17.53971554092155,5.896722342091436,3.8130761275602474,2.436976069135089,1.2864488499139353,1.3621791192686319,0.17544228625612102,0.36140280760366766,0.5662360875302102,0.07960075387729344,-0.2004430937374451,0.12138488533345433,0.14530368667785423,-0.0318305363621049,0.18932613257395323,0.15718642023772295,8.135508544878032,5.8893314425240195,4.589214028052586,3.404876316772262,2.26348687926577,1.4523840460978006,0.9698635818801986,0.7545808142269781,0.5031785717501673,0.2956939439170442,0.19385283968033065,0.20485908186553542,0.026952138882055988,0.06411071930958893,0.14142755746560237
0.0,2.0,2.0,0.0,120.0,0.0,-0.2256960375215884,-0.4838766895941984,0.42664873027982986,-106.928224869631,0.0,-44.90138178884824,-0.800594930644752,-0.23984159372548963,-0.0792126409206646,34.2899281565393,17.53971554092155,5.8048457750690705,3.4815902032673334,2.4585087967966626,1.4674124257814978,0.6570792355081225,0.3735648550335403,0.2805805144450652,0.18620748907256335,0.2020820068946785,0.0493065925779225,-0.06097831645528637,0.4473431932960671,0.19310816826422256,0.1204752259268,0.11660340324300705,8.057976451248841,5.559825342981173,4.443310099136284,3.311791311057817,2.290611471674909,1.6330651176865276,0.8544913674238355,0.6707073615826431,0.34213692682568486,0.3561813496383196,0.16027056512100482,0.25919569728886255,0.05521784806522004,0.13124055041085772,-0.028779834862828094
0.0,3.0,3.0,0.0,120.0,0.0,0.5157614173682938,-0.16875368608333763,0.20475601752047323,-106.96222718791819,0.0,-45.00082422751689,0.8434683403975687,0.14700138556213926,-0.7238866051951871,34.2899281565393,17.53971554092155,6.067275721876765,3.5852856653200713,2.047687167970719,1.2854394175281267,0.8730832132386904,0.32565303362821896,0.18209240982270053,0.026415911071771436,-0.15268239670555833,0.03111297346746602,0.04355551805888539,-0.12658934956479045,-0.012779422847763035,-0.2478374583468426,-0.16223664199828558,8.009252764605968,5.725216803485949,4.375793396416242,3.2997786682578503,2.1481647721404946,1.570945671757118,0.9221213332310995,0.7840298188585724,0.37988467370533613,0.28091819332388995,0.151413157135466,0.04073010212715399,-0.03119888172073352,-0.044724649363488723,0.07432794080284068
0.0,4.0,4.0,0.0,120.0,0.0,0.38544243223519903,-0.04246482696364873,-0.2721054422675553,-107.04637747385254,0.0,-44.98005821644641,0.5889457529206674,-0.5505235466559517,0.23927636092689375,34.2899281565393,17.53971554092155,5.884780922065217,3.3071991243532852,2.162072277750093,1.3404355033899589,0.6251401483077345,0.528744481382071,0.6101178647110366,0.29993393579509886,-0.241328399104335,0.04407176685898488,0.10732813048248814,0.0032118580502471065,0.22717041055071108,-0.03292913401093047,-0.14254522709405892,8.344231792614002,5.773898791602519,4.400793823383356,3.129221355812368,2.31039549891388,1.6010491954380657,0.9207012382014579,0.5445899674437422,0.3454482211658876,0.11377789467928037,0.25810471316623057,0.08058072479579309,0.044229668903709864,0.15944550862919743,-0.056919186081281374
0.0,5.0,5.0,0.0,120.0,0.0,-0.04472013650908924,0.8351799637390487,-0.5442334699148361,-107.00279108564455,0.0,-44.94718578980135,-0.7134065073923771,0.354765300803187,0.0937182749092369,34.2899281565393,17.53971554092155,5.7998395630847925,3.296667893975259,2.373650452218129,1.6353026328515157,0.9366138478454302,0.5561263198136698,0.32859165171213567,-0.35732795104887327,7.703582884710514e-06,-0.08680427746033507,0.24171161808171776,-0.08631581739173134,0.3599135328501118,-0.06109827814240362,-0.15361828482311382,8.306676317057741,5.762627043139359,4.430216311083964,3.324382962931166,2.1574042691590734,1.3673205916163358,0.995664953865151,0.5561831076508269,0.330299129244428,0.1689546754863016,0.1336918644889704,0.024078273555739278,0.12080369347473799,0.010367102210839118,0.040441999137230185
0.0,6.0,6.0,0.0,120.0,0.0,0.01726543161507066,0.35498293877835474,0.3707070512295605,-107.08648129687641,0.0,-44.92723773941209,-0.9101111099784085,0.8052526994138818,0.3461568297624362,34.2899281565393,17.53971554092155,5.605826361720111,3.4623128915025774,2.2939269444584887,1.484736238124323,1.0222268186359376,0.4824067273853315,0.33825428980279687,0.1828776923215577,-0.017017293620133614,0.011624197999223717,-0.005522664543767639,0.18134417974087322,-0.14285624651926593,-0.3066583631450255,0.1695198777594757,8.223566680994429,5.678694047111774,4.22255261311947,3.06294049920589,2.2304119532266515,1.4091175171668164,1.0127576861447936,0.5129719324451598,0.33412868374684235,0.18133898652273722,0.1647398781094089,0.17946900694867948,0.10936709273820676,0.18175498360974818,0.004890475553988486
0.0,7.0,7.0,0.0,120.0,0.0,-0.8195898945942584,-0.36004907260300123,0.8046636617090865,-106.96266810702672,0.0,-45.044764828010614,0.9033282912119139,-0.3308193233330792,0.27653328078964257,34.2899281565393,17.53971554092155,6.1304895565188,3.3154235625131347,1.8208672140582565,1.6781106462909474,0.6981191909869358,0.3766306015990533,0.30908621453328505,-0.2112348097079857,0.2253301238660524,0.17961370534429424,0.03767215258283955,0.09483550123912494,-0.030172263592712186,0.1332864132343542,0.15652704087163474,8.145172991701715,5.884966719201142,4.2494446266196615,3.0470680294123778,1.8639873347874674,1.4457929748100624,0.8700194424638789,0.4822037315526514,0.41478108748414216,0.20007790676905757,0.15408733256992357,0.15422737570173378,0.10240041566396652,0.1670133437039689,0.0777425889275026
0.0,8.0,8.0,0.0,120.0,0.0,0.29672037302148224,0.5311043509875291,-0.20300342065226817,-107.0751077023891,0.0,-44.97538244400661,0.8104052643383555,-0.8726769935950691,0.8479208161368428,34.2899281565393,17.53971554092155,5.720312035626504,3.1417978106640723,1.893076847886917,1.2375338442872035,0.9045199987374585,0.1283425693423224,0.127608996330554,0.22077378914079915,0.20403555581155103,0.05505465414774584,0.115835196989087,0.37025445808548446,0.15756349847438855,-0.13355187303444996,-0.23948629213382758,8.161468354998556,5.808313355635343,4.293103658917579,3.1953440536904636,2.072727147100358,1.1819372676627444,0.9117023991961702,0.4556926529562645,0.41491076721841147,0.30274875635347287,0.17623142607795358,0.22189049766347885,0.08763440335971684,0.05154275512412143,0.05683579411424385
0.0,9.0,9.0,0.0,120.0,0.0,0.281510165264095,-0.1146864487421222,-0.8070627205989012,-107.02932849392242,0.0,-45.02012213017068,-0.44964615761910054,0.8788261780363471,0.03429378962537877,34.2899281565393,17.53971554092155,5.910868431086649,3.6462420125913435,2.2547623747987884,1.769122217649239,0.48736687636931747,0.3920536646450521,0.0987383687454572,0.23299947149592243,0.03519662585644671,0.08774384617782492,-0.04232763306868233,0.0675200804407782,-0.07668923399741541,0.05185105273590719,0.0805124054602085,8.134934636506664,5.771947789741947,4.394389988732747,3.0517673571548296,2.1116309795074297,1.3635818167880542,0.950884960284036,0.5444726860576079,0.4049954755962534,0.15393823919938932,0.013920802665490936,0.09201764746927833,0.058857575506528356,-0.03731743497423827,-0.16570752585287601
0.0,10.0,10.0,0.0,120.0,0.0,0.6316641688749927,0.1788032454164783,-0.4387847056242167,-106.93126898605463,0.0,-45.10774894882647,-0.6474298791217686,0.0980902325075943,-0.9750479029808947,34.2899281565393,17.53971554092155,6.361584176825532,3.394557204708325,2.1848393179629864,1.5532950427057393,0.4368527384609733,0.4335914857400508,0.195475091820531,0.31443394109415834,-0.012743040268179316,-0.25988639628429877,0.1573896273406553,-0.2968913748590441,-0.1783393485335799,0.12684919902498917,0.19978302700650158,8.154598975165445,5.651541571113783,4.083125055592166,3.021105919842878,1.9231520987541026,1.2598682456494685,0.7333713420569589,0.47464523530440594,0.4848035449680549,-0.016236684128072332,-0.07530922987655292,0.119989220162713,0.0074797602723773796,-0.07277736375801513,-0.104029214125073
0.0,11.0,11.0,0.0,120.0,0.0,-0.9016618375445131,0.31259616367709575,-0.19869296072727516,-106.96972614786714,0.0,-45.07406494447018,0.3172856405776467,0.663557718454483,0.760663416421713,34.2899281565393,17.53971554092155,5.913084525988778,3.3201770970259608,2.2430156082465396,1.4960408755010635,0.604905387216196,0.3761783989339774,0.1745777313382589,0.09547996863077335,0.015880250254992095,-0.18165468729225262,0.05351341114461239,0.05034096923416887,0.019333279025031493,0.16243126239234365,0.11472646557606056,7.886104488581561,5.574505456687139,4.393213890228623,2.9952427629020275,2.0125341029006654,1.2368823944424907,0.9147447841909022,0.5249981902446794,0.3361827539226794,0.07220233316818803,-0.021548716033705936,0.03776814006317323,0.12380734672332203,-0.046681059218144305,0.13745973772568662
0.0,12.0,12.0,0.0,120.0,0.0,-0.624452819225441,-0.34973960392171666,-0.18588469633528493,-106.97546918994065,0.0,-45.01671297282847,1.0434228724674535,0.8924026355244961,-0.758048200307492,34.2899281565393,17.53971554092155,5.756025613199535,3.339734644182239,1.9988647837025306,1.3269289621899176,0.9105622618635023,0.5168245519823645,0.47452494314262317,-0.023512620861594655,-0.13948881347937714,-0.18191757749576953,-0.023477438656149173,-0.21326361524124873,-0.15651307372915318,-0.12908642356664188,0.5539784977053749,8.145673203042753,5.6721480664924115,4.195555940520039,2.904599027921051,1.9587387650620307,1.1437527627391086,0.6368673011668493,0.35091550226128043,0.47452681375742,0.14289026657893947,-0.025120872915624176,0.04200127216182253,0.10024792721448891,0.020848277675959415,-0.08944883147915461
0.0,13.0,13.0,0.0,120.0,0.0,0.3259168629801743,0.0012575341431897424,0.27535013705707834,-106.96764138722318,0.0,-44.92622435137707,-0.39136849667781504,0.7497400039991058,0.45838893550414905,34.2899281565393,17.53971554092155,5.85718998973918,3.1427680595320675,2.2636004433801253,1.4914602143875744,0.6957102114027276,0.018445345249880618,0.1445835886238704,0.11435181612335177,-0.039073038763854796,-0.05683014119733854,0.08157150855432953,0.10874788190842133,0.20267864111945458,-0.12684518655299584,-0.041261857649524794,8.099715462227561,5.701375073350456,4.304267889351198,3.0024317462222316,1.8791937821040114,1.2955801928828994,0.8615750515223185,0.6352326475879974,0.3982941825626313,-0.004777905606454386,0.05497838673414526,0.07481107242734174,0.05615214884037706,-0.09407575848257865,-0.051845113890037625
0.0,14.0,14.0,0.0,120.0,0.0,0.10346524862972273,-0.7978730390615896,-0.7696995617833495,-106.86676700341812,0.0,-45.06082756410862,-0.32527493157994103,0.04075516605099283,-0.6051520109118067,34.2899281565393,17.53971554092155,5.838488424452999,3.339689008748659,1.9494365245737906,1.2119483033352976,0.5149263829322429,0.41624241734333955,0.16041558282008794,0.40114724482785125,-0.023321410675892794,-0.15735706755735202,-0.07320709701074432,-0.0692493456035201,0.328312919890437,0.2314054614571143,0.05279953256330597,8.101391324559716,5.403113345466647,4.145010681199152,2.9679156762582264,1.850748681537989,1.368117892945828,0.832566897445166,0.4990306575203113,0.3851842418877855,0.08960442092079428,0.2633761526277077,0.2718120984631944,0.02322473210838327,0.07085085565643418,-0.00705030208795758
0.0,15.0,15.0,0.0,120.0,0.0,-0.1702577553037019,0.6940889633336544,-0.774787039712022,-106.88876537939103,0.0,-44.99043532687675,-0.28738534313831443,0.9546213455493131,-0.7534006270325568,34.2899281565393,17.53971554092155,5.763919874333586,3.3446998807532653,2.2628881144212025,1.5031400988453179,0.9568431454835553,0.11609984058523429,0.11007810286648026,0.07674104273735424,0.05669323565889957,-0.35614795991449427,0.012417346175561134,0.31337902004748736,-0.30068080054667357,-0.026915004407157606,-0.05034587582773725,8.166528370023144,5.618935776978886,4.127389044000967,3.003562452095092,1.876891682263486,1.2883617217412664,0.7865886113718813,0.5402531031372456,0.41182159659168477,0.0422203492395849,0.18325625175532323,0.08435422860252982,-0.05249093977598248,-0.005849510611616676,-0.06338011424053036
0.0,16.0,16.0,0.0,120.0,0.0,-0.9460697801980342,0.904833353210517,-0.6529134342380722,-106.88735493165409,0.0,-45.032072583698096,-0.08413492827519428,-0.12450045288537726,0.909491326523717,34.2899281565393,17.53971554092155,5.762404781654169,3.18499051535393,1.9667016040884928,1.5012906853641168,0.5367016565551048,0.2794307361166256,0.02731242785297025,0.22006521244197919,0.14454260888923004,-0.0764781473766511,-0.17033777930303454,-0.03305977661938609,-0.12225820308159947,0.10519545605649619,-0.32749436093539774,8.054629642220139,5.852806874776365,4.256049469811679,2.803283964837027,1.8338504851363229,1.2349731761678635,0.8104328246567625,0.37224672034641126,0.38257198715948054,0.14767498714978164,-0.0021174084759006395,0.15352164713094735,0.026731446844151577,0.008437682609038922,-0.014171260758963468
0.0,17.0,17.0,0.0,120.0,0.0,0.6680390106460774,0.8036772323380792,-0.6685334046556675,-106.96623290762953,0.0,-44.96363736485331,-0.36071523263800853,-0.5005427915557445,-0.9285785201473322,34.2899281565393,17.53971554092155,5.910535581597743,3.271337012872978,1.828408975594613,1.0665625270059307,0.44645067520089804,0.5881839084661629,0.017633711847254402,0.20063260450235404,0.27838645547598984,-0.10044121704587336,0.020117578924277808,-0.15763171912872298,-0.015222076175394396,-0.08875078275244203,0.14489099122511187,8.033734590159929,5.616016972544771,4.378678776993643,2.794147736099544,1.9591602987738885,1.1266513623088836,0.7515918990487597,0.435491328600295,0.3333580985638431,0.23400863553562568,0.07267551476882145,0.012875211187817835,-0.05675184849852009,-0.023761997113867787,-0.032657413879678465
0.0,18.0,18.0,0.0,120.0,0.0,-0.4197442112763001,-0.9104927355196493,-0.6484812299246114,-106.89692199149101,0.0,-45.01122824882111,0.1785044351341433,0.7364575875906463,-0.9396010180026906,34.2899281565393,17.53971554092155,5.852024762482202,3.0290886090986495,2.012124271254626,1.1497350398936779,0.6102417827548192,0.5115929907617704,0.15211698718124897,0.0035408607076492515,0.08566095977415014,0.27493159116198534,0.08777392523380102,0.19041671989866357,-0.27578832711821405,-0.20251177177994334,-0.18956737023894313,8.265891988240602,5.46558414595212,4.240082602757271,2.896241090568709,1.8375678036061422,1.2250239229067204,0.7740435548431502,0.630390530896758,0.2150718525313703,0.3412812320614113,0.08033017088653162,0.031610681552528504,0.06245693484883243,-0.07604740762959303,0.032189500910346246
0.0,19.0,19.0,0.0,120.0,0.0,-0.27042213677048754,0.7057473063223834,-0.9895497905241051,-107.07498926779036,0.0,-45.024017535568746,0.5295927069460046,0.7640422904504982,-0.10332324459791598,34.2899281565393,17.53971554092155,5.808797542498304,3.28487748457708,2.173789293430904,1.4090989150496276,0.47004399354932846,0.22691162109981738,0.32619659653178346,0.2892714645739707,0.23215834815252626,-0.04226056107798622,-0.0040558090911086316,-0.4010722613928034,-0.057297895550695734,-0.1825810617914417,0.09597151960411585,7.89171259411649,5.531342871537582,4.147283492945683,2.856124435324216,1.8261073062498814,0.9986116699373024,0.79028522447645,0.5329032008501837,0.32276389130751576,0.19797613808402886,0.05529505592357606,-0.09695789415900852,0.033073032957909046,0.23708917441401908,0.09272929498184387
0.0,20.0,20.0,0.0,120.0,0.0,-0.0889381933298179,0.6841481548331805,-0.451593456429803,-107.07114889982992,0.0,-44.97070582259616,-0.27041162914017036,-0.8812329823776981,0.17140524091513543,34.2899281565393,17.53971554092155,5.837270331262862,3.1992611570133533,2.244289483906244,1.3386961286776422,0.418513846906289,0.20365189128120118,0.2913638554644064,0.05663422098109255,0.17502983813669243,0.19602111731922575,-0.25537613558806,-0.05107534591818313,0.047600583421794615,0.10497118270864025,0.03119040290254387,8.204372358738496,5.722616473771185,4.083280740055345,2.899030658158786,1.7144989774888937,1.0463118172877035,0.6942201181484359,0.444518169217212,0.34188577959822464,0.2113356422319167,0.09612316964229402,0.16018311143350616,-0.03589978520517728,0.1483797787837838,0.10613042857093928
0.0,21.0,21.0,0.0,120.0,0.0,0.08985397364533054,-0.7386619368968859,0.1313823043819784,-107.08465138158368,0.0,-45.019252230948,-0.48674010586379723,0.47356750383296076,-0.6467798481168865,34.2899281565393,17.53971554092155,5.8193014422584755,2.8700928066040894,2.1778549122184456,1.3153887244776117,0.495967934209287,0.24279254613128318,-0.09914014872499169,0.0668024582940066,0.024178026466403636,-0.041525797838491335,-0.1393072349831248,-0.13603437054328413,0.2528756713515189,-0.2822790402246389,-0.44030703966118007,7.964800268481412,5.630143903478909,4.211305937666398,2.7270521266959356,1.927988619238097,1.0829365931720636,0.6534513524180741,0.38454887491761147,0.3083713512104327,0.2250833490518408,0.05870519113269988,0.06803645621062535,-0.1204246047596163,0.015417133012943037,0.18655402644716917
0.0,22.0,22.0,0.0,120.0,0.0,-0.5181179421028224,0.44191546558663886,0.984383660611639,-106.9343045161825,0.0,-44.959622118303415,0.7917906388796363,-0.32973400743293246,0.44935585940323297,34.2899281565393,17.53971554092155,6.180477443106608,3.440919955568578,1.8546643329219055,0.898747744098252,0.43515830922438137,0.13733063529903985,0.17970774230124031,-0.07329909594376961,-0.23854791473882567,0.331242763237765,0.07759638057745788,0.2763528973369628,-0.24547614414352623,0.14621639908555475,-0.20592348505705252,8.063847823526327,5.489645001704012,4.017870986937136,2.955823548887991,1.6568008559511294,1.0770167299896052,0.7072634825436013,0.31252306598103385,0.1319510099500329,0.2248271895656897,0.055041722290956364,0.017407108840557274,0.045480857639663134,-0.02544781242236963,-0.09581928109692654
0.0,23.0,23.0,0.0,120.0,0.0,-0.0025775440294020235,-0.8923011429045065,-0.1778642903669363,-107.02289929583621,0.0,-45.12425761774959,0.03799998473075361,0.7201951405499858,0.8784043198469675,34.2899281565393,17.53971554092155,6.013396594069563,3.1774766041622486,1.9584956786862076,1.3044975105953038,0.6797184028662148,0.3577480360324867,0.3445726418548712,0.4311407605519273,-0.386050618258577,-0.04937366721478204,0.18604385722866598,-0.12301225668756766,0.0170019559262263,0.0979315650664071,-0.07040877596458457,8.124332298578407,5.506353992139198,4.027183273306618,2.7714243649446226,1.7210323846217983,0.9158736437753254,0.5724696048691464,0.39634959470856956,0.2189748188304924,0.16652134461816256,0.014050908178691673,-0.0111572709032439,0.05496365869152062,-0.028496609022220728,-0.1269554817109479
0.0,24.0,24.0,0.0,120.0,0.0,0.8507615211079771,0.6237214990520346,0.692111274303401,-107.00416334062716,0.0,-45.108386165237334,-0.48541050474872194,-0.5141361468210732,-0.003039201987639295,34.2899281565393,17.53971554092155,5.774731247634856,3.230777093444074,1.892677458991073,0.8007083575802253,0.5919267702799316,-0.1513063133348137,0.17404802782980996,0.03226950160434496,0.09734478858251358,0.18593237504603538,0.011693219895335174,0.07426870096256936,-0.06241689089778116,-0.12258444310091322,0.16581983307961545,7.981955218855949,5.503963525939913,4.191405352913952,2.7487749201803493,1.802856052005535,0.9946022083073579,0.4070072414968398,0.3588875235197715,0.3474381714501924,0.1188159501129323,0.1953532219649963,0.015391025548328323,-0.016765924466959604,0.1810344213689863,-0.10154575832455898
0.0,25.0,25.0,0.0,120.0,0.0,-0.5965913607757258,0.6040542889735496,-0.5810570467891689,-107.1070376141383,0.0,-44.997464469156526,-0.25950323053527924,0.16060508961266384,-0.7564765677069305,34.2899281565393,17.53971554092155,6.350696538609588,2.898227803275781,1.6953978677678665,0.8870641095000409,0.587107690942972,0.6445009474833867,0.40773539781614637,0.22910242372223388,0.11173937071561069,0.14251805537656648,0.05947707512142388,0.016454339093239095,-0.04374761571963562,-0.002334798438931491,-0.1853851424928897,8.141814622251522,5.45102298268103,3.9718881042081087,2.7283328088429277,1.6746351363608944,1.131825184401671,0.6795508520015306,0.36632433874594483,0.28323740110465334,0.18739217992715207,0.09578532047779104,-0.06859223351274549,-0.0942502858793291,-0.0737970142353539,-0.0856178324564491
0.0,26.0,26.0,0.0,120.0,0.0,0.10112843052607512,0.9352970450212885,0.8795394539230126,-107.00976967340294,0.0,-45.07848470858221,-0.05443232541788911,-0.7395052343299746,0.6869619102352433,34.2899281565393,17.53971554092155,5.661120438452825,3.317798529577868,2.3042358767411324,1.0347058375358495,0.4467906944491817,0.10536739902553305,0.0697157896223698,0.3668891225327808,0.1183402336440913,-0.04576529138529431,-0.08408798572161212,-0.21959621142525765,-0.005651827684610313,-0.055658916080543866,0.11039145682016473,8.11745312908327,5.718574414804373,4.186481012384183,2.779895341381115,1.6470141535361758,0.8389927087684361,0.5371183878517558,0.3419298344479791,0.20241101104660114,0.2372671308903911,0.1665458205422224,0.1410034796136058,0.18335977579293417,0.14662665372937303,-0.21279222228414554
0.0,27.0,27.0,0.0,120.0,0.0,0.9462202759259661,-0.13210646354460898,-0.9659595185100398,-107.10532058830493,0.0,-44.92525154915364,-0.8295323941767864,0.766660169292736,0.8858185663559173,34.2899281565393,17.53971554092155,5.9387100401508865,3.1302857029258417,1.836451933832321,1.3624114807175283,0.5724471201542379,0.1927269854088653,-0.15609010339199614,0.1865438433455378,0.11681089637549427,0.42843829121795035,0.09713134554938582,-0.05637700774177967,-0.2961466677979068,-0.19806233673265872,-0.0016453450728132393,8.091426562050547,5.66447040878996,4.019978203715048,2.5721595854772477,1.4746037598403696,0.964537527496164,0.5344560456951388,0.29947645972102926,0.3986036534960016,0.19797088808313582,0.1632397509754178,0.25211150355486617,0.04107832153605786,-0.040823448705093496,0.09992777742712296
0.0,28.0,28.0,0.0,120.0,0.0,-0.040466370892495496,-0.006198706299547663,-0.9457335792145163,-107.10376367520952,0.0,-45.01754468030545,-1.0272964620510858,-0.7279752303245082,0.6656448411648854,34.2899281565393,17.53971554092155,5.740114344407758,3.2642416428162515,1.525467708544172,1.1650397841011857,0.5042040291680343,0.5340450865864577,0.3014755112267461,-0.11977514019799264,-0.0006194977770383817,0.3253252192997875,-0.029044003387801984,0.43316262791176396,0.04435542736144738,0.30025060672688936,0.07382339293964778,8.011117445867406,5.634632545520644,4.220073000899297,2.6470282647932923,1.639949996517875,1.0514292329732005,0.8218832629787727,0.4905496512586316,0.1298248557304449,0.040249064586441285,0.04293153538814615,0.10911462141331164,0.22167087620478954,0.01411828464947006,0.04494538693250169
0.0,29.0,29.0,0.0,120.0,0.0,0.810241179782146,-0.13778458924853254,-0.27586239786484046,-107.0834724298001,0.0,-45.069091150819474,0.48537181201766466,0.29582608229681817,0.12938080632097382,34.2899281565393,17.53971554092155,6.010665382552844,2.9791740720912823,1.6405124055270335,0.9877508410303949,0.21622226611287354,0.21980249236544352,0.02500918600495909,0.10341247160365055,-0.11620325856304342,0.07048533316938867,0.05451537537333638,0.23817234160927703,0.03380877781752147,-0.16342063674131854,-0.030809862137182103,8.491204276522131,5.667069902324118,3.8465645794083776,2.6203445672649472,1.6147939892753433,0.9312364348787545,0.5784959431340667,0.32245474239964356,0.1560384005509391,0.15280532836281005,0.08666615832801794,0.15190988937369562,-0.06476624320738436,-0.03505880208249479,0.315308797971128
0.0,30.0,30.0,0.0,120.0,0.0,-0.9240394290849545,0.02074862407426936,0.7506307186729186,-107.01352983287387,0.0,-45.06246383386038,0.5148179921418905,-0.5488533187307425,0.6794920990363009,34.2899281565393,17.53971554092155,5.752391063084162,2.953136159682297,2.05101329951558,1.0428378844673816,0.40132046148046574,0.25437310030085053,0.253517831675021,-0.0748876420071564,-0.11709321495016031,0.17425985571533634,-0.04791639781811611,0.08084328779457683,-0.1380133262705757,0.13416860967348818,0.060908181286822606,8.400024927402487,5.317045457252634,3.895089208329885,2.68407409979491,1.4746749290716101,0.9749574054129728,0.5275144389444432,0.2707043929989011,0.26046493315942776,0.12305131403717304,0.0860292907882645,0.029461635814977565,0.045655403683671145,0.015901154681191812,0.15183586604150015
0.0,31.0,31.0,0.0,120.0,0.0,0.04783487740255232,0.6307318467641372,0.13384894787141732,-106.91507054937813,0.0,-44.9141755827623,-0.09665273124212395,0.5132785870772347,-0.2462326903973311,34.2899281565393,17.53971554092155,5.670128872334272,3.0744941811908917,1.7851068708740907,0.7395169696251562,0.3864728642335946,0.39446253460926073,0.10454420752540551,0.12112571434931854,0.1711775836298424,0.22780998113424045,-0.1012165069653605,0.06652699333596937,0.045439146225253524,-0.04664563606261815,0.10114475132727184,8.389824056157995,5.610721057730204,4.028342483484766,2.6743584528103406,1.643471841032933,0.8750532377699609,0.5430693285619419,0.35029777304389426,0.18416755325882228,0.24691823209470604,0.21593935062237254,0.24355505955575263,-0.13044329209657146,-0.0889208065717581,-0.10801761734602179
0.0,32.0,32.0,0.0,120.0,0.0,-0.9942509754808151,0.7367463977177731,-0.9297308470482202,-107.04843569029111,0.0,-44.967194821780225,0.6752160497697823,-0.631611807381204,-0.0006480074802814872,34.2899281565393,17.53971554092155,5.929112525932321,3.2634513794478988,1.9924592128805858,1.2553167106738947,0.32153306695177264,0.3895422679686005,-0.01531820652858154,-0.19759602865575115,-0.09426707902032223,-0.08737918227418373,0.1027232293724687,-0.04305081089826815,-0.022088218080190087,-0.13487818280439215,-0.1051817578497408,8.083279391405656,5.46242169500042,3.9327202375475934,2.4327724526052767,1.574912085873794,0.887471539585643,0.39031665038470814,0.3854941437856775,0.013674878200500895,0.07791938883852167,0.06297309888910024,-0.014129357077456994,-0.03149549410525425,0.26118370763600424,-0.030350905350242284
0.0,33.0,33.0,0.0,120.0,0.0,-0.45802470151862806,-0.9692713691262327,0.6807008202762754,-107.03732341729396,0.0,-44.92583147023285,0.11475924215299985,0.5165700622314937,-0.8373951767513059,34.2899281565393,17.53971554092155,5.7333003086966805,3.1381753796438314,1.819253871483412,1.1223238737669397,0.6016628940831656,0.18786302547258832,0.24613726430108435,-0.03938668222227682,-0.07485352477548407,0.038868010636085276,-0.09080035705534413,0.06675955151323722,0.10721864492519105,-0.28885451501516923,0.05224691887156117,7.968573021693433,5.513030111311455,3.8208269558118775,2.6933075906933825,1.5276208006864755,0.8963434273826842,0.5163336558214604,0.23874165367132405,0.2324116316916388,0.031539298239314645,-0.06458590108391765,0.10648803664988638,-0.05513694491601341,0.04122454205459006,0.053919521976701724
0.0,34.0,34.0,0.0,120.0,0.0,0.8332657263251642,0.33647360007455984,-0.6756376417746226,-107.09458949472841,0.0,-45.053833474706494,0.5683556010645902,0.011980460823315164,-0.35168959333416017,34.2899281565393,17.53971554092155,5.944959456806585,2.8727104396072,1.8699960165602518,0.7650691055098334,0.7109502969028705,-0.193867171650371,0.30821040777434217,0.0123451278732859,-0.17573566901961157,-0.03199320839132605,0.02062057776792001,-0.11302166192419957,0.11114367203129583,0.038148216409904886,-0.0794762056605576,8.098213841275557,5.338757080512109,4.1336427507835225,2.761135775221979,1.6391986944365105,0.9078227515688347,0.34494862826110695,0.16908594556560622,0.2995314507014891,0.12335100009039715,0.14983919471246865,0.12192071862053397,-0.017603133240635435,0.00028095227989577073,0.20429977889179382
0.0,35.0,35.0,0.0,120.0,0.0,-0.16910594078917152,0.2483892269161483,-0.24800406231558636,-106.96150175929684,0.0,-45.01591293004597,0.9255056143237619,0.4173722282709389,0.8313026124013945,34.2899281565393,17.53971554092155,5.76030961646633,3.2694214148416814,1.7518772413500692,0.9840880094663176,0.42307976824994414,0.37441069591683707,-0.022693663842232953,0.10086931154417246,-0.3225905668140494,-0.08038206512824067,-0.042794430377249004,-0.049066164078080045,-0.15029468777077035,-0.39797550741105125,0.08289003304012765,8.089113287157328,5.411202854934283,3.9233633238357966,2.3426752742145975,1.2603916348117845,0.9484184217854782,0.3970178550133996,0.3201176019416404,0.13993332304587702,0.03184157486520639,-0.016153407210384038,-0.018659446453125512,0.16682150961632267,0.20958158716423728,0.0767027584753455
0.0,36.0,36.0,0.0,120.0,0.0,-0.07392306970268114,0.22374118036133783,-0.8291991055197592,-107.0640030468526,0.0,-45.02999753433777,0.6007164354354894,0.04121564370471775,0.7069047432596125,34.2899281565393,17.53971554092155,6.145861902983946,3.0348361048606827,1.5258461515102626,1.2641434871004016,0.5594928587280549,0.16163088860168046,0.01631582695483781,0.10030193841221088,-0.1865240747588325,0.07979881035141845,0.0696468515600681,0.08985099435691776,-0.14929124633821883,-0.21980068326757185,0.10833766682728868,8.149008146605752,5.219663701978082,3.782172814679141,2.4353952606921774,1.3944123100936103,0.8343239301642784,0.5654718294799579,0.5060201601778068,0.3082286341538375,0.18216765961110182,0.08750678284180272,-0.043904679814133346,0.04043688646051359,-0.0018225534998489168,0.16602003485154118
0.0,37.0,37.0,0.0,120.0,0.0,-0.19385243235785454,0.49918259085844063,0.8624184378719468,-106.97250132780965,0.0,-45.11856059982432,-0.39409537013459717,0.11308454372689924,0.18831300273532192,34.2899281565393,17.53971554092155,6.02604858369262,2.9730523830382327,1.875414463058571,0.7575483065677802,0.16226764240968278,0.21857074141587765,0.23967305391887733,-0.241517058230686,0.23939259195265505,-0.0035713500600832865,0.16478080565110909,-0.03454057873778741,0.31283387017516173,0.003514152819337417,-0.13767917373992253,8.135045761555734,5.383195793641129,3.733987830236585,2.3825904712373873,1.537834967285836,0.791558087363611,0.5598470502640507,0.3114362760084489,0.2025608224140521,0.12322074410975664,0.13719544411015325,0.10882922800480899,0.026686314965235724,0.07421010471693998,0.1432346920769014
0.0,38.0,38.0,0.0,120.0,0.0,0.4789382695132127,0.4660023039161898,-0.9875251380505239,-107.01836365458459,0.0,-44.987269854718576,-0.746249684949922,0.20886443218141437,0.8107310955967102,34.2899281565393,17.53971554092155,5.553813937794604,3.0305621828562628,1.613964636385201,0.7675118588020163,0.10328928054595488,0.25382516549484374,0.0392667922208256,0.03661983726679114,0.11391854642144855,0.10683445139647586,0.030759148401229477,0.3977137034341736,-0.062345820931426967,-0.06926413137187733,0.04530395501870919,7.928970655843385,5.258070475485671,3.7606654070392227,2.529034943463591,1.384839670015508,0.7398325752026564,0.4043121449736715,0.3408765009631033,0.2053634967759789,0.12560946627719866,-0.05299436559667857,-0.119419319768311,0.11730372873203826,-0.004106596599636362,0.12644604960673597
0.0,39.0,39.0,0.0,120.0,0.0,-0.20365181072721827,-0.7851862201046993,0.7569131429061648,-106.91359997742403,0.0,-44.998288641413964,-0.9504097358431737,-0.5433123106771875,-0.1461445695882857,34.2899281565393,17.53971554092155,5.849811063782515,2.9168055134819055,1.8466055117124571,0.7839995423531508,0.36845065601416416,0.26075290013816554,0.07226533449594441,-0.16401554450388228,-0.16966592653129794,0.1839539040925645,-0.0187867550166478,-0.45963438410654234,0.17798203279645688,-0.2774392259930706,0.07501467852528154,8.244370464072851,5.185020004334029,3.780766218738547,2.3583430237680774,1.549154308571982,0.7912503890945924,0.4487223254475788,0.11917509148916317,0.10540375692929602,0.04163225491334879,-0.001372830644767828,0.10752095201394708,0.038726536715731424,0.12536640373730484,-0.010888962381570437
0.0,40.0,40.0,0.0,120.0,0.0,0.021991704036285586,0.42059011531350654,-0.6632760279032015,-106.9433537557711,0.0,-45.119808050880835,-0.3118101256499672,0.1514961843792939,0.8752214344032478,34.2899281565393,17.53971554092155,5.7680889610924595,2.7170200915909604,1.612662685196841,0.9317492443319401,0.5252712468990112,0.21878659864887903,0.16432187331640313,-0.057292203528923606,-0.11139726716635456,-0.08192671968136254,-0.3059735017877519,-0.07407748930732443,-0.07385615307452591,0.2385311965029482,-0.12271854690526615,7.897607897601211,5.510331134900344,3.620699566585695,2.4768165251662713,1.4319448843349059,0.5789241666687148,0.5781023637565902,0.2749259535560446,0.22961316379727015,0.09049592730782141,0.04507227568070113,0.15773296650341445,0.058046858850021726,0.0962664945760298,0.20239144518754915
0.0,41.0,41.0,0.0,120.0,0.0,-0.8731455779054123,0.6582234952123698,-0.5954845785095564,-106.89100139192571,0.0,-45.06192589911697,-0.8941231676159889,-0.4723211606429363,0.8917416013846058,34.2899281565393,17.53971554092155,6.066481921745633,3.334128996736619,1.7315935180732926,0.6129485471212477,0.014494232570744281,0.186121425515376,-0.1855684218959545,-0.12748765602230944,-0.20900656438151585,0.04473770843564832,-0.148262212660773,0.19308021637400943,-0.03151354298354995,-0.1493704555005477,-0.08964853334814799,8.116184733522049,5.313006436092836,3.620671892142415,2.403945394955404,1.4698219307426663,0.7641738488275698,0.30308375131338294,0.24076276236706257,0.10250271096124965,-0.08346087637642746,0.0807417723893112,0.003914518935457328,-0.10016187259458129,0.17411772800242417,-0.10925176181914562
0.0,42.0,42.0,0.0,120.0,0.0,0.42659128882780006,-0.9754729444518113,-0.5585693940159617,-107.05014534326669,0.0,-44.98885340863501,0.558974384384381,-0.40108022221989725,0.1399356629282582,34.2899281565393,17.53971554092155,5.427526248811543,2.866460324887502,1.8076931500641387,1.0104347154748727,0.6467670819678354,0.16218410661213364,-0.014110469474500856,-0.1639769984670965,0.21469068152758936,0.04619772709372484,0.0254037088735957,0.10800465083858143,-0.26824730212171083,-0.40791419038967136,0.038957265463006534,8.112551869949124,5.039688024716379,3.684042691355986,2.270468328209753,1.3188422116094818,0.7654227040531354,0.4137079732792245,0.22043761812116214,0.1216440623181492,0.03901781067245061,0.1383504870632676,0.022495852832462547,0.21143124543185532,0.2404549513428764,-0.0024666571543222986
0.0,43.0,43.0,0.0,120.0,0.0,0.06864271182960802,-0.36054593806568547,-0.7153066033167357,-106.95082442107532,0.0,-44.96877919451268,-0.02146326879486718,-0.0019532371599511045,-0.8995936273498626,34.2899281565393,17.53971554092155,5.875600978388742,3.1513905530068698,1.6086629688138152,0.7742053868807738,0.4097668064252347,0.1798829203791996,0.251846427630635,0.2903249236473607,-0.06949767243585778,0.00715492844714081,-0.15562419519786094,-0.29477589155081735,0.09712273389147522,0.2501879459331365,0.21176936819907938,8.059318710180733,5.349255460220487,3.6696177091795104,2.1919876361208064,1.3995258651689786,0.6844914952075596,0.27630647678738207,0.24088627983358163,0.25115507191052044,0.0892675555005249,-0.008504213059511045,0.017354343745338823,0.04167319324860372,0.04828685173760226,0.15640370775296952
0.0,44.0,44.0,0.0,120.0,0.0,0.947136426084896,-0.5996817106379251,-0.7138063570563096,-106.99997136908539,0.0,-45.02272311180778,0.38598194684968895,-0.5434888065606673,0.7693238757231284,34.2899281565393,17.53971554092155,5.6582562560370455,3.1778698772530336,1.7115725759141658,0.6571484513990762,0.35472266492058574,0.26376309571829726,0.5435187595377864,0.07548671181264635,0.37007049229539707,-0.03926843389647989,-0.24891406551244022,-0.07848206964694751,-0.09206305318072884,0.1500589147144538,-0.07563592625155262,8.005637161214825,5.235315706485889,3.6438628781283584,2.4126054120430043,1.4490278124884448,0.8096286483443589,0.25575045815903713,0.1478181177827383,0.16765972875071342,0.17137041780055248,-0.11241283605292007,0.05492770845942578,0.20603272136453768,0.02810862756316366,0.03192413606402692
0.0,45.0,45.0,0.0,120.0,0.0,0.7422540907326347,-0.9624098000783483,0.7431790830272906,-106.97220642390565,0.0,-45.002814043061136,0.025001861235191318,0.2379605900953936,0.8227766573189421,34.2899281565393,17.53971554092155,5.895518607444982,2.7601202937196883,1.6046535276428038,0.49220050904127877,0.2595414654222255,0.19079812748804753,-0.1568451761370505,0.34965529431434356,-0.09534200275875186,-0.06207856263965326,-0.04083660829172617,-0.11281485829410162,-0.10284009773376868,-0.006136297887096549,-0.1889104289327303,8.131280817103164,5.171618945253915,3.589750947550122,2.244453509670272,1.4254961201100596,0.7061540404580411,0.4411446345568788,0.3338502461979989,0.05557739869034653,0.041618772568600235,0.0930246440622317,0.14432494989557298,0.12223186036535974,-0.08163816626222209,-0.01039295586002351
0.0,46.0,46.0,0.0,120.0,0.0,-0.3091088772635413,0.7373713604272125,-0.16583268285396224,-106.91414393319683,0.0,-44.8956142086501,-0.9240505187167548,-0.40086407828197035,0.8861072067500826,34.2899281565393,17.53971554092155,5.990834824645962,2.8415334261923846,1.6454925965567917,0.8241717116397858,0.5339504743698961,-0.013341410024985845,-0.006418343639509397,0.16319449933545221,-0.35291834608398465,0.005092395084366697,0.014952719255031548,0.2183676405905543,0.10251935399479487,0.2457107515562509,0.166062895090413,8.077152901611285,5.219899571721686,3.5984327071013325,2.2024210175645007,1.2372807544460398,0.6493154988891082,0.3829628725106997,0.20075964734212295,0.141178071625597,0.16285806071823905,-0.015016316645644776,-0.09655369778950834,0.07480103457339941,0.010016450973885245,-0.044804828803617885
0.0,47.0,47.0,0.0,120.0,0.0,-0.25508474776143863,0.07523742996086624,-0.274646719369642,-107.02074880412931,0.0,-45.00633280200543,0.7205713539019233,-0.6279171718851937,-0.055960649177163146,34.2899281565393,17.53971554092155,5.6973791685045185,2.7278113685290433,1.7519031923133446,0.655908047458713,-0.26783326227873017,-0.039272943988127584,0.022391989507727153,0.05258699535044581,0.3680625984255229,0.10627339114127915,-0.11225767016591676,-0.10472420414176871,0.11877554635377827,-0.29579273768526576,0.01810743362154424,7.890433585196176,5.0754319651774304,3.530809285019322,2.122809342599056,1.1929028884753723,0.6907167072348386,0.45981853624450086,0.26725667901409644,0.06269900182324864,0.04120371005742701,0.048034838179571764,-0.028030127595593528,-0.038522370263167245,0.045832599921558144,0.06781169544024666
0.0,48.0,48.0,0.0,120.0,0.0,0.3205565450367842,0.4738714372174688,-0.5090727853625823,-106.89435093944019,0.0,-44.9347785830049,0.8114550253769237,0.7974398653250196,-0.4174136465588958,34.2899281565393,17.53971554092155,5.986491326952245,2.5845587607462557,1.5041373231991277,0.7643044982281212,-0.09329896007169863,0.07356015176432545,-0.057546052602352835,0.15666482764752265,0.3220482591031563,-0.14056573127966515,0.1968477706308131,0.2714329029461439,0.12597976873992542,0.051658024846067845,-0.08961109799370998,7.869320192871829,5.1705431273982825,3.4723488151257644,2.212140037080001,1.265793492329816,0.6533299814499957,0.33993297050567983,0.09431658155479727,0.08171799515503421,0.29704479596966116,0.1234007356708785,0.030447106966642018,-0.10698340827549932,0.006098368572073241,0.051847261521078845
0.0,49.0,49.0,0.0,120.0,0.0,-0.08310691292263872,-0.5647954602363827,0.8098208685335035,-107.05071562006879,0.0,-45.05435603461656,0.26288229939170354,-0.12835509358487251,-0.8249740504666787,34.2899281565393,17.53971554092155,6.02476333757516,2.6814362534970377,1.653294658190565,0.7819437217203791,-0.023597679716879427,-0.14179896293519062,0.10028894013715012,0.04931977535238183,0.3014569923828339,-0.014248332983572596,0.16383857922683423,0.012005066043946641,-0.02316916886622763,-0.21633003588520305,0.2116319252688824,7.736650681556285,5.2168390077563,3.340691038925645,2.169708355844852,1.171006410676844,0.6583608752759196,0.45972837643050063,0.3259053847650438,-0.000814531822098119,0.13428004051828563,0.023621024176302866,-0.01846622131094427,-0.11169825081890852,-0.07069944604399495,-0.06361352159632049
0.0,50.0,50.0,0.0,120.0,0.0,0.1092227565531192,-0.7506846384869426,0.16999051207820326,-106.89331104120419,0.0,-45.07270054132378,0.34089818296970087,0.8858551326427491,0.7586696473965653,34.2899281565393,17.53971554092155,5.695385405166067,2.77865707031819,1.6283563321423125,0.6959105560788987,0.262615824300062,0.12123262970787976,0.06586968762224601,-0.08625004710806307,-0.17738912829706358,0.22925863176527256,-0.14891855120995262,0.08323871056319496,-0.15198391610907602,-0.127632551449922,0.19507604312279084,7.983827980010701,5.106724785708461,3.5780836316129987,2.3470887637765427,1.3122828672835352,0.684891491459332,0.431126736317223,0.22922694727031986,-0.004310709323450818,0.12975164643911957,0.09644798057559205,0.006584068349156584,-0.019420557074166338,0.22201047871601323,-0.07184730031988515
0.0,51.0,51.0,0.0,120.0,0.0,0.9419322389377929,-0.6882437859030699,-0.3095341563412599,-106.97752814514715,0.0,-44.98855205569494,-0.8372062218733488,-0.17055985518189432,0.44604055078912874,34.2899281565393,17.53971554092155,5.738598816419205,2.855450686037902,1.3031960237079907,0.7081571505476891,0.41590628833454146,-0.006631040181626857,-0.12376950171849271,0.23001853738046638,0.11471250212693727,-0.3309269204993345,-0.08096218730078489,0.2733087130870796,-0.25314860956909574,0.20203106677321025,0.029830988293339075,7.9895548674429415,4.8813219312796,3.467944692395745,2.1248758227829705,1.252338565062645,0.6535371656391541,0.330265990545413,0.3358612488093202,0.12998720593866386,0.14716369500932275,0.1817905753061956,0.023744086694964032,-0.1127983356740317,0.10920255426464286,-0.03162202913198496
0.0,52.0,52.0,0.0,120.0,0.0,-0.8186846527324452,0.6918280854756305,-0.6046459538916815,-107.00728792256396,0.0,-44.95964169452404,0.38309011739988463,-0.9788239491102815,0.6036112353921488,34.2899281565393,17.53971554092155,5.864144967574415,2.6337398417570146,1.3793244047727125,0.6867331557721944,0.1946788156825021,-0.03952368823284802,0.10196001713094674,-0.05519602461399236,0.3255936434271296,-0.15618324344853052,0.29350841024666036,-0.21353507537899816,0.029890000049302708,0.09920747350711528,0.14151954343851592,7.909689864413748,4.967384416904371,3.3599547436174326,2.086971963562092,1.0445219919227742,0.6476335417499356,0.24639416800163882,0.20400993141328605,0.08854852255633876,0.11236129189336691,0.021626884182534528,0.1344047420470533,0.02530126066262133,-0.06884083504219654,0.012446277210328958
0.0,53.0,53.0,0.0,120.0,0.0,0.18957126195963814,-0.48308633068734985,0.8258385734120228,-106.95960019169787,0.0,-44.98745850266994,-0.9298973199985425,-0.6015640243804581,0.5381326677090619,34.2899281565393,17.53971554092155,5.918157855238703,2.9593763468659526,1.6120315311084386,0.736436298893661,0.3178081964940804,0.11818640583623088,0.1234155063433581,0.23133322971908907,-0.19325328547475293,0.11557793996901558,-0.31400440939949265,-0.04676818120450509,-0.09178783402766098,-0.2270466940910513,0.0028797188576223866,8.004107696487408,5.159585135588836,3.3923559939889354,2.16073266816085,1.0905717920831295,0.5810201366127361,0.3448635875868881,0.1901943909758684,0.04415654957665355,0.12601767411317202,-0.03440448629231768,-0.0944031116186357,0.12335205284679573,-0.13716709677129238,0.022171012895014136
0.0,54.0,54.0,0.0,120.0,0.0,0.35517985092687665,0.2353304179151512,-0.5903791852795572,-106.84052875523932,0.0,-44.90147397955259,-0.46771498205291706,0.6707007008785308,0.6347309200251672,34.2899281565393,17.53971554092155,6.4196951091553585,2.8264611442855343,1.3533871542841511,0.6270302901424424,0.353769689223893,0.14474501663996567,0.12066780464540239,0.1510263234451502,0.02483319386471882,0.0005042826873953871,-0.1018081420679857,-0.026053068391701406,-0.13990379377508377,0.03449521564964583,-0.036813999557437735,8.120811694683411,4.912376568102955,3.200435980582372,2.1165694325302673,1.1705152515450785,0.7274687038978181,0.4076952791449626,0.10644225088157078,0.17872946450279664,0.10816608727526902,0.14787157938098167,0.15150461869641688,0.11795807161767657,-0.04864975342072687,0.04305256244043839
0.0,55.0,55.0,0.0,120.0,0.0,-0.5612585188394783,-0.2910780578695604,-0.8693420152740787,-107.05672851200589,0.0,-44.910322756227586,-0.4731004625712676,-0.2796274339669298,-0.7780206682540474,34.2899281565393,17.53971554092155,5.471084388080536,2.347654388795034,1.5605059279734992,0.6639973784168324,0.6914626973454778,-0.04660426013829258,0.505438557795796,0.1567209736488428,0.3352927427644929,0.1950118044041329,0.11505631488151287,-0.3049807887819828,0.0368027885617129,-0.10753485482677212,-0.3551958231837563,7.935303887706606,4.891789589969689,3.3231351669188958,1.9831715182110239,1.1589235205991542,0.4567123913969966,0.3074081911538079,0.2415711108450291,0.05612445636853687,0.0690462298516807,-0.20411989953991938,-0.07041525091392481,0.051878710981359724,0.01329819662873237,0.006573932720259279
0.0,56.0,56.0,0.0,120.0,0.0,0.17218946809334645,-0.11920885819172677,0.2610714282085562,-107.01111140021072,0.0,-44.96957760884226,0.7327699458091899,0.6927538447737678,-0.32344383023587064,34.2899281565393,17.53971554092155,5.69156546863214,2.4248878897119206,1.5284514361826285,0.5913417758146379,0.36564965350541795,0.46153966821761117,-0.043240091536034184,0.177768156126334,-0.037795812878774794,-0.12282173588397952,0.10099982116501813,-0.03333958838017975,0.08743223449639248,0.31283862516414856,-0.013925750253064433,7.940871829176071,4.996958809846824,3.3238042037912185,2.058608171333235,0.9921599580270182,0.49581019402047377,0.2556213530025916,0.30809932753018177,0.21017886900687333,0.20475747391392268,-0.07601695544105394,0.10275318499097788,0.04978468946799432,0.20993925751770476,0.10113161863559933
0.0,57.0,57.0,0.0,120.0,0.0,0.5498993203820095,0.7103476603480858,-0.4458113061581481,-107.13723512594161,0.0,-44.993762279089,-0.0797124272415114,-0.22358208133548696,0.6283408991826271,34.2899281565393,17.53971554092155,5.681687900663368,2.5802644787269675,1.4737304909502622,0.4557517121414526,0.04464448082129463,0.07557841837246887,0.16766758052007183,0.10226497146792535,0.06889354273989903,-0.015538401394764692,0.16775258313629576,-0.019708709448124334,-0.13848013646462617,-0.21213622544262062,-0.08096518078327661,7.80836483442616,4.81854463804144,3.125497009180423,2.110854434437089,1.0077597670037188,0.5269847452594847,0.37183960826786827,0.07111235044641384,0.04059353299312929,0.2609680729209676,-0.014156245865473246,0.08506381688010739,0.1969955939974623,0.06922303884384196,0.04461992797954896
0.0,58.0,58.0,0.0,120.0,0.0,-0.42898421591670655,0.4685629558688269,-0.6442156812341557,-107.12488521970809,0.0,-44.98673603227894,-0.8881665234128383,-0.40655252288808774,0.46855222401141994,34.2899281565393,17.53971554092155,6.122610154469741,2.428110715072403,1.068311736828568,0.5711160050589067,0.15556961442059122,0.11598710003597662,-0.05312037453531899,0.1868893171988273,0.126874755855538,-0.21435417303629573,0.14762332578402754,-0.01524264516300124,-0.4208285248506781,0.12061416879827665,-0.28375362762683265,8.133622064049044,4.880187247329016,3.2170292557644338,2.063592356354986,1.082811319300808,0.6611004739803787,0.3675879753475339,0.166358460519891,0.28133815719943456,-0.11324973225706704,0.005213668771789477,-0.05013904977807808,-0.0046661552031491554,0.02822974169412923,0.00815656554935111
0.0,59.0,59.0,0.0,120.0,0.0,0.9540218826194589,-0.32866910094127255,0.2101822389123209,-106.97290882734679,0.0,-45.00428766284145,-0.49262569220928365,0.6014535094335356,0.5335127159709756,34.2899281565393,17.53971554092155,5.923122927246021,2.5759227490457235,1.515807568532846,0.5495482289062676,0.1517359401780056,0.15557724869344666,0.04995545632618401,0.22456987984160218,-0.06759990541451796,0.12656471787567897,0.026242268439640355,0.2313077027659156,-0.006265874804703198,0.01380877599507246,0.1915417650884047,7.764623414970584,4.916956190654907,3.177575965402464,1.8943974468777984,1.144777387619373,0.5241882296961604,0.3572213303526144,0.34706967919627285,0.23875113728530367,0.3157220222465269,-0.026557051990621423,-0.11641685721442994,0.05262651859875511,0.11922709908198778,0.032148318028821316
0.0,60.0,60.0,0.0,120.0,0.0,-0.7394687629908709,0.7944009703469181,-0.08725588972162712,-107.04699915760209,0.0,-45.01414755408554,-0.24650840953816214,-0.8554226260825597,0.5192214383821867,34.2899281565393,17.53971554092155,5.147614377952148,2.574966488449979,1.3457263635447732,0.8098348222432494,0.029191771556843188,0.2845365335318615,-0.19970969686473825,-0.18199554787204733,-0.4290645607704143,0.3137169357783013,-0.4036425189093678,0.15193615338125993,-0.028405730121507242,-0.05590392505591842,0.2262295537011793,7.9911386035079115,4.88753029064117,3.4287656625832974,2.064947075599202,1.2984201050131197,0.44321582426494105,0.14356500640462955,0.19859722023584553,0.15280215055792157,0.1116882891157964,0.1186755211978697,0.06091792901247328,0.00784614106152342,0.06215624642479505,-0.007456913091952752
0.0,61.0,61.0,0.0,120.0,0.0,-0.05214578071029141,-0.368409087205293,-0.6858594063316383,-107.06315383560927,0.0,-44.97802247810621,0.9935368598726322,0.7519032573211513,-0.8661599305286698,34.2899281565393,17.53971554092155,5.765581747586966,2.730131503731431,0.9195674448578276,0.5954727990198475,0.3794490751927067,-0.06397103507912079,0.3397374579184823,0.19831359087011768,0.09814736823124462,-0.1861446123512583,-0.12167346653896387,-0.040549899326841644,0.16413062412820967,0.13686050013314272,0.2812244724070214,7.896647638400657,4.674421456717481,3.148022252946963,1.7788873979906996,1.134688115808576,0.4505815673667154,0.35976588110845853,0.2779451501612574,0.05470174790379477,-0.005007365508752665,-0.11040088864783972,0.04232298148795691,0.04478586088448733,0.0219312786205106,0.022776320334686385
0.0,62.0,62.0,0.0,120.0,0.0,0.4577421954395824,0.5004976717530112,0.1489128672395792,-107.04705257700536,0.0,-44.95160883259946,-0.515275022324408,-0.16026705680231124,0.6521471471665024,34.2899281565393,17.53971554092155,5.563589249916324,2.137517021445435,1.192476108833072,0.39379356886067995,0.21085209665600013,0.005049917830547715,-0.12321808104372903,-0.15288121644742547,-0.12508058273462383,-0.21451553533864157,0.08370322258283829,0.2025522383839336,-0.08879788516966634,0.07211528157367475,0.16885102473944574,8.128561105176855,4.643292878451514,3.173973702802641,1.8257155513219017,1.055453955175767,0.5222283027146537,0.36213321997637565,0.06641448088721676,0.08728256595886887,0.14065994904364318,0.05379077275328497,0.003921297417304639,-0.10997429853509878,0.019135269295523005,0.06269836702218044
0.0,63.0,63.0,0.0,120.0,0.0,-0.11961840328207685,0.5796649782534464,0.3344632926144018,-107.01617900922832,0.0,-45.02304740743227,0.5123526314698588,-0.34257975323044243,-0.8281747021036097,34.2899281565393,17.53971554092155,5.773595459454987,2.5079764810049094,1.2965436920828908,0.27917092998362913,0.5166688441483394,-0.23654788558422896,-0.053184627195313916,0.14389203422412733,0.12124293343633508,-0.21380921653625445,0.04958005405129425,0.16020527877055454,0.0777010361331495,0.221471826008119,0.018202486020158976,8.042232208305366,4.661142557077234,3.0298976030375733,1.920287270695405,1.0268677906188677,0.6201455979636988,0.4277672303879779,-0.026009120178951906,0.17628941148926652,-0.06328533417923471,-0.06509369633388919,-0.06479230842686037,-0.01741912358089024,-0.01250312056181565,-0.08957375713818161
0.0,64.0,64.0,0.0,120.0,0.0,0.028981596223732087,-0.2785117515541311,0.38755330816094546,-107.07732486668436,0.0,-45.09524365631964,-0.6038396945030448,-0.5601587293815993,0.6448106794887607,34.2899281565393,17.53971554092155,5.840059011991892,2.44986195128769,1.020091221473425,0.46402842998737126,0.20411752560769092,0.3613386358058225,-0.0923934841703471,-0.1615652278662033,0.42692087165004144,-0.05970796975735805,-0.07616693827388017,-0.02359285291040614,-0.1112335391992912,0.05022448970703518,-0.00028196332119574685,7.8596761568203055,4.7052606316665795,3.08547268494462,1.5902706330818634,0.8365623229313742,0.5472522467146907,0.3567092281436923,0.04423568990671353,0.23320802573399074,0.0021153833813465778,-0.02931839272687154,-0.023225462897882312,-0.06267839084066598,0.021477973972785766,0.1654316747623391
0.0,65.0,65.0,0.0,120.0,0.0,-0.050368559790965106,0.048985783415643525,-0.4957123061652635,-107.00436807308188,0.0,-45.094286768202394,0.3300520696855793,0.18881474195935666,-0.36582342716747496,34.2899281565393,17.53971554092155,5.510489331348464,2.1074288017465768,1.3862502898128501,0.5847228042168563,0.3697626702496095,-0.046786398061121934,0.1198423590370091,-0.0985080171702149,-0.0717762956462265,-0.11339733429263843,0.03876779978231243,-0.3099650239215861,-0.26318674595589586,-0.07832590195546306,-0.07866563383641356,7.885235863583719,4.424273670442804,3.1712814425907077,1.888219826144277,0.9238247273493617,0.6139355162542398,0.4002459668367182,-0.012419899349923658,0.14979832272079693,0.2028917732297953,0.04569209907688062,0.026328313626983076,-0.034817560924770584,0.05477914344543516,0.015630409395824198
0.0,66.0,66.0,0.0,120.0,0.0,-0.8927738527749958,-0.0811361184091639,0.0377096294017123,-106.98617194782041,0.0,-44.982642283344106,-0.6007971004172735,0.8958919757775514,-0.5757517726109957,34.2899281565393,17.53971554092155,5.513710477996209,2.621983149240131,1.141985933625001,0.43491279190753795,0.5634464498925974,0.0736836720547854,-0.01781818456126586,0.10937421060368878,0.05232986619577527,-0.22016390613335277,0.2081394708801437,0.031900063216184854,-0.006166974205283927,0.05172358586126685,-0.14656274762061539,7.807912439741906,4.664765057062398,3.041432581952262,1.7202115318499647,0.9555794103909612,0.48220584884808426,0.3532397930908041,0.20283812108758467,0.14653896213779813,0.141270925969529,0.08792312245353205,-0.07888995311955405,0.20701667746102964,-0.014899820011280289,-0.0017674784747750017
0.0,67.0,67.0,0.0,120.0,0.0,-0.3570352451063119,0.24904930710029105,-0.32497229775592174,-106.9741991048806,0.0,-45.02292500508854,0.5849648453221676,-0.2951620823400831,-0.6081881390894561,34.2899281565393,17.53971554092155,5.529309578420552,2.076275203276006,1.0992700658420262,0.6506711683293984,0.2073483922439889,0.06547376401815758,0.10976848679039145,-0.12380827449282758,-0.08438539328119979,0.30402791304349225,-0.11470399159166952,-0.04471503842865797,-0.1746283181349624,0.22639512618146765,0.047893042710244464,7.9172766934389,4.549168781767256,2.938837214849312,1.749843374115363,0.8571069449119821,0.3233908882471955,0.38656240990947655,0.24844365959085496,0.23199612650758783,-0.040637637639999724,0.0575422962695971,0.06441224295877027,0.07641994948109795,0.1320304364264047,0.004981318015254997
0.0,68.0,68.0,0.0,120.0,0.0,-0.8341731312294436,0.4597160194380776,0.8533477171800061,-106.96594770431798,0.0,-44.992323080223315,0.06611721790913451,-0.538662687590074,-0.8455472911705122,34.2899281565393,17.53971554092155,5.849640108101259,1.9539404555191768,1.2742508315037524,0.38151936297412875,0.3378993055469979,0.3666794647985027,-0.06820804869033134,0.267795067137455,0.02578775582660014,0.3291765137431764,0.12208631385596258,-0.07267316437667488,0.025643622559733487,-0.1199658420038367,0.12641069120791845,7.716201535393161,4.4992955580147305,2.6196107198145633,1.646205434370839,0.8359290729385918,0.5851784272744895,0.33849007723175223,0.19718439423622192,0.13500245334876249,0.16071852567557537,0.05426704716940419,0.17426555506789246,0.057101475225063716,-0.03061645275613896,0.08166890188352832
0.0,69.0,69.0,0.0,120.0,0.0,0.5206302516790176,0.8242814337098383,-0.03755699052180539,-107.02224638035435,0.0,-45.05591530372283,0.6985915596064783,-0.5046960120777115,-0.0034739853708654067,34.2899281565393,17.53971554092155,5.5012664570168495,2.471168041562667,1.4099482914696768,0.2680254752497254,0.2261409072260478,0.23482273077545118,-0.23109811557003646,-0.030300017371339815,-0.12060032325857128,0.15055826737411362,-0.16277813381737172,-0.019129774134871918,-0.19874114502207196,0.21699346896230468,0.06753630201421697,7.767547409726052,4.331614122728756,2.8803527572210106,1.771655628255415,0.9005558147948287,0.4837345960715392,0.2808820640059542,0.0009943694035584594,0.00697065429891304,-0.01000382655469631,0.10704417604604258,0.05233940118068237,-0.03845714166194285,-0.10751660822395138,0.07192624310575761
0.0,70.0,70.0,0.0,120.0,0.0,-0.04482069822763535,0.16771172017321345,0.14110627254469188,-106.98756277433883,0.0,-45.035931081836395,-0.7811891944647072,-0.8179364233549853,0.5692048610453659,34.2899281565393,17.53971554092155,5.435885952823981,1.7527851363961575,0.9119202868657923,0.8765889688787164,0.24481572760443787,-0.15391204557042043,0.2825663714677563,0.03311987943917363,0.20229988961635798,-0.14311990786190745,0.3266802063497114,-0.015717279179272327,-0.0509266175131355,-0.120866307876619,-0.06690353007980507,7.681518327298559,4.6730099358274035,2.7795407366956617,1.7741806834711356,0.9486526948230373,0.422110982246523,0.16641390727142474,0.1540665556798791,0.21114377441130847,0.13495131803445257,0.16140981839668786,0.13322595828417869,-0.05852823134060113,0.011147609219410284,0.14300104464414493
0.0,71.0,71.0,0.0,120.0,0.0,-0.18567675717329224,0.8047188678265746,0.06277326971541486,-107.04383657453403,0.0,-45.003452736830894,-0.6771469272990011,-0.5265702609542637,0.30088235104039684,34.2899281565393,17.53971554092155,5.055247200737146,2.207426556365327,1.157575857317801,0.6888937973119098,0.2845303612575183,-0.117052629957183,0.003816087776181254,0.18622353704056147,0.2862382156587131,0.14454437563287564,-0.08949548918469248,-0.11245828415826213,-0.11813447922223531,-0.2390930062951298,-0.09593072057999485,7.792657535084304,4.576311920638478,2.7918824209775375,1.675443810398384,0.9123764958174189,0.47846549339398736,0.3814147603829713,0.2510607249122695,0.06381055449150638,-0.15358659688027937,-0.07228953053514825,0.06856753564554213,0.03272006370525786,0.06645744130242374,-0.04988336667453917
0.0,72.0,72.0,0.0,120.0,0.0,0.5218578723231233,0.9858278533604274,0.9960264623389461,-107.04234473372753,0.0,-44.9918348109736,0.43449396026269616,0.2883999369429926,0.9840869480831351,34.2899281565393,17.53971554092155,5.641987114250426,2.359695662448032,1.2635828798669548,0.3534153029395992,0.024990531902870344,0.06029036208093916,-0.12705941835122456,-0.017363427826291494,-0.2262155509853247,0.2972815739596676,-0.14499716363433182,-0.07123228598376741,-0.21733894935887446,0.07511388347824204,0.20319025108587482,8.047740187077082,4.251079272776923,3.01655284958647,1.7501098425228094,0.8346948491058952,0.39925085098875274,0.24962040315464223,0.1981638658957319,0.2767900400924168,0.03825078425857145,0.114065896125253,0.04390722077217313,0.0832332810102207,0.024667968855560208,0.11229393864743868
