Line_number,Fiducial,Easting,Northing,Height,Elevation,tx_pitch,tx_roll,tx_yaw,txrx_dx,txrx_dy,txrx_dz,rx_pitch,rx_roll,rx_yaw,PX,PZ,S0X_time_1.086e-05,S0X_time_3.256e-05,S0X_time_5.426e-05,S0X_time_8.680e-05,S0X_time_1.411e-04,S0X_time_2.279e-04,S0X_time_3.689e-04,S0X_time_5.860e-04,S0X_time_9.115e-04,S0X_time_1.411e-03,S0X_time_2.192e-03,S0X_time_3.418e-03,S0X_time_5.339e-03,S0X_time_8.301e-03,S0X_time_1.338e-02,S0Z_time_1.086e-05,S0Z_time_3.256e-05,S0Z_time_5.426e-05,S0Z_time_8.680e-05,S0Z_time_1.411e-04,S0Z_time_2.279e-04,S0Z_time_3.689e-04,S0Z_time_5.860e-04,S0Z_time_9.115e-04,S0Z_time_1.411e-03,S0Z_time_2.192e-03,S0Z_time_3.418e-03,S0Z_time_5.339e-03,S0Z_time_8.301e-03,S0Z_time_1.338e-02
0.0,0.0,0.0,0.0,120.0,0.0,-0.09886242042626892,0.16146381073941685,-0.06749288070004966,-107.0,0.0,-45.0,0.6356228082365953,-0.5365646893589089,-0.16143309804656614,34.270624069470855,17.560637190127487,4.553649340348123,2.6604640389543794,2.1652469780076515,1.737741831271666,1.2563602002243854,0.792112817902705,0.418657980516299,0.1865411074945022,0.07206827939128199,0.023861360604236513,0.006762603544293169,0.0016950387179072311,0.00039435976283377976,7.913683847604563e-05,-7.896310996889353e-05,6.9441170602337365,4.924149569530124,4.272698663696599,3.6781305110946696,2.944848795574133,2.1305666232280336,1.348256779324608,0.7469654234851213,0.3693344209300111,0.16155374934978436,0.062437669629711104,0.021719053129975893,0.006969696579882306,0.002094647991984004,0.0003861274320502696
0.0,1.0,1.0,0.0,120.0,0.0,0.7085396040936554,-0.1505305729522013,0.2739937521849529,-107.0,0.0,-45.0,-0.7093282251511219,-0.6209304063895849,0.32370955935767864,34.270624069470855,17.560637190127487,4.556641583916684,2.6738898980882424,2.189782857312594,1.786823017410984,1.3319735295449877,0.8751858140338556,0.48662166890078323,0.22914107577227097,0.09342780019935724,0.03251641914186383,0.009618240679700485,0.0024848098360382067,0.0005849740412180283,0.00012056006709055078,-7.530084546385862e-05,6.946733381625456,4.939114027496965,4.3026628361794135,3.7453611112096303,3.0647314681948727,2.2863799913854583,1.503816631054602,0.8694369794267686,0.4482350339460466,0.20380319354231038,0.0814472053238281,0.029079556059234755,0.009500200223019731,0.0028917078924136706,0.0005909902002646583
0.0,2.0,2.0,0.0,120.0,0.0,0.22356510770973137,0.8306390735951354,0.6364540121836659,-107.0,0.0,-45.0,-0.36307335382697614,-0.5324683179157323,0.16748365246262087,34.270624069470855,17.560637190127487,4.559763073475387,2.6867979914612716,2.2084737940734747,1.8218588376091998,1.3903942598442716,0.9449609385831218,0.5482773229816104,0.27076652016777375,0.11580256521959313,0.04218466746058831,0.012995287945877674,0.0034632577591549667,0.0008295109581074012,0.00017508932258985152,-6.890932132366017e-05,6.949443690369947,4.953558004246618,4.325656364974326,3.792749242012163,3.155387993038765,2.413531761308406,1.639599576328775,0.98335797465975,0.5260959047406615,0.24781786635949823,0.1022170570900618,0.03744154009116563,0.012461470411327648,0.0038446749993883396,0.000842701807465191
0.0,3.0,3.0,0.0,120.0,0.0,-0.31191081056151204,0.5123700002074374,-0.5747757945140821,-107.0,0.0,-45.0,0.0201857256556337,0.5095179283484517,0.5557556937604935,34.270624069470855,17.560637190127487,4.563019519142002,2.699724867877907,2.2244388546294864,1.8477718104299918,1.435536224851442,1.003269344531186,0.6035772587387861,0.3106746119971772,0.13864534362452233,0.05265595746276608,0.016854333469335365,0.00463296591792135,0.0011322469435052834,0.0002443898165877116,-5.936051563543364e-05,6.952251627404469,4.96802396101868,4.345474615756076,3.827568497223233,3.22422685627362,2.517329382234462,1.7576295971721938,1.088243238280817,0.6017249094948726,0.29275980375397953,0.12439714146926832,0.046713714859945465,0.0158426569439057,0.004956625177054751,0.0011436615765723188
0.0,4.0,4.0,0.0,120.0,0.0,0.8899978861950106,0.981894798581703,0.4987080899364449,-107.0,0.0,-45.0,-0.4518505884470383,-0.01821708032490088,-0.9366739661247685,34.270624069470855,17.560637190127487,4.566416217572372,2.712836376479914,2.2392823285245536,1.8680063804741716,1.4705590830064217,1.05180755849902,0.652780087923212,0.34840966406425483,0.16151633869354226,0.06372742716948868,0.021145522640388492,0.005991488404099845,0.0014962301805149353,0.00032994446678788486,-4.623728402113399e-05,6.955160664550937,4.982673622006058,4.36400740178063,3.8547271831347754,3.2768869811955312,2.6020630846152817,1.8599565511501905,1.1841179538387445,0.6743278242201399,0.3379425727948429,0.1476577325359053,0.05679592812957405,0.019626593458686142,0.006228372097167684,0.0014956922420761522
0.0,5.0,5.0,0.0,120.0,0.0,0.07092942342165176,0.1482124619987577,-0.2640519320044039,-107.0,0.0,-45.0,-0.5201324740396389,-0.73163124771973,0.37854887865633424,34.270624069470855,17.560637190127487,4.569958485128497,2.7261788264360574,2.2537653699785136,1.8848786728234241,1.498028762892582,1.0920969261537055,0.6962970974013659,0.38372194956994604,0.18407437971830634,0.07521263518538077,0.025813168222756998,0.007532237178966436,0.0019233174654020647,0.0004330289776360457,-2.914353267164795e-05,6.95817452062419,4.997550339935952,4.382123902222003,3.8774263176120467,3.317740678294221,2.6712334456409534,1.948498822760697,1.2713034053356527,0.7434079240730949,0.3828176496812744,0.17169770545756224,0.06758431710244961,0.023791288500794386,0.00765874998220532,0.0019000795494837203
0.0,6.0,6.0,0.0,120.0,0.0,0.6659694103667793,-0.7034405302806053,-0.3823785633730914,-107.0,0.0,-45.0,0.6070642153999293,-0.040846823106207575,-0.47070587796766206,34.270624069470855,17.560637190127487,4.573651784434539,2.739765135294878,2.2682206020372457,1.8998722695758838,1.5200066825410763,1.1254922040775246,0.7346043135123266,0.41650528064961173,0.2060632305558018,0.08694610917298277,0.030799335729967216,0.009245374815717912,0.0024142536427143174,0.0005546967480748198,-7.711568014758446e-06,6.961297276221011,5.012665623672889,4.400192101579463,3.897662357612571,3.3501717966717215,2.7277448026587785,2.0249882662016576,1.3502813853422309,0.8086860768784928,0.42695651487732067,0.19624833918593496,0.0789751568098296,0.02831122237371296,0.009244887387128376,0.0023576142349716047
0.0,7.0,7.0,0.0,120.0,0.0,-0.7141254170780393,0.34445141506871124,0.185022515023747,-107.0,0.0,-45.0,0.5870175267716491,0.8696461579980104,0.1914324048792475,34.270624069470855,17.560637190127487,4.5775017705418,2.7536002786151172,2.2827815822646746,1.9138909845629353,1.5381091861217289,1.1531984402094146,0.7681953680289052,0.4467508855806793,0.22729699408113366,0.0987848560758321,0.03604649084110853,0.011118649863400972,0.002968778639885128,0.0006957724278067121,1.8392729921320393e-05,6.964533395889295,5.028023670610862,4.418354677690505,3.9166226914281066,3.376753000350533,2.7740415437021393,2.0909664005146276,1.4216096769588527,0.8700394565025087,0.4700320593560593,0.2210741911664656,0.09086763780806607,0.03315845513174048,0.010982467680370677,0.002868634809107495
0.0,8.0,8.0,0.0,120.0,0.0,-0.31293093052978493,-0.23244058052808292,0.6684995349345808,-107.0,0.0,-45.0,0.8033400714246637,0.8080452937906353,0.6489051047216812,34.270624069470855,17.560637190127487,4.5815143010411745,2.7676875683512647,2.2974974916412996,1.9274590529919395,1.5535642467075639,1.1762818349594328,0.7975584487912984,0.47451423788609504,0.247646518229063,0.11060798250389436,0.04149935413026398,0.01313814003032882,0.003585750062208322,0.000856852764462462,4.946642971637915e-05,6.96788771568485,5.043627170119264,4.436661956540301,3.934980761473967,3.3993884858915804,2.8121929479838395,2.147803261136946,1.4858706252853262,0.9274555558527011,0.5118011307673438,0.24597213089394662,0.10316578562302176,0.03830355730231071,0.012865972907051933,0.003433070154166362
0.0,9.0,9.0,0.0,120.0,0.0,0.4680977836665372,0.1583390731742571,-0.4857026832528304,-107.0,0.0,-45.0,0.12260807836759868,-0.7206227715540241,0.07079507502417837,34.270624069470855,17.560637190127487,4.585695436302873,2.7820298856994676,2.3123851476700605,1.9408663984506278,1.567273541836503,1.195674171447911,0.8231659536803639,0.49989186656825163,0.2670275418411736,0.12231523419377352,0.04710611929467942,0.015288888375070461,0.004263272017819889,0.0010383133265466186,8.576740890970427e-05,6.971365424723865,5.059478426076073,4.455130126933784,3.9531010080998064,3.4194452362643957,2.843943803153591,2.1967221913448003,1.5436413817170416,0.9809981183202301,0.5520890361788655,0.2707692884227405,0.11577970799287905,0.04371637856002321,0.014888908739949743,0.0040504812707663675
0.0,10.0,10.0,0.0,120.0,0.0,0.1275937945999308,0.15970864402833396,-0.3595806089735518,-107.0,0.0,-45.0,-0.010731973354464852,-0.016522069800733563,0.32427458912152773,34.270624069470855,17.560637190127487,4.590051440545974,2.7966298938161707,2.327450339481336,1.9542660689665383,1.579877072310154,1.2121751002308394,0.8454696347595922,0.5230056905043112,0.2853907347765439,0.13382499730605685,0.05281917944010626,0.017555430867167786,0.004998823207256947,0.0012403197515400723,0.0001275132906496759,6.974972049946828,5.075579586267194,4.473764250156384,3.971171657785107,3.4378742793253148,2.870747967498358,2.238821703469365,1.5954783289012429,1.0307821170475284,0.5907762478850509,0.2953204305110589,0.12862632716708414,0.04936667135075457,0.017044009204925346,0.004720101712430541
0.0,11.0,11.0,0.0,120.0,0.0,0.9454285318339026,-0.7007264699766866,0.7221302299572481,-107.0,0.0,-45.0,0.7188391498978526,-0.006980301836991387,0.6215882469160834,34.270624069470855,17.560637190127487,4.594588785327403,2.8114901202989797,2.3426956278237285,1.9677352662488823,1.5918144926718114,1.22645618896036,0.8648973601013287,0.5439928084703162,0.3027135414707526,0.14507210503581125,0.05859548617061689,0.019922221445725422,0.005789379350193365,0.0014628423083240102,0.00017488125423341714,6.978713443997673,5.091932751043386,4.492566317395823,3.9892855153243083,3.45531718041847,2.893796623366079,2.2750911137677097,1.6419104321017708,1.07695556698874,0.6277872483139635,0.31950510470294474,0.14162972606067142,0.05522458703188698,0.0193234207202213,0.00544087636636697
0.0,12.0,12.0,0.0,120.0,0.0,-0.857353447825469,0.5478961851415198,-0.8585474862134153,-107.0,0.0,-45.0,0.7029916631882525,0.5042842746010923,-0.9263967259392485,34.270624069470855,17.560637190127487,4.599314153976067,2.8266130239898954,2.3581228023256586,1.9813113087560381,1.6033785507728173,1.239068588749859,0.8818499851221777,0.5629990045700584,0.31899365278580066,0.15600565248035114,0.06439664463614837,0.022373964662292793,0.006631526734801597,0.0017056727263582315,0.00022800854855243148,6.982595774133637,5.108540046000841,4.511537651095495,4.007486357345119,3.4721940216064224,2.9140469529850326,2.306420156263745,1.6834376881832203,1.1196865275154775,0.6630813000623859,0.34322477133885665,0.15472121108195055,0.06126106183461871,0.021718865651980883,0.0062114983212946465
0.0,13.0,13.0,0.0,120.0,0.0,-0.9795516830112425,0.7050702489220566,-0.29518122751965925,-107.0,0.0,-45.0,-0.2977486515061383,0.0742831307428451,0.06614172422539588,34.270624069470855,17.560637190127487,4.604234445769796,2.8420010386769756,2.3737335010071337,1.9950116528440769,1.6147584519854326,1.250454295287641,0.8966981869915973,0.5801745779366034,0.3342439032453214,0.16658693131553734,0.07018882670877846,0.02489586760760317,0.007521565040861522,0.001968442401354392,0.0002869935611170189,6.986625511235107,5.12540365507599,4.530679464594468,4.0257941372031105,3.4887720515754115,2.9322526187492874,2.333604427147661,1.7205319572162339,1.1591540621099983,0.6966448778437198,0.3664000590765617,0.16783917228463976,0.0674481090681092,0.02422178605947156,0.007030443636681991
0.0,14.0,14.0,0.0,120.0,0.0,0.911129720409253,0.9317923593313264,0.9594638114347707,-107.0,0.0,-45.0,0.12919528841820083,-0.7938298723709523,-0.1454391359292202,34.270624069470855,17.560637190127487,4.60935677949693,2.8576565921721846,2.3895293150195607,2.0088444337294065,1.6260730367008251,1.2609599083668117,0.9097796757503605,0.5956714817352804,0.348488376583293,0.17678754135561775,0.07594256521097363,0.0274738231301996,0.008455598603585291,0.002250641232135021,0.00035189731815497117,6.990809418798885,5.1425258219461165,4.549992948250447,4.04421793431447,3.5052166229377253,2.9489951246947763,2.3573488181875293,1.75363842632511,1.1955421830500013,0.7284855073757013,0.38896822004978276,0.18092880347589,0.07375903263558711,0.026823468622968645,0.0078960038936175
0.0,15.0,15.0,0.0,120.0,0.0,-0.3552376042173009,-0.44174409823525207,-0.3564144553849502,-107.0,0.0,-45.0,0.8722215792668462,0.9397714942642619,0.541306165032639,34.270624069470855,17.560637190127487,4.614688496368471,2.8735821093894742,2.405511799267699,2.0228137023675483,1.6373949346007672,1.2708514637844635,0.9213972538005002,0.609641117066969,0.3617594946903934,0.18658770558920498,0.08163247546119005,0.030094535947177717,0.00942961598947232,0.0025516364795047986,0.00042274531334145844,6.995154541895429,5.159908834634643,4.5694792847972145,4.062762221631967,3.5216273495745622,2.964714382590855,2.378270669879409,1.78317676007413,1.229035979600919,0.7586267892602825,0.4108808197706842,0.193941730592175,0.0801685753058303,0.02951515196308607,0.008806316465524999
0.0,16.0,16.0,0.0,120.0,0.0,-0.8229567571609877,0.22679458393865937,-0.5131052690570224,-107.0,0.0,-45.0,-0.8784488836252302,0.8294022674867614,0.9411724592018675,34.270624069470855,17.560637190127487,4.620237162332403,2.8897800085938967,2.42168248645071,2.0369218657146435,1.6487674071321883,1.2803290536433305,0.9318180202836731,0.6222324264736274,0.37409586833466757,0.19597479800927553,0.08723693692743048,0.03274560240418606,0.010439558216390194,0.00287069116805929,0.000499529583052779,6.999668196172251,5.1775550051309995,4.589139672307624,4.081429700127599,3.538062773509542,2.9797369431386747,2.3969036991997816,1.8095415919397009,1.259819261182304,0.787104422157405,0.4321016701982743,0.20683558525864304,0.08665301347151123,0.03228811770564094,0.009759392495931574
0.0,17.0,17.0,0.0,120.0,0.0,-0.7625931658059255,-0.1473905875244259,0.9064939384620359,-107.0,0.0,-45.0,-0.9421477605824669,0.10663320956368261,-0.15119419691003588,34.270624069470855,17.560637190127487,4.6260105697219265,2.9062526967422553,2.4380429102145516,2.051170741653136,1.6602156448857848,1.2895403033212802,0.9412737894250931,0.6335901453511166,0.3855407059045378,0.20494208241645606,0.09273775762318925,0.03541555350702538,0.011481376240857199,0.0032069816740433006,0.000582210964143414,7.004357972074215,5.195466687168389,4.608975392159061,4.100222491299856,3.55455655406101,2.994300872454336,2.413703122389483,1.833102396050889,1.2880731723743697,0.8139630685482758,0.45260499877111976,0.21957355125051364,0.09319020848438049,0.0351337667351989,0.01075314280353094
0.0,18.0,18.0,0.0,120.0,0.0,0.7127145019896957,0.8392621870246253,-0.5140816517033671,-107.0,0.0,-45.0,-0.8726486310487824,-0.37177081263543643,-0.4667368047214495,34.270624069470855,17.560637190127487,4.632016739210771,2.923002565236281,2.4545946253268007,2.0655619719035125,1.671754079128019,1.298592158820079,0.9499626058080567,0.6438531979388764,0.39614060718001143,0.21348765188069965,0.09811983670282866,0.03809386953347278,0.012551078515644628,0.003559614251819136,0.0006707214696766938,7.009231690179343,5.213646175301908,4.628987733466843,4.119142549062092,3.5711278524949535,3.0085767345202385,2.429051963152151,1.85420296288188,1.313975365384506,0.8392539255448245,0.47237383860684257,0.23212390407251074,0.09975962317643856,0.03804368211878456,0.011785400912899851
0.0,19.0,19.0,0.0,120.0,0.0,-0.1166956496612006,0.6510205289381057,-0.38818930789713924,-107.0,0.0,-45.0,-0.43812252402013696,-0.30144865118701625,0.2565993981654562,34.270624069470855,17.560637190127487,4.638263921009648,2.9400319882294808,2.4713392231708844,2.0800971651236617,1.6833909511682117,1.3075607666345814,0.9580511252853604,0.6531532842946688,0.40594460720298925,0.22161355170512165,0.10337083585749915,0.04077097316075271,0.013644769528939744,0.003927640343518787,0.0007649667467996677,7.01429740587677,5.2320957275947455,4.649178040847072,4.138191811050443,3.587787625321565,3.0226847510258117,2.4432682188267805,1.8731607730911624,1.3376994342128907,0.8630328765948424,0.4913986223729808,0.2444595578144887,0.10634231088908114,0.04100968016470818,0.012853944563072005
0.0,20.0,20.0,0.0,120.0,0.0,-0.40365688561686386,0.10627611291416228,0.33391790695838974,-107.0,0.0,-45.0,0.6852709582562684,0.38916868177553576,0.060496482842022914,34.270624069470855,17.560637190127487,4.644760595672572,2.9573433220699945,2.4882783401935638,2.0947779378792277,1.6951310719002977,1.3164994641061456,0.9656775855871548,0.6616137170307924,0.4150033745514398,0.22932506365003294,0.10848086685629474,0.04343820672374012,0.014758680293308164,0.004310070588816021,0.0008648285636380585,7.01956341449753,5.250817590814964,4.669547753294702,4.157372243489005,3.6045423416329854,3.036708378710548,2.456612499109254,1.8902665153874252,1.3594144276586482,0.8853591090572199,0.5096759624737681,0.25655762864535697,0.11292088321832743,0.044023851025653586,0.013956515123837608
0.0,21.0,21.0,0.0,120.0,0.0,-0.298796928828561,0.20585754529705969,-0.7446163157100079,-107.0,0.0,-45.0,-0.08623333578285508,-0.8713200580325258,-0.08392686900829549,34.270624069470855,17.560637190127487,4.651515474927408,2.9749389051307134,2.505413660434934,2.1096059230070625,1.7069774307203434,1.3254450458077045,0.9729550967387931,0.6693485526485484,0.4233685034133636,0.2366301262608246,0.1134422002817671,0.046087798042593504,0.015889191768240152,0.0047058875051443775,0.0009701672819061964,7.02503823281155,5.269813967823334,4.690098371351843,4.176685836403383,3.6213961481854575,3.0507047390813637,2.469295744797033,1.9057839237190475,1.3792843462216242,0.9062940927646569,0.5272076011397501,0.26839902069729243,0.11947946171668887,0.04707859016238714,0.015090834685141032
0.0,22.0,22.0,0.0,120.0,0.0,0.7060429221741047,-0.5870632218833294,-0.03510725873995968,-107.0,0.0,-45.0,-0.43687888481083625,-0.8283627523684984,-0.8763110901146036,34.270624069470855,17.560637190127487,4.658537502041276,2.9928210581724937,2.52274691565503,2.124582771879766,1.7189320981418135,1.3344225462690311,0.9799750185204599,0.6764620374807422,0.43109186684935596,0.24353886550642131,0.11824899873594312,0.04871281827654932,0.017032852179690104,0.00511405684600419,0.0010808242852975867,7.03073059035274,5.289087009493932,4.710831448359884,4.1961346023588,3.6383520453627924,3.064712454991818,2.481486676949579,1.91995003310028,1.3974675911330499,0.9259008268703789,0.5439995148625647,0.2799680375213562,0.12600361793706083,0.050166621870584224,0.01625462135780041
0.0,23.0,23.0,0.0,120.0,0.0,-0.1290424301830586,-0.12975902319090493,-0.7152692127438696,-107.0,0.0,-45.0,0.4854203778783375,0.7460773144893025,-0.2091303289211055,34.270624069470855,17.560637190127487,4.665835851826799,3.010992084888106,2.5402798844056425,2.1397101571194206,1.7309967111713143,1.343448801658088,0.9868102436866195,0.6830483625292306,0.43822501860920143,0.25006321131735226,0.12289707629969077,0.051307134484077775,0.01818638914933235,0.005533537670280651,0.001196624334798573,7.036649421031314,5.308638807449676,4.7317485817173255,4.215720576491011,3.6554125028679754,3.078757400032314,2.493318728666288,1.9329758762051008,1.414116376366995,0.944243276067289,0.5600611581046476,0.29125202057642025,0.13248030543770084,0.053281015954003225,0.01744560276945354
0.0,24.0,24.0,0.0,120.0,0.0,-0.09121758327277996,-0.059206891796958594,0.23081171734818806,-107.0,0.0,-45.0,0.3476946102686831,-0.08753417481346304,0.14982843833808146,34.270624069470855,17.560637190127487,4.673419930281716,3.0294542725662197,2.5580143910351314,2.1549897762735517,1.7431727216726722,1.352535042546247,0.9935182593218583,0.6891917004826241,0.44481864330462306,0.25621657851130747,0.1273836847175378,0.0538653589799854,0.019346717472337224,0.005963291172547416,0.0013173778303507081,7.0428038549893905,5.328471387553345,4.752851405199649,4.235445817374039,3.672579764138847,3.092856826236325,2.5048962986752903,1.945047589160648,1.4293761363154502,0.9613859325572373,0.5754048312652454,0.30224101515209817,0.13889778668164604,0.05641519851035321,0.01866152787539579
0.0,25.0,25.0,0.0,120.0,0.0,-0.9333269524950478,-0.6711690456712394,0.5103545354401344,-107.0,0.0,-45.0,-0.9630981742928344,-0.5216344681727685,-0.586217819077173,34.270624069470855,17.560637190127487,4.681299373845187,3.0482098928856227,2.575952305052233,2.1704233555141883,1.7554615159218376,1.3616887412438459,1.0001439074311977,0.6949664839419111,0.4509220610351251,0.2620135943791215,0.13170732564870558,0.05638279714072185,0.02051094329370163,0.00640228833623848,0.001442882964673467,7.049203210635644,5.348586704166124,4.774141582650889,4.2553124073788124,3.689855985948132,3.1070222663937153,2.5163002455686403,1.9563278597122846,1.4433849691963427,0.9773934554784831,0.5900451577700124,0.3129274635153747,0.14524555715685397,0.05956295768927623,0.01990017721095252
0.0,26.0,26.0,0.0,120.0,0.0,-0.4325596094259432,-0.7326552219681248,-0.007611878770520608,-107.0,0.0,-45.0,-0.8029067367243183,0.0918062434636755,0.3443656772175381,34.270624069470855,17.560637190127487,4.689484048245029,3.0672612028771313,2.5940955409344113,2.186012652592961,1.7678644677276203,1.3709149010323087,1.006721806054446,0.7004378763981239,0.45658279438170196,0.2674698592835583,0.1358675874053186,0.05885539497865673,0.021676365338130485,0.00684951648036659,0.0015729277603597446,7.055856986787955,5.368986635207512,4.795620802959423,4.2753224517633335,3.707243295741618,3.121261533402715,2.5275926049069763,1.9669576329569498,1.4562731538341398,0.9923303537698837,0.6039986551305537,0.3233059247330735,0.15151426851789657,0.06271844518765197,0.021159371714581234
0.0,27.0,27.0,0.0,120.0,0.0,-0.42192072490514887,-0.06138108016346422,0.7056943375605897,-107.0,0.0,-45.0,-0.4462028893672818,-0.9147784835381745,-0.0019737921333755626,34.270624069470855,17.560637190127487,4.697984046907359,3.0866104460946926,2.612446058305715,2.2017594587617615,1.7803829594873506,1.380216937721688,1.0132784228024898,0.7056623857332188,0.4618462046176212,0.2726017305252022,0.13986500392213477,0.06127968754717771,0.022840473754693388,0.007303984777206069,0.0017072919854505813,7.062774854858011,5.389672978048684,4.817290776079972,4.295478076414728,3.7247438110224467,3.1355800695872986,2.5388205574331537,1.9770579853581258,1.4681627694142747,1.0062606908089242,0.6172833850974933,0.33337282042256355,0.15769565210845804,0.06587617416544747,0.022436980249221295
0.0,28.0,28.0,0.0,120.0,0.0,0.29967039629597436,0.9261815763382728,-0.36101784283701677,-107.0,0.0,-45.0,0.6658120034898984,0.20683182210746653,-0.39783440863546815,34.270624069470855,17.560637190127487,4.706809688901983,3.106259854030733,2.6310058623614863,2.2176655997241217,1.7930183891267089,1.3895972701833461,1.0198338142245382,0.7106885724834142,0.466755201359641,0.2774261231377097,0.1437009332805946,0.06365274902253215,0.02400094705050822,0.007764728823366723,0.0018457489454979093,7.069966651019084,5.410647446258949,4.839153229850442,4.3157814245659205,3.7423596431679136,3.1499818383377107,2.5500197067926265,1.9867320826862032,1.4791674374013684,1.0192477991316706,0.6299186687113351,0.34312620553127116,0.1637824438650972,0.06903101419366288,0.02373092594389181
0.0,29.0,29.0,0.0,120.0,0.0,0.8478165766541184,-0.2950724039343562,0.1604985756088093,-107.0,0.0,-45.0,0.9010828995904476,0.24370366931022946,0.9523815027276012,34.270624069470855,17.560637190127487,4.7159715163993505,3.126211647801304,2.649777004427016,2.233732935852475,1.8057721716735098,1.3990577076500494,1.026403058117674,0.7155578103413597,0.47135002668162784,0.2819603240223128,0.14737745293096874,0.06597214511709669,0.025155647511122228,0.008230814349957432,0.001988067151832127,7.077442368301095,5.431911667209599,4.861209907398013,4.33623465294162,3.7600928961030897,3.164469900426845,2.5612167421915593,1.9960671482288785,1.4893921942618231,1.0313540010043474,0.6419248531465205,0.35256556309374726,0.16976831132178555,0.07217818378177975,0.025039191469338386
0.0,30.0,30.0,0.0,120.0,0.0,0.46461157129320707,0.9724145744841997,-0.10256966461506623,-107.0,0.0,-45.0,0.03085245432831729,0.8854905098419945,-0.1571628781387695,34.270624069470855,17.560637190127487,4.7254802916150025,3.1464680401165492,2.6687615825674156,2.2499633619395425,1.8186457393292386,1.4085996981246796,1.032997413374416,0.7203050631114976,0.47566811159530137,0.28622181787506157,0.15089726878655937,0.06823588830296985,0.026302615440376483,0.008701340158933073,0.0021340118667048736,7.085212148554445,5.453467180524186,4.883462564987073,4.356839927751962,3.777945664109951,3.179046777755392,2.5724315683995886,2.0051363811761345,1.4989334943041295,1.0426403357181677,0.6533231186779028,0.36169162174752056,0.17564778322231375,0.07531324097300991,0.026359823351958914
0.0,31.0,31.0,0.0,120.0,0.0,0.5267494951247493,0.24585604778912096,-0.38908010712359875,-107.0,0.0,-45.0,-0.6115022544622524,-0.2633476890357149,0.1921706960037064,34.270624069470855,17.560637190127487,4.7353469932155345,3.167031237543708,2.6879617421974005,2.2663588067126987,1.831640541479089,1.4182244839129903,1.039625244814068,0.72495964958605,0.47974400015736424,0.29022812474216547,0.15426363555700764,0.07044239616168238,0.027440062499157678,0.009175440372077386,0.002283346526407545,7.093286274219544,5.475315437352747,4.905912970212115,4.3775994208438815,3.7959200301417835,3.193714676970717,2.5836789853120155,2.0140007793790047,1.5078793345283874,1.0531662975442264,0.6641353157636628,0.37050619461122325,0.18141618209245836,0.07843207243966861,0.02769093542033995
0.0,32.0,32.0,0.0,120.0,0.0,-0.15760217448426372,0.08082277500138924,-0.32321551362096734,-107.0,0.0,-45.0,0.12534006563920386,0.4361515649662786,0.7705072224516638,34.270624069470855,17.560637190127487,4.745582812157323,3.1879034430633797,2.707379676664587,2.2829212322755255,1.8447580449933063,1.4279331964347124,1.0462927500674257,0.729545974876705,0.4836093344702327,0.29399664985310675,0.15748028599284286,0.07259045302693594,0.02856636437930102,0.009652286076530348,0.0024358340437548704,7.101675159835691,5.4974578004400705,4.928562900475286,4.398515306201391,3.814018064802307,3.208475622882628,2.59496999439218,2.0227108342901556,1.5163094880629728,1.0629895897207489,0.6743838240079427,0.37901203795662686,0.18706956001315608,0.08153088145729499,0.029030711469567035
0.0,33.0,33.0,0.0,120.0,0.0,-0.514659406341271,0.6866353381625288,-0.4204769862320188,-107.0,0.0,-45.0,-0.9354549038934645,-0.9803624811001521,0.21897240508795468,34.270624069470855,17.560637190127487,4.756199146927602,3.2090868589154726,2.7270176277967453,2.2996526335784244,1.8579997347619097,1.4377269122767204,1.0530045231417484,0.7340842131699564,0.48729289254474034,0.2975445467449109,0.16055136708181755,0.07467917495567841,0.029680053014046966,0.01013108644650036,0.002591237991625272,7.110389343222835,5.5198955449546885,4.95141414171171,4.419589756887215,3.8322418257620057,3.2233315353000678,2.6063128016743335,2.031308077971501,1.5242958294597515,1.0721659000705355,0.6840914265214895,0.3872127279594517,0.19260463775768402,0.08460617508441882,0.030377407220485406
0.0,34.0,34.0,0.0,120.0,0.0,-0.4639972984566034,0.11812855517394283,-0.6261882042626143,-107.0,0.0,-45.0,0.16719703674674813,-0.7318474197175073,0.2701567655275616,34.270624069470855,17.560637190127487,4.767207598157152,3.230583689728473,2.746877886413401,2.3165550379712077,1.8713671143072206,1.4476066851512381,1.0597639856810952,0.7385909324240688,0.49082067033805193,0.30088859472366447,0.16348138162713977,0.07670797795172064,0.0307798084979262,0.010611089415134011,0.002749323669684221,7.1194394762721895,5.542629860044182,4.974468487338991,4.440824942448749,3.8505933573511424,3.2382842714060933,2.6177135780806493,2.0398264721846915,1.5319027335482291,1.0807487032499978,0.6932811948412085,0.3951125537080583,0.1980187473995031,0.08765475082557792,0.031729351644515014
0.0,35.0,35.0,0.0,120.0,0.0,-0.4061555609155547,-0.9471175941706087,0.9029884654515568,-107.0,0.0,-45.0,-0.3054883500051304,0.5169183189343058,-0.1074468400430868,34.270624069470855,17.560637190127487,4.778619962575109,3.252396145923819,2.7669627928071896,2.333630504857666,1.884861706343882,1.457573563317252,1.0665737128125063,0.7430796560951903,0.49421599917092673,0.3040450915202465,0.16627513401579458,0.07867654927769717,0.03186445086488697,0.011091581963958933,0.0029098590570329004,7.128836315285549,5.5656618510823375,4.997727737413632,4.4622230267692,3.8690746901539255,3.253335647856819,2.629177028616286,2.0482936376540772,1.5391875293685682,1.0887890935410298,0.7019763810301353,0.4027164245951882,0.20330977845422338,0.09067368300903644,0.03308494771939524
0.0,36.0,36.0,0.0,120.0,0.0,0.5245370419094717,0.20177778874718544,-0.31773448716967456,-107.0,0.0,-45.0,0.05920585181473381,0.651667573566163,-0.8478042647060158,34.270624069470855,17.560637190127487,4.790448226278317,3.2745264473854863,2.7872747372020434,2.3508811254526605,1.8984850532134605,1.4676285985378326,1.0734356762819806,0.7475613605759502,0.49749969004807637,0.3070297616778862,0.1689376793283982,0.08058482162616458,0.03293293185239288,0.011571890090212271,0.0030726156542535,7.1385907108071365,5.588992542573053,5.021193697979015,4.483786166323598,3.887687840526827,3.2684874514522946,2.6407068132216756,2.056731927696009,1.546200991559282,1.0963356507730697,0.7102003148159105,0.4100297902199632,0.20847612758316214,0.09366030906837167,0.03444267267708576
0.0,37.0,37.0,0.0,120.0,0.0,-0.17365559744162828,-0.7072844787994426,0.9430215513944775,-107.0,0.0,-45.0,0.48147461608995057,0.6641363701353866,-0.403918820834104,34.270624069470855,17.560637190127487,4.802704557289821,3.296976827383148,2.807816160195113,2.3683090226327543,1.9122387171724637,1.477772850322547,1.0803514236237879,0.7520449097256664,0.5006901970356116,0.3098576808317741,0.17147427523645642,0.08243294987831815,0.03398432676004641,0.012051378505223092,0.0032373692191358895,7.148713596895048,5.61262288167463,5.044868180589123,4.505516508791913,3.90643481003737,3.2837414437233186,2.6523058540744757,2.0651593547473306,1.552987853140939,1.1034343405962512,0.7179763046220826,0.41705857098344973,0.213516651852847,0.096612215879444,0.03580107780169868
0.0,38.0,38.0,0.0,120.0,0.0,0.12034927158063535,-0.7374985970543424,0.23320358781399242,-107.0,0.0,-45.0,-0.6071748836657691,0.5829551501562651,-0.052267280444948216,34.270624069470855,17.560637190127487,4.815401297383166,3.3197495367350482,2.828589553188213,2.385916350868073,1.9261242805472074,1.4880073876937194,1.0873222085365062,0.7565374297778388,0.5038037926826299,0.31254321565841986,0.17389033637194146,0.08422129015709155,0.03501782649335434,0.012529450110087282,0.003403900401160986,7.1592159797822665,5.6365537423057495,5.068753001990721,4.527416191982148,3.925317584861172,3.2990993625382536,2.663976557139239,2.073590381161964,1.5595873256338657,1.1101284490491243,0.7253275421061597,0.4238090976649522,0.21843062551281112,0.09952722627153542,0.03715878783237087
0.0,39.0,39.0,0.0,120.0,0.0,0.7846222678608394,0.2935442018342309,-0.5826854651537958,-107.0,0.0,-45.0,0.861470268453727,0.5374859662849216,-0.13366925712711386,34.270624069470855,17.560637190127487,4.828550953151213,3.342846848194269,2.849597458813148,2.403705296223267,1.9401433457868165,1.4983332897598112,1.0943490845350654,0.7610446291551273,0.506854749418365,0.31509997892060215,0.1761913910370474,0.08595038087743181,0.036032729866234556,0.013005545288502495,0.0035719952805434397,7.170108925879659,5.660785929791567,5.092849983945333,4.549487343020787,3.944338135190593,3.3145629224449635,2.67572096981484,2.0820365872547626,1.5660336146498055,1.1164585502556108,0.732277010359494,0.43028805840824863,0.22321770022210694,0.10240338580394452,0.03851450002322293
0.0,40.0,40.0,0.0,120.0,0.0,-0.4283699242374994,-0.6784400091256964,-0.8599477643580145,-107.0,0.0,-45.0,-0.44280724771180857,-0.925525800398779,0.4745033284823048,34.270624069470855,17.560637190127487,4.842166186300405,3.366271061039407,2.870842471354031,2.4216780764172823,1.9542975354508774,1.5087516457932935,1.1014329713256086,0.7655710684326075,0.5098555218383319,0.3175407987346803,0.17838304025246718,0.08762092550681216,0.037028436219670086,0.013479141050869206,0.003741445818217668,7.181403549076416,5.685320186005161,5.117160953171448,4.5717320777737624,3.963498414706651,3.330133814630691,2.6875408915943306,2.09050723022482,1.5723564213342807,1.122462505187563,0.7388473962742003,0.43650245171612134,0.22787786862371834,0.10523894987674587,0.03986698290967331
0.0,41.0,41.0,0.0,120.0,0.0,0.9184517990385221,-0.6745078062450403,0.4008218987842316,-107.0,0.0,-45.0,0.21208324654610622,-0.7100406752663939,-0.24805556423167419,34.270624069470855,17.560637190127487,4.856259803154105,3.390024505847838,2.892327237168708,2.439836940933864,1.9685884921658146,1.519263555164118,1.1085747011866347,0.7701203859870783,0.5128169257567948,0.31987770095158075,0.18047091922653855,0.08923377677007789,0.0380044383986842,0.013949750058803377,0.003912050223582966,7.19311099729725,5.7101571949563095,5.141687741387312,4.594152500466868,3.9828003601551423,3.345813706906099,2.699437950641961,2.0990097075277294,1.5785814221833956,1.128175488753236,0.745061007773462,0.4424595442367744,0.23241143113618437,0.1080323712265381,0.04121507482733775
0.0,42.0,42.0,0.0,120.0,0.0,0.9283320226168019,0.12712771643236054,0.4495179347754059,-107.0,0.0,-45.0,0.14692181971317608,-0.19455457454612968,0.6737812934560601,34.270624069470855,17.560637190127487,4.870844741440444,3.414109548578059,2.914054455516284,2.4581841731593994,1.98301788083513,1.5298701257789813,1.1157750512852675,0.7746954847022355,0.515748310874256,0.32212190335470275,0.1824606613772812,0.09078992206003181,0.03896031611585671,0.01441691955499048,0.004083613254906528,7.205242463179574,5.73529765562112,5.166432279604702,4.616750797153553,4.002245892894739,3.361604176097315,2.7114136902561894,2.1075499258464245,1.5847307249477764,1.133630041384267,0.7509396967560027,0.4481668323070694,0.2368189658030223,0.11078228784646219,0.04255768292752523
0.0,43.0,43.0,0.0,120.0,0.0,-0.13623420415895549,-0.524535796843588,-0.20822003671994804,-107.0,0.0,-45.0,-0.43192791294984456,0.38556686779548266,-0.3222668832407045,34.270624069470855,17.560637190127487,4.885934062739787,3.4385285975445212,2.9360268778108045,2.4767220856052763,1.9975873831597915,1.5405724778610632,1.1230347642709546,0.7792986857515004,0.518657724371435,0.32428382037899417,0.1843578650291212,0.09229046985293526,0.039895729715983666,0.014880230219604459,0.00425594642346009,7.2178091078667395,5.76074212438843,5.191396367575906,4.639529006261741,4.0218369144227895,3.377506874338956,2.7234695199628502,2.116132640481025,1.5908232825805497,1.1388561444411083,0.756504788088672,0.45363200645569235,0.2411013010252388,0.11348751134656761,0.043893779608915114
0.0,44.0,44.0,0.0,120.0,0.0,-0.8091345951055182,-0.8749469072648297,0.19627450976090488,-107.0,0.0,-45.0,-0.8587604894659664,0.6923287274231134,0.6641448506956602,34.270624069470855,17.560637190127487,4.901540937084082,3.4632841076849714,2.9582473089292596,2.4954530231330785,2.0122987006684507,1.5513717417669175,1.1303545632944474,0.7839318531691627,0.5215520642513984,0.32637307677879235,0.18616806294940777,0.09373663695095953,0.04081041434702144,0.015339294971987326,0.004428868169981374,7.230822080541646,5.786491116094974,5.216581806823217,4.662489150542716,4.041575308651731,3.393523434198218,2.7356067869081784,2.1247616895512675,1.5968752864682987,1.1438813112947526,0.761777015935425,0.45886291813701713,0.245259490965286,0.11614701579042215,0.04522240152520364
0.0,45.0,45.0,0.0,120.0,0.0,0.009246897441044233,0.8192658225651421,0.7188716650590301,-107.0,0.0,-45.0,0.29197554295710004,0.4259230497432085,0.1963237448327979,34.270624069470855,17.560637190127487,4.917678628120575,3.4883785852476157,2.98071860776198,2.514379364221578,2.0271535560104166,1.5622690573533942,1.1377351615480702,0.7885964945285602,0.5244372210501597,0.3283985289118965,0.18789669481038887,0.0951297364187461,0.04170417453106147,0.015793757733457373,0.00460220397739997,7.244292514905065,5.812545146457278,5.241990451118228,4.6856332872770645,4.0614629431263785,3.4096554331160958,2.747826809132994,2.133440188901493,1.6029005227649784,1.1487306935190134,0.7667764674979134,0.463867548239366,0.24929479341547814,0.11875992700991052,0.04654264788099216
0.0,46.0,46.0,0.0,120.0,0.0,-0.13321530843844798,0.09689170149549753,0.7754398508997966,-107.0,0.0,-45.0,0.828633201455053,-0.7338488220921333,0.6842499928813524,34.270624069470855,17.560637190127487,4.934360479483006,3.513814593452401,3.0034436874170116,2.533503520270565,2.0421536919370276,1.573265574895634,1.1451772680179508,0.7932938416928554,0.5273182073814153,0.330368292258078,0.1895490826466797,0.09647116610859967,0.0425768791218631,0.016243292165337354,0.0047757864280569655,7.258231499309747,5.838904706116077,5.267624160359854,4.708963462421527,4.081501668417529,3.4259044274824486,2.7601308682607213,2.1421706980839406,1.6089106913803215,1.153427198909301,0.7715225344900082,0.468653977011454,0.25320864990842956,0.12132551240666621,0.04785367793831306
0.0,47.0,47.0,0.0,120.0,0.0,-0.1275895204470776,-0.38974123520972515,-0.5502769402021637,-107.0,0.0,-45.0,-0.2868032594538459,0.9813437874921835,0.8187174948853964,34.270624069470855,17.560637190127487,4.951599899459046,3.539594757772838,3.0264255156674804,2.5528279359360755,2.0573008714189447,1.5843624552625166,1.1526815911737662,0.7980249148940313,0.5301992752962541,0.33228977383407765,0.19113040934406322,0.09776239769571086,0.04342845662957898,0.016687600394610026,0.0049494552231247185,7.272650058351418,5.865570267753509,5.293484800883186,4.73248171099181,4.101693318500787,3.4422719533633193,2.772520215525842,2.1509553468363753,1.614915693343139,1.1579916172212115,0.7760338726511867,0.47323035515652007,0.25700266784169623,0.12384317124911379,0.04915470882308991
0.0,48.0,48.0,0.0,120.0,0.0,-0.8098783215776961,-0.9521014483741594,-0.5269386114920096,-107.0,0.0,-45.0,0.15742916299909493,-0.599762323914039,0.9051885565223503,34.270624069470855,17.560637190127487,4.969410344896983,3.565721771189355,3.049667115410212,2.57235508949672,2.0725968778015886,1.5955608700949457,1.1602488411827527,0.802790573234147,0.5330840216341431,0.33416970830379045,0.19264570014322127,0.09900496617154085,0.044258890888515826,0.01712641173812602,0.005123057165658737,7.287559133627023,5.8925422932549605,5.3195742457753425,4.756190057521271,4.122039711232205,3.4587595272406713,2.784996075547835,2.1597959342165454,1.6209238863932716,1.162442751063858,0.7803283692607295,0.47760487596268136,0.26067860439403046,0.12631242546659818,0.05044501330678876
0.0,49.0,49.0,0.0,120.0,0.0,0.5612116258612629,0.660900147527917,0.19619390329223574,-107.0,0.0,-45.0,-0.5512803384349563,0.3377570826045935,0.5614588814844499,34.270624069470855,17.560637190127487,4.98780530438686,3.5921983993798685,3.0731715651385865,2.592087493250019,2.088043514995816,1.6068620019801994,1.1678797311892803,0.8075915541737254,0.5359754818209849,0.33601419668578697,0.19409980710230704,0.10020045976378912,0.04506821704083855,0.017559481434986566,0.005296446112270338,7.302969563687237,5.91982124085355,5.345894375194053,4.78009051658512,4.14254264890542,3.4753686467521314,2.7975596487172982,2.1686940057211226,1.6269423106640917,1.166797549388838,0.7844231185089139,0.4817857484132222,0.26423835201671175,0.12873291094059938,0.05172391758081607
0.0,50.0,50.0,0.0,120.0,0.0,0.5061101197885483,0.7582457791727988,0.43589776750268805,-107.0,0.0,-45.0,0.13030032391140733,-0.8852832498513088,0.5499455954245862,34.270624069470855,17.560637190127487,5.006798280761113,3.6190274858133913,3.0969419994326466,2.6120276939374563,2.103642607700354,1.6182670446196126,1.1755749780229419,0.8124285041649273,0.5388762127470745,0.3378287466822159,0.195497396423804,0.10135051026801663,0.04585651780756485,0.01798658939553653,0.005469482897922554,7.31889206322262,5.947407572195444,5.372447076686179,4.804185093380385,4.163203918875589,3.4921007914250963,2.810212112762923,2.17765091282871,1.632976886596089,1.1710712413457574,0.7883344044494075,0.48578117128106335,0.2676839252941889,0.13110436929051364,0.05299079903833456
0.0,51.0,51.0,0.0,120.0,0.0,-0.24266589601108102,0.25551801020919873,-0.607013913878607,-107.0,0.0,-45.0,-0.47523865015339517,-0.13567889006900202,-0.7955395727217169,34.270624069470855,17.560637190127487,5.0264027729706005,3.6462119567132922,3.1209816094697778,2.63217827319717,2.1193960016527185,1.6297772029898543,1.1833353025729776,0.8173020022247027,0.5417883654759725,0.33961831377808666,0.1968429385174196,0.10245678378877922,0.046623920017729074,0.018407538974237966,0.005642035237848809,7.3353372015363885,5.97530175926539,5.399234245505658,4.828475784353454,4.1840252942376805,3.508957423404946,2.8229546238624175,2.1866678586288963,1.639032587379401,1.1752774686064347,0.7920776911464547,0.4895993082550136,0.27101744898204977,0.1334266401488452,0.05424508407563026
0.0,52.0,52.0,0.0,120.0,0.0,-0.9084945246971659,-0.263771845842121,-0.9980871193763037,-107.0,0.0,-45.0,0.924440461056989,0.46101438740928025,0.42487105477453024,34.270624069470855,17.560637190127487,5.046632257403416,3.6737548258581696,3.1452936435592598,2.6525418480431497,2.1353055639054688,1.6413936934997517,1.1911614299804956,0.8222125779263761,0.5447137486051211,0.34138734238386087,0.19814070064282907,0.10352097189733213,0.04737059136721262,0.01882215577263972,0.005813977610171292,7.352315380370974,6.003504291113608,5.42625778493156,4.852964577867719,4.205008534548146,3.525939988179323,2.835788317521013,2.1957459325286246,1.645113588283427,1.1794284145817167,0.7956676195418589,0.49324826417378514,0.2742411470466998,0.13569965391798594,0.055486245923019074
0.0,53.0,53.0,0.0,120.0,0.0,-0.058519948041549696,0.0842389819760554,-0.5604706897636014,-107.0,0.0,-45.0,-0.8096026945554144,-0.819347392169991,0.2497080796899258,34.270624069470855,17.560637190127487,5.067500162261484,3.7016592030577766,3.169881414013032,2.673121066944797,2.1513731848538824,1.6531177436715747,1.1990540898271445,0.8271607250097808,0.547653883128867,0.3431398064139079,0.1993947419537316,0.10454478321900498,0.04809673738005923,0.01923028647755779,0.00598519111368268,7.369836812380808,6.032015691193714,5.453519604971891,4.877653450625965,4.226155388427993,3.5430499150087074,2.8487143093177525,2.204886136483309,1.6512233952085715,1.183534929260273,0.7991180105001067,0.49673606245936236,0.2773573325489241,0.13792342499800878,0.05671380252634256
0.0,54.0,54.0,0.0,120.0,0.0,-0.982323726836547,-0.7242788310228803,0.8994158462849207,-107.0,0.0,-45.0,-0.3085599094353857,0.8636862564818237,-0.09568654886825634,34.270624069470855,17.560637190127487,5.0890198579608805,3.7299282928839514,3.194748288020793,2.6939186170348637,2.167600775950809,1.6649505930170363,1.2070140160721108,0.8321469116049294,0.5506100496593542,0.34487924880306,0.2006089107494008,0.10552993546644629,0.048802598547104344,0.019631797738569556,0.006155563334533615,7.387911496744853,6.060836505345176,5.481021624553448,4.90254437591481,4.247467591125798,3.560288618189724,2.8617336956950035,2.2140894045982944,1.657364954756117,1.1876066486715793,0.802441873445693,0.5000706238463183,0.2803683982322584,0.14009804547214763,0.057927314439748134
0.0,55.0,55.0,0.0,120.0,0.0,-0.5662616578766562,0.04537381116832706,-0.11620829823321888,-107.0,0.0,-45.0,-0.4832051190845579,-0.38207425572454334,0.11320184736137251,34.270624069470855,17.560637190127487,5.111204642812649,3.7585653950070976,3.2198976841557245,2.714937234421872,2.1839902742739365,1.6768934943673188,1.215041943300211,0.8371715897440218,0.5535833281682163,0.34660881974607477,0.2017868436938505,0.10647814794168191,0.04948844761869142,0.020026575087442586,0.006324988256332429,7.406549224333737,6.089967376114297,5.508765891119729,4.927639478394943,4.268946995929247,3.577657454351417,2.874847486384386,2.2233566613662354,1.663540732684841,1.1916521118570291,0.805651419425128,0.5032597465525934,0.2832768077054101,0.14222367922038207,0.05912638440337607
0.0,56.0,56.0,0.0,120.0,0.0,0.4572472887320205,-0.7712637144790755,0.8604388218294738,-107.0,0.0,-45.0,-0.2250584665289559,-0.5652922969248095,0.5361043343266978,34.270624069470855,17.560637190127487,5.134067708831667,3.787573916694789,3.2453330830600593,2.7361796790111823,2.200543630816532,1.6889477111551283,1.2231386172039094,0.8422351956816477,0.5565746341891443,0.34833131252731864,0.20293196695369967,0.1073911344984532,0.05015458703293361,0.020414521904062365,0.00649336590649747,7.42575947249808,6.119408864645837,5.536754256861112,4.952940610280199,4.29059521881242,3.595157841991761,2.888056792135057,2.2326887131587148,1.6697528350330952,1.1956788577139814,0.8087580805846406,0.5063110877331378,0.28608508707262453,0.14430055650718257,0.060310650937966885
0.0,57.0,57.0,0.0,120.0,0.0,0.029109763335150696,-0.9932661215569096,0.9067471636281865,-107.0,0.0,-45.0,0.05436865561864668,-0.8163317449565259,-0.2736753731651447,34.270624069470855,17.560637190127487,5.157622126443747,3.816957373938667,3.2710580271598073,2.7576487515752364,2.2172628227897415,1.7011145192235577,1.2313047862082498,0.8473381583332698,0.5595847464026736,0.3500491982588215,0.20404749874720896,0.10827059702522834,0.05080134645915701,0.020795558425725114,0.006660602329186313,7.44555145026586,6.149161618792516,5.564988644874026,4.978449698505333,4.312413935227234,3.6127911636500993,2.901362671165072,2.242086354762709,1.6760030405432926,1.1996935329562641,0.8117725306254294,0.5092321467351943,0.28879581701056106,0.14632896890378555,0.061479790085221
0.0,58.0,58.0,0.0,120.0,0.0,0.839239202401318,0.14692940139837596,0.26466918127389083,-107.0,0.0,-45.0,-0.1575003326294413,0.21872699616494118,0.5580159500859225,34.270624069470855,17.560637190127487,5.181880824846586,3.8467193943776588,3.2970761204236156,2.7793472927315928,2.2341498521094425,1.713395206971975,1.2395412026983244,0.8524809016177262,0.5626143313398206,0.35176465805117924,0.20513645335228292,0.1091182194208463,0.05142908044427902,0.021169620804180254,0.006826609387442866,7.465934064912469,6.1792263535291365,5.593471013501929,5.0041686990497976,4.334404840384622,3.6305587802330095,2.9147661509581964,2.2515503618202084,1.682292861462989,1.2037019837082086,0.8147047098051297,0.5120302498222621,0.2914116251532386,0.1483092646255006,0.06263351304082496
0.0,59.0,59.0,0.0,120.0,0.0,-0.6301769308839322,-0.08094950693863656,-0.87639619255787,-107.0,0.0,-45.0,0.31053474074505005,-0.7637252477531755,-0.7592065146014433,34.270624069470855,17.560637190127487,5.206856572665457,3.8768637201368326,3.3233910285528885,2.8012781825154156,2.2512067444723907,1.7257910754321397,1.2478486239409132,0.8576638461444472,0.5656639640417767,0.3534796130017954,0.20620164628268817,0.10993566208385962,0.052038166149317215,0.02153666020881862,0.006991304568169456,7.48691589177031,6.209603838160225,5.622203331561347,5.030099565233784,4.356569621667223,3.6484620412109194,2.9282682438211207,2.2610814857264643,1.6886235936687453,1.2077093403314305,0.8175638524418413,0.5147125365389573,0.2939351787583395,0.15024184422375347,0.0637715640006005
0.0,60.0,60.0,0.0,120.0,0.0,0.00913621416058108,-0.5598647509976811,-0.727714061212049,-107.0,0.0,-45.0,0.5781988358132502,0.7088920325931405,0.7997462971897054,34.270624069470855,17.560637190127487,5.23256195877975,3.907394210523081,3.3500064797889446,2.823444341050141,2.268435549769171,1.7383034384764973,1.256227812217728,0.8628874106987527,0.5687341451567473,0.35519575199095804,0.20724570043559712,0.11072455691965512,0.05262900116648354,0.021896641975143426,0.007154610797745284,7.508505151171992,6.240294899793756,5.651187578767511,5.056244248548854,4.37890995949237,3.6665022854047775,2.9418699477175427,2.270680456804314,1.6949963555809457,1.2117200960373082,0.8203585163076341,0.5172859477405954,0.2963691776178057,0.15212715660603976,0.06489371842226058
0.0,61.0,61.0,0.0,120.0,0.0,0.7204281645562303,0.8048575597776968,-0.26067489454952897,-107.0,0.0,-45.0,-0.6475981956134158,0.44301998690685074,-0.5180536506931455,34.270624069470855,17.560637190127487,5.259009373775672,3.9383148444214546,3.376926265759268,2.845848729240917,2.285838342510062,1.7509336230377723,1.2646795349676652,0.8681520132818945,0.5718253151171777,0.35691455725915244,0.20827105303665816,0.11148650286313584,0.05320200140973824,0.022249544797260812,0.007316456256620699,7.530709686052407,6.271300426290097,5.680425746184361,5.08260469949587,4.401427528180122,3.684680841781907,2.9555722471019363,2.2803479866721013,1.7014121203541204,1.2157381787030117,0.8230966135244078,0.5197572152754524,0.2987163471844337,0.1539656953609874,0.06599978135315446
0.0,62.0,62.0,0.0,120.0,0.0,0.8761866175523274,-0.04451918493440865,0.5279309730616473,-107.0,0.0,-45.0,-0.963808183296418,-0.8364281114826311,0.06455841089676362,34.270624069470855,17.560637190127487,5.286210992216007,3.969629722401783,3.404154242362294,2.868494349490874,2.3034172222633833,1.7636829693397071,1.2732045649355899,0.8734580718339058,0.5749378658387124,0.35863732781153623,0.20927996321421877,0.11222306191156547,0.053757599073677866,0.022595359962607302,0.007476774193977988,7.553536940427553,6.30262136868553,5.709919836698758,5.1091828684283,4.424123996824729,3.7029990302594085,2.9693761137485093,2.2900847700434146,1.7078717423902747,1.2197670161592498,0.8257854424983336,0.5221328533008591,0.3009794318984112,0.1557579953625245,0.06708958582507078
0.0,63.0,63.0,0.0,120.0,0.0,-0.8642747437026748,0.3680679818445636,-0.09335815993855445,-107.0,0.0,-45.0,0.8777579399660445,0.993643594571147,-0.1673491020247071,34.270624069470855,17.560637190127487,5.3141787559256,4.001343068550853,3.4316943306898917,2.891384246440288,2.3211743141057557,1.7765528311385208,1.2818036803256982,0.8788060047343274,0.5780721503276303,0.3603652007224843,0.21027452004803593,0.11293575565804924,0.054296240657421904,0.02293409062680488,0.007635502743414365,7.576993938977689,6.334258743098468,5.739671865517821,5.135980706398743,4.447001030167873,3.721458162512981,2.9832825075717957,2.2998914861329576,1.7143759790862352,1.223809595270601,0.8284317204730989,0.5244191511981241,0.3031611887062813,0.15750462962742645,0.06816299131673818
0.0,64.0,64.0,0.0,120.0,0.0,0.6644643057833419,-0.9388514416939064,-0.9048734565432808,-107.0,0.0,-45.0,-0.2744308885211253,0.8592053715865446,-0.8440380960518328,34.270624069470855,17.560637190127487,5.342924358496845,4.033459232050732,3.459550517986538,2.914521507728624,2.339111769083918,1.7895445759745892,1.2904776649579974,0.8841962311505136,0.5812284905330916,0.36209917043360396,0.21125665095214458,0.11362606231230678,0.054818385051687714,0.023265751126282506,0.007792584740499243,7.6010872679703185,6.36621363213516,5.769683860687564,5.163000166006636,4.470060289472057,3.7400595427888903,2.9972923774365374,2.309768799794712,1.7209255086014834,1.2278685151662938,0.8310416163274212,0.5266221680365677,0.3052643807717224,0.15920620640110006,0.06921988228435319
0.0,65.0,65.0,0.0,120.0,0.0,0.25106680275803384,-0.4016491385522112,0.05036367970135491,-107.0,0.0,-45.0,0.184585990688235,0.9905430802087671,0.6570891372854606,34.270624069470855,17.560637190127487,5.372459231222307,4.065982688528695,3.4877268586441263,2.9379092647794147,2.357231764687589,1.802659585433688,1.2992273084269965,0.8896291712839567,0.5844071837345151,0.36384010615333306,0.21222813026602783,0.11429541419195588,0.055324501688478085,0.023590366326150095,0.007947967542940063,7.625823057763107,6.398487185820034,5.799957863630157,5.1902432022447975,4.493303433392476,3.758804468716648,3.0114066619551743,2.3197173624817293,1.7275209443209358,1.2319460350025084,0.833620783286728,0.5287477285242332,0.30729177138292224,0.16086336644739957,0.07026016676007424
0.0,66.0,66.0,0.0,120.0,0.0,-0.3755638323378392,-0.8392713086121368,-0.9744893397438532,-107.0,0.0,-45.0,-0.6838944829234497,-0.7716202347372949,-0.740216241307738,34.270624069470855,17.560637190127487,5.402794532501239,4.098918043280437,3.516227477439638,2.961550695820392,2.37553650704875,1.8158992554718518,1.308053404280934,0.8951052471352197,0.5876085077265025,0.3655887674645114,0.21319058793070553,0.11494519567142845,0.05581506875171115,0.023907971001256162,0.008101602877722247,7.6512069740219655,6.431080639014157,5.830495955885696,5.217711810884414,4.516732165995671,3.7776942670317837,3.0256262652491555,2.3297378026057625,1.7341628565859402,1.236044113237917,0.8361743919216011,0.5308014203091582,0.30924611805436114,0.1624767805354142,0.07128377575130966
0.0,67.0,67.0,0.0,120.0,0.0,-0.9324107042217873,-0.40116472881473975,0.8295741834358603,-107.0,0.0,-45.0,0.5423327802400848,-0.5642052226075704,0.021543068995090175,34.270624069470855,17.560637190127487,5.4339411372397235,4.1322700322811645,3.5450565706516626,2.9854490268019998,2.394028231562264,1.8292649968048265,1.316956750131359,0.9006248826011358,0.5908327250183724,0.36734581827592244,0.21414551817847585,0.11557674155211428,0.05629057145415702,0.02421860924685802,0.008253446670331377,7.6772442045668265,6.4639953126448795,5.861300261451029,5.24540803185936,4.540348240827266,3.7967302967600003,3.039952056023241,2.339830725590295,1.7408517828633856,1.2401644454092995,0.8387071619155974,0.5327885926706896,0.3111301668556778,0.16404714707107818,0.07229066202347544
0.0,68.0,68.0,0.0,120.0,0.0,0.1682184666984048,0.1543599772041071,0.3496796127914936,-107.0,0.0,-45.0,-0.13947343595907657,-0.00018222446946336568,-0.6254426362860788,34.270624069470855,17.560637190127487,5.465909617319363,4.1660435106499305,3.574218393914634,3.0096075189265026,2.412709192979808,1.8427582347137965,1.3259381597053046,0.9061885001596969,0.5940800860532729,0.3691118393374094,0.21509428820397808,0.11619133579613528,0.05675150039281924,0.024522333913713616,0.008403458731958337,7.703939406301355,6.497232510906605,5.892372788753619,5.2733337227407775,4.564153176226559,3.8159137385860746,3.054385019857869,2.3499967780873487,1.7475881748449373,1.2443085185123763,0.8412233889766781,0.5347143568387123,0.3129466470375202,0.16557518977134256,0.07328079445843133
0.0,69.0,69.0,0.0,120.0,0.0,-0.8444439393529715,0.013361038622838661,0.8761316625408895,-107.0,0.0,-45.0,0.33909912150658506,0.15759823121918548,0.9391239259864579,34.270624069470855,17.560637190127487,5.49871020943506,4.200243458003587,3.603717309968529,3.0340295114881806,2.431581658495615,1.856380417009991,1.3349984457152966,0.9117965257773316,0.5973508319903975,0.3708873391674591,0.21603814651928457,0.11679021073277018,0.05719834994328702,0.024819206075336327,0.008551602718934572,7.73129675263645,6.530793694566022,5.923715677844993,5.301490832989036,4.588148629031467,3.8352458724659653,3.0689260626892603,2.360236565274535,1.7543724838518053,1.2484776137902465,0.8437269799665058,0.536583586582152,0.3146982657485968,0.1670616556820692,0.07425416283038482
0.0,70.0,70.0,0.0,120.0,0.0,0.3137700586528782,0.8618815871477661,0.11336859302352686,-107.0,0.0,-45.0,0.15957751424099587,-0.6289589913370988,0.2901960060513693,34.270624069470855,17.560637190127487,5.532352908165701,4.2348750078662905,3.633557714409457,3.0587183515077325,2.450647956399681,1.87013299591894,1.3441384299971133,0.9174493867941769,0.6006451967905647,0.3726727638461174,0.21697823121454737,0.11737454654384973,0.057631616746245555,0.025109294512666733,0.0086978460806605,7.759319910507083,6.564680330875519,5.955331018361349,5.329881350853795,4.61233626214658,3.8547279735477873,3.0835760830592354,2.370550683272024,1.7612051362390149,1.2526728430494796,0.8462214797463563,0.5384009205343311,0.3163877031286422,0.16850731312921674,0.07521077431678541
0.0,71.0,71.0,0.0,120.0,0.0,0.7650513774736829,0.8221843391134382,-0.23086649706835005,-107.0,0.0,-45.0,0.5915972686060444,0.9016805984879428,-0.48552474132710843,34.270624069470855,17.560637190127487,5.566847394870816,4.269943420057066,3.663744078976182,3.0836774413282124,2.4699104406201293,1.88401744073874,1.3533589407841722,0.9231475123784894,0.6039634088956733,0.3744685055838889,0.21791557793076446,0.11794547108918935,0.058051798261006086,0.02539267522078648,0.008842159773215601,7.788012027582957,6.598893959605452,5.987220928928673,5.358507269763181,4.636717738329556,3.8743613161345465,3.098335973703288,2.3809397190910193,1.7680865375816492,1.2568951716877788,0.8487100987446097,0.5401707652833141,0.3180176076405203,0.169912949808172,0.07615065266043156
0.0,72.0,72.0,0.0,120.0,0.0,0.9916102668893865,-0.6231982969944274,0.592422410400177,-107.0,0.0,-45.0,-0.7384380346886157,0.9480626366461071,0.6384919753450151,34.270624069470855,17.560637190127487,5.602203033953499,4.3054540824753476,3.694280958978664,3.108910241092194,2.4893714886120972,1.89803523909282,1.3626608127241944,0.9288913336165694,0.6073056925643161,0.3762749102488031,0.21885112752623148,0.11850406002850078,0.058459391393018874,0.02566943093443969,0.00898451810955048,7.817375736288245,6.633436196985065,6.019387558742506,5.3873705843246915,4.661294723065455,3.894147173765035,3.1132066224755532,2.3914042512253677,1.7750170758847217,1.2611454388974117,0.8511957392103915,0.5418972993184344,0.319590591684621,0.1712793709520097,0.07707383723177912
0.0,73.0,73.0,0.0,120.0,0.0,-0.7881358072834179,-0.163578167910587,-0.1392077711089892,-107.0,0.0,-45.0,0.22593810654506563,-0.6182507002445747,-0.933730573240289,34.270624069470855,17.560637190127487,5.638428889818122,4.341412516236161,3.7251729858252363,3.134420261505406,2.5090335086459206,1.9121878949193267,1.372044887569789,0.9346812835557342,0.610672268912906,0.378092283955254,0.21978573340955113,0.11905133721088311,0.05885489119742871,0.025939650670578004,0.009124898638113117,7.847413157150368,6.668308721707303,6.051833074704115,5.416473298239956,4.686068885926201,3.9140868196136362,3.12818891280333,2.4019448504259016,1.7819971241236139,1.265424375313002,0.853681020109786,0.5435844777336071,0.321109227505819,0.17260739756821333,0.0779803820955645
0.0,74.0,74.0,0.0,120.0,0.0,-0.37994034455848946,0.79159513743679,0.8699034777030705,-107.0,0.0,-45.0,0.8475556890898726,-0.03726016349708772,-0.39705837519680487,34.270624069470855,17.560637190127487,5.675533733685211,4.377824376470409,3.7564248682944665,3.160211064802489,2.5288989403922826,1.9264769287774526,1.38151201434794,0.9405177973073227,0.6140633567338575,0.37992089880617674,0.22072016852047716,0.11958827530341122,0.0592387896604065,0.02620342928640842,0.009263282004424988,7.878125904947946,6.703513273522838,6.084559662019999,5.44581742511688,4.7110419013074605,3.9341815272209533,3.1432837243357286,2.4125620803261074,1.7890270423280448,1.2697326183668494,0.8561683006383404,0.5452360375911998,0.32257604340129936,0.17389786473507682,0.07887035516507021
0.0,75.0,75.0,0.0,120.0,0.0,0.7141753243798659,0.8332678432400091,0.48392118578379106,-107.0,0.0,-45.0,-0.6725920992340888,-0.4462713831804779,0.15745630317439474,34.270624069470855,17.560637190127487,5.713526053221022,4.414695453211001,3.788041393864436,3.186286265739565,2.5489702555110827,1.940903878158427,1.3910630495295027,0.946401312152224,0.6174791731361456,0.3817609978838075,0.22165513194333045,0.12011579663205403,0.05961157455933627,0.02646086705163581,0.009399651817775776,7.909515098116098,6.739051651817396,6.117569524818091,5.475404989267293,4.736215449137265,3.9544325712085393,3.1584919335721233,2.4232564980528064,1.7961071792756809,1.2740707256184078,0.8586597023375009,0.5468555038541332,0.3239935202352315,0.17515161995060377,0.07974383740707155
