Line_number,Fiducial,Easting,Northing,Height,Elevation,tx_pitch,tx_roll,tx_yaw,txrx_dx,txrx_dy,txrx_dz,rx_pitch,rx_roll,rx_yaw,PX,PZ,S0X_time_1.086e-05,S0X_time_3.256e-05,S0X_time_5.426e-05,S0X_time_8.680e-05,S0X_time_1.411e-04,S0X_time_2.279e-04,S0X_time_3.689e-04,S0X_time_5.860e-04,S0X_time_9.115e-04,S0X_time_1.411e-03,S0X_time_2.192e-03,S0X_time_3.418e-03,S0X_time_5.339e-03,S0X_time_8.301e-03,S0X_time_1.338e-02,S0Z_time_1.086e-05,S0Z_time_3.256e-05,S0Z_time_5.426e-05,S0Z_time_8.680e-05,S0Z_time_1.411e-04,S0Z_time_2.279e-04,S0Z_time_3.689e-04,S0Z_time_5.860e-04,S0Z_time_9.115e-04,S0Z_time_1.411e-03,S0Z_time_2.192e-03,S0Z_time_3.418e-03,S0Z_time_5.339e-03,S0Z_time_8.301e-03,S0Z_time_1.338e-02
0.0,0.0,0.0,0.0,120.0,0.0,-6.700644188870433,24.36988364636973,-6.024891817418753,-105.88948962417413,0.0,-45.161941623607916,-2.3876245941686047,4.306901012079232,1.5373826789408067,34.39644698742653,17.437898175621452,5.274812778577951,3.958438135925541,3.3664908015297867,2.7584128321636663,2.1253928230610986,1.4276499391848931,0.9327254956480225,0.5185465170974832,0.27035948615512523,0.14743188739084145,0.06879238184207005,0.03164548225573412,0.024945731458485276,-0.0008296202029109724,-0.009032813065335965,7.56682749522963,6.181471840343837,5.661078047915004,5.051429790707835,4.034250170099609,3.313541062313679,2.384227235492777,1.612881286163014,1.0060601673997698,0.6224007386937307,0.36446054249395293,0.20360614215530956,0.11336106277000078,0.07346313856276074,0.034018917233548385
0.0,1.0,1.0,0.0,120.0,0.0,8.43946827771046,8.372210370707577,-9.747636127080234,-107.85404589047182,0.0,-45.112795487609674,0.15119255102585405,1.453395163146002,1.1732971961964402,34.39644698742653,17.437898175621452,4.981542552422347,3.5939381397656884,3.18970859165349,2.5979173962912245,2.029779523632061,1.3830352131998345,0.904759267656129,0.5146779994824087,0.28701629795968003,0.14157577637378616,0.0704727487924669,0.030875226056783892,-0.0011337400397269503,-0.007163842923040306,0.007210000282407144,7.361568652513968,5.87737971491595,5.33074702023475,4.817867221699521,4.133179826533735,3.2539218873315945,2.3482167594532775,1.6267085581342293,1.0371461404852815,0.6642587586948172,0.39073279606605227,0.2122121025588279,0.10930145721708563,0.06026186407263813,0.035167964979160755
0.0,2.0,2.0,0.0,120.0,0.0,-8.395896083676778,21.66139728072831,-9.440452848477673,-107.53423808546012,0.0,-46.36053770182332,1.5767900037190896,-3.428395948628782,-1.9372435085450457,34.39644698742653,17.437898175621452,4.901538643694491,3.4900460266046327,2.877131671417013,2.4233610465114945,1.9256469362453588,1.3629609989694167,0.9093157229890915,0.540567316264916,0.30428916661170163,0.14613140126895607,0.09319739836386054,0.017470595672109592,0.013173147841127292,0.017197181365496316,-0.01088701750134661,7.368407854381083,5.605467000262827,4.9852916975213715,4.6868096328406414,3.847040944180442,3.0683091053011182,2.4061081561819178,1.5863959188461063,1.0647138558914668,0.673651189965598,0.38509352990838996,0.21417743429301597,0.13619173300839693,0.0826938555864721,0.043725810962200976
0.0,3.0,3.0,0.0,120.0,0.0,-7.241717791652407,12.89073014868584,2.9675696007518617,-107.15872358747204,0.0,-43.30401543742528,-0.05892915274538879,-8.598461193833595,-4.712483780626369,34.39644698742653,17.437898175621452,4.67782743116745,3.172266272925067,2.695855654130161,2.263869648550308,1.7955235636161393,1.322578078268255,0.8826476844695545,0.5490496402526498,0.3165973507098727,0.18276691720156488,0.05902608751180907,0.04195482272438984,-0.0021286614160580183,-0.0042900079896692365,0.02013148719564928,7.069532878926363,5.419378157676195,4.889504580984904,4.417189564182481,3.794719483621498,2.9736787212767783,2.31791608070799,1.6005857562350014,1.0771888747202538,0.6699790220802273,0.42365820288993034,0.22017465233947067,0.10472676669167087,0.06450777757908274,0.0373785763477207
0.0,4.0,4.0,0.0,120.0,0.0,3.062273676200544,9.208096160204597,-4.963675467652518,-106.62134235822539,0.0,-45.10191522897931,-6.796518554599912,-4.8238478998563465,-2.559534198763237,34.39644698742653,17.437898175621452,4.781721954407856,2.9735791347614122,2.497910402548811,2.1553986662216467,1.6475372140657514,1.2857504214722721,0.8640194594391273,0.5389884604530931,0.31243462104529446,0.15082464176973917,0.08154058036041466,0.023360438386232946,0.028178314106959264,-9.171649440545271e-06,0.016629484443915814,7.058665032855554,5.162420260699218,4.591920516890483,4.094513955463588,3.5491308063727622,2.969477466671759,2.163957828688041,1.585234623997298,1.0852543938329418,0.7190649725529484,0.4063134029302767,0.227363438015487,0.10289156399170678,0.06198160341500934,0.017252001901749102
0.0,5.0,5.0,0.0,120.0,0.0,-5.513251771991303,-7.436825203214852,12.205644896980541,-105.37743614876358,0.0,-43.914254312521464,-5.768703344681264,-6.10625481951685,-0.4716895216282069,34.39644698742653,17.437898175621452,4.674900615213985,2.951565562465503,2.3858468523839735,1.9333248445592417,1.611733686780324,1.1794296911532922,0.8246587605236335,0.5265971702369944,0.3224794817518547,0.16562955646293978,0.08807134919550373,0.03811275733617259,0.023393424747316392,0.005656022880762217,0.016574083541835236,6.766096890936568,5.011700433740496,4.39128540814071,3.9302703105998753,3.3683742100105265,2.8713644470839172,2.176705165745795,1.6001830577600695,1.0809927641259416,0.6851524101948191,0.4179300213910473,0.21738574085172838,0.11186344597183084,0.044968271195487616,0.022197503506916585
0.0,6.0,6.0,0.0,120.0,0.0,6.521982068222915,-21.017016745006224,-12.619312479106336,-109.40551187621963,0.0,-45.19306234075137,-1.899200830697687,-5.4420544244065905,4.095154269922682,34.39644698742653,17.437898175621452,4.557344499724648,2.75488851648307,2.1773969817522265,1.9155834886974756,1.4906596148308995,1.1533568763393156,0.8055098856215104,0.5241661533850103,0.3297176811227827,0.18333016753897322,0.07151663564786744,0.03346895994044184,0.021643483795825976,-0.005203842955267549,0.007026075709142288,6.921311857890898,4.8377155837937815,4.343121302528353,3.88896641136038,3.228166428868821,2.8282764573883967,2.15789020026384,1.5731979898630553,1.1001045234543891,0.6561827064805851,0.4330825331586573,0.24085952251707787,0.12152756705875786,0.06917508413171528,0.035363007811841866
0.0,7.0,7.0,0.0,120.0,0.0,-1.6798704425728754,-23.391455455707664,7.944504357581813,-107.96672715114977,0.0,-44.48696414347458,-2.7880730699905767,-5.464502376406402,1.1036284902688465,34.39644698742653,17.437898175621452,4.441824217317849,2.583212987896472,2.021159075714013,1.8071957552906779,1.402085863888911,1.0751501074305971,0.7441274844486551,0.4982717619053502,0.30275699684902274,0.1709325039095511,0.06622716382428935,0.03493149326551567,0.02568687042580007,0.010922678760160244,0.0043160552083030415,7.001536821632011,4.77047101270822,4.085241741056371,3.613035301949208,3.1977530109725776,2.682525321803565,2.084443941778065,1.5161005219853227,1.0783968384814338,0.7221543427167809,0.43673799429604876,0.22846133479038372,0.13176521149936643,0.0645706432760731,0.0265780239780567
0.0,8.0,8.0,0.0,120.0,0.0,-0.3520037442392283,-2.4719233218765844,-0.308680649087842,-106.2942292216213,0.0,-44.79733321124658,4.568382768124617,-1.3890663690811085,3.77507924654258,34.39644698742653,17.437898175621452,4.2799732206739165,2.434301493738708,2.0369534598769463,1.6352818937983242,1.3258336732009586,1.0223907474974747,0.7464875359813287,0.50002725462249,0.3081003195960944,0.1823253307282215,0.09081362449638654,0.05957338713236762,0.034849119381895256,0.007535395759309759,-0.011270289415736974,6.732780411487868,4.608776720077243,4.023745303330385,3.4170240546043154,3.019529725247517,2.5955146623712047,2.0447932044412545,1.509325497982425,1.0702490481630247,0.6850827878518253,0.43526057618210034,0.24740962436332978,0.11391977054148496,0.06977407007988773,0.03435005970958198
0.0,9.0,9.0,0.0,120.0,0.0,-7.427236846461529,-2.023212919468108,4.123003080330243,-106.78312286360841,0.0,-44.218139843918806,4.3027204994446535,-2.3857024066416326,0.9402744316019618,34.39644698742653,17.437898175621452,4.492753909777206,2.3695657827589325,1.8723321733962202,1.5266456755627578,1.2092276727277094,0.9970663163552911,0.7335936755994699,0.4725703677613262,0.3028575529216971,0.14956932170676313,0.07788898297794818,0.03998881553397267,0.007358057516557513,0.027538632328910347,0.009721546893472228,6.900479145162532,4.452528471252552,3.8185901247187464,3.3553375928444136,2.8816936224472247,2.384852449282895,1.9375476047526952,1.4745789599350545,1.0130938471134558,0.7120275537666201,0.4289517162624767,0.24438163669268126,0.12360359966739556,0.06832615079451639,0.030781439445189775
0.0,10.0,10.0,0.0,120.0,0.0,-9.436727804932932,-5.690737837917752,2.634727336492812,-108.853906690062,0.0,-45.59559749326256,-1.0546625921863126,-3.259064747102003,-0.5683256399906007,34.39644698742653,17.437898175621452,4.399560584046478,2.376609622339642,1.753932515350118,1.5006929021396767,1.1592516569234803,0.8998052898435103,0.6379448669165916,0.44793085218717466,0.3140984200794548,0.17538260353447171,0.08224470164582096,0.04155528388937883,0.025413880777652394,0.004394797747922192,0.012801502489880254,6.80566648115596,4.447316431677448,3.7813174719369633,3.2376083635992523,2.691278707539469,2.3576506502981136,1.879234594588005,1.483297527076896,1.0231101423914202,0.6968409784879347,0.4173121996072561,0.25632816315668305,0.13397824211504267,0.06954161379263459,0.02764177894786292
0.0,11.0,11.0,0.0,120.0,0.0,5.184724644834745,-23.50384928053352,0.9077581177246206,-108.31208917486363,0.0,-44.80609274443832,-3.068921035624175,7.624751429768239,-1.7141819123032276,34.39644698742653,17.437898175621452,4.421990467905136,2.317343646398465,1.71863158718666,1.390691218586532,1.1098390406220413,0.8767742177947807,0.6437117906533265,0.4412986483531427,0.26780320080451503,0.16500142151208294,0.1049979052157285,0.04848354189175545,0.01235364026171696,0.008942101573906484,0.014230608462538551,6.8754495452558135,4.514974072445127,3.622465171605117,3.2042165391316124,2.7119270036011693,2.2138997559149725,1.7962164346536702,1.3767094343373802,1.055365886132893,0.6675600873606375,0.4156579588257671,0.23725188049472618,0.11486885842634731,0.046540490610776766,0.01484937976286295
0.0,12.0,12.0,0.0,120.0,0.0,-8.520205924903903,-15.032738155902297,5.9504206490514555,-108.16532043507488,0.0,-45.24611807731603,6.225898504853374,-5.945251708496704,4.7009321192203775,34.39644698742653,17.437898175621452,4.481920241400758,2.3868634457450733,1.6340323840889444,1.3307241576311601,1.061490460530803,0.8087179645709067,0.6052638872900041,0.42482178652340313,0.280220262532993,0.1686099382436899,0.06682564224212495,0.055263276013577445,0.04448780510858247,0.004951741845484244,0.007690090322425941,6.92057149366531,4.403500410866514,3.654643093359106,3.0728846520328106,2.646359686960309,2.1674518832011382,1.8662981251340556,1.3653248199394241,0.9979101429491357,0.6875301841962748,0.43250805121970864,0.25458298514721756,0.13849600952315771,0.06858508559204152,0.02135398275162046
0.0,13.0,13.0,0.0,120.0,0.0,2.803180408676697,-18.174275014544566,1.3711901635747452,-107.53744550611631,0.0,-45.29529110953551,2.1731049532648514,-6.7269265561253455,-0.2175129044680073,34.39644698742653,17.437898175621452,4.5121547882274475,2.212328836751626,1.6024637216273487,1.2225106809618493,0.9956423025017346,0.7854999905961254,0.5706850624086814,0.41325125916522426,0.2660743388738732,0.16010897450914832,0.07964687637538845,0.03510280936876414,0.004388440595988681,0.010595349884885334,-0.013710609322992803,6.863981581793704,4.487159404375804,3.46633899889166,3.016960106573568,2.4484471035593316,2.0645277155341213,1.6895789289027887,1.332490259189825,0.9884371319944895,0.6954961197216807,0.42579380287417307,0.2785863758904681,0.13537515022612043,0.0486384742053114,0.03647357156725781
0.0,14.0,14.0,0.0,120.0,0.0,0.7506290268868998,-24.36306992002078,12.674150930178488,-107.49514442650549,0.0,-43.89750785138628,-1.5416617630181766,-8.47994210726786,-1.407533118731421,34.39644698742653,17.437898175621452,4.509348433020979,2.3625610909075037,1.5509300533256563,1.2281705725260839,0.951527379140523,0.7137307833995802,0.5481110193457885,0.38030592828617027,0.27291122888079433,0.12804841929372593,0.07556212722076015,0.03510614874231259,0.003573936924684138,0.006860004757427523,-0.0027651220273732812,7.047386033168045,4.28444849609616,3.4918548038853374,2.82809446881084,2.3417730979093148,2.0073018235729503,1.6276902501477057,1.3285708226588953,0.9314883757300522,0.6775862012411802,0.4417465116178234,0.268085978657844,0.156713880590205,0.06893752326904994,0.0254269321557
0.0,15.0,15.0,0.0,120.0,0.0,0.36981092775171653,5.956678206161499,1.5503275769231273,-106.38939072756574,0.0,-44.55808925847647,-1.1464183426458892,8.497203109518164,4.077281976837613,34.39644698742653,17.437898175621452,4.567005700084039,2.1691572916230335,1.4753140638095743,1.2018446394187878,0.8850234726625169,0.7238455994983364,0.5195398565544239,0.3913948150989038,0.24946500136697716,0.17155198287059265,0.09803038832718455,0.07268271176791073,0.02519887775295193,-0.010402043615167568,-0.019715362340339278,6.965961417169596,4.39713073256315,3.3845825418942663,2.8742496628491585,2.2231939827500096,1.9139860668355584,1.5646549360635162,1.229279742693173,0.9388112893262195,0.6700396074871363,0.4340968345431329,0.2653435494578596,0.1405071892050814,0.06167499068713357,0.0413220295366662
0.0,16.0,16.0,0.0,120.0,0.0,-4.006299556738513,-20.05270176759295,12.5899719724993,-105.53493007526099,0.0,-46.17851670416327,1.8308026626582858,-6.113073909170219,3.1186435911351538,34.39644698742653,17.437898175621452,4.5715156709592675,2.1646546065983827,1.4559051821623583,1.1292444237896433,0.8603696034601973,0.6640145180443243,0.5148658291847403,0.38697227650481947,0.23411366624487198,0.19163769363156435,0.08401672813265133,0.06371043405684593,0.015984221245832913,0.005821599509346218,0.0021558790417823387,6.628246434095567,4.391795285958842,3.3211189801734715,2.746375044405279,2.253430200578567,1.8806509539799228,1.4821726553176895,1.1923434070099694,0.9043549514785961,0.6642503102609083,0.4245502816458303,0.24297189218596826,0.1418634028142053,0.061457128803021545,0.04879489126540797
0.0,17.0,17.0,0.0,120.0,0.0,5.120572713421925,-17.58052322415206,9.190052331263033,-106.71665464689545,0.0,-45.13403708350626,-2.6885449642831194,1.4453597010608181,0.8873947151108048,34.39644698742653,17.437898175621452,4.411685340529777,2.1577865573264483,1.453019173738851,1.1018203782810063,0.7984942890052059,0.6310543814271071,0.49355275591056924,0.36580399781864603,0.24196201054238026,0.154340027915124,0.09086089503585751,0.04048786623466171,0.018409729361000632,0.014562223198226847,-0.011385656338680354,6.9320838909207225,4.604531847223737,3.3241041787107037,2.6192687466336957,2.1651806061571515,1.7877013746548591,1.4910985189818422,1.1391002426634274,0.8754896123599825,0.6376179790932757,0.4227624705371187,0.2573044478736536,0.11984649701800797,0.08621473007493824,0.057113407934917204
0.0,18.0,18.0,0.0,120.0,0.0,-1.9877289723061544,-20.04434185356743,10.426435702626307,-106.99658997484217,0.0,-45.375851753446355,-1.3206574914056883,-2.525643613265734,0.6606423438223921,34.39644698742653,17.437898175621452,4.533387250603582,2.1057618376392835,1.4480731466396646,1.0117192308484046,0.7732546729343015,0.6044733436785684,0.4756416627262635,0.31837584894660304,0.226904165040815,0.1793227368710788,0.09102649091759568,0.058314326194234066,0.03133472100572775,0.007296752485335384,-0.00192049537111489,6.71424492406251,4.295793104092174,3.2871510801986092,2.601784153172564,2.1475940187436486,1.6225408308433127,1.3793355937496234,1.1271453235103976,0.8715720220707988,0.617841201217214,0.4038414002366727,0.26687815155454775,0.1477830781153928,0.07738087501400208,0.02998115460581021
0.0,19.0,19.0,0.0,120.0,0.0,-6.974908563804886,13.233270460255959,11.918624225779752,-107.4601605030673,0.0,-44.88344450906996,-0.6098245490477439,1.1059950146803033,-0.02649381532587647,34.39644698742653,17.437898175621452,4.569529320086125,2.020339701788356,1.4439333925096056,1.0346627866167972,0.7628451421438953,0.5616982710102087,0.4143349968186318,0.31168943287776674,0.22323045400950894,0.1325179804587588,0.09001861838268349,0.04122364289098604,0.023304135047134595,-0.007457577575056416,-0.00186665470342232,6.691284230460755,4.45806547945296,3.322674573242594,2.5382866037217777,2.031174087594868,1.7403447502442775,1.3863899034316196,1.082338730549037,0.8213972971642998,0.5715011091042328,0.4172134367071476,0.24761462391964809,0.16708640238286687,0.08337401773334327,0.03243139833870435
0.0,20.0,20.0,0.0,120.0,0.0,-8.879137192446557,19.168920174160533,-8.92330731465104,-107.70774539707787,0.0,-46.13698339016268,5.241536804617569,2.8513267744075836,-4.036823477541612,34.39644698742653,17.437898175621452,4.489709191226367,2.151481660538815,1.3940683982010313,0.9849645459141522,0.7413067454325554,0.5392751091572235,0.39300427607417915,0.28666038950076034,0.2136463014992868,0.13877602288096344,0.07893454418773956,0.028215249130096563,0.02234688591737431,0.006557223381054042,0.013255637549406663,6.922168703878958,4.218781502208988,3.1788589747268428,2.6055827768259663,1.9918425774203599,1.614462624585859,1.303632399423217,1.0465069352649512,0.8197640929431972,0.6214932034319234,0.4276747703580689,0.24747061563839118,0.1711866325208333,0.06931869446374324,0.0469953305398219
0.0,21.0,21.0,0.0,120.0,0.0,-3.1490400842507,-19.060298510931283,-4.723361462788807,-107.16198914771019,0.0,-44.02770493480632,1.86516313782206,6.8015405955369665,1.8749721466584894,34.39644698742653,17.437898175621452,4.474205056408058,2.1933197343244677,1.4146505209600713,0.9754494040624321,0.7003707918019496,0.5549690726481202,0.4044374512046537,0.29651811108134596,0.21199921491234416,0.13187825499675745,0.09316323346130143,0.04823420596526485,0.016872682668986977,-0.007807015613388925,-0.007244578912045368,6.958801957517161,4.287974396211284,3.2731817913488066,2.4699675053129506,1.8719808329864955,1.565030370087526,1.2316584376132502,1.0379051279521934,0.8438074215039434,0.5915904983498372,0.417334435357026,0.2540429220258158,0.12813937561717328,0.08320111818472177,0.027865029770202013
0.0,22.0,22.0,0.0,120.0,0.0,2.161099589001825,5.783246669606871,11.981218577270383,-107.37107346673639,0.0,-44.83004912325681,0.6573046347832183,0.14526065911146624,-1.2446646285854124,34.39644698742653,17.437898175621452,4.349181643498621,2.164257804143584,1.4069257937201427,0.9270371639992462,0.6695347358743478,0.47894136042206825,0.40978522788340094,0.28088945681973665,0.19180562474635038,0.13111092784313783,0.08768234816426702,0.050501912106146095,0.007425087826599638,0.013445718414645171,0.0008615206109374024,7.070137857455404,4.306052904236845,3.208490354453829,2.4347344991233086,1.8611540978206333,1.4767669423935907,1.2016238310563152,1.0023514227086492,0.7653035978782694,0.5447372955947389,0.37581375313045434,0.25036255958536235,0.1631256721656992,0.09432336971448278,0.02187674861733207
0.0,23.0,23.0,0.0,120.0,0.0,-5.593558136169145,5.984432229400248,-10.523556254368607,-105.78089293355298,0.0,-46.1497621457858,-5.071854780042951,-3.4551857692122834,-4.829777236147526,34.39644698742653,17.437898175621452,4.458160455476457,2.119587784218115,1.3854521677236606,0.9481747810185852,0.6448778490366744,0.4821740402908169,0.34313479665504615,0.2609269663427475,0.20301122560846893,0.1327701001801488,0.09541870667409728,0.036604775112129284,0.016342897374813353,0.016989065896445877,-0.012047463197920188,6.671897789614194,4.205771491553432,3.30304098654245,2.3916927340869254,1.8670051812782533,1.5172881760226866,1.1521069261562358,0.9672691728149885,0.7549168415867858,0.5744321233876358,0.40660560378721844,0.22016330185856747,0.14808682347655863,0.05795574675989742,0.07013515010443294
0.0,24.0,24.0,0.0,120.0,0.0,4.844095867461229,-10.933675470790277,-0.29565323477464744,-105.51935814551717,0.0,-45.55776473764405,0.10967436873256153,-6.3784015258629045,2.2605568725270953,34.39644698742653,17.437898175621452,4.433179801433948,2.0953477301164063,1.3365985061345185,0.9221333923276688,0.6077517930545833,0.4713440780008193,0.3446301076111524,0.2605705523994796,0.17292290217699163,0.13205247602635478,0.0805656811729719,0.05034577505434186,-0.001000196292564301,0.006107426023853037,-0.0040888124421360715,6.976424335545031,4.21740388334463,3.215308083136415,2.3788574829268585,1.8498778881325364,1.4417017972848165,1.112327210059878,0.9622977107670381,0.7700534874212449,0.555192704094024,0.39367203892372815,0.23369112703635322,0.14460001527051639,0.09641743592699248,0.05678522980838997
0.0,25.0,25.0,0.0,120.0,0.0,-7.825483734699841,4.425661251565067,-11.857543551669833,-108.08687077632588,0.0,-42.56744420475377,3.9545489325585805,2.1363404287764194,-3.7069298752627313,34.39644698742653,17.437898175621452,4.485145315327755,2.147498017391687,1.3672670076112563,0.9036926101510726,0.6196922777928265,0.4394602672962833,0.3387459796281872,0.2522554774723633,0.18531016790546834,0.13429389570410438,0.08830747401711635,0.04002284179477191,0.021838065827829368,0.00974677859820494,-0.011387180032750039,6.77756074979043,4.4025090575241785,3.2656417183276165,2.3391012195364755,1.823307567223974,1.4753623295163796,1.1568715346157668,0.8909007954822382,0.7217550242271811,0.5012162312419488,0.35331753787836806,0.21457299859137546,0.12781299840671848,0.07713726905539352,0.030429189544986204
0.0,26.0,26.0,0.0,120.0,0.0,-0.5607048550337872,-3.3359125394011997,-10.423595802590505,-109.06487067707234,0.0,-42.9699365080416,1.6274937192795895,-7.359912233041348,2.979166408736159,34.39644698742653,17.437898175621452,4.576672862745366,2.069523446873585,1.3842532191603867,0.9054837659077892,0.6007445724878963,0.4257650302389394,0.32427977532952795,0.2223400080361868,0.17387592819282846,0.11974932884541196,0.07399004725484051,0.040123879553099644,0.015507585509839814,0.011917799075883518,0.008603679948890889,6.883834458349778,4.327452824355361,3.1485937941071698,2.3823838980803336,1.7681632644202618,1.3577031357736726,1.122507796412337,0.839906558594281,0.7008724077941164,0.516108699997583,0.3691389302266821,0.2477515401479189,0.1470337844634614,0.07898253765537593,0.054373849572425276
0.0,27.0,27.0,0.0,120.0,0.0,0.7340850664919429,-19.617737531850732,2.6666785747123853,-107.91242757424587,0.0,-44.68278195498418,-4.019193521272593,7.116143046132581,-2.4043442374559665,34.39644698742653,17.437898175621452,4.367443126449594,2.0610131167891925,1.3551051062595245,0.8954466941170066,0.5954464810064818,0.40341371151159927,0.3046684261922165,0.22853909205932632,0.15038605049707812,0.1128351368611905,0.07291334803132977,0.051682962864061224,0.024305768131355196,0.006675825925813356,0.01138978765238664,7.0028753443854335,4.317702075993592,3.1674745479570947,2.352190430375552,1.7258540157962208,1.3611568705751749,1.0666446730545285,0.8474835137558491,0.6970802695680529,0.4796908130508865,0.3491759242497496,0.24481986615729529,0.15179452329687013,0.06755251988307749,0.03172439869940223
0.0,28.0,28.0,0.0,120.0,0.0,6.420241925338807,22.912353313297665,-3.1169545319581413,-108.989286425313,0.0,-43.95794503641913,-2.50712230935984,-9.444210240401109,0.8640762134014599,34.39644698742653,17.437898175621452,4.54511537256442,2.1840501809847956,1.3686816387038803,0.9162692666969433,0.562317650246651,0.4007773105451892,0.2852895820142027,0.21472904066442303,0.15911733934399003,0.11524364887126083,0.07756457839990284,0.03350091814906268,0.023229276811805984,0.03591936039092605,0.023431086909396458,6.844797234563907,4.392883593349586,3.3147200246528,2.4535478920075087,1.7527962825809047,1.3039139869321041,1.0369171015764271,0.8177419412930246,0.6357649165912673,0.4969916480692023,0.3770030094055524,0.2326462870534268,0.13465983371453955,0.08817640062804877,0.020215904258441515
0.0,29.0,29.0,0.0,120.0,0.0,-7.64104634084368,8.931772126707898,-2.2892362313487506,-106.10485367673863,0.0,-43.60299729013879,-0.31711951488866164,6.905996846571433,0.6976411901266601,34.39644698742653,17.437898175621452,4.602997987953026,2.0872320616729745,1.3804800407790527,0.8928263141518312,0.5525587212302178,0.3922365343259582,0.2867499545096722,0.23490593047798541,0.1494841621802278,0.08704148149235191,0.06445359618387247,0.050318076842999326,0.027947659820538644,0.011191664914115574,0.0015409635129693534,6.970639926574888,4.385884032293453,3.1315487138622498,2.3744381595928745,1.6622653434740136,1.2824777078404794,0.9931727110138796,0.8071320262830781,0.6482058282852258,0.4815983812283304,0.3884648503460473,0.21216971618805838,0.14307816530365383,0.0910894613565326,0.036825528070254215
0.0,30.0,30.0,0.0,120.0,0.0,-9.96650011852358,22.697975508974693,0.24394355260498202,-106.18903384229812,0.0,-46.38603173590198,7.0832813885779125,-5.6150675626566855,-3.2312982134897217,34.39644698742653,17.437898175621452,4.431363580571778,2.1525633605754764,1.3720544388149087,0.8390573634574752,0.5877321959271058,0.3973392686995691,0.249272661000401,0.17764828864135204,0.1331106443174701,0.10252444915013781,0.07077910408994663,0.03855525773093179,0.03721391135707906,0.007187650599803605,0.006172559338251225,6.963506329256756,4.3206288389422145,3.103168443133523,2.351120809650884,1.7019695908858237,1.2160442530455715,0.986635890371468,0.8054788496807856,0.6012399130513381,0.46267371712516914,0.32411135130401175,0.2349152094473378,0.13776221905101776,0.07729599844614457,0.04863945693379641
0.0,31.0,31.0,0.0,120.0,0.0,0.6741942350257357,-17.448834630363137,4.821837359898161,-106.20362895771324,0.0,-44.324350670656486,6.268819722999217,-0.24284311928064994,-0.6096265007803527,34.39644698742653,17.437898175621452,4.585029808377643,2.1410567173330777,1.3795574789137521,0.8871543043366126,0.5446920729049031,0.36055762271312136,0.24287367130075155,0.1581775037948225,0.14968216566100345,0.10083535245223267,0.07109098353909474,0.0388109220210672,0.0007110157991422512,0.02681091181074475,0.028040453669296975,6.714368677047082,4.285318868115182,3.0450113376097283,2.289630705284367,1.6686698747383106,1.240348061120015,0.9372855487028847,0.7407728351862392,0.6062081874077032,0.4534221421055976,0.31740214943910217,0.22191766742237576,0.1232798120776561,0.09288772415100782,0.021346220845229892
0.0,32.0,32.0,0.0,120.0,0.0,-6.985498556317092,14.707683913612023,-0.02011576738565246,-106.23736269858269,0.0,-45.2088022503909,-4.5328371484559025,4.6104140574549,3.1903766760036305,34.39644698742653,17.437898175621452,4.4726425436415855,2.0908356881633714,1.3394637817617345,0.8823307951925784,0.5407314640447485,0.37089682115322714,0.24809704333497973,0.2016381829541107,0.1379223209209909,0.08936314977837724,0.047628134102248094,0.046271291222184235,0.02473684456444891,0.023031971205864234,0.0027667114995364016,6.8937377544156915,4.312128350367039,3.1780169551956727,2.3619233647179145,1.6487848378696108,1.201908004577455,0.9041612996515308,0.7451680439699099,0.5768061533209845,0.44042500586468286,0.33096163438266607,0.24050522078985678,0.15265017714165496,0.07068078125164032,0.03024317605800138
0.0,33.0,33.0,0.0,120.0,0.0,1.4338673269167312,-3.9687091088178974,-4.746828330684551,-106.3300971542542,0.0,-44.95838767163684,-4.023197246646876,5.683336777905808,4.719797205894928,34.39644698742653,17.437898175621452,4.5452730923934475,2.127940230443941,1.367639197164047,0.8168373367572233,0.5245907946551588,0.35239609603322813,0.23721955841624442,0.17498071234481347,0.13500684741567237,0.09131097435740257,0.06544796688440568,0.034539260829389844,0.019046181354707984,0.002955256346262684,0.014150043269318175,6.968668223834642,4.3189343979893655,3.244417031617016,2.318997653360267,1.6190681304256858,1.2147998236143267,0.9009560706599208,0.7334443973813924,0.5791550088960054,0.4418531076275322,0.32772839563318407,0.21277308152302302,0.1389439616757761,0.08071230492462,0.037106823115982665
0.0,34.0,34.0,0.0,120.0,0.0,-9.341943884811393,21.484307343326556,-9.215745758335899,-105.69000582360239,0.0,-45.36479257718591,-1.7150835420826867,-1.964404214147459,-4.818349131264739,34.39644698742653,17.437898175621452,4.521614631248609,2.0734580524359885,1.3757486674102848,0.8561927651070822,0.5064573944601758,0.3269229211721355,0.2145267098586476,0.17118190956462662,0.13734674397215912,0.0784444971752107,0.045973066299354555,0.05064676592169671,0.00036618976675282036,0.011201300961727365,0.01152854215688499,6.871090984260989,4.2574807624785524,3.259348477685005,2.2074805483600746,1.6135004571919707,1.1594331027030849,0.8831651018242338,0.6809565635114806,0.5312272062849469,0.40472488185497196,0.31434255582077597,0.21434126542151108,0.12722473963591127,0.06758785302251652,0.02713677718120592
0.0,35.0,35.0,0.0,120.0,0.0,-0.18649960877916172,9.349547852728875,-1.0658058766258467,-106.82207264700874,0.0,-46.38266225021677,-0.06091693009912991,-0.010904822685976256,-3.5334581698720777,34.39644698742653,17.437898175621452,4.487777303670647,2.0789346182285255,1.3439026525981481,0.8421326050806248,0.5278331845132743,0.34521691762682116,0.25093794633617483,0.182775705189713,0.12073450969745685,0.08566379384266601,0.040144926923220844,0.013999150975582918,0.023348759879211305,0.029175723696891413,0.02344825197720146,6.679774686097941,4.3265037697199125,3.1354415101235826,2.318856344549849,1.5942127623581208,1.1486319173931672,0.849057425772207,0.6606013587350668,0.5498205656691327,0.40691737777073544,0.30080928260369094,0.20735597564910765,0.11718853133148706,0.07125238854475882,0.030972065191633355
0.0,36.0,36.0,0.0,120.0,0.0,-2.1851998835678588,-17.6417278498322,-3.7334091463678245,-106.60198967215159,0.0,-44.96728579520668,-0.9521134934555603,-9.40854683743394,1.1743957127285434,34.39644698742653,17.437898175621452,4.44307858367826,2.149286120539785,1.313226609044903,0.8687789405615062,0.5048393446527764,0.32949574338663135,0.2245489896267503,0.1738091410164883,0.11628532004949808,0.07188353772943883,0.06698004051609033,0.0468558878996929,0.014413861960661313,0.002121868529458771,0.01206046917234994,6.822765108980071,4.38996693180617,3.267942867665881,2.3162005396364638,1.6303188707793197,1.1553873393428022,0.858637826581058,0.6327903408658222,0.5205947475380737,0.401351722985462,0.293202365920397,0.19098103544992753,0.12012990253059101,0.08617170764300024,0.04294198010611348
0.0,37.0,37.0,0.0,120.0,0.0,-6.875052351256459,-23.376271103315453,9.463357255171505,-107.22236299805074,0.0,-46.73004490237996,3.40038572090739,-3.1194788157410436,-4.974868936949351,34.39644698742653,17.437898175621452,4.4628551686104005,2.1424097837014737,1.3945552186243926,0.8412809339549631,0.4957109616407019,0.33345113019303096,0.21006374601777267,0.17928144551453365,0.13298880159311585,0.05723707484384588,0.025228169975875223,0.01913554020087399,0.020640536871528288,0.005505537826448384,-0.010038902199318033,6.645268667372871,4.383686194606772,3.2115430400293543,2.307264792423075,1.587834436764284,1.1027396099719087,0.8638730332734468,0.638197004429345,0.5215818490510897,0.3860827593482151,0.28223121320825134,0.20038304443977337,0.12609778968329172,0.07635000448999417,0.050168890137145795
0.0,38.0,38.0,0.0,120.0,0.0,-0.6430551726235674,-18.718887912056086,-14.54108443537709,-106.25797071109768,0.0,-45.61203653646683,1.1153785889072347,-4.768423042918888,2.579900174323452,34.39644698742653,17.437898175621452,4.517724242631363,2.188334883601713,1.4134439210704257,0.8182583852166869,0.49317827155602867,0.2922229399746513,0.19057152104300346,0.13668596053487242,0.11169475330813942,0.08241856460693062,0.06337624797108712,0.034022336565320416,0.017739490586382054,0.012148412169703087,0.014816860910024784,6.665424036732192,4.187804256964847,3.1775076939765396,2.2801963669394723,1.6026783121111163,1.0666751376401338,0.789244190053026,0.6444537056295667,0.5179279212202608,0.38855063690465325,0.3033185836679248,0.2086325295014045,0.13460341800189604,0.06077579709857449,0.02821467917434237
0.0,39.0,39.0,0.0,120.0,0.0,-0.4566118339293812,10.634488858080928,2.1119336134191435,-109.40576067591857,0.0,-43.83413291269231,-1.8491281142322973,-2.198618517793342,0.8301290878411924,34.39644698742653,17.437898175621452,4.424992832424745,2.1115548644374207,1.3286518178414504,0.824241652773933,0.49963725562450473,0.3152107369157587,0.1990541290313873,0.14136836754969442,0.1017497364956302,0.07818130094768273,0.04824515352484047,0.007886923316454512,0.04544379018450968,0.012777266843220891,0.007849950279970513,6.905670406243296,4.346600942854186,3.201843568625197,2.323473007650925,1.6618104590629548,1.0805103677267802,0.7900648372158939,0.5978590786856064,0.4717233949116877,0.39255983065330524,0.29000524381961834,0.19975725695847835,0.12415600425951569,0.07602294784042166,0.03247162689213191
0.0,40.0,40.0,0.0,120.0,0.0,-8.642371313233888,-24.472909295598434,3.5537779495247612,-106.25746014572155,0.0,-44.21512177967004,-7.9647626416107205,-3.982132593607388,1.7286454004151093,34.39644698742653,17.437898175621452,4.488495620868439,2.169395999854686,1.3513175634479644,0.8602290434420712,0.48038071696297713,0.28667209754244727,0.2015319796023993,0.13766793800036897,0.11244084630135624,0.06861424929002356,0.06530447080653008,0.03919746677057075,0.02276828829074872,-0.019250529873295643,0.010979402569166234,6.780922901308837,4.297439423676577,3.117389299847433,2.290291156142742,1.5826681826633127,1.1010270140627851,0.7360968445234972,0.5910344387258604,0.453227306668397,0.34676626106720965,0.2706705275876857,0.2030475437903221,0.11272917254868221,0.0687115330027034,0.036402103812834236
0.0,41.0,41.0,0.0,120.0,0.0,3.5381558568927662,-1.0867749899972452,14.636896322366635,-106.22601883166088,0.0,-45.53338434760717,3.044695754726546,-6.8052039269979865,1.2424089416633368,34.39644698742653,17.437898175621452,4.30485396193399,2.122296314003723,1.3293793099406834,0.8475009249281482,0.5152856698695227,0.2989390115221928,0.21252784300266614,0.12358829946427853,0.1067165349420086,0.07530503667260514,0.042026149093385326,0.04654301192615914,0.021052539466357698,-0.008501591569575988,-0.0033446729984531773,6.889848214132255,4.404844667397215,3.2535461260718526,2.29905930426262,1.5321697170098232,1.0266102353875077,0.7533994779011354,0.5773708539880539,0.4711835347998429,0.3596912993627642,0.28509474343677027,0.20368338384316062,0.12807208438998355,0.08252189647784738,0.05230432925107807
0.0,42.0,42.0,0.0,120.0,0.0,8.273999461802333,2.652666168836671,11.56092652381944,-105.19298982984542,0.0,-43.629807387449404,-1.0258184423756562,8.834606367956674,0.9901378993039289,34.39644698742653,17.437898175621452,4.449542791030439,2.2814124884217417,1.3872887375697733,0.8592634438109794,0.5034427060470216,0.29054214277031315,0.1843020088919169,0.12588458437367656,0.0998837271162502,0.05932189751440671,0.037201688073159746,0.027704095326934818,0.018090533636800098,-0.001491597718217089,-0.01776601320523304,6.852001492474262,4.241785430204069,3.2209336490737335,2.3031145826483486,1.5397577962376896,1.0488267682459116,0.729828468900931,0.5795878661165779,0.429577757399032,0.3543160083301774,0.2612260560897926,0.1768801332308243,0.11263821828774086,0.07589088525062354,0.013939612190794474
0.0,43.0,43.0,0.0,120.0,0.0,2.2688546700618755,15.613379098246618,0.5270181757695518,-108.38466612798547,0.0,-45.60639919963492,-3.2520817746759345,-1.414423312963562,-3.9758760749287814,34.39644698742653,17.437898175621452,4.645667333790952,2.115313984136699,1.353497834576271,0.86159728389894,0.49017374012593434,0.31459705183273884,0.1854420226901827,0.11087537637706595,0.08776625849686821,0.07742952240766282,0.031165468004304107,0.021792339566016186,0.036304923183776414,0.011140567301936178,-0.014898797818778706,6.781805854580476,4.339768730648646,3.3059775312866386,2.259983546060993,1.5606910967640868,1.0459051182291712,0.721684056965824,0.538408955512869,0.4175932972313346,0.30981395101290476,0.24664396537275446,0.17996239517025522,0.11949460616134745,0.05809103992773748,0.04337487707760336
0.0,44.0,44.0,0.0,120.0,0.0,2.5438258911525686,-2.6702574869724955,-6.344536421348614,-106.81199853803264,0.0,-45.90867368718463,2.355112512609229,2.7560542408663675,-2.647752518120062,34.39644698742653,17.437898175621452,4.625198300734624,2.1192639965100435,1.3713477038135624,0.8680842614625249,0.520392858192971,0.3061205059375875,0.18011926983272508,0.11647389574821074,0.09843540161776394,0.07151790037252267,0.03283177714016416,0.022551019786293196,-0.006213209724545896,0.007458695902883441,-0.002701258815716113,6.8842343191861595,4.341981304296965,3.2191921970773674,2.354512721726548,1.5709593175689502,1.0462272381471924,0.756272133102171,0.5457149303885334,0.422742100099675,0.3300460170151835,0.2444783024057223,0.16629563432665884,0.1296857246865369,0.0706444290656073,0.058170656166523664
0.0,45.0,45.0,0.0,120.0,0.0,4.968061106797482,-24.725665236745222,-14.69445002664805,-107.1909513426742,0.0,-42.71511466972926,-0.15734172158717552,8.53522272394228,-0.36082557651349667,34.39644698742653,17.437898175621452,4.5966411172715596,2.2166592177106814,1.3378749736688507,0.8880536831874395,0.4688221771666781,0.25861533192645253,0.17946073786084893,0.11199835071299849,0.08940404761060627,0.07411242686434687,0.042425491454858064,0.03208334405634192,0.01694199652742635,0.019169060906591956,-0.01152548313563849,6.836530264606312,4.3570988550001015,3.2672357752309837,2.305791454408348,1.5543592033228377,1.0397244739608908,0.7242935451266862,0.527176781564501,0.4041354148085395,0.3186607687344564,0.24997147405427095,0.16726440278092017,0.12480588020356,0.08517621227693695,0.03128889501072291
0.0,46.0,46.0,0.0,120.0,0.0,8.721412172138848,-14.060891019241062,-7.776576646102388,-108.51740379063176,0.0,-44.311694174070695,7.209049561176507,1.449476297004665,-1.6560950401880357,34.39644698742653,17.437898175621452,4.484855624041915,2.1292602694523945,1.3670476738307962,0.8513011644060796,0.4985284962783371,0.28878204884750125,0.173086143627958,0.10298473859517558,0.08850292707377828,0.05762857993825609,0.03208175312537516,0.03170936270191676,0.015357188588217136,0.023958185104775872,0.006383212933868587,6.792276600869445,4.431826411959694,3.2552894125090956,2.277878226499737,1.546550514653668,1.0371491026329542,0.7148527037013613,0.5450367366397533,0.4130811982793764,0.3397372757037584,0.23445256799481648,0.17345525154472105,0.12540947495869215,0.0634360981071778,0.044303331131410786
0.0,47.0,47.0,0.0,120.0,0.0,9.649540199751108,-22.622285338419186,10.423061664604724,-105.755662899882,0.0,-44.33760326596226,-5.488651416008315,-7.460016699001564,2.8306052699267568,34.39644698742653,17.437898175621452,4.653339176027518,2.177629263362159,1.3637993794994272,0.8450312861365548,0.4674533102587013,0.2774624712519248,0.1952552855365523,0.1162558244740623,0.09138691131766188,0.07332940624512278,0.04457780804144853,0.021972936807125344,0.020689122853070084,0.022721915122567438,9.613949738281492e-05,6.9596796187199255,4.351574547936356,3.1786784211990122,2.2498261906285375,1.584898765623973,1.048163943596517,0.7032276920465443,0.5085553486131845,0.3782338782829036,0.326646058919143,0.21543648640011742,0.158519076705055,0.13336875521162378,0.06332412422801659,0.03693508154304263
0.0,48.0,48.0,0.0,120.0,0.0,-0.14630249490105207,24.04762024606722,14.197687257955376,-106.5575177985874,0.0,-44.11110355428454,3.049636974634249,5.771627137151366,1.7527300143346238,34.39644698742653,17.437898175621452,4.388279368748104,2.117720390327672,1.3922787355350654,0.858734133625751,0.52166767527988,0.26626874451098537,0.16541417885475285,0.1097548387250253,0.06959965683151,0.061658708088715874,0.03851559919388433,0.012026743933240566,0.025544874294696474,0.0006214069541915102,0.0010161125527693364,6.750603132540889,4.212120125580348,3.120841443421799,2.3216897421983775,1.5248821327302047,1.0296610630658272,0.6961671956503968,0.5174434119235486,0.37229542321857845,0.30760876642654494,0.21933818801228966,0.1752276519957146,0.11875862704743072,0.07678396623000847,0.0395882894103415
0.0,49.0,49.0,0.0,120.0,0.0,8.900156680880109,6.92111674086215,6.031627250553573,-106.25151815814161,0.0,-44.45562614493063,1.604494342490265,5.4932814394792615,-1.8852962357327585,34.39644698742653,17.437898175621452,4.287685420569919,2.08497963976263,1.3920269284521192,0.8409129780659733,0.503765294298424,0.2584103016629092,0.17262913190158866,0.11315844171729446,0.0841060031426919,0.0578415416667458,0.02765249474069419,0.02109701948854504,0.02196300954483402,-0.0021382637819578054,0.017976525486041273,7.010223262930875,4.428863490120038,3.2388463576168864,2.235168901300095,1.5555607809795555,1.0350648880392337,0.6733663907265108,0.4814834288186204,0.3631563327673736,0.2830060273878426,0.22879632894120527,0.16427515509739374,0.12714434854743994,0.0687247813233619,0.03557559226082379
0.0,50.0,50.0,0.0,120.0,0.0,-2.8151471875471294,-24.903998614869572,3.11562624593029,-108.83595737779397,0.0,-45.726520721797755,2.208516482299827,-1.907805190033807,4.510892379357337,34.39644698742653,17.437898175621452,4.543315687618601,2.107263954103293,1.4012084261959208,0.8721850492166345,0.47155279983585424,0.27558580625651286,0.15709070853308368,0.10791098272890176,0.08828307367128038,0.04576049076048433,0.02583219799392624,0.0360070835532961,-0.016417100473599743,0.008293951698946875,0.003915294132396372,6.838171831949634,4.346440461695812,3.1337389467507695,2.322193196888106,1.53101889720945,0.9989821919010572,0.6603671523065449,0.47646280107202255,0.37709163567935905,0.3217740348848308,0.23603406922827636,0.17596860102991974,0.08393687288054776,0.07997852622548292,0.029574371275858546
0.0,51.0,51.0,0.0,120.0,0.0,4.5528960370701945,-23.073540274934167,3.187023947726825,-108.09615362269113,0.0,-45.68694679459456,-1.6010228681209486,0.7878724940302995,1.4424193577148081,34.39644698742653,17.437898175621452,4.557723171286857,2.081222400276947,1.3901962853284524,0.8380519827946888,0.4697582305985212,0.28124729332728343,0.18070121622871335,0.1062886211986223,0.08059819079042503,0.07247681313740016,0.016748206734862315,0.02318853393834887,-0.0030434756861853693,0.0023622055582070353,0.00030840165467407475,7.126341599086598,4.325598466920278,3.207596276644965,2.277141553789614,1.5446812980865476,1.023959881281733,0.6668716064709745,0.4740821828788963,0.3658579894434855,0.26862009891882915,0.19293033576786578,0.1410106561468493,0.10836140188205615,0.05952894236243861,0.032732741315395844
0.0,52.0,52.0,0.0,120.0,0.0,8.735913703286286,-13.723898345565566,4.497228874104202,-107.52011597883633,0.0,-44.66409063649573,5.372156334919804,-1.5022799066117791,3.466251671559423,34.39644698742653,17.437898175621452,4.441842317218697,2.1211952480670413,1.3606786044806876,0.8151610213468476,0.4842206666615904,0.2601988248195711,0.1467937575027284,0.1131438512384399,0.07863169793873308,0.031948394957784336,0.026192136765500473,0.013099726141490652,0.024908295170782538,0.003262012732856644,0.01166107165651705,6.857028834502026,4.253621979878038,3.169533736777947,2.2109660266879043,1.5482876969745107,1.0134282497886369,0.6584586530383911,0.4798286526719276,0.3674114903129389,0.2869013809334662,0.22733557735290383,0.14334335143249846,0.10288242260161325,0.06316864408988221,0.04292132888599018
0.0,53.0,53.0,0.0,120.0,0.0,-9.675344452376809,13.942776075051206,-14.94632644060082,-107.47737204616809,0.0,-44.51150465609361,3.465107886729904,-5.515110922603432,4.045852878729908,34.39644698742653,17.437898175621452,4.381597769928775,2.1183630979452723,1.3428164628746355,0.8552374445853866,0.4853572518404613,0.26080492286734924,0.11784063692718358,0.09028329731923836,0.04396787572457011,0.04506358790901073,0.027231088000622704,0.02504122075124995,0.01246414702790511,-0.001217618355936135,0.00810881490747328,6.609802618178059,4.246392064311948,3.059933410768007,2.258562218444954,1.5437112778516175,0.9728352342864348,0.6586129786524986,0.4373463234757891,0.33985879012175363,0.2588379207448293,0.22980548103839749,0.1355641462624021,0.09767580586949748,0.07439296840486724,0.04969794167126325
0.0,54.0,54.0,0.0,120.0,0.0,8.41086484442372,-5.049040727019495,-3.9012478849483276,-109.12138943773857,0.0,-44.07847935698611,-1.5250977151052187,5.258434216153585,-3.0236674362073037,34.39644698742653,17.437898175621452,4.37012777917482,2.17424573374126,1.353634269868747,0.8406065773108895,0.5018481195009921,0.2669787438739397,0.14803815293216888,0.11450656974211527,0.07065750933159735,0.06324608888740221,0.04770329348580354,0.029478502769357363,0.021381626541812734,-0.003459153279878731,0.0027194705948640485,6.917745892331714,4.416809428047234,3.0868515817023927,2.2563824001597967,1.6126838690750258,1.0056386955688679,0.6510580084669688,0.4560018271952499,0.35076417895910905,0.27627673345240156,0.21319466970980938,0.13891497687109325,0.11853338067077987,0.07873057358541331,0.028634744131121076
0.0,55.0,55.0,0.0,120.0,0.0,7.7010022543530035,0.2681255291985991,-5.1216353365479765,-107.7915535352459,0.0,-45.10963349997938,0.6907779644795938,4.888700525993183,-1.0226880637015343,34.39644698742653,17.437898175621452,4.538674673480928,2.166612925720492,1.443131725626903,0.8788511060594631,0.4726448117761447,0.2519708573499833,0.11953438735303482,0.10199004465973512,0.056319064825006725,0.04729769305496331,0.02981896831558083,0.00237408579746351,0.016695926627667078,0.0021152290297600535,-0.008275972087637383,6.906081057588225,4.262187753903767,3.1562519911152416,2.3043174046567185,1.546354685814538,1.0035473456705208,0.6658655614573149,0.4379813162625455,0.3379055170276504,0.24709388833759233,0.19878441442892159,0.15571355854220661,0.0985144517724077,0.07043296037482791,0.06610752581791164
0.0,56.0,56.0,0.0,120.0,0.0,-5.89028394754979,18.62543877376227,14.33799567315748,-107.16877134767715,0.0,-43.152032914876855,-4.224923766313349,2.9411178382811904,-4.390310428917278,34.39644698742653,17.437898175621452,4.576540970117007,2.1174464506533868,1.3737358560428918,0.8445386416076164,0.48085153929372915,0.26913822712121965,0.14800082579078996,0.09172183725979913,0.07858511331215866,0.03929104317442961,0.03252019951476589,0.017066606256211397,0.02589302799436812,0.029045220170952298,-0.004043210273612751,7.063212119498156,4.3279558340793285,3.1975422919576793,2.31946017281431,1.5515046975849651,0.9753995077977674,0.6414668213618913,0.4403005186698624,0.3287408541467,0.25014661146280415,0.19227199095157865,0.1448609342564491,0.0928971670820083,0.07886887972722134,0.04767733658513809
0.0,57.0,57.0,0.0,120.0,0.0,-1.80572800506663,19.562146347901347,-14.97819902915803,-107.3899119171615,0.0,-46.325153517799905,3.374548698714431,-0.8871901889228582,-3.521788576001973,34.39644698742653,17.437898175621452,4.4586300596982875,2.1595201206642387,1.367916412291347,0.8588525090855357,0.48199840266041355,0.27013591890731,0.1264536284700366,0.07724256795319204,0.05732053814674541,0.026046990552036495,0.030605377959793074,0.009647516691554647,0.007229103688727344,0.007089594509272264,0.01098103467961905,6.935345011169151,4.31680377837308,3.183983459834773,2.294184725983607,1.5606821295554199,1.0358538399106394,0.6224119242062088,0.43459448261524436,0.3062510345562695,0.27570068068757053,0.17542245332966158,0.15206661206418778,0.07800141632744065,0.05308345357869221,0.03598819521469948
0.0,58.0,58.0,0.0,120.0,0.0,-7.541607134282309,-3.6080893317639315,7.090341509299314,-106.7104021056577,0.0,-43.06986402429406,-5.467806400655064,-0.7038793464267972,0.8746624047727183,34.39644698742653,17.437898175621452,4.364372664853719,2.220608399586694,1.3665694721904416,0.8988393047178503,0.48981874724908475,0.24254960113306073,0.12498580607781778,0.0919215379762972,0.07178038426973016,0.033539910787947796,0.017477043701890453,0.01310319019086923,0.003316208509766907,0.020302593057181396,0.019567998802546643,6.902196267422198,4.164425667923701,3.1632938679844247,2.3314966732670808,1.5428020306148909,0.9933537734733201,0.6207696494783381,0.43444430692300534,0.3388376246858029,0.2420988723228891,0.17954073471209409,0.1267090645435572,0.0811482807449489,0.07503282234256525,0.04510358585125236
0.0,59.0,59.0,0.0,120.0,0.0,4.943736140536895,13.007973881977684,-2.84139264828033,-107.35112152776041,0.0,-43.596709887049926,0.27819776859141765,-4.031123031447592,0.17133204295892046,34.39644698742653,17.437898175621452,4.554194172470605,2.1558902857719255,1.4065998166650568,0.8830370356502363,0.4627415551945666,0.2570834600134847,0.13713843507920886,0.09241610407069456,0.06479570759969833,0.03276953008322972,0.002227790279058856,0.0028752651602862098,-0.01281682602575372,-0.001077140854233316,-0.004546349772482828,6.9308038838400305,4.395260152014482,3.192166908440916,2.30174234367051,1.61382401287063,1.0017188137190431,0.6328387447620852,0.44443071294618275,0.31494750696939766,0.2403157417519667,0.17782360294118765,0.1369980780096502,0.08830259927149278,0.05983280550631682,0.02435183860992425
0.0,60.0,60.0,0.0,120.0,0.0,5.548271203588332,-13.291209536864551,-13.057188763967169,-108.34878132070048,0.0,-44.673090463793955,3.3262408082762915,-4.685508188955277,-0.6247655794752092,34.39644698742653,17.437898175621452,4.594454424227574,2.1363671806186835,1.3675470300245283,0.8258190671012816,0.48106704543211953,0.281988328147013,0.14953144744294544,0.07769190440849472,0.05334916284893421,0.03740873549729369,0.022992043134906735,0.016661501667583383,0.026462795060470487,-9.919437540777728e-05,-0.0067319429324112804,6.706522132246552,4.260642503007937,3.3436811913302744,2.3639145812456634,1.5670794148603182,1.0150419923718177,0.6169470305251279,0.41488171644993943,0.32476017072132285,0.23480108113157067,0.17478301899058668,0.14720365193987897,0.07706043249084915,0.07303872982044558,0.03916586185867821
0.0,61.0,61.0,0.0,120.0,0.0,7.61883840862037,-16.240680022344566,-4.17141417618806,-107.09302394640653,0.0,-44.693087897054966,6.083991648224943,6.9794279364402385,2.169623896698697,34.39644698742653,17.437898175621452,4.431634397043584,2.144081856994049,1.3834904785981716,0.8436053751494684,0.49719951913191757,0.25340592875752427,0.14577697558288333,0.0688111234773068,0.050524542819426844,0.040928519475954474,0.022488042887691115,0.0027972724732402525,0.025376411402141426,0.01540767532974799,-0.004134070729876448,6.929164236860515,4.22114636778098,3.3065737869760907,2.2651185685287545,1.6019110283658358,1.0143756677563969,0.6257299501185225,0.3889381628676106,0.28894828344086504,0.22677552774129905,0.17126642917072993,0.12523676357326002,0.06889421960828873,0.08343959293741868,0.03642397155401731
0.0,62.0,62.0,0.0,120.0,0.0,-1.1709607865662655,23.814714329042168,-11.164535694928745,-106.63034279253287,0.0,-45.2451367561507,4.524521749135705,7.187484448275974,-2.3409344609534943,34.39644698742653,17.437898175621452,4.498125581183722,2.0870910158753953,1.3851214927868774,0.8363759696919759,0.47539057000027624,0.26219378266519694,0.15872056432557424,0.1011715843824583,0.038042857672206165,0.04003304660975554,0.031981581753985036,0.029011524563364227,0.011961166347997763,0.005546180439382374,0.01413730436366752,7.021909876534264,4.413577679835007,3.1369877630695493,2.276657032798731,1.527244000727113,0.9917027236885032,0.6312823681818492,0.4219939751243012,0.3035838188491281,0.22880045088807968,0.1715644206483115,0.13405227604616363,0.09425500726293094,0.06971633102503219,0.052780474636718214
0.0,63.0,63.0,0.0,120.0,0.0,2.601229803388488,6.910050530968565,-13.879201094815784,-107.39278565111891,0.0,-45.81698127399925,3.6197107219317495,-9.693102441019207,-0.8555290257975976,34.39644698742653,17.437898175621452,4.457739084109925,2.12324486265386,1.3804799289259981,0.844659671790564,0.5032607474265943,0.2398591605653201,0.13991584234543156,0.0826646848651145,0.04342002759845978,0.014935146026254419,0.01964143822869382,0.013403614083505155,0.019687218017239504,0.013666612679158377,0.00017368780918968797,6.922263026013574,4.214784092194899,3.1493056160459934,2.2934325390453356,1.6046297824483073,0.955944425331979,0.6272693496067623,0.41586800104610044,0.270150663354452,0.22272710140777552,0.17553667842713308,0.12039425742954306,0.08992040185198603,0.04962246261138035,0.007487509886161158
0.0,64.0,64.0,0.0,120.0,0.0,6.872950405191965,7.864373134610119,5.50359186865813,-106.84874441705648,0.0,-45.44969330986663,2.682419131528615,4.392126937297057,4.382162707107199,34.39644698742653,17.437898175621452,4.2208120412765835,2.128691966810865,1.3803949178476522,0.8454204226452205,0.4903903786303398,0.2714480524836097,0.15219728736180363,0.08234873292906697,0.07596865107453445,0.04926527234641715,0.03543784658850313,0.0001771312134641774,0.00871823874202909,-0.00171863938514408,0.017393514898871882,6.7920409520689375,4.343498197247838,3.172971924192547,2.3060945001086615,1.531953264540899,0.9902968830879963,0.6338212752318059,0.4136829263117862,0.2663834944242694,0.2048042546434386,0.17210772949245373,0.11769911314806107,0.10537121339242216,0.05508921323885394,0.021906764695912427
0.0,65.0,65.0,0.0,120.0,0.0,-8.13243365503684,18.891894042929813,-14.259462778618035,-104.05501568566848,0.0,-44.5934958143242,0.40539592821267423,-3.401557726017373,0.6709033635513464,34.39644698742653,17.437898175621452,4.525600191103896,2.1237059198529216,1.3475933282128856,0.8445924527371494,0.49761791234425734,0.2650731384749336,0.1480478893253132,0.06734283192259068,0.06313378145347087,0.035707065025528416,0.018547302730477826,0.0014117550877367907,0.02468916644592064,0.008023049770526973,0.008260747103180296,6.690788096568544,4.315062554550628,3.1292213173161225,2.320765820103748,1.5381361837905527,0.9292933133709879,0.5873889278426714,0.4001965935180676,0.2855573497404599,0.20925953826379529,0.1538472257231429,0.11942756739649678,0.07343371014995237,0.05725162628346619,0.045272514913089035
0.0,66.0,66.0,0.0,120.0,0.0,-7.616836648244658,-23.648279900456764,-14.641076879688931,-105.3711820760517,0.0,-42.75930690945546,1.6225241743269239,8.386946873942343,1.8143349908131077,34.39644698742653,17.437898175621452,4.456646951232108,2.1196861061406023,1.376534739078264,0.895062490714976,0.4650419198331807,0.2789777439193802,0.14602514344855944,0.09248887096999842,0.0665607793167717,0.03462683084903318,0.03112928059178095,0.015971678337027163,-0.01017223981261752,0.00011606958582895035,0.010269057825958782,6.978327502042875,4.265177505455299,3.111384360091345,2.3365387919309075,1.5810913133792424,0.9914131389573468,0.6169629162438801,0.3958912718558951,0.2710291627044657,0.20713544488811136,0.16409497556870536,0.10618089086763595,0.1011255522358813,0.054141229995122435,0.004078064980800683
0.0,67.0,67.0,0.0,120.0,0.0,6.355693067593741,-10.705580606595861,-2.2204792645152622,-107.34641857123013,0.0,-44.11455839265956,2.170619892505992,-5.1575969365386936,2.4549716862361324,34.39644698742653,17.437898175621452,4.570334436435579,2.092618637946981,1.3411330854989425,0.8397008325505546,0.4817105670451839,0.2621861542073762,0.11851012827270398,0.07703020986275666,0.05093156416711872,0.016063742366442074,0.016902874567649256,0.029340124852650765,0.012664781934107491,0.02245944287814928,0.010717511250897562,6.9726125949087665,4.132641161098916,3.248033697398519,2.283012173724224,1.5386678975373258,0.9876770588121312,0.6123862108970274,0.4062083861662509,0.2781312227327975,0.23091645774902214,0.15889371213475362,0.11663497339125964,0.10345355996880405,0.049133162108561515,0.019166676192990388
0.0,68.0,68.0,0.0,120.0,0.0,-1.1606105257302808,10.958500832589316,-11.08303950298204,-108.0187661143913,0.0,-46.44014888754805,-1.0489791695951085,-3.2919372190038176,-0.532856564208771,34.39644698742653,17.437898175621452,4.704938509495467,2.1309680278789616,1.3684882235135272,0.888635247533984,0.48446397064477376,0.24727695182037565,0.11758684885772569,0.07467197709389939,0.06435775613262613,0.03214022609032484,0.010350448210290356,0.008014431575281316,0.007834663662454923,0.010212542031672406,0.0017199118889878568,6.737350798172852,4.326835132926712,3.1502120565685496,2.2748205373170576,1.5476927865100545,0.9851376120056013,0.6015455362067516,0.37370262790076636,0.2575585198023352,0.2002115157788684,0.15299680359201454,0.11804565422788571,0.07203421579223425,0.05548287639221603,0.02138193553349926
0.0,69.0,69.0,0.0,120.0,0.0,6.057387756544749,-2.268840468567074,-1.6161715371096044,-106.8653379766554,0.0,-45.99773048378732,-6.767420266017105,4.946721889939427,-0.6919054608378117,34.39644698742653,17.437898175621452,4.41321947808175,2.181018226709017,1.3842239956114206,0.8458688489380306,0.4986995561082038,0.27568963844171385,0.12255947382401558,0.08254567050626481,0.06389566230893337,0.03023122121312889,0.01456765853395339,0.005112693010639881,0.020975236045531698,0.01231665670765503,0.014028606296814936,6.734435855199295,4.268995766058704,3.166267877664238,2.3298182808508057,1.5446628251887025,0.966591629186401,0.6094254601228264,0.3855494290302922,0.2731591480308103,0.1879358249951188,0.16725617978060187,0.10485834778038938,0.07729224813565481,0.07608406416981375,0.0219335430558497
0.0,70.0,70.0,0.0,120.0,0.0,-9.99699237838289,22.143447977675606,-4.018970462575593,-107.14070555054752,0.0,-44.05956850871134,0.567496006042687,-8.5180127986247,-0.29795662736105477,34.39644698742653,17.437898175621452,4.496071136248299,2.2052810665164246,1.4103193294446938,0.8645460303845112,0.46903130218666184,0.2332981965884366,0.15073292748304953,0.0641863304029473,0.030898801532914306,0.055867307049163206,-0.0005274610007009253,0.015397102607787046,-0.00861970087998117,0.011034542167290304,0.0035181127332946896,6.9912151116626955,4.308531183872207,3.194425460692454,2.2754843684459254,1.5392241140655618,1.0046646768590994,0.5681645089917805,0.3729766595558591,0.25818663753584303,0.2144627787512543,0.13936254180846588,0.11020575092357347,0.08197717642003313,0.07393813718609413,0.017889962844964392
0.0,71.0,71.0,0.0,120.0,0.0,-7.69943840784533,-2.4712751790472716,-11.931679408815235,-107.26097697575845,0.0,-44.972319872268955,-1.056861206627258,4.1607809363111965,3.6201969960519857,34.39644698742653,17.437898175621452,4.360721485069563,2.1239809306630284,1.4300375199998125,0.8627155714186271,0.48560275480519144,0.26292265082007515,0.12517095599118422,0.061367204971772615,0.05406402871061598,0.047938316937933996,0.027271857561653748,0.014258408742040214,-0.0027362549945983625,0.0008351998206825376,0.022148498051540365,6.462590484738322,4.459071541182731,3.183179302367013,2.2846051335619553,1.549176827767189,0.9814859891886036,0.5644150644664618,0.374484511799024,0.27208864877718264,0.20783750245366975,0.13316951899168517,0.1051932136394754,0.06125656343921204,0.051482478731915346,0.042833788106272475
0.0,72.0,72.0,0.0,120.0,0.0,-2.6331347126437077,-18.64838909787853,4.191215279691399,-106.18295123523552,0.0,-46.029724393310374,-4.8378311247802985,3.4935764735334125,-1.3638438437920621,34.39644698742653,17.437898175621452,4.475633403556963,2.1254615576407967,1.3199404399185715,0.8577352999880025,0.47471424761258807,0.2577289233346567,0.1237463172009984,0.058731404280816114,0.043349150092151435,0.023386756016560453,0.03541766954698791,-0.0034887850563648792,0.0004982139773383552,-0.0013805240039171654,-0.016138156250807355,6.92562217219838,4.088872960621204,3.1523522233065258,2.31818315675504,1.5801849185700956,0.9525183452693616,0.600218077105911,0.3761767465467607,0.27592293396461953,0.20769252012801945,0.1321602879983502,0.09597443870591095,0.06863826504006418,0.022141568065820176,0.03407740014113816
