Line_number,Fiducial,Easting,Northing,Height,Elevation,tx_pitch,tx_roll,tx_yaw,txrx_dx,txrx_dy,txrx_dz,rx_pitch,rx_roll,rx_yaw,PX,PZ,S0X_time_1.086e-05,S0X_time_3.256e-05,S0X_time_5.426e-05,S0X_time_8.680e-05,S0X_time_1.411e-04,S0X_time_2.279e-04,S0X_time_3.689e-04,S0X_time_5.860e-04,S0X_time_9.115e-04,S0X_time_1.411e-03,S0X_time_2.192e-03,S0X_time_3.418e-03,S0X_time_5.339e-03,S0X_time_8.301e-03,S0X_time_1.338e-02,S0Z_time_1.086e-05,S0Z_time_3.256e-05,S0Z_time_5.426e-05,S0Z_time_8.680e-05,S0Z_time_1.411e-04,S0Z_time_2.279e-04,S0Z_time_3.689e-04,S0Z_time_5.860e-04,S0Z_time_9.115e-04,S0Z_time_1.411e-03,S0Z_time_2.192e-03,S0Z_time_3.418e-03,S0Z_time_5.339e-03,S0Z_time_8.301e-03,S0Z_time_1.338e-02
0.0,0.0,0.0,0.0,120.0,0.0,-0.6006107859661425,0.5404942801895656,-0.026958505073061856,-107.03085875312668,0.0,-45.06071121865469,0.6264627011583799,0.15629578395061183,-0.30694838171875904,34.278640887730695,17.554526791089916,10.517735576373413,9.73036838516814,9.006457986233556,8.914301821768259,8.18873024193269,7.524313794568239,6.556126807067162,5.7906501121609955,4.652921337425358,3.8682765440250977,2.5152797799015687,1.4554000014589006,0.986724061946116,0.6615978580210182,-0.010689426103989125,11.156866744267676,10.438868075003784,10.248207216664454,10.015698719707506,9.356935294542192,8.971338458792163,8.191417898192064,7.587340241413539,6.797175502474403,5.869521844415171,4.773409341548723,3.466539301042374,2.102752364535385,1.3898591468977426,0.716708980846378
0.0,1.0,1.0,0.0,120.0,0.0,-0.9759018373190473,0.8135696469190454,-0.3751651559209144,-107.06290852992457,0.0,-44.943561119860846,-0.3665533910688814,-0.931185129702222,0.7511409765897061,34.278640887730695,17.554526791089916,10.265221016739456,9.894322900976386,9.254247425275778,8.806798855407443,8.115524159295726,7.289427790056575,6.227807778723829,5.402151611287867,4.337371361324614,3.5339544721460143,2.538896169818889,1.4670086134239366,0.8310296904516089,0.37656956103339373,0.15934814246422688,10.899268691057646,10.320592422431291,10.219661194454488,9.815819244335664,9.425212480534407,8.696710245624017,8.216058742376447,7.365082511700472,6.668757643270605,5.929299927809692,4.542271380225878,3.3752254120020306,2.128019841555459,1.0351995399709704,0.4097238401077328
0.0,2.0,2.0,0.0,120.0,0.0,0.16918519944847943,0.9805974121030814,0.09870426806424448,-107.02084944223662,0.0,-45.06449245730174,-0.17160975853697402,-0.34255303940871196,0.3406214042695026,34.278640887730695,17.554526791089916,10.667275366840295,9.559133545639636,9.393444895534971,8.269031480518038,8.33934005522732,7.452958069067745,6.5323265916267195,5.379220811148987,4.622261034334971,3.861311568315032,2.6037600387054467,1.512741067262371,0.9200123773752314,0.493326023650208,0.12894971572511327,10.865860734351234,10.149037307628989,10.514284503348074,9.623892053896272,9.417708415267187,9.083998110400394,8.468723891643956,7.385379749960608,6.685204892842503,5.6356371511375976,4.6608971251138165,3.4901172417616144,2.195068838357332,1.096384105880255,0.38484942475406503
0.0,3.0,3.0,0.0,120.0,0.0,-0.8854677898169232,0.14622731372845577,0.2953196317515341,-106.98647140941503,0.0,-44.956107659691014,-0.32105251481872266,-0.4269854436119267,0.7959766569684212,34.278640887730695,17.554526791089916,10.401826149762838,9.703606786648008,8.904273375062692,8.781483351685766,8.186945454527393,7.333890645152077,6.334324566368048,5.561419931709211,4.334550689389516,3.5810255493452883,2.277436997055816,1.5863294232402116,0.9340407965517205,0.36215386971151714,0.19279846174671472,10.895006566087748,10.11983585531092,10.06370073210982,9.888262018813785,9.652574538932905,8.939724056125675,8.284310268928046,7.51290206908681,6.695653622284026,5.878852420421271,4.485301628580738,3.2445897413870166,2.1102221641821894,1.3406301350819998,0.5363781799835916
0.0,4.0,4.0,0.0,120.0,0.0,0.6214419931426194,-0.6651344029130648,0.0056515905556866475,-106.87145311694405,0.0,-45.1621086758894,-0.7628957754251502,0.18377400981560688,-0.6022494905447515,34.278640887730695,17.554526791089916,10.36669887406502,9.503952845412858,9.039195300032514,8.12305890579617,8.119963535437961,7.026518085992522,6.432396393434368,5.645579575348147,4.22698995494647,3.705133409148704,2.3865949235456796,1.6479740314990683,0.5229960531846486,0.3005020983553728,0.09891412170935689,10.903499824773977,10.6280129685589,10.326192930574955,9.966385403718718,9.452311293600483,9.068816944391157,8.038095585506946,7.642978887392699,6.701403724355044,5.614315662236529,4.806694278668122,3.4413311411636878,2.121481575911371,1.2314852061632091,0.6594913723451541
0.0,5.0,5.0,0.0,120.0,0.0,0.0993893425189809,0.8013270539443134,-0.7033154190089279,-106.93508801552782,0.0,-44.94157774775451,0.7391963830586421,-0.49967468592495345,0.2856649718932074,34.278640887730695,17.554526791089916,10.12287582314153,9.40501777073352,9.115243385717335,8.5324103650391,8.105620471183572,7.3517405619979925,6.481128389838488,5.6409087472116175,4.822724657955803,3.3504747499599508,2.5122193337572276,1.7042840075633225,0.870930374988949,0.2340809386355718,-0.04641359995631661,11.161453237452891,10.740729531025265,10.29867267225596,9.962815748705456,9.266771113787897,9.06643854643342,8.315188434651146,7.559457070806672,6.534003880295086,5.904029208489131,4.547674034754897,3.3019485551981953,2.0980725364409842,1.1447048924883472,0.5215799861230929
0.0,6.0,6.0,0.0,120.0,0.0,-0.21088241297063592,-0.8245763183156689,0.5832495609995481,-107.05733037842003,0.0,-45.002544446795895,-0.2612857374304485,0.049840910433742724,0.8086593176528227,34.278640887730695,17.554526791089916,10.572822387543354,10.054782908681545,9.297351366622772,8.956063680178996,7.919890977526396,7.516355407106188,6.428623958557003,5.730509525535155,4.712732404088277,3.145695308889891,2.414879501579914,1.3050674928165917,0.7563795490289589,0.4185789444526564,0.6944029074520327,10.915029171722175,10.6643800935952,10.344675871585737,9.852451041026827,9.54225413913013,8.883445604206493,8.365533994019906,7.646510186200501,6.85702558421891,5.752759510972954,4.545194155602574,3.1585540440520554,2.0183888437550475,1.280353861892106,0.6235518867249384
0.0,7.0,7.0,0.0,120.0,0.0,0.5968653553176255,-0.720990257435417,0.6473932024358482,-106.99149575694071,0.0,-45.005268437374895,0.5685074911644464,-0.6400520115089496,0.10864104270172414,34.278640887730695,17.554526791089916,10.346815586634227,9.75319004532014,9.475033965105165,8.54697818804468,7.978868331222911,7.336440348395544,6.345758543581384,5.289913204073924,4.575479329986329,3.548731432408289,2.434744610828254,1.597491854464257,0.7722470785321223,0.44572412551680834,0.3902719933405325,11.065328183031951,10.620932490079811,10.266939783121353,9.735775034446254,9.416074121191167,9.105930539200283,8.43951808254321,7.619861349865671,6.936033482082763,5.8883441668851475,4.477883473880838,3.2608577285034914,2.097724234761002,1.25279950404418,0.5795343991385066
0.0,8.0,8.0,0.0,120.0,0.0,0.5195770209342125,0.7296001373736949,0.6780304402704969,-107.09223935144738,0.0,-44.86339339867776,0.279965142850871,-0.26746903538197064,-0.5015459788140113,34.278640887730695,17.554526791089916,10.484411274666279,9.842781943316455,8.993303820677365,8.710520263487382,7.941568842845427,7.202674621414866,6.280402745207196,5.699959591224817,4.302791892646811,3.437088745070689,2.72120722773411,1.6582516106091574,0.9420650572874671,0.3707370853823225,0.035318345290833095,11.015117404139799,10.728776749728722,9.625639623293852,9.866926877766444,9.430491434114773,8.924029278806065,8.517625556816794,7.660903381705478,6.699309843681423,5.718051948970903,4.500439897518181,3.1890063451472144,2.0507431257575686,1.02870627754386,0.5356230351014319
0.0,9.0,9.0,0.0,120.0,0.0,-0.21267126781071788,0.20308290281417762,-0.4459367318513183,-106.98681768608954,0.0,-44.94923174434513,0.08821657751186471,0.9344644410795702,-0.48771174719058275,34.278640887730695,17.554526791089916,10.390420388667046,9.66788908768186,9.248941288053436,8.456187901975763,7.711242967358809,6.787718421484738,6.453635367253581,5.511582320903526,4.858163159866663,3.2515998367332033,2.638821310056542,1.5863831837022278,0.39649718784357946,0.3993165936993342,0.027179595364922232,11.021740441206166,10.640603662809667,10.172192121577595,9.96818098663287,9.327315652008698,9.107407384648646,8.344719425117148,7.789493342428457,6.641038560227326,5.859894677960789,4.506676336844664,3.2769362555456825,1.960306864937366,1.0358767200379442,0.47744536645499847
0.0,10.0,10.0,0.0,120.0,0.0,-0.1730845177585354,0.14141785746669155,0.5424192602753439,-107.03927458702398,0.0,-45.009985965204336,-0.9618073133326759,-0.38005104239234644,-0.2777078329432381,34.278640887730695,17.554526791089916,10.59545917216047,9.600384625126328,9.206114851105,8.59603930611142,7.904000598659515,7.355114687926309,6.354999077508292,5.789010374704161,4.621835218546651,3.340375177666486,2.642339570334336,1.510385485765802,0.5934475647858758,0.07077632562460329,-0.47544545731690696,10.681459741763321,10.78186974561397,10.261549057658744,9.89234991100917,9.553330390975091,9.165978771568026,8.269608454121952,7.7541303656314255,6.763413779739546,5.782717880145402,4.3684826331211575,3.2234521921799124,1.8325746475541802,1.1260896620099052,0.5563252033207623
0.0,11.0,11.0,0.0,120.0,0.0,-0.5111334783252941,-0.8645901813800265,0.4110892425948185,-106.97112854408257,0.0,-45.07998199624187,-0.2843188148173191,-0.7284391100858145,0.6652365590397147,34.278640887730695,17.554526791089916,10.304538074904706,9.678879288058337,9.243340414892982,8.327881146822499,7.829677058801317,7.361397001451116,6.582842091570907,5.486632236964765,4.282474057504055,3.6290454042864337,2.9208016810214,1.3645379346330986,0.5826728251056297,0.6547219887077256,0.2264835887831223,10.927093526256812,10.525112024364558,10.461339005100793,9.902927296287631,9.34995626617634,8.907736803159823,8.36758519971707,7.617325530378985,6.7667713577519715,5.774947637901604,4.5563427177158795,3.2371227154381716,2.001882815781598,0.9495716041846073,0.5741223457715816
0.0,12.0,12.0,0.0,120.0,0.0,-0.9213514884463434,-0.2867593551644674,-0.31380315096928846,-106.92252444566921,0.0,-45.15825628507868,-0.016725632625547222,-0.8851379932666668,0.5044997093617536,34.278640887730695,17.554526791089916,10.234724952819377,9.490579202360381,9.386280128334066,8.599767277921941,8.226010863228757,7.4122501840636446,6.316629420617169,5.668782381108697,4.676199514879622,3.644760406677732,2.504390184732915,1.6453098256288816,1.1213293505156467,0.35469256978923075,0.11466076245618467,11.094266612644269,10.64039964472097,10.180741220699195,9.908231808582784,9.375808591658942,9.033476262094812,8.54936045629593,7.62068181570137,6.89395887882207,6.031868256326909,4.428195654824283,3.204107244923527,2.075348514244271,1.0352315400585115,0.5168318213912713
0.0,13.0,13.0,0.0,120.0,0.0,-0.536324190981136,-0.9743191407639671,0.634694919156233,-107.08063188175859,0.0,-45.061480279887576,-0.7323290666244132,0.1951317129305361,0.3411036690397924,34.278640887730695,17.554526791089916,10.465193901272343,9.61642429924966,9.538199136902909,8.746665437384982,7.597756518168773,7.375548275356537,6.396118098236897,5.516574433722867,4.5806463566676126,3.6299193660165616,2.4552244819706783,1.3271492621538656,1.242142222671135,0.37732390255989223,0.09603230715828327,11.142559776711566,10.362651889376016,10.307657711579072,10.091106189307105,9.395398487684293,9.016737109371293,8.251004361886464,7.395456186192555,6.586415570783994,5.6153837197271095,4.539158320577785,3.23991070938543,2.212720539540526,1.0828751727743828,0.5193308621574964
0.0,14.0,14.0,0.0,120.0,0.0,-0.4332575983734268,0.9820614248522452,0.22264549926141375,-107.02992467946235,0.0,-45.02300860523671,-0.6406770316628618,-0.022228816330045476,0.16061396096011116,34.278640887730695,17.554526791089916,10.595020444427366,9.77664694080526,9.59610343361156,9.070789294819917,7.892491187760712,7.213153917791827,6.496675660110975,5.328422440446549,4.653800738082675,3.5188993584722112,2.567569203345006,1.8255491750440433,0.647169164465189,0.30222194372470035,0.15887794728556726,11.02065402163858,10.484936396368374,10.39858415711552,9.638038381769642,9.574381294213087,8.961450719471381,8.351388091680652,7.607265176611013,6.599735219473564,5.598136853983739,4.585079730092225,3.1859051344875233,1.9362408674816085,1.1095531274190489,0.34474637694506144
0.0,15.0,15.0,0.0,120.0,0.0,0.39314208408587414,-0.3109134768146633,0.296904050441096,-107.00301324559246,0.0,-44.90830444827456,-0.9315112613968051,-0.9432381758253618,0.8541350456459862,34.278640887730695,17.554526791089916,10.42989334129767,9.721226770650592,9.365229674196227,8.629263758776693,8.152932117837524,7.286330663477661,6.504241111141417,5.658445315982654,4.794906236307753,3.4950783738242395,2.5219701129532117,1.4760566045145607,0.5965421653603287,0.5136563186096587,0.0317840408906388,11.079543346602598,10.511582089396793,10.154030125626733,10.16567940966545,9.534038944140667,9.338067856496913,8.514015573629804,7.574069249317286,6.526336093017767,5.673875119546191,4.416478887756054,3.2827652375461582,2.1551301538759464,1.0285397910840373,0.4451026831338467
0.0,16.0,16.0,0.0,120.0,0.0,0.790180495939105,0.6019241802505262,-0.31193150399670877,-107.08585841318072,0.0,-45.16289909085154,-0.34589382568275434,-0.5834039355456015,-0.5478357339617481,34.278640887730695,17.554526791089916,10.459801434754093,9.377925545052907,9.12820996416476,8.977044304042078,8.129577994487674,7.003300634996608,6.69442108977656,5.313954536680104,4.489627019641222,3.518413050334289,2.4403255949965827,1.1384818471792786,0.6900755980008201,0.2325264879357887,0.19360830537111243,11.088643863857477,10.709750042380866,10.28939499166323,9.921621020931658,9.530894090703397,8.922023277074645,8.310758216997431,7.401943924559241,6.631061246073979,5.581158226855338,4.291753676371222,3.05773942403845,1.8258629714786994,1.0735465826591228,0.4239864208725618
0.0,17.0,17.0,0.0,120.0,0.0,-0.4982433141461753,0.4030740424732344,-0.5366211888642363,-106.97757738418402,0.0,-44.99116759112859,0.01959958497326697,-0.5705444331166449,0.6647733397205449,34.278640887730695,17.554526791089916,10.438548501402838,9.735790595450341,9.387729459670865,8.421985769092784,7.618968183802196,7.182996796518487,6.663056138457686,5.570638437320634,4.744636713268474,3.254065628364714,2.3147060407015405,1.156436881854161,0.9730829375475474,0.36556959212774826,-0.04031218833972583,10.916187058216835,10.63216346011961,10.354484517374972,10.026406135813554,9.557795359459163,9.138107945576454,8.443129158182458,7.801653018820269,6.6416633508225456,5.893876937080136,4.381389541412643,3.185795548431157,2.0833194116863707,1.0196967546634086,0.37965137786981584
0.0,18.0,18.0,0.0,120.0,0.0,0.8248116907480754,0.13896754091281505,0.7421698491577127,-107.01231607348849,0.0,-44.92954429930842,0.5562462419630898,0.24334711926347774,0.5310660193852967,34.278640887730695,17.554526791089916,10.18226453591939,9.623002655643248,9.371291223961464,8.726960412602624,8.014619715849747,7.5068934083380014,6.518452909805476,5.046197520677212,4.341980984112109,3.5332937290102837,2.5888266648494995,1.6461519982404333,0.7075636763490295,0.3772587549636461,0.2508739213274378,10.76044833335901,10.481771694992675,10.276397053617625,10.165793888888773,9.524434604855612,9.11562684929265,8.439397453072813,7.721050966006359,6.57018167264906,5.607560197386284,4.262054072357377,2.813362883955519,1.7872537656749548,0.8638303970293415,0.38139754914656404
0.0,19.0,19.0,0.0,120.0,0.0,-0.5456369971899213,0.3458837014030416,-0.597781574081846,-107.07427846366521,0.0,-45.01964586877533,0.060596942452513694,0.11186615015686763,-0.9073927827646373,34.278640887730695,17.554526791089916,10.299743828002196,9.81193571623774,9.184092194718977,8.564327068798109,8.259604946228597,7.436401405183233,6.098174283681426,5.6104424381849025,4.766871316271729,3.1315933758391044,2.1624237917307085,1.3155168682083258,0.4467314171556729,0.22972853073119665,-0.23148720620152674,10.84007618011734,10.551498947803308,10.232640889445763,9.787546937868877,9.464081836383905,9.024390634743932,8.312241037692136,7.547022591334845,6.91154691623484,5.7360181941487784,4.438069460641639,2.9351908655245524,1.8906672794141692,0.9530635605605279,0.3284108435742506
0.0,20.0,20.0,0.0,120.0,0.0,-0.3739200705491057,-0.7686807581482953,0.03471857010387969,-107.0240469068201,0.0,-44.98143577802146,-0.7936866726828256,0.9771611090781029,0.6157114560943104,34.278640887730695,17.554526791089916,11.101905618545944,9.842751590373611,9.596480483787628,8.657985393753673,8.222659281928932,7.751614840344681,6.558352278147558,5.348960949849962,4.310133246361662,3.362697408340779,2.4013937029537407,1.9714346776521876,0.8592048964518919,0.080650116149074,0.14077763654468303,11.07469203449552,10.76294513831174,10.122602724444983,10.070030039811547,9.575904930044889,8.945196967558603,8.483527919306786,7.793032556490474,6.798759442781281,5.535097002785062,4.272294353623092,3.108543669784041,1.8893251236863755,1.060122822132962,0.5198998673779897
0.0,21.0,21.0,0.0,120.0,0.0,0.7553604568594809,0.1039886970069861,-0.9602527751551282,-107.02537029594153,0.0,-45.0624688317009,-0.2883007612039129,0.5691959066347423,-0.40997978019034886,34.278640887730695,17.554526791089916,10.408803584347652,9.792374791868566,9.629985136119634,8.611485673646493,8.513709492345436,7.142940975023887,6.242988886696503,5.7210382838559575,4.4276754162569745,3.285218038147422,2.2874563289879966,1.0236749576361681,0.9337125022791921,0.5520312746442794,-0.0013587014814061549,10.977619820970334,10.334484298810201,10.298693712757874,10.139998942020366,9.445826845386271,9.208599246574451,8.583757077362602,7.531828576517271,6.614158951435599,5.696508481694106,4.5406418469485095,2.9442228006924394,1.8185909521118995,1.0885742971538366,0.46027757872839975
0.0,22.0,22.0,0.0,120.0,0.0,-0.47159155939792496,-0.4015180497320501,-0.44579358061700347,-107.05258574905564,0.0,-44.975997378392236,0.6528551712833536,-0.02525653908013803,0.9412581782979079,34.278640887730695,17.554526791089916,9.785931227392194,9.30939007124507,9.304316767279913,8.930789899998224,8.232504792830433,7.115359295265576,6.177412116085945,5.812141595579874,4.7067219270516985,3.4253813877976507,2.493947695950543,1.4076214752550196,0.7446672818614835,0.32799015517744473,-0.11711677377128434,10.875834378622862,10.620060424904374,10.150265344096143,10.179495388002975,9.729958404508272,9.094668844320008,8.103881791913679,7.590811292243057,6.711708293813334,5.7044020666182265,4.458628963820342,2.8511614147973567,1.7749214708983236,0.9854163338666313,0.3234299297926623
0.0,23.0,23.0,0.0,120.0,0.0,-0.676384455400038,0.14456669946754097,-0.9764978554867589,-107.01466445184299,0.0,-45.05338204287048,-0.5859049879907314,0.5106145363720791,0.9554083577012762,34.278640887730695,17.554526791089916,10.80238318466848,9.5299536183708,8.880875879414162,8.914286790580876,7.950642328689645,7.537621921699964,6.455216791203641,5.560322533608542,4.4311733571198175,3.6103361746733094,2.11205180918675,1.7881557355932454,0.6512309064329372,0.5049865882871295,0.3237836286034247,11.071604989515485,10.671282487737912,10.089732290597292,10.058643021410356,9.486716487035416,9.145977495888276,8.100483977127052,7.555900578833627,6.819135164968665,5.657989611740657,4.353821295673519,2.9273815058591763,1.7618323009414274,0.9153239135745679,0.6994471462729666
0.0,24.0,24.0,0.0,120.0,0.0,0.8346623417494634,-0.4565677435826836,-0.8904642242410421,-107.03281515449795,0.0,-44.99210663462168,0.38731166657127647,0.7090074127639809,-0.28841229039957894,34.278640887730695,17.554526791089916,10.417903526931276,9.434220668520796,9.413649461481656,8.668673389527164,7.9784769751644875,7.3362030030589604,6.406421711983399,5.769620191342171,4.4428294760146665,3.5766439378028116,2.3739536885451353,1.4796960184867958,1.012278212728433,0.3807250169092764,0.021799955072719215,11.145691308964931,10.66196912159838,10.450556927510808,10.022358010201945,9.511869542830611,9.28764009898922,8.419230918359423,7.828332444730778,6.664768185260314,5.573709729713177,4.212529991858953,2.7852490039217384,1.7470741338773614,0.954927031829629,0.24469029802853204
0.0,25.0,25.0,0.0,120.0,0.0,0.23768847679626748,-0.7881365835113874,-0.3111040234559692,-107.05498570894666,0.0,-44.94453470157124,-0.45032613857497655,0.5308910525469004,-0.7741982817272466,34.278640887730695,17.554526791089916,10.500546727488496,9.591958023662844,9.149539756367215,8.783771946740865,7.999107144535116,6.984359532868156,6.512577820778661,5.472693805577121,4.636097739216947,3.3140560400231567,2.6392388159068205,1.161889065775041,0.6545776583653939,0.3174386309624685,0.14037426280855136,11.010207874770725,10.626511206276588,10.536975260227992,10.067020829554371,9.60720064071729,8.854419763640976,8.349518805307175,7.824286871897036,6.749605170594488,5.7665157621095915,4.049297631664733,3.0155276584608166,1.7262591290431402,0.9736213883352417,0.4012090900195371
0.0,26.0,26.0,0.0,120.0,0.0,0.03104789235251615,-0.7494899161682329,0.10209177221412746,-107.14022928857216,0.0,-44.79239992708452,0.02496828769439834,-0.36044175113735677,-0.08971961063295164,34.278640887730695,17.554526791089916,10.406807145792051,9.518270186111506,9.277380330013028,8.317033392530156,8.084409104170584,7.531233889683714,6.25745141526536,5.448101700183651,4.536910420275224,3.4163813173085615,2.316953838950694,1.343090428781627,0.550842803195061,0.19250047414210253,0.19649018355270662,10.907495240432235,10.454025958665808,10.360455241547706,9.983554574996514,9.642943010365789,8.99209424049942,8.296542966847117,7.583724730584043,6.739964855618508,5.583501974856322,4.212767034771915,2.9596180689800557,1.8969848030487027,0.8039411402640851,0.3897736827153155
0.0,27.0,27.0,0.0,120.0,0.0,0.529332702645553,-0.7275435299427342,0.5938929490218614,-107.00752783497354,0.0,-45.00271728994409,-0.1135029414852832,0.4579976307870606,0.2036240859565377,34.278640887730695,17.554526791089916,10.080473641189313,9.675688367952414,9.124840844848716,8.81035203303029,8.055952964521788,7.6081248496698075,6.491977908755008,5.733302295163278,4.621286844391007,3.3359181339379713,2.3457861817342693,1.2275303610693982,0.30062677013937095,0.20577966128714906,0.06069270959634751,10.98609267657417,10.65258962806458,10.104829694001804,9.97831086900306,9.641953802469079,8.966138716143577,8.311836604280082,7.813940104062264,6.62976570819013,5.8551692372012685,4.353390989811306,2.9686070399467814,1.53733041797769,0.9622636654011473,0.5419627835904041
0.0,28.0,28.0,0.0,120.0,0.0,-0.8782121478492995,0.6006280622747644,0.6077545208770367,-107.05654654494694,0.0,-45.01501497716937,0.6673156168910136,-0.26392713580211247,0.534657854419083,34.278640887730695,17.554526791089916,10.177416071945753,9.830987714735372,8.867999053722745,8.349682742491261,7.894740820895435,7.502283067038936,6.720773390212528,5.306095978244787,4.555053359509555,3.1560989982362875,2.258725640733908,1.2952011216483885,0.378163436094615,0.3028196877017528,-0.05966235139291051,10.954926459444547,10.624699469038397,10.03979076647352,10.006326163843756,9.559058871348867,9.107079429556,8.346106871235595,7.620090728371754,6.714497327654848,5.586584243268117,4.365339056609133,2.947078698491263,1.626306644639015,1.0349035791846215,0.26561626366059443
0.0,29.0,29.0,0.0,120.0,0.0,-0.841532722386185,0.14448842634862902,-0.8811864612902467,-106.98985396872445,0.0,-45.10834350381225,-0.6576587615771932,-0.502744830552627,0.684640644260019,34.278640887730695,17.554526791089916,10.166573969714058,9.79604401935326,9.337692345795553,8.89222442732132,7.956674644070815,7.683759380114226,6.280228347235952,5.9835880629575655,4.503487841398215,3.294627583158687,2.480202637173448,1.3299765178687284,0.7399201030638902,0.3509738063483765,-0.006420582002627559,10.93822807847023,10.563870595874599,10.501282225397999,9.913376054624797,9.693696711917111,9.143910721800538,8.262601115082218,7.752283275547,6.586861444416544,5.685110978671944,4.385645784139596,2.769978651515652,1.7575835002304847,0.9020846066160121,0.3444272471355127
0.0,30.0,30.0,0.0,120.0,0.0,-0.3091758804444322,0.1449815792679201,0.9428216370995297,-107.00780833458283,0.0,-45.07451587532486,0.43316430165108816,0.7007277227020261,0.04881155359677791,34.278640887730695,17.554526791089916,10.327710097313366,9.914437200436703,9.005729407423843,8.386514319049162,8.026927160379138,7.381297515631565,6.6136189623543835,5.462627927519889,4.574132326612919,3.0964590834109655,2.239278353371307,1.4685008315239947,0.5440858196168358,0.3076942570951504,0.01982694393346534,11.322538175763924,10.712872877497936,10.37046520100493,10.10963741894359,9.667010501624745,8.911979734892466,8.550399277890767,7.592552906866501,6.694868692407969,5.544803655604197,4.085785996783993,2.676760869591859,1.6995566319685287,0.852710406414502,0.12253393611233437
0.0,31.0,31.0,0.0,120.0,0.0,-0.10657094086545693,-0.4896581203831236,0.5118316233036273,-107.02877866166706,0.0,-44.99752729964953,-0.33896196259128986,0.8957076775529911,0.5652842116450043,34.278640887730695,17.554526791089916,10.342831802244964,9.590176189920392,9.404125137389794,8.885627068073257,8.24465726421389,7.355059193508025,6.439783666037535,5.499880851754058,4.125488044825061,3.035106332477384,2.041316721895452,1.3252171836672781,0.5762588678347199,-0.02891732445300832,0.4864479905453563,11.054776895445864,10.511527528706212,10.149833681638716,10.123344571517734,9.889671902796982,9.136906902237069,8.375329008227492,7.623824927427146,6.631662963725272,5.457341727810574,4.4650519658206385,2.7020433337441725,1.6546636047027174,0.7480734257612724,0.3788940647596734
0.0,32.0,32.0,0.0,120.0,0.0,-0.9964693528346331,0.6496297582702368,0.9732745960059146,-107.01128846435262,0.0,-44.98047926163338,-0.17047505572795502,-0.005674096451717459,-0.5936581413579094,34.278640887730695,17.554526791089916,10.36412938904202,9.643121879745323,9.514911994700283,8.632628895642553,7.872905973627956,7.495253740608674,6.6797201269589,5.551847913561414,4.613496447415476,3.1873780043927,2.307136223319059,1.2452583278921812,0.7351156464441987,0.09142340455768122,0.038082638382207906,10.908190139095284,10.481625811143585,10.311512435251332,10.076431226143793,9.3035063494505,9.160269222376858,8.714683014063016,7.72655463838565,6.589018167319833,5.485604479748786,4.249138257674415,2.886428045457602,1.6345786298825102,0.8151156208014296,0.18868485116504258
0.0,33.0,33.0,0.0,120.0,0.0,0.6063941669275619,-0.3745105652881482,-0.8359283171217646,-107.09886533267726,0.0,-44.905269819729,-0.971235635944967,0.8388076541062102,-0.7885287098746119,34.278640887730695,17.554526791089916,10.653490409975024,9.230304775592371,9.01700824172986,8.497868588768053,7.99355312977859,7.762772885605543,6.695493061711793,5.245200880825599,4.0463184318849645,3.3603715399803784,1.9468244408185646,1.1692102625583787,0.3217058493212987,0.14663329993564633,0.040763132124207305,10.90655804579971,10.554823473023308,10.332076959963647,10.219404127902587,9.644540828442324,9.119151524993798,8.697573676106304,7.766298697923754,6.670726500447357,5.642266667489608,4.348492933084213,2.8883741759511965,1.4973571107012718,0.9125197817891498,0.42278024786146784
0.0,34.0,34.0,0.0,120.0,0.0,-0.6364790825767181,-0.3476565684635078,-0.8252029471254612,-106.95272451616003,0.0,-44.989316266842664,-0.25816332075192444,-0.35187243036061466,-0.30239766895674225,34.278640887730695,17.554526791089916,10.402658274423848,9.881123371251366,9.18556801382901,8.450731644351574,7.829695718282251,7.177768403443411,6.289477388557657,5.685507348618446,4.45295079363257,3.377399750504605,2.076746581283581,0.9504795623434659,0.5181660699880161,0.24087395164189446,-0.03211601316774783,11.10871114935192,10.487371089672061,10.490906031557943,9.878251637483096,9.791238524441708,9.160865723285339,8.368804665517215,7.760863453985662,6.6451926991204235,5.504564815722604,4.236519700982975,2.880168701276518,1.567583737462654,0.6853486414714666,0.3623944690192139
0.0,35.0,35.0,0.0,120.0,0.0,-0.23111068150248926,-0.9221056020565455,0.0068231480141569545,-107.02204206247221,0.0,-44.9744789557667,-0.9742290570382646,0.016607732415405474,0.9853415358109612,34.278640887730695,17.554526791089916,10.34436219620734,9.605079558093845,9.15171131587631,8.605937156890114,7.884768327668618,6.9008921347396575,6.5285884860948356,5.633163999260971,4.048300838034532,2.767220260766667,2.2896467944907077,1.122779664506248,0.6245317330194757,0.23181861412828833,-0.27725320995472724,11.315187283308717,11.04441232656263,10.440952650154259,10.045686772444506,9.81768877447111,9.146665427072318,8.40959705161456,7.780878909380388,6.752006825296413,5.558428352338983,4.073442946154323,2.5482150712442846,1.5665354683607855,0.8017879614473669,0.13809412422709377
0.0,36.0,36.0,0.0,120.0,0.0,0.24140345627633564,-0.17366542940624985,-0.19897265162966393,-107.03132044157996,0.0,-45.01264407763453,0.1880961469604595,-0.3111844793493834,0.7935838357580465,34.278640887730695,17.554526791089916,10.496597877470464,9.896679327861193,8.96268003237913,8.637912610631815,8.082597781948737,7.578133516706495,5.996009579613854,5.099942894137871,4.663731637559066,3.062426130042555,2.052543765750403,1.003872724936218,0.36269431587660483,0.512285459287946,-0.039602403771720224,11.284882477829274,10.630627913483787,10.51121710119452,9.88973821418762,9.691588383767563,9.057308599658812,8.406477485994266,7.642671543970664,6.804018911968298,5.461457970621494,4.0404002479401075,2.770942357674881,1.4977410765394195,0.7095393031184722,0.3155963750372029
0.0,37.0,37.0,0.0,120.0,0.0,0.6523757944657025,-0.17366509535990193,0.9258975126130724,-107.03055436878593,0.0,-44.90298411412914,-0.5688547452163099,-0.9863715037169454,0.000114892969256708,34.278640887730695,17.554526791089916,10.317401760505081,9.779131328180233,9.425202490713202,8.716264477302222,8.098067641307502,7.311353162898069,6.395621292424326,5.653969321342259,4.431433949574455,3.56301009429736,2.022801865102206,0.9766881650521997,0.2943003176309863,0.2088035667601091,-0.2238448056844626,11.185850437638756,10.55406113464701,10.404525344927563,10.091536898241364,9.513302299022413,9.21643270095544,8.64812744764311,7.79386778795771,6.5985623402627684,5.685452591249877,4.146870799228936,2.5933224984045506,1.4406591871606031,0.9857881499358856,0.463601983491712
0.0,38.0,38.0,0.0,120.0,0.0,0.05964000659787283,-0.014223115945634524,-0.3933474875319698,-106.98544851752268,0.0,-45.030014646672896,0.8273875415764137,0.31646704353896404,-0.3694277063542144,34.278640887730695,17.554526791089916,10.88132393872604,9.699667342233338,9.809065157390553,8.473214904987517,8.103655794843633,7.275376488971812,6.419386219090347,5.241736204617947,4.301942416680637,3.2502516031206357,2.048255598814744,1.2683601028550537,0.590954677855807,-0.23255134443173406,0.0814156252028871,11.22416284298319,10.755032066525334,10.258491045894209,10.02684377481951,9.587564109647285,9.08926411574267,8.520231368836471,7.7547330392320655,6.571731424585386,5.258632609996722,4.11947881552428,2.7524489769324223,1.5537831467629686,0.7707575691670114,0.23427623810273587
0.0,39.0,39.0,0.0,120.0,0.0,-0.2329192324886511,-0.45976468239439705,-0.2931492256534427,-107.05118781904802,0.0,-44.89394684923104,0.28785200049854853,-0.855124830800063,0.9118040273359926,34.278640887730695,17.554526791089916,10.144667322353584,9.635974401878993,8.992792892828042,8.550627011158557,8.109262211920115,7.427878768459119,6.589241631954538,5.537498436458687,4.100514577510109,3.064470140584368,1.902496556577638,1.2918418812775538,0.7786279830917167,-0.05687917301017867,-0.2747829091027257,11.187755238048632,10.908910929237285,10.332753608026913,10.047767185711848,9.574729848165703,9.267330202737782,8.235475163708223,7.733896242978291,6.671631859289608,5.448072794306447,3.961008646435986,2.5040716231875613,1.4833951822264713,0.6943374702485036,0.39413334600562167
0.0,40.0,40.0,0.0,120.0,0.0,0.463691806009652,-0.6763731457510445,-0.9695144363616444,-107.05465200518054,0.0,-44.909649478417805,0.4040774758022894,-0.5356188219923359,-0.6579184789444794,34.278640887730695,17.554526791089916,10.464571186645411,9.68021867047818,9.405658805441501,8.721925343429351,8.065628439599788,7.485406675020611,6.401137065936115,5.391035188992152,4.445921236791773,3.462284078497378,1.7685842022592229,1.0687574164059843,0.13538310566095796,0.294821138588688,0.14094050294633234,11.410118291459536,10.580128276615886,10.440844888776152,10.109978315734788,9.793586844684045,9.120188190026477,8.320281750491926,7.8448849201061615,6.598168804581392,5.564451125394874,4.13886091582728,2.7198996216076123,1.491278851850573,0.699679434343803,0.4268423829247421
0.0,41.0,41.0,0.0,120.0,0.0,-0.08139721687575707,-0.09084517305438045,0.82690471796393,-107.10423314330883,0.0,-44.986112209452926,-0.3829047606239518,0.8315468338530205,-0.600859775075955,34.278640887730695,17.554526791089916,10.622541889899233,9.603228881135193,9.08048324858221,9.169087045858612,8.277387555251424,7.534699007170601,6.45807797967921,5.227019435310079,4.386304510655136,3.3113432660974116,1.9652121335283723,1.1044767973635474,0.6523386848162329,0.38672305572618376,0.0748551442903724,10.939507242904995,10.682317985910988,10.127083448758254,10.31084637693378,9.80222146348385,8.952058082024454,8.351034927939049,7.520187899268519,6.599157751523599,5.423891614162315,3.982926117767872,2.543323549403855,1.5904333884117325,0.5966323310343775,0.22368580501246277
0.0,42.0,42.0,0.0,120.0,0.0,0.8952583671039935,-0.36407897677764733,0.48416507966500966,-106.91464723383822,0.0,-45.085219793073335,-0.6201067794553798,-0.891897791859493,-0.701381597425607,34.278640887730695,17.554526791089916,10.380205036104009,9.674305659181567,9.561812599208174,8.816920086771214,7.835135841808267,7.058977117936553,6.7609207339514015,5.428087019534414,4.43944493262415,3.018731231964535,2.2896675814374676,1.0076763015895054,0.46552210524964516,0.14015285772132224,0.062267588105820254,11.11583067857642,10.487129789278837,10.338421145965643,10.208724524748288,9.334260269409976,9.125785807194276,8.307176597667258,7.90104349331093,6.543793775611663,5.161804141444733,3.906003828110645,2.723939600708334,1.3981300631845588,0.7216252861735882,0.2261580041747779
0.0,43.0,43.0,0.0,120.0,0.0,0.5130862046055409,-0.2543855580140526,-0.515344123719722,-106.91356591062008,0.0,-44.97172521342404,-0.9835518795795809,-0.21825630554802355,-0.6000429107041649,34.278640887730695,17.554526791089916,10.196809501798345,9.608535470062218,8.926265531722926,8.976343251437187,8.061945481877537,7.0603695274355065,6.387013817018719,5.079498743312015,4.242738145825975,3.1603625522078027,1.8184066759763189,1.1365839318326107,0.5758349544366127,0.18715332365536075,0.28324975612550407,11.381152675802602,10.628677520341354,10.499064303204403,10.035820444867541,9.476695252681008,9.322520407827348,8.493166077966276,7.742303124027824,6.3653227039990705,5.42696178367782,3.7637555484513876,2.4762429160872435,1.394790667123688,0.5982139881680045,0.3605442626249528
0.0,44.0,44.0,0.0,120.0,0.0,-0.20199353802227837,-0.5302430930764652,-0.07436724536602468,-107.00831111980817,0.0,-45.009292876362395,-0.06556710245471054,-0.6249386826484411,-0.7727824343698737,34.278640887730695,17.554526791089916,10.708867515751821,9.502219362734326,9.302781506380477,8.417036556884824,7.895150294465313,7.342671001757069,6.685058641021229,5.370813872283036,4.251899487101304,3.034872291888933,2.0473541108351707,1.0578689066795413,0.5305265950232573,0.12152317480762374,-0.01964504128605095,11.01342411851533,10.625769881228146,10.530056303472378,10.239743352328912,9.761685293463675,8.9683178875774,8.60354365942751,7.623260938947834,6.502648782631427,5.14527582587128,3.898218370945617,2.542868601134555,1.4036854756549944,0.4777248829687394,0.18946755946549748
0.0,45.0,45.0,0.0,120.0,0.0,-0.10999926007544358,-0.4028827066742422,-0.7477273238144178,-106.9600230712852,0.0,-45.08633160511803,0.906853285667242,0.9589813904489932,0.00278155018327908,34.278640887730695,17.554526791089916,10.353966496862885,9.37358250808928,9.023430931013621,8.787171800284812,7.919458165887736,7.513134266734588,6.412014185569503,5.162742307659723,4.095120020192911,3.2203353797990464,1.443582996498089,1.3933352283755664,0.3686776616688099,-0.0036665173608770585,0.370365776416192,11.07539857255034,10.835126308271326,10.334184447368209,10.329117538434073,9.61809949828024,9.07919387359324,8.371993470895534,7.379042240436352,6.533390736141159,5.384815209126031,3.9932832746457256,2.368427475503024,1.3974980401936192,0.6071203878667566,0.3320643346329017
0.0,46.0,46.0,0.0,120.0,0.0,0.6327407859133511,-0.2281687402635777,-0.7155603644849509,-107.1032805328509,0.0,-44.981711476495335,-0.7745888544911643,0.27585157215840694,0.24133614164475525,34.278640887730695,17.554526791089916,10.810741671011913,9.876481395418352,9.594020556712987,8.34365274948143,7.687286880867418,7.651822588472262,6.546992113666568,5.150872741841884,4.288105325819149,3.3543941979644094,1.927698457609907,1.1296883698612223,0.37991435199444773,0.1269460405858629,0.048681480915273606,11.344485437420428,10.702937300650616,10.348979478987726,10.116521808556044,9.504342390896419,8.946533439666009,8.444007139616767,7.474425603201425,6.471500832267094,5.280481764850203,3.97680559135539,2.4153447407770727,1.445912430600887,0.6593041995232185,0.22478416328103057
0.0,47.0,47.0,0.0,120.0,0.0,-0.1660474761896258,0.32772479484745554,0.371359724612667,-106.94602034563536,0.0,-45.09259418258276,0.3433533610689156,-0.6462037151802331,0.05225085790211215,34.278640887730695,17.554526791089916,10.389167473850776,9.78220436130187,9.289752535141982,8.778133344942145,7.300461584181142,7.297435899950534,6.624493514970376,5.507190307456825,4.062108518507706,3.36369521026658,2.0577993292876857,1.1623642639457086,0.40709949837694814,0.1308990556799365,-0.14351438799368202,11.246175839756017,10.97561759024725,10.313841590945085,10.043361007003579,9.67950553406036,9.136431970185697,8.488265085516582,7.7931482392922025,6.3217735981254695,5.389490597685497,3.917234332561508,2.3843819287138817,1.3252145750125908,0.6625304792479112,0.17049098701122395
0.0,48.0,48.0,0.0,120.0,0.0,0.37644541747710125,0.29237516901914606,-0.15552368745496392,-107.04184278392123,0.0,-44.997124972678094,-0.3668504261756207,0.2936748825846496,-0.9791194079007675,34.278640887730695,17.554526791089916,10.449311197685452,9.49098707595573,9.309801238077357,8.487419620094105,7.989127442991993,7.360440522205804,6.551825788379836,5.402733832326494,3.8696167150011833,3.177735914721292,1.5688961861014308,1.0121121027809072,0.49679632827569353,0.6222060270464295,0.050066227738175144,11.150090445191056,10.904835951705437,10.388720655326816,10.159282042836365,9.64570310784453,8.937716061541295,8.677936984411723,7.567875452238699,6.4519376546365,5.1776726852259936,3.8469226253210342,2.5991517447680064,1.3025124806746162,0.5980181210368566,0.19947390925331646
0.0,49.0,49.0,0.0,120.0,0.0,-0.1520039617206621,0.8484750417801323,0.17807864363984205,-106.94592710249819,0.0,-44.99571552681354,0.15408746866760314,0.40972813024674304,0.5901535944637031,34.278640887730695,17.554526791089916,10.404037440254285,9.883686236197745,9.253330055226744,8.957341043298271,7.968457905093616,7.066838829007759,6.372623901809775,5.341238868116974,4.220511513187429,2.8417830876272796,1.608841992800117,0.8204216485363298,0.5082925690827562,0.19977597928483604,0.07335343017516892,11.23389521903233,10.639253988371586,10.42393982157825,10.216452783599177,9.647240963776635,9.447141435214299,8.313884261801494,7.781948353308228,6.601710311896457,5.239195222086434,3.7878882565018457,2.342514760171493,1.2835574240534413,0.6581760988307364,0.17446677923391665
0.0,50.0,50.0,0.0,120.0,0.0,0.4242356736056765,0.9839727014246169,-0.9702627390343337,-107.06146824856492,0.0,-44.94589051726071,-0.6163231117871242,-0.8703536950223767,-0.7731074066325512,34.278640887730695,17.554526791089916,10.808830419041344,9.88977151326261,9.499235986763265,9.022535783974508,8.070373365083855,7.492465146298699,6.425362588556348,5.144532930236317,4.324487179850737,2.9746359844745864,1.9412849766765776,0.9385201454614298,0.41725129446392545,0.4036769934029487,0.10736934768429574,11.107622627162803,10.945795853067985,10.490465203495791,10.14186179458294,9.70444771716352,9.151024109639604,8.469290980873932,7.749832229409495,6.488877556423541,5.195383866851346,3.688889352682584,2.213642490656563,1.266247784635901,0.6053332601497328,0.25200493138876573
0.0,51.0,51.0,0.0,120.0,0.0,-0.16817773493049337,0.9671435727992324,-0.09180646730765774,-106.93823000096452,0.0,-45.030788817359166,-0.4449749853828372,0.24899052861633053,-0.9923680337786407,34.278640887730695,17.554526791089916,10.385311922192553,9.932562585277285,9.392838460372047,8.270505882758341,7.761866693703158,7.680910425606963,6.128025330094436,5.30266442384105,4.103282121134371,2.827662990216433,1.6790621530255108,0.6996466791774996,0.5443785872011621,0.3792247161404573,-0.09832866788069003,11.248295716692734,10.512610181298367,10.395116019122595,9.941211419156252,9.553730610754146,9.059894130483942,8.425880779060707,7.823488701610637,6.45928227579995,5.024596298108895,3.6699005784416063,2.4467896826605493,1.2803418097021855,0.5770966913521277,0.11945224909032896
0.0,52.0,52.0,0.0,120.0,0.0,-0.4433564178249991,0.8618732388310963,-0.5128451461194101,-107.07885405535535,0.0,-44.977397879120616,0.6676491034459241,0.023076053285697284,0.5568216298817166,34.278640887730695,17.554526791089916,10.18213473957053,9.583189689469824,9.33489841584718,8.358113334173167,8.192531543678733,7.55764876304613,6.284719977803266,5.434206822257974,4.31446630537041,2.668167320621383,1.8288792512740624,0.9500592544998787,-0.06350213333040794,0.14627423312670795,0.21015841712025007,10.816892095639103,10.67953989608206,10.39482700949957,9.97706678850469,9.659473374026708,9.219619554295525,8.56413126505891,7.510494624879271,6.6515722817086935,5.064675317254386,3.459969344887247,2.356455124962535,1.184800994078607,0.5444097649998025,0.2455649908737689
0.0,53.0,53.0,0.0,120.0,0.0,-0.5036598960789491,0.1792404748669323,0.18465567843647412,-106.98664481673481,0.0,-44.985098216875386,0.21182145945490394,-0.4283536606811771,-0.6541568648287948,34.278640887730695,17.554526791089916,10.254779448516137,9.932225904022514,9.03412457643717,8.892356074972687,7.963733603982927,7.000363706887653,6.457350119094664,5.1814288439425065,4.107111380061643,2.903775466305724,1.4689381998751796,0.8788235892633209,0.3156248911174398,0.3759566200233131,-0.11024312393372432,11.219621481285463,10.79876691503069,10.517411718905915,9.993559725946689,9.528280366667527,9.073935142394955,8.277795606303076,7.696915610591853,6.3789417215213815,5.006489397836157,3.7884870220811364,2.162299707344157,1.1125943273724879,0.5831258882145692,0.3813438084344961
0.0,54.0,54.0,0.0,120.0,0.0,-0.3771872826692715,-0.733452909056667,-0.49213626892386375,-107.09342519370188,0.0,-45.03164087527668,-0.35730296289099567,-0.3007898637274915,-0.2174080390172366,34.278640887730695,17.554526791089916,10.13973819719805,9.73436542018588,9.586924166786664,8.386576841325878,8.109015170526522,7.282743295202549,6.560535690300773,5.068744617854974,4.071505566924566,2.8681808314510704,1.3369066598398462,0.858201168482223,0.31851078020387585,0.42893142882980306,0.08109981350640058,11.2562723655795,10.632554664565802,10.384271719438136,10.176320322473968,9.622282841430518,8.908054389320196,8.534045387095613,7.5118149704433765,6.310360445744848,5.242134651530051,3.7689836550511546,2.343283038239454,1.2180843346374883,0.5725433595532814,0.26577707954576746
0.0,55.0,55.0,0.0,120.0,0.0,-0.7917730685644944,-0.5934527580222546,-0.8844265612448614,-107.0348538810718,0.0,-44.938792755452,0.014730682674760583,-0.18228093244647225,0.15520662325366463,34.278640887730695,17.554526791089916,10.587746133272308,9.653230272668438,9.330407088861168,8.885408259440915,8.412861371958975,7.121950906465071,6.278370570653741,5.267449189511971,4.562967258365471,2.8028581589750314,1.8152874062181787,1.1774283709179698,0.45606435138403484,-0.1553982945284162,-0.2299913126883096,11.346598124741222,10.726028752174296,10.536922128448559,9.822359781609391,9.715125387902587,9.129526466757524,8.525685381627481,7.766387072099133,6.322975823866082,4.753590274111194,3.7152279319506136,2.1149091332092245,1.1417680311468759,0.5051599298997534,0.07374372164289852
0.0,56.0,56.0,0.0,120.0,0.0,-0.2164320083955411,0.9567348891053948,-0.5207841512313007,-107.13249414814129,0.0,-45.01941818888315,0.42848358825253635,0.0037374273479855447,0.4393937418144491,34.278640887730695,17.554526791089916,10.551640347744767,9.779743280428226,9.440862849183576,8.826188716057075,8.048149721451994,7.36244267265568,6.571948255118554,5.225831947743554,4.046233136699617,2.766375680114804,1.7268140588437773,0.6898855245343346,0.41764831848022504,0.392097729471568,0.2505843989392236,11.256210614177578,10.953144992517146,10.44818665143487,9.998900232726152,9.678840942015787,9.09689953819562,8.620791681022423,7.555359820208462,6.436274710577921,4.999849197351766,3.484215394879654,2.080415497636099,1.0752874595109927,0.47302081235118604,0.21047493494872002
0.0,57.0,57.0,0.0,120.0,0.0,-0.32554666742364735,-0.34307976248674943,-0.9649464513095425,-107.16282031746732,0.0,-44.911822126012325,-0.6128342517842735,0.6193038977381442,-0.5510527267684728,34.278640887730695,17.554526791089916,10.191041925191618,9.536988877563243,9.42207538048397,8.562541193311816,8.155929724056346,7.1647314619438855,6.303787217650902,5.011690250855997,3.9110782780527713,2.8486941686299234,1.7930740012686368,0.6982591821594528,0.334465431132873,-0.31322014980856777,-0.32790740408381897,11.357849337914121,10.459858745859242,10.255929452303013,10.142570014397336,9.8630816166825,9.06884679286525,8.788619312617726,7.362156411939577,6.383821061192754,5.1531393225602935,3.470322389781947,2.080395943209576,1.2375748907008197,0.40014308557159883,0.3989589198197787
0.0,58.0,58.0,0.0,120.0,0.0,-0.8974232153772113,-0.3188481165497341,-0.6258352202028519,-106.94986558914889,0.0,-44.9086217194523,0.15621181507643062,-0.5524061684270971,-0.8156918684312155,34.278640887730695,17.554526791089916,10.607448978281855,9.338664547064287,8.844403491091649,8.97455842307931,7.909871488807714,7.3913168665321125,6.563205264410199,5.354872443146839,3.9321523293042295,2.859822214474389,1.7701418036546626,0.6605573199918214,0.7522167928618845,0.09400827804105744,0.2824093124503469,11.015403146238667,11.066845958805265,10.480509760922804,9.83756218654191,9.755007514915247,9.096718608893521,8.412694445455417,7.5955695557166205,6.214355141491909,4.941428177036949,3.4375107813677945,2.2060262066912206,0.8743079640189845,0.1729313312212728,0.1580878344732609
0.0,59.0,59.0,0.0,120.0,0.0,-0.5119838866589577,0.05819855559366349,0.4274234835745898,-106.98692308531574,0.0,-44.984432171861485,-0.23369159493420077,0.7849517288736405,-0.397935598650748,34.278640887730695,17.554526791089916,10.481224557810863,9.830655657218758,9.380721249241766,8.618451420415129,8.082534470749904,7.614390519901527,6.100561819515386,5.1829938951724515,3.881163724552349,2.4858302424086136,1.545368913682081,0.44684101375202195,0.4327916059863454,0.11633670731384008,0.3777843538669053,11.44986202974064,10.670648276627714,10.709360937397571,9.98652429060345,9.58716292582627,9.030092526523504,8.651087541314094,7.500949838582914,6.498169289356991,4.866689918528299,3.504434705108984,2.076828835621609,1.0595298068318206,0.5472474925549449,0.13299643863217958
0.0,60.0,60.0,0.0,120.0,0.0,-0.7381195616901572,-0.9939104874138476,0.7115732374113806,-106.94595045455918,0.0,-44.9145076313163,1.0624196303445164,-0.7737039108936812,0.5828835615915222,34.278640887730695,17.554526791089916,10.40448405562791,9.6813965206929,9.327782586275301,9.022868149420917,8.006780864305002,7.389269334823329,6.63246553025717,4.64785234182494,3.9970267117282607,2.274158231795995,1.8394983466177388,0.8802173420184571,0.4795785024023803,0.06154666405536086,0.1589256795657023,11.27071448324419,10.924669310942454,10.585208526828534,10.30710790468902,9.607845793671709,9.356626642826496,8.545180474634138,7.532498256711551,6.351526340197212,4.881502486747152,3.296780204023215,1.996486001599912,1.0106811693622744,0.4004803798575421,0.23439823055236667
0.0,61.0,61.0,0.0,120.0,0.0,0.02863728706915092,0.10493743763458196,0.5811139439138133,-107.06646700850852,0.0,-45.04363281599521,0.653537448906619,-0.7447411451264017,-0.3134822784125837,34.278640887730695,17.554526791089916,10.935672194695488,9.94857226529465,9.665526571509838,8.36903804698543,8.05652710075688,7.121319832384252,6.521459475759092,4.956086316054535,4.081789953198646,2.885902642059469,1.5291524319441767,0.7953760942151757,0.20690257808439522,0.21829541398193728,0.08237747510770586,11.225867299067936,10.638271445024646,10.494218283327484,10.038790813884304,9.957457400375311,9.063149080684644,8.505150586171034,7.51456994239122,6.33897984665668,4.886765225402687,3.1210036643868557,1.8308036728743502,0.9208313974089909,0.5216269385687287,0.15100024693737102
0.0,62.0,62.0,0.0,120.0,0.0,0.3710313837174646,-0.7014065124148146,-0.5843494375074147,-107.11072877779199,0.0,-44.93723657198814,-0.04832827236262714,-0.6187968899370091,-0.6362031733898783,34.278640887730695,17.554526791089916,10.372025638003489,9.679364035959548,8.890419743267707,8.696709885967667,8.320556659258935,6.874955410150322,6.055915695936157,5.362120435123333,3.8451998715595126,2.556498061618378,1.6997162811319364,0.8545466041221039,0.4875979231786038,0.013131033435137482,0.381225059650549,11.04078572114489,10.826298755983801,10.49155092661059,10.110838266600416,9.743975578422303,8.929900637725625,8.26295136614195,7.3807073181473974,6.135438411343531,4.818375524695612,3.386841916601768,1.922806281834117,1.087807211722016,0.4628435711608607,0.0908819808892858
0.0,63.0,63.0,0.0,120.0,0.0,0.2764142040102786,-0.11074288479468519,0.3044303871842191,-106.98906666556013,0.0,-44.93763051790103,0.031486137043829646,-0.6769028840722882,0.8040249565454394,34.278640887730695,17.554526791089916,10.44808270449061,9.614676317255924,9.42058782614439,8.934585649022754,8.31747060232686,7.508181435631454,6.322506999940994,5.193363608447325,3.947367437363493,2.411903742605507,1.434628925879357,1.1474031597397534,0.16305867175585304,0.07770754977286094,-0.1758448918716845,11.085103901244462,10.731654089574263,10.53305333233427,10.120367647784995,9.561164213692338,9.112249810214074,8.300875277360792,7.606277632123875,6.226234245596676,4.701120578262502,3.1203273175009247,1.8475311291020664,0.913026450366938,0.44822967718167145,0.14781702528644672
0.0,64.0,64.0,0.0,120.0,0.0,0.5599067588190905,-0.8275263883406565,-0.752644316330173,-107.081549486065,0.0,-44.97491478819086,-0.3744335951894343,0.5096839638965298,-0.062909850569558,34.278640887730695,17.554526791089916,10.201945234251827,10.08216392580164,9.01464095901151,8.710709273237473,8.106559564725409,7.169123856414583,6.037503034190771,5.01235906958335,3.639090546318194,2.799127389162764,1.5631837643135502,0.3723177336180182,0.3663897804311978,0.10774494973401366,-0.06779181070191542,10.88761900890144,10.826431436533476,10.392757338940227,10.025485765860687,9.661769721087902,9.16913948262663,8.21727537600493,7.555708241806255,6.119143086348092,4.578446466370591,3.18301754105267,1.8621515555266974,0.7270301087988156,0.26216259069357606,0.12510828730477716
0.0,65.0,65.0,0.0,120.0,0.0,-0.7598170629403884,-0.6268267856025647,-0.6549182903636883,-106.94634151619577,0.0,-45.033091959371106,0.3957037720613022,-0.34274647255191537,-0.17902560913767296,34.278640887730695,17.554526791089916,10.094896519840255,9.499357356845112,8.833951622586625,8.516424548610372,8.120195680906361,7.674501223667692,6.244479510084679,4.963987718045776,3.448440631830764,2.475719476910189,1.2299139503938954,0.6264653339228992,0.1821482118232387,-0.018447819827641168,-0.11504301930663509,11.391662841633662,10.591658390680948,10.466750869565494,10.048613416268886,9.610121714867553,9.349771058693523,8.550634144721245,7.2369042206116525,6.140028317717164,4.607285414544719,3.1420436066551978,1.8301442476833438,0.9375030325464881,0.3586024914870571,-0.03862043221442263
0.0,66.0,66.0,0.0,120.0,0.0,0.9847411623339732,-0.24691938055062046,0.33239686775296184,-107.00408442454963,0.0,-45.0600298891473,-0.16496827194338143,-0.47555296652552936,0.7220438735149168,34.278640887730695,17.554526791089916,10.394475423204277,9.429698005202525,9.334208465695118,8.548012881179748,8.178792266006862,7.5477737564182155,6.408822481518,5.394197799592909,3.77731749536057,2.568287830418992,1.5305113178505168,0.5300548474608374,0.33620645575936364,0.36998531365357035,0.323317377533451,11.380638820286705,10.894280500049538,10.352017280042404,9.955360883674441,9.683904763641886,9.077376801763027,8.37274358968353,7.382257731789683,6.057692350083032,4.624809913066055,2.9633995309179526,1.7915220051075904,0.8738319247345133,0.46194074812802205,0.1556151978461831
0.0,67.0,67.0,0.0,120.0,0.0,-0.7624760134081667,0.05020919358461895,-0.11170383668035933,-106.94928418280688,0.0,-44.95239521434145,-0.7193952698197401,-0.2832288632097393,0.5961060217662648,34.278640887730695,17.554526791089916,10.345124237391877,9.597930639815164,9.461147169311154,8.247278550850929,8.14648904891342,7.312826153348159,6.419826032741155,4.99387025240715,3.4246929280663196,2.462057454066332,1.4546347546716425,0.563025370373696,0.2710649520796627,0.14943303666903973,0.11851796727586464,11.290607355264218,11.000269693260849,10.457267958847568,10.132627583481094,9.557060864187013,9.239274498547564,8.290400478224598,7.1207150792325065,6.129877497790484,4.456771956303696,3.03948189579221,1.6632268663578542,0.984304847257027,0.2993392415794826,0.007638443237731274
0.0,68.0,68.0,0.0,120.0,0.0,0.9876509203793116,0.2590093985101658,-0.08014602787260028,-107.05016308320691,0.0,-44.93207556056744,-0.8983198922125556,-0.6031333831898382,0.004147341887986711,34.278640887730695,17.554526791089916,10.41490438833547,9.630406956874968,9.19855372542273,8.671445789347409,7.942655175093073,7.548120177895571,6.43721451853047,4.9318382842817705,4.203992390051259,2.161581808669515,1.071378326386688,0.6800329713025476,0.4080687814824512,0.04199207911809936,0.08959684816608837,11.329253234892091,10.680441895881621,10.65758210352308,10.191897235414627,9.876575138179746,9.070141351651822,8.241302674567788,7.446374783559071,6.158923656574674,4.4641724006321075,2.973801410975634,1.711449106620613,0.8728886156210384,0.4164518645435671,0.13719112725089272
0.0,69.0,69.0,0.0,120.0,0.0,-0.7557185036770642,0.9343252567593969,-0.3385878072511923,-107.01467785782302,0.0,-44.84718021842171,0.5494737045906275,0.6336704162182327,0.2184537680007228,34.278640887730695,17.554526791089916,10.429083448051543,9.770258406954746,9.519870264259204,8.815802874104325,7.86632670525698,7.100498731109652,6.174013646781816,5.04200651908365,3.394299786982559,2.3336809561072682,1.3717901457244068,0.6270533237532135,0.3039576617692892,-0.05068205677715312,0.05346936935252557,11.093716324147127,10.673128854375154,10.558884624466398,10.154271062716164,9.779025117336278,9.215560175217758,8.287316920677691,7.4870656993128115,5.916897218570381,4.382421069724636,3.055124005659741,1.7821538449991545,0.8027865696796401,0.40146972479248644,-0.07838170678458814
0.0,70.0,70.0,0.0,120.0,0.0,0.20577138733795963,-0.788896271741923,-0.3079460555435751,-107.01232657373157,0.0,-44.968688950533675,-0.7413682189171003,0.17705629946647372,-0.43163212054917177,34.278640887730695,17.554526791089916,10.51558809398278,9.83997352640016,8.881081526033073,8.994277780215137,8.189947634143492,7.154817700862071,6.086210500809915,5.031631757837712,3.7416331419823847,2.1599192810795302,1.5055949457164506,0.17960275710751578,0.052104865083584306,-0.22304739279566646,0.28510281407850296,11.376495430423365,10.836428521151698,10.538017642213596,10.158670326552073,9.876291315874457,9.367898891661824,8.355889616301267,7.399049925552649,5.824502778065215,4.339020853936378,2.990398501096319,1.7110453918729496,0.7208560089418222,0.45576718797848076,0.11229584399686549
0.0,71.0,71.0,0.0,120.0,0.0,0.5572191311841765,-0.7855195062340627,-0.10468468489018523,-107.01082057399101,0.0,-44.96286838976772,0.07655709236330215,-0.4406792630285896,-0.49742578551280703,34.278640887730695,17.554526791089916,10.571680217697095,9.709379958578609,8.880831108206786,8.62997347178923,7.873274556477334,6.965339777078239,5.797010253395994,5.092084264841239,3.386528640573361,2.1969705694067034,1.2083949073665687,0.3641352476430875,-0.05059532719438814,0.33124392969175276,0.10830787899315439,11.324601265437947,10.845169385380936,10.514004216120844,10.380513918301313,9.586050622158428,8.919876232949159,8.479454825152338,7.440336468051287,5.864354685327903,4.3431227618960735,2.978865337096808,1.6043127406620519,0.6520899620996365,0.38590600577876094,0.047863251100003654
0.0,72.0,72.0,0.0,120.0,0.0,0.712948564829792,-0.9959833598137557,0.7366786179892115,-107.06101947409726,0.0,-44.86519853833886,0.5919040081492274,0.9993018392176931,-0.5849948608206255,34.278640887730695,17.554526791089916,10.685454943868278,9.491516428764339,9.5402364443319,8.43453161272337,8.468092367032078,7.169100599550101,6.315573626472028,4.87609599218455,3.562844532256109,2.287738578547011,1.3627838968527062,0.546156572732263,0.25596441725726193,-0.019858026669089035,0.025301631683271313,11.341922823848396,10.888301477215009,10.678572737072043,10.204665032173713,9.605308443558599,9.153231128875161,8.315019425021193,7.287159548645554,5.779699771054921,4.152994424267606,2.660338251067203,1.5520209499070108,0.6637826007352069,0.25670893246126153,0.1292604757699277
0.0,73.0,73.0,0.0,120.0,0.0,-0.011876903153634988,-0.44311071793867596,-0.697320070697449,-107.02766110939308,0.0,-45.017902090917346,0.7368757286707243,0.8384049711135151,0.029257402636651664,34.278640887730695,17.554526791089916,10.405457245057612,9.196819002967048,9.53071681558312,9.03688957440114,8.007400774376443,7.429683754398178,6.104817842305021,4.874171383796613,3.4253111328890915,2.315434349719137,1.3098198049981864,0.7852201973827855,0.2668966279346941,0.01585325087380262,0.2728327447692178,11.324013699892733,10.848434824314223,10.352772616037742,10.138231600308536,9.488359640329515,9.088977760975103,8.02938170327597,7.0658688753793815,5.8398866194359735,4.005830136699394,2.683169830247388,1.3911083936385003,0.608743003840202,0.1123475727823107,0.18114618716130415
0.0,74.0,74.0,0.0,120.0,0.0,-0.15782494566356764,0.6037340616674922,0.059145341559712516,-106.98827469539799,0.0,-45.045021762100376,0.758959080889165,0.3831512966904811,0.8309350550899994,34.278640887730695,17.554526791089916,10.458895311779491,9.91526697943876,9.698186442085767,8.477851659259608,7.917979438390721,7.270121003631246,5.9515552912094645,4.544600446947119,3.639584897597796,1.9582224288225047,1.3417077180741614,0.6530042024229451,0.23751150140244914,0.005254507272165587,-0.007551990565735408,11.33352350325432,10.79143407480717,10.588518947942017,9.98351912701324,9.5440307653886,8.978291370559935,8.236337492624378,7.064445330523771,5.766705062300856,4.174416407558178,2.753169573606399,1.5344863534766868,0.6556004256413906,0.266151284213147,0.029614410223777088
