Line_number,Fiducial,Easting,Northing,Height,Elevation,tx_pitch,tx_roll,tx_yaw,txrx_dx,txrx_dy,txrx_dz,rx_pitch,rx_roll,rx_yaw,PX,PZ,S0X_time_1.086e-05,S0X_time_3.256e-05,S0X_time_5.426e-05,S0X_time_8.680e-05,S0X_time_1.411e-04,S0X_time_2.279e-04,S0X_time_3.689e-04,S0X_time_5.860e-04,S0X_time_9.115e-04,S0X_time_1.411e-03,S0X_time_2.192e-03,S0X_time_3.418e-03,S0X_time_5.339e-03,S0X_time_8.301e-03,S0X_time_1.338e-02,S0Z_time_1.086e-05,S0Z_time_3.256e-05,S0Z_time_5.426e-05,S0Z_time_8.680e-05,S0Z_time_1.411e-04,S0Z_time_2.279e-04,S0Z_time_3.689e-04,S0Z_time_5.860e-04,S0Z_time_9.115e-04,S0Z_time_1.411e-03,S0Z_time_2.192e-03,S0Z_time_3.418e-03,S0Z_time_5.339e-03,S0Z_time_8.301e-03,S0Z_time_1.338e-02
0.0,0,0.0,0.0,121.0,0.0,0.0,0.0,0.0,-90.0,0.0,-45.0,0.0,0.0,0.0,58.892325333327804,19.630775111109287,5.457470629754458,3.993765692552815,3.632331505907917,2.681181207475889,2.096566279869013,1.6530331257667332,1.2976902139337323,0.8309210715982095,0.7455438886807473,0.49029398814538716,0.32177086535425165,0.19572295999572123,0.10780032769359468,0.047090267833122756,0.030198557645111403,7.973049972174062,7.289271889795698,6.47658039661285,6.030601591740172,4.7326452149081275,3.8388252674678784,3.6618534792846624,2.5191081149606984,2.1738597368142023,1.6314775617410497,1.1113876417928747,0.8836521108587487,0.5567453188073413,0.3478691070147848,0.18330628321597664
0.0,1,1.0,0.0,121.0,0.0,0.0,0.0,0.0,-90.0,0.0,-45.0,0.0,0.0,0.0,58.892325333327804,19.630775111109287,5.409297949475849,3.8115056672244605,3.357410853263591,2.6010180370529983,2.150495762921414,1.5637660072539787,1.2313406515650607,0.8903204423403728,0.7008362788873157,0.426084939046327,0.2868371110426695,0.1837360226670415,0.09754266596971219,0.05776900858376291,0.02714800291668006,9.049726510380667,7.334588272047281,6.064397140700416,5.534647124441172,4.906545820062111,4.0513285691186915,3.295281403930938,2.6194789722994813,2.1617439594552037,1.6099876494525076,1.1609170276352034,0.7394234264375055,0.5391572258887803,0.30699764538915625,0.1835729071729232
0.0,2,2.0,0.0,121.0,0.0,0.0,0.0,0.0,-90.0,0.0,-45.0,0.0,0.0,0.0,58.892325333327804,19.630775111109287,5.340767249542165,4.09773822932054,3.0137505496133867,2.4730667331991967,2.0653532058985866,1.4920391211891282,1.1346709770474535,0.9360117876080004,0.6366266009999,0.47631227214093524,0.3068797382884523,0.16465881045158873,0.09859493548517048,0.048897469728026374,0.024284721967450098,8.818876681427918,7.04604321261182,6.003009270152351,5.721608023995666,4.733495728089297,4.171492558466067,3.539535652821141,2.6302430001810286,2.0742223995289515,1.6554896970064552,1.078239202136618,0.8312368196055734,0.5330256169526352,0.3398085845129048,0.16971713129733834
0.0,3,3.0,0.0,121.0,0.0,0.0,0.0,0.0,-90.0,0.0,-45.0,0.0,0.0,0.0,58.892325333327804,19.630775111109287,5.2577881628774445,4.012608015324536,3.1763927557562512,2.5082695617919333,1.9093017768740435,1.4511412253483198,1.2094052135128677,0.8504443075920454,0.5922667142857644,0.4849723467374509,0.3051675424178395,0.17105961444827536,0.09641843857819327,0.05114819699523064,0.023430694407636135,9.483347599799888,7.6220540056758965,6.403614127634382,5.612520633232702,4.861284059313373,3.950234133510115,3.4400341542290227,2.682783406371741,2.1336701130735296,1.6103970691513643,1.154533136194301,0.8240229436339804,0.5118314521436829,0.294196066101242,0.19635656775374333
0.0,4,4.0,0.0,121.0,0.0,0.0,0.0,0.0,-90.0,0.0,-45.0,0.0,0.0,0.0,58.892325333327804,19.630775111109287,5.250576137541705,3.739346411769798,2.909662875301086,2.678872498183448,1.9013825098094144,1.582777342300469,1.0479751477003405,0.8926083399750362,0.640550230907532,0.429253250716523,0.2915069868113462,0.18322305023682095,0.10550008848662086,0.05220562437724917,0.023358490653978374,9.389507903028274,7.24783531366733,6.394331500793665,5.391149338700488,4.7082089180876086,3.435304786054682,3.255563681400846,2.3733294633361384,2.1585501011668025,1.731056018604464,1.1529567639193092,0.8520115921150424,0.5026791737241179,0.3420190587444209,0.18712783317193699
0.0,5,5.0,0.0,121.0,0.0,0.0,0.0,0.0,-90.0,0.0,-45.0,0.0,0.0,0.0,58.892325333327804,19.630775111109287,5.235920589538797,3.604149570591082,3.476036868887297,2.3430640727864613,1.8439439748509718,1.5462727874539963,1.1724595257393227,0.8298793186903253,0.5854052479774126,0.41975482735644026,0.2790825012264312,0.16965728142129372,0.09873731803342645,0.060066063380175276,0.024552054781497173,9.268682589559958,7.520001669455336,6.216072569149092,5.180699474005502,4.47700511925168,3.570720354971166,3.2320172499536586,2.4682906751167284,1.9506728874692998,1.5731690997066161,1.1675272946673398,0.8167311825297661,0.4860871017662063,0.300485057096608,0.16170100730767425
0.0,6,6.0,0.0,121.0,0.0,0.0,0.0,0.0,-90.0,0.0,-45.0,0.0,0.0,0.0,58.892325333327804,19.630775111109287,5.296942073996764,3.807288294707303,2.974190152489698,2.475210596706482,1.852023567506355,1.4319093803776874,1.1568854611539812,0.8642730074930232,0.6121599567415467,0.42854032550539534,0.3066820854636994,0.16245491738320747,0.0967042218941126,0.0527174146647001,0.022449998575386564,9.526535950503984,7.3452523142108905,6.407547500644063,5.174458163295816,4.189999577297199,3.424349995311116,3.1139279033200293,2.448883769545891,1.9574531855928476,1.4629953080039344,1.0761433615903626,0.6949146837123118,0.5046294096955499,0.3104728237156691,0.1809027885987779
0.0,7,7.0,0.0,121.0,0.0,0.0,0.0,0.0,-90.0,0.0,-45.0,0.0,0.0,0.0,58.892325333327804,19.630775111109287,5.638214105279283,3.7118434024719535,2.6439661543820883,2.3796297519739302,1.923195381906061,1.4783864296798828,1.0534393180868002,0.855686650846033,0.5980374526396144,0.4062609084235214,0.2595029604675935,0.17079817316294144,0.0974419433962865,0.048339051580160594,0.023610686266280573,9.621132111225705,7.74894566818391,5.808781683835379,5.344948799540215,4.384561345707588,3.7721231966559503,3.1098083339005407,2.3797033413232884,1.848953873587099,1.746584703830182,1.1240667480396414,0.746981691327051,0.47684111384943106,0.29968219109180017,0.1625983701008315
0.0,8,8.0,0.0,121.0,0.0,0.0,0.0,0.0,-90.0,0.0,-45.0,0.0,0.0,0.0,58.892325333327804,19.630775111109287,5.497842860410378,4.154477002240296,3.3484771719820294,2.4793280753123517,1.928701020249154,1.4746566443193,1.119869949215229,0.798577465872983,0.5702067188094384,0.41761636613788894,0.27116394470789157,0.16221503622945194,0.09902948527228154,0.05845136393837118,0.026256927769815773,9.22616605075548,7.259048777710591,6.302524024568265,5.614137880280749,4.126947991393594,3.4795651961494416,2.818981540426874,2.4548332514666926,1.8300554030107457,1.5548981695047204,1.0788053846865173,0.6924796333127812,0.5004044684022214,0.307393989747621,0.18539193346532376
0.0,9,9.0,0.0,121.0,0.0,0.0,0.0,0.0,-90.0,0.0,-45.0,0.0,0.0,0.0,58.892325333327804,19.630775111109287,5.792470807559809,4.010973405546131,3.100932447586916,2.55565296758092,1.8480469788634026,1.4466492363543018,1.113342367528529,0.7883886847080458,0.5974050451739399,0.42250648419597314,0.2599192608202796,0.17372222961341474,0.08556035188986583,0.0526382067608005,0.024480203104511763,9.141423066907077,6.2656049928793145,6.809268216559032,5.084405079033533,4.256607591793357,3.314766385185439,2.994516622229849,2.3736415604331333,1.8162232327969725,1.5134508771691912,1.0239846050156174,0.789470753977095,0.47286334747640035,0.27182494064605955,0.181786205483268
0.0,10,10.0,0.0,121.0,0.0,0.0,0.0,0.0,-90.0,0.0,-45.0,0.0,0.0,0.0,58.892325333327804,19.630775111109287,5.584663766378987,3.962692007027368,3.26564421554785,2.6250776856052935,1.8829933971630364,1.3928883270332413,1.1388567012188766,0.8236644971120647,0.6380662623524446,0.3998536586343705,0.2661750007663075,0.15727346465324812,0.09829657831593695,0.05285942613762777,0.025308740839919516,8.820993645477962,7.672893405532283,6.677647460816883,4.743499316275186,4.649396002908094,3.642904396336224,2.771189533129824,2.327375288615765,2.0207664828742353,1.3201223406965088,1.1107258019782889,0.7143685884285172,0.4686505843850675,0.27823811146374294,0.16316849411122197
0.0,11,11.0,0.0,121.0,0.0,0.0,0.0,0.0,-90.0,0.0,-45.0,0.0,0.0,0.0,58.892325333327804,19.630775111109287,5.9214723224937815,4.216602501013416,2.906458274154813,2.810078375087083,1.913880500405084,1.4583767392972138,0.9887964091756993,0.7938245317912838,0.5716738315572872,0.3886045215102215,0.2504972112875432,0.1556907033938986,0.09328692863501854,0.04769229529614097,0.025271035885312963,9.172906123102287,7.63684523129326,6.743453744644513,5.299350466485208,4.341038199647568,3.543250664370217,2.8939171671008954,2.179599180932004,1.8135773574495828,1.4483340763189223,1.0232001602528744,0.6788178920453126,0.48851995161664863,0.29113286918654585,0.17418176954899176
0.0,12,12.0,0.0,121.0,0.0,0.0,0.0,0.0,-90.0,0.0,-45.0,0.0,0.0,0.0,58.892325333327804,19.630775111109287,5.3324787316848585,3.7243933244375875,3.250194977069558,2.5608662352839153,1.8003858814364815,1.4290666831081746,1.1033822134251983,0.8203155998875988,0.5746066837514745,0.37739489947547417,0.24750917914310414,0.16722015341965696,0.09107321677301095,0.05330607125094643,0.0267359687391563,9.885643592108082,7.093284436892844,5.484939201631686,5.5231768271952815,4.745686823454516,3.8084917851212152,2.7692526784557607,2.2887760074136847,1.8146875169509902,1.4216588513085142,1.0573355938206728,0.7248357743559464,0.4998353141778952,0.2801466709398656,0.18045107125008608
0.0,13,13.0,0.0,121.0,0.0,0.0,0.0,0.0,-90.0,0.0,-45.0,0.0,0.0,0.0,58.892325333327804,19.630775111109287,5.52405082369786,3.9641391463151505,3.1796246148726994,2.4270732480119306,1.819020651423916,1.3158774529414092,1.0665428693531793,0.7383818049060871,0.5666241396345938,0.36412842686660246,0.24785026635620716,0.15756667815553124,0.09281331772520568,0.04485594267728484,0.027008429183227285,9.268384875032215,7.453075298957172,5.833088269061847,5.868824347011931,4.369590094133229,3.551025947385558,2.7010719697622685,2.501461162728248,1.7977979152864325,1.4099341685163551,1.0048956759188055,0.7718735244970216,0.4495694369347866,0.3014125569225611,0.17283252691698672
0.0,14,14.0,0.0,121.0,0.0,0.0,0.0,0.0,-90.0,0.0,-45.0,0.0,0.0,0.0,58.892325333327804,19.630775111109287,5.5335414303577295,4.396416499853099,3.2404851804780437,2.467076210579243,1.8974384394643258,1.4986108076112752,1.0381601579582305,0.7275867597969589,0.5431356297964146,0.3589616146606195,0.2498569865374391,0.14985456205476833,0.09098056067857088,0.04816258169327792,0.020683615006593603,8.855146500090182,7.389011073606023,6.135198857049044,5.3783982034653395,4.461443692917048,3.809638739427372,3.075467343637523,2.202134072184826,1.7163223676140396,1.349412699116388,1.018719338359182,0.695423318372333,0.5064527128658294,0.27909716391419453,0.15123397778710973
0.0,15,15.0,0.0,121.0,0.0,0.0,0.0,0.0,-90.0,0.0,-45.0,0.0,0.0,0.0,58.892325333327804,19.630775111109287,5.992477751160806,3.8214639174697465,3.2920550203397654,2.4099546059658197,1.8728860200875141,1.4056755251403394,1.0433654328376234,0.7688004561806933,0.5478587862279087,0.34729206324195033,0.2135365761924217,0.14950760808404426,0.08801326669558288,0.048643828892403006,0.023920112998803818,10.14611725527536,7.997484093243052,6.54442848239491,5.622042233496815,4.59084563137271,3.785347159495241,2.916546978714026,2.3001326114624856,1.7608621135070242,1.3460257156282915,0.9696866041034461,0.6455979232863792,0.5013855644800745,0.28665557080561443,0.1664476574938362
0.0,16,16.0,0.0,121.0,0.0,0.0,0.0,0.0,-90.0,0.0,-45.0,0.0,0.0,0.0,58.892325333327804,19.630775111109287,5.744906243656029,3.9239263186918247,3.079500838940424,2.253520267868156,1.8931663066647288,1.443213819822952,1.0346302842389017,0.7304246315847955,0.5494957571408849,0.39757908227616373,0.2288737292735087,0.14614582919605867,0.09248422113860963,0.048076702297727175,0.02190600260345191,9.28397075091983,7.022306980037569,5.840522339337306,5.43306625819751,4.33931372875616,3.839105571492048,3.0115066393850745,2.2285485103834697,1.6334581422923344,1.3393839731651225,0.943089484086802,0.6969268636355779,0.39249718573486797,0.2955086298266004,0.18179077190927484
0.0,17,17.0,0.0,121.0,0.0,0.0,0.0,0.0,-90.0,0.0,-45.0,0.0,0.0,0.0,58.892325333327804,19.630775111109287,5.731590063869212,4.1568666147618725,3.052882214207988,2.4519668749149854,1.9138692736317413,1.2737062711271252,0.9694236134686354,0.7185038105762886,0.5306401779527692,0.3481670098407231,0.22911829826789437,0.14394220168745234,0.08761986011375071,0.05044582579492424,0.02593023203277339,10.341973969839517,6.826410544683595,6.778867354408258,5.658115726115913,4.617068715047136,3.5056255855510283,2.8500932363877833,2.3983126637765793,1.5689039317523474,1.3708022146246843,0.9290958247262597,0.7441479971362346,0.42499798476156303,0.29587828311495923,0.16138980513953133
0.0,18,18.0,0.0,121.0,0.0,0.0,0.0,0.0,-90.0,0.0,-45.0,0.0,0.0,0.0,58.892325333327804,19.630775111109287,5.936276078372447,4.101978957989577,3.126396756976874,2.418671877572678,1.7180656317832004,1.3239122444844666,0.9506563307771123,0.6850457017841849,0.523574821357577,0.3627632675347337,0.23212384549113643,0.1465962370910163,0.08217293224138739,0.03908283107757291,0.023655327209995747,9.352644287056266,7.204690039156809,6.6112321934592515,5.655405194048463,4.47873898050879,3.3815981891285034,2.9027925725742696,2.384646907181442,1.8368042643782343,1.377892241425519,0.9446983788694832,0.6837900143285395,0.4500611820996153,0.2905674484754715,0.16685168186341237
0.0,19,19.0,0.0,121.0,0.0,0.0,0.0,0.0,-90.0,0.0,-45.0,0.0,0.0,0.0,58.892325333327804,19.630775111109287,5.768224833850141,3.659684448113962,3.100251158424466,2.3076734363584337,1.7500079183602915,1.3157008097840373,1.0140687178759877,0.7120936054034497,0.5246665760812537,0.37019361939724554,0.215693738732476,0.14470770671263886,0.08391731786630909,0.04712503300409886,0.022454891851439274,9.814626081769111,7.951265840988496,6.240545471169276,5.3374942278107085,3.948341326464929,3.733725640656478,2.7797403759283528,2.3855245124691637,1.6357954624327284,1.344150399222986,0.9300289892365584,0.6680091667565755,0.4448857179983986,0.26246188296833456,0.16115491572687748
0.0,20,20.0,0.0,121.0,0.0,0.0,0.0,0.0,-90.0,0.0,-45.0,0.0,0.0,0.0,58.892325333327804,19.630775111109287,5.436617383967033,3.9865665610601404,3.3626448176863017,2.5357491097856406,1.877650062065813,1.3571853032800747,0.982107156405789,0.6791476618116289,0.4827311393980321,0.36765971207108455,0.23485502641231515,0.14089329928602576,0.0804918779021354,0.046744789344253565,0.023321264724414596,9.076546047083482,6.803544526377639,6.15807097552186,4.951037825697759,4.52224057380026,3.321051211636015,2.818490015483324,2.270345475519489,1.6682376559632914,1.3192265292419199,1.0312621955760113,0.6888663953171453,0.44965411395428817,0.3055150656528003,0.17197767487206975
0.0,21,21.0,0.0,121.0,0.0,0.0,0.0,0.0,-90.0,0.0,-45.0,0.0,0.0,0.0,58.892325333327804,19.630775111109287,6.216496636607171,4.003421826927714,3.1666118878147533,2.4193872604842293,1.7409741103370373,1.2074582899048014,0.8649064274593813,0.6425378848810089,0.4763890291908886,0.3560146364867431,0.21336101039973077,0.14570776740130742,0.07877591415691104,0.04440370751660997,0.021507567907404393,9.861046991284416,7.353698408070821,7.141692225461325,5.024219670232677,4.662968074932096,3.3490550928652545,2.6663400326921254,2.1716877331682447,1.781878101098418,1.2462031681066308,0.9844498038064183,0.669697032865135,0.4163978986872652,0.29295979704706515,0.1497314599149529
0.0,22,22.0,0.0,121.0,0.0,0.0,0.0,0.0,-90.0,0.0,-45.0,0.0,0.0,0.0,58.892325333327804,19.630775111109287,6.207854858617921,4.033482650458304,3.2129564128943917,2.5234951400736914,1.6949062757467979,1.2888201990067851,0.8511956544745978,0.7066365075082928,0.5148526788437143,0.36934981407037065,0.2111741547690494,0.1412326138210173,0.07302945118787268,0.046453909627885565,0.023484274681616006,9.635701221545979,7.941404732544361,6.229246921352915,5.716613515351471,4.275302923750626,3.5437422584472684,2.6215102681136573,2.128084129237116,1.6887628085052069,1.2393653857323075,0.9347245196130554,0.7102793730395369,0.45150689745847533,0.2713124711796308,0.16427291255878088
0.0,23,23.0,0.0,121.0,0.0,0.0,0.0,0.0,-90.0,0.0,-45.0,0.0,0.0,0.0,58.892325333327804,19.630775111109287,6.179435517950794,4.131564010960336,3.165674907546934,2.5782673983560733,1.7181106676178095,1.3789577781048215,0.9717997702924127,0.6125299854520714,0.4899361197130855,0.31471236057570356,0.21876211534812784,0.1299737423764183,0.08230651302843085,0.04685949077694703,0.022052229606137976,9.083315267598461,7.599640041538002,6.790338207106147,5.534800558024007,4.0804501205473835,3.2456738570617683,2.8488599640869254,2.034097964949867,1.4882160498053374,1.2688366306271752,0.9871424656847727,0.6094472951155523,0.44292597998996636,0.2608098041401325,0.170207997310989
0.0,24,24.0,0.0,121.0,0.0,0.0,0.0,0.0,-90.0,0.0,-45.0,0.0,0.0,0.0,58.892325333327804,19.630775111109287,6.313299344245435,4.136550741861616,3.0693779618235952,2.7197884899653566,1.685855693269036,1.1658584492441353,1.0218669880903366,0.6722189199468681,0.44443481780592503,0.31665254683970845,0.20474661171951966,0.14258489771559174,0.08280972736584179,0.043934391563400586,0.027038232465494236,9.375145696942894,7.578188749509004,6.677580667865991,5.095633679228847,4.049866502667274,3.4523127975408596,2.7548726490246995,1.9752992294055571,1.7232893985483881,1.266114300548959,0.9686127713453186,0.6324954670971306,0.4572412391114157,0.27410925236119005,0.16154224316745003
0.0,25,25.0,0.0,121.0,0.0,0.0,0.0,0.0,-90.0,0.0,-45.0,0.0,0.0,0.0,58.892325333327804,19.630775111109287,5.9339756705191276,3.771166838015703,3.5745075542992586,2.3996129596910523,1.8770340865520836,1.2914190136348251,0.9683209821355091,0.6593383346617867,0.41677453939946185,0.33469618682433805,0.2173095280728261,0.12842870303819073,0.0752663911148012,0.03514749011341209,0.02617323841390081,9.238918814477886,7.578455450179024,6.891083336733817,4.895146005090024,4.57071586114741,3.564040573230544,2.551195779076896,2.0702755047028005,1.5416991645023863,1.2034751717681094,0.9383511702097642,0.62119055404639,0.45126642579314824,0.2808745924300474,0.1703747176818529
0.0,26,26.0,0.0,121.0,0.0,0.0,0.0,0.0,-90.0,0.0,-45.0,0.0,0.0,0.0,58.892325333327804,19.630775111109287,5.426225631860739,3.738902297144253,2.983184319906912,2.593475693103101,1.6969490047915976,1.3667739285854035,0.8506838181243087,0.6110017979274629,0.47111140072271035,0.3126833106459533,0.1942991647194092,0.1278642836955466,0.07224948824466995,0.03947182018295603,0.020741779542193774,9.140935543448656,7.738352677090447,6.843659005294403,5.218765020646702,5.063335208133205,3.2213221992010714,2.4684210237380335,2.09111152466346,1.5531426398250825,1.1745354849152678,0.8543075553061082,0.6514197268645222,0.4649058938656043,0.25166091093269627,0.15505619963056191
0.0,27,27.0,0.0,121.0,0.0,0.0,0.0,0.0,-90.0,0.0,-45.0,0.0,0.0,0.0,58.892325333327804,19.630775111109287,6.109334335317057,3.8753152901399015,3.245285940022795,2.3452377209238553,1.8865351817633031,1.2595623192533605,0.9207118670689058,0.656759148177037,0.4459556647075464,0.308145378524522,0.186742573037619,0.13005934779790493,0.08066671918080942,0.043065582371606785,0.02258170428006271,9.592354601168063,7.4636468710625365,6.97759107942551,5.428363242450688,4.861295665963297,3.399386356728231,2.601060165420065,1.863204818034826,1.615818815299069,1.1140405979845833,0.8495924411282404,0.6112965923346096,0.36334288017514554,0.24899617133768423,0.1566594399352562
0.0,28,28.0,0.0,121.0,0.0,0.0,0.0,0.0,-90.0,0.0,-45.0,0.0,0.0,0.0,58.892325333327804,19.630775111109287,5.585512998506259,4.008206437924923,3.3224930445781387,2.473657609835906,1.905274740135904,1.2797238418621302,0.8622297603136938,0.536400278837878,0.4334019913415138,0.3295466861031664,0.19990760777915012,0.12410836039127122,0.07778791830776709,0.047789735147351166,0.017728756960075205,10.348722255899583,7.581715097096154,6.2846056592786175,5.393169380456553,4.474997123821403,3.695253558673312,2.627638796220932,1.827174726182136,1.5319754953603801,1.1129199388817266,0.9018701766372961,0.630476481961814,0.4081821543952921,0.25452183322301314,0.15016924686722166
0.0,29,29.0,0.0,121.0,0.0,0.0,0.0,0.0,-90.0,0.0,-45.0,0.0,0.0,0.0,58.892325333327804,19.630775111109287,5.660922245822138,4.078812018552093,3.224951579016721,2.5130144826444485,1.8728777984542633,1.4275781388081263,0.8139342153267713,0.6082342485833403,0.4814753223468316,0.31622070474988406,0.19570209046452766,0.13888846385023812,0.07409709330375434,0.043712437852691424,0.017498413815392563,10.123920389600066,8.524963456641794,6.66559188640261,5.351514619642531,4.5375267217264,3.4489628945101436,2.5166044939346377,1.9068190506292855,1.5237650995074328,1.1364645245748364,0.8365583925240347,0.6745271499940176,0.3963960598425286,0.2856254747876411,0.1595407377853741
0.0,30,30.0,0.0,121.0,0.0,0.0,0.0,0.0,-90.0,0.0,-45.0,0.0,0.0,0.0,58.892325333327804,19.630775111109287,6.118778344391346,4.299733459525792,3.1360222718834962,2.445487815559659,1.7644447462410464,1.2802573544559088,0.8923227211880903,0.63237224436016,0.4235905041789951,0.2964564919059969,0.1948742916426447,0.12397445576726043,0.07526211244178796,0.04480096329756565,0.02017332136147054,9.812066470818571,7.334965665483427,6.458701790862886,5.405181149686016,4.340701970290787,2.9697118892843957,2.482460687395447,1.859986103939324,1.5935704218076114,1.1641195215351816,0.8581007829561045,0.6038034403557877,0.3826408825854648,0.2620176858564435,0.15986818122701812
0.0,31,31.0,0.0,121.0,0.0,0.0,0.0,0.0,-90.0,0.0,-45.0,0.0,0.0,0.0,58.892325333327804,19.630775111109287,5.883923980040815,3.885297005615931,3.4912709316098094,2.4748172933292474,1.6357180651921437,1.215372072999098,0.8349966886624274,0.6492795414623503,0.4595932013830573,0.2994991301892203,0.1890950021629968,0.12488394965186438,0.07226941794668279,0.04491066251218239,0.02107262264349471,10.272621662327845,7.960887339120266,6.817667093733552,5.5021505694829225,4.160516073718098,3.101124176651963,2.4985232403951723,1.9552379270359088,1.4353065952086337,1.122667705141618,0.8883384011409974,0.5843779866531563,0.4183560980743374,0.2569013304209664,0.1549631529292422
0.0,32,32.0,0.0,121.0,0.0,0.0,0.0,0.0,-90.0,0.0,-45.0,0.0,0.0,0.0,58.892325333327804,19.630775111109287,6.412977436519327,3.9661016218798313,3.196822463157674,2.52624573855114,1.954652789489907,1.1977175893652852,0.920578565366078,0.5639444479107453,0.40069611513521186,0.27958105523347376,0.19077226715802637,0.12160757528706101,0.0757492251761001,0.04319382690331839,0.019836192039457072,9.607567745084099,7.734310844316345,6.353491666931729,5.188223850702272,4.408988551774368,3.358785165484175,2.733636992078193,2.03997508244015,1.5704205660781088,1.1868211737108016,0.8362635538270691,0.6093417489814071,0.38068629715510965,0.26566972866791916,0.15685218113893562
0.0,33,33.0,0.0,121.0,0.0,0.0,0.0,0.0,-90.0,0.0,-45.0,0.0,0.0,0.0,58.892325333327804,19.630775111109287,5.718398337117989,4.243230831973859,3.0524706808670388,2.384440092295358,1.7524141455962936,1.3141908584242985,0.8516356480589442,0.6300548378488205,0.40352198540212875,0.28153165025922267,0.19325808951982623,0.11644719652376453,0.06988580584693889,0.04312682022958934,0.021941967507429546,9.413653857174731,8.24405864481479,6.742323966829249,5.403387667786429,4.531838785142516,3.2759664640320456,2.586967279427749,1.8758330603683488,1.610230535293087,1.1023616810754313,0.8302034594174499,0.597597430746344,0.4211169128549409,0.2700469169874172,0.155318031549312
0.0,34,34.0,0.0,121.0,0.0,0.0,0.0,0.0,-90.0,0.0,-45.0,0.0,0.0,0.0,58.892325333327804,19.630775111109287,5.877490429766249,4.153758314892067,3.2820673841805053,2.596110506903328,1.7902726645021516,1.2164062627822596,0.9024489770995867,0.5752220701287941,0.4236148604284974,0.2859052448909757,0.1847220515237113,0.1138787507413439,0.06732806895502798,0.03881269980581801,0.01808856597889399,10.084762265002018,8.161889090663106,6.341519278123526,5.240513412004631,4.371755645074896,3.1505581998090637,2.6397896207267433,2.046786535525881,1.5053048583267514,1.1615202576340664,0.8981195893989459,0.608163164789483,0.37155025784727475,0.2645303482019256,0.14737305233742387
0.0,35,35.0,0.0,121.0,0.0,0.0,0.0,0.0,-90.0,0.0,-45.0,0.0,0.0,0.0,58.892325333327804,19.630775111109287,5.644833963363177,3.973015341067516,3.4228045707300896,2.494638835062565,1.7810930266149965,1.2883015940200369,0.85266029383473,0.5935719740969805,0.37142954281608426,0.28894965261675704,0.19270747913760297,0.12234940001400454,0.07385142563622332,0.03663766125177055,0.021598360614454002,10.00499721564085,7.433108230453432,6.562929322707496,5.608297198608379,4.632013054520375,3.065955797926579,2.579778622115198,1.8452250165163429,1.4534166613157438,1.1105000276218964,0.8363416705615888,0.6120635956691297,0.38906033981771826,0.2678073758463447,0.13776687806236226
0.0,36,36.0,0.0,121.0,0.0,0.0,0.0,0.0,-90.0,0.0,-45.0,0.0,0.0,0.0,58.892325333327804,19.630775111109287,5.683471842662331,4.263773636641035,3.245935240866785,2.4416666388293673,1.6987309115790654,1.2236077958710554,0.8313142813265293,0.5620991129702744,0.4054773092353871,0.25660897884176703,0.1975544344438055,0.118233330452936,0.07506845599579122,0.044029793419709765,0.02470694407707545,8.970581367660934,7.770458227102575,6.457783814587805,5.44178252810345,3.7573995636495643,3.3062977360506616,2.4560954193066125,1.8352702016890912,1.4010505328504044,1.1317970818661272,0.8305395272208048,0.5849957531842573,0.36516278373799327,0.2626871734765063,0.13660724975031394
0.0,37,37.0,0.0,121.0,0.0,0.0,0.0,0.0,-90.0,0.0,-45.0,0.0,0.0,0.0,58.892325333327804,19.630775111109287,6.241600152282078,4.235236389232974,3.6394736761068596,2.5702665522683352,1.7155737271624434,1.2437682171376665,0.8384594405585323,0.5821861075301352,0.413703904800295,0.2673104572378401,0.17371411061770656,0.10780198409408147,0.0677703675191832,0.03829999343945024,0.020713455071799263,8.932204721754923,7.791707151216075,6.702129370473589,6.019474684079246,4.441630149009447,3.621565050195425,2.401977098114757,1.7658439151588916,1.4729471601136004,1.1640099848554382,0.8277548772880496,0.5967168471486588,0.413872607495681,0.25150114696878023,0.13593024889562294
0.0,38,38.0,0.0,121.0,0.0,0.0,0.0,0.0,-90.0,0.0,-45.0,0.0,0.0,0.0,58.892325333327804,19.630775111109287,6.168479794715008,4.2262841853727435,3.3235554874519155,2.533943217337088,1.8984285220467505,1.2718870300831757,0.8102082944140142,0.5221387557976181,0.40477307471098845,0.2498853095431705,0.17279793520123846,0.11324324509100955,0.07164574397232952,0.03722613433993175,0.019605622055572085,9.321425293725724,8.569371388159798,6.61258166955063,5.241146997144224,4.195938324563845,3.193321270597993,2.5373434062093616,1.868355478542596,1.5134024520642486,1.083870849068736,0.80813453282022,0.6065225015272504,0.34622261886100686,0.2701142583618882,0.13610612034082484
0.0,39,39.0,0.0,121.0,0.0,0.0,0.0,0.0,-90.0,0.0,-45.0,0.0,0.0,0.0,58.892325333327804,19.630775111109287,6.264727672785416,4.299079157054331,3.3683074049037662,2.5852097269041026,1.8340367011522902,1.209019425715207,0.8282576252632211,0.5588834977456256,0.39439061945110626,0.28381441286754583,0.19200837329656528,0.11104183272037922,0.0574970884836781,0.03769749164788439,0.020928380310031885,9.183514286545032,7.504409993435311,6.803753468480137,5.948193932203059,4.420337384489016,3.6664527285722475,2.4650285658939515,1.8304884738907699,1.3302739579524554,1.1560743943250924,0.7863205698504033,0.5682792639722182,0.36680393918045034,0.23153190042327068,0.15179816722653652
0.0,40,40.0,0.0,121.0,0.0,0.0,0.0,0.0,-90.0,0.0,-45.0,0.0,0.0,0.0,58.892325333327804,19.630775111109287,5.737575296407657,4.164956017888548,3.149858577508958,2.6650503986190666,1.7758558390002934,1.2906253875975005,0.8017641905519391,0.57664750211508,0.38658091994618377,0.2719623649812528,0.16698397718400942,0.11076655421379548,0.06751896304561075,0.03913972084752085,0.019206731686842705,9.745818460599793,8.131606797645354,6.023488413285383,5.565575282739182,4.596859892072697,3.412144672939766,2.6150937558194003,1.9593308418153572,1.3163566129629578,1.1817874291282404,0.8480018871390159,0.5622869902346984,0.36986418867920995,0.2676361623483408,0.14184043345577366
0.0,41,41.0,0.0,121.0,0.0,0.0,0.0,0.0,-90.0,0.0,-45.0,0.0,0.0,0.0,58.892325333327804,19.630775111109287,6.0559417659339285,4.1471797305015725,3.3958549818963215,2.692119696398306,1.7856805124635358,1.2345628463177303,0.8147265498790517,0.5299794616347111,0.40049201838603266,0.2595702261384745,0.1725555915280857,0.09712329902823742,0.05936174749981782,0.0397090882512665,0.017978295917982633,9.278808590656965,7.974939878860754,6.378970276348754,5.955210742253164,4.18100277383086,3.4300617744693094,2.439605355045181,2.0090208551265056,1.4159339562319748,1.0744599364778606,0.7624004160740244,0.5517481848368795,0.34125678860877623,0.23860101277564724,0.1422484734196808
0.0,42,42.0,0.0,121.0,0.0,0.0,0.0,0.0,-90.0,0.0,-45.0,0.0,0.0,0.0,58.892325333327804,19.630775111109287,6.286140202207508,4.323753362578103,3.3954848523198815,2.5119200623329943,1.945656989611995,1.3211865956000919,0.8365049154838986,0.5953264385423344,0.3964326802213656,0.2542455511090815,0.18055332814536956,0.10427841545138321,0.07077145107639483,0.03573689572684996,0.02046458086244729,10.203602956956981,8.111949579097402,6.6752605838495445,5.680497545463257,4.166105024928879,3.2954390195125702,2.5854667209420006,1.7801300641417597,1.3694708872152983,1.1040623406434098,0.79528822646362,0.579122965577284,0.37420268325645106,0.23622194251310544,0.14633208444017679
0.0,43,43.0,0.0,121.0,0.0,0.0,0.0,0.0,-90.0,0.0,-45.0,0.0,0.0,0.0,58.892325333327804,19.630775111109287,5.872851690295426,4.513791716807967,3.344971251949241,2.8012572019057718,1.9141474354820176,1.347057740089152,0.8580347000380497,0.5870911853653913,0.39287296908301167,0.27589732050028787,0.15889735048242948,0.10600779166266468,0.05901375029270458,0.03882219276396758,0.021389140096224623,9.323353724529115,7.754657630852719,6.6081085395535295,5.539569042598626,4.519945433792544,3.303002250925497,2.538266840775749,1.887610403627296,1.292189739659223,1.0093926974749878,0.7876751847493667,0.5820432501428867,0.3574680437976713,0.2259919954883058,0.13869625002167887
0.0,44,44.0,0.0,121.0,0.0,0.0,0.0,0.0,-90.0,0.0,-45.0,0.0,0.0,0.0,58.892325333327804,19.630775111109287,5.708878625147946,4.78144631372693,3.3317392265113392,2.6623486975346946,1.9172253568256619,1.1749878136559087,0.8415783139803646,0.5281636818477308,0.4048230949945375,0.25130374555370943,0.17015865089201412,0.1005245692405707,0.06595526412739745,0.035638499242052334,0.017563000746791842,8.846899783321067,8.195445870989417,6.090906520779677,5.015747683681934,4.386187372008696,3.492186963342702,2.3796878309322853,1.9018524584737875,1.3212035510857496,1.0470389171555392,0.8133251941157847,0.527685991696443,0.3711162789860773,0.23733601031106186,0.14965080578189224
0.0,45,45.0,0.0,121.0,0.0,0.0,0.0,0.0,-90.0,0.0,-45.0,0.0,0.0,0.0,58.892325333327804,19.630775111109287,6.152347227791631,4.355244833543387,3.1589553496822966,2.5908594112742573,1.6356016940606297,1.339687489056926,0.8351009099333991,0.5695102198418334,0.36347266021627395,0.23985091362642683,0.1676642444135957,0.09791228590031305,0.06392803771093884,0.036647906341906254,0.019994986336416234,9.945636845478978,7.776115375021562,6.81981543149347,5.664392407028701,4.719555104483788,3.692383123896549,2.473938810455781,1.9057715836650437,1.262511126597836,1.0736085527037758,0.7271890738509554,0.5487623486736921,0.3500828218637936,0.23224897708351352,0.1343930189652603
0.0,46,46.0,0.0,121.0,0.0,0.0,0.0,0.0,-90.0,0.0,-45.0,0.0,0.0,0.0,58.892325333327804,19.630775111109287,5.832158126855747,4.3662256529644665,3.309919633747322,2.547868334442626,2.1243782856418645,1.0761654603865216,0.7625236099019229,0.48975225857857974,0.3473088952836875,0.24643831835942515,0.16764428329640751,0.09772785963394019,0.06494198359736252,0.03549442903752916,0.02057990459798128,10.042881428406409,7.299725713939233,7.278436170237819,5.495260968934948,4.363252906471796,3.4684463528958434,2.3526436667663515,1.884132334143506,1.3337712091117853,0.9833510947335181,0.7873357165794433,0.5041040248678309,0.3336335091997782,0.2395788695612992,0.13567041033625912
0.0,47,47.0,0.0,121.0,0.0,0.0,0.0,0.0,-90.0,0.0,-45.0,0.0,0.0,0.0,58.892325333327804,19.630775111109287,5.739728695373765,4.335318146173146,3.444208185006649,2.588477797276793,1.8424154945109805,1.288637439111326,0.7695339142155517,0.5025538328112441,0.3415678103484587,0.23969293836664549,0.14675841185385569,0.10783628054091099,0.06222507486822483,0.03800683867930921,0.01194759114946304,9.314102666386079,7.707265441714976,6.8466798453958,5.5577523168900145,4.5424058948149755,3.5694152972376414,2.6596807693623137,1.8260798550955266,1.2802565451031163,0.9670889751024534,0.7925339277001895,0.515744128784024,0.3538569065687216,0.23305059423230493,0.12763318209061816
0.0,48,48.0,0.0,121.0,0.0,0.0,0.0,0.0,-90.0,0.0,-45.0,0.0,0.0,0.0,58.892325333327804,19.630775111109287,5.744590847609472,4.5457721746978415,3.4321417153405935,2.6955268553461704,1.9629545152433512,1.3657348399917,0.8300637679039161,0.5462182150579614,0.3378957887396574,0.2237118791777517,0.173095865705619,0.10303101813393037,0.06955686653629015,0.038142884313083485,0.020712277181491896,10.237303088943564,7.889233107542686,6.702005298514842,5.820589660759036,4.216197696315733,3.3421104600407436,2.3328283997587422,1.9350880775438968,1.4310665364688004,1.0432416968483134,0.7873515129304673,0.548533665502432,0.3579409839836892,0.26018343298563457,0.14933742524685434
0.0,49,49.0,0.0,121.0,0.0,0.0,0.0,0.0,-90.0,0.0,-45.0,0.0,0.0,0.0,58.892325333327804,19.630775111109287,5.852336931907273,4.731016873399858,3.3755147733782715,2.9268238066199967,1.6929277098826914,1.26074963233987,0.7814050171743468,0.5131996002836297,0.3701509856222615,0.24662341051181333,0.17258316680986366,0.10344450818041542,0.05884285721613602,0.03419592795167523,0.015186225833392292,10.762945803032313,7.737421045398983,7.5743779974397585,5.567558421876183,4.20561168213634,3.478925895990235,2.8680058691305916,1.988982145699018,1.2487713535482943,0.9637988341125668,0.7211522932970176,0.5148690177171719,0.3477317253408133,0.21526008148384104,0.133667648192186
0.0,50,50.0,0.0,121.0,0.0,0.0,0.0,0.0,-90.0,0.0,-45.0,0.0,0.0,0.0,58.892325333327804,19.630775111109287,6.350580894190146,4.763938222403818,3.4339929245182677,2.6590245280079134,1.7277846122280693,1.3639228021423615,0.8619800666710998,0.543077482528675,0.3893278650070692,0.2411479623016182,0.15635481076253877,0.10130325666073646,0.0604730808445414,0.031228666927119356,0.015314868356205318,10.682740942751645,8.256325672113594,6.520237797584132,5.395248480684643,4.40035834625076,3.190311232564935,2.370051573181195,1.8722017719093775,1.3040292874032984,1.0544405264910306,0.756512056306193,0.49426289407511703,0.35520046065932565,0.242849354082412,0.14166262455720807
0.0,51,51.0,0.0,121.0,0.0,0.0,0.0,0.0,-90.0,0.0,-45.0,0.0,0.0,0.0,58.892325333327804,19.630775111109287,5.662010456772615,4.224347331236119,3.5739831206097064,2.5635444609533513,1.8636962968043906,1.2280274318186046,0.9183029180397232,0.5547975030816703,0.33118360561920596,0.2255522269308534,0.1709873067098955,0.10270451137133846,0.06430729372449123,0.03150719263805145,0.01828523883128874,10.855861144377522,8.64188939816382,6.6650584446834,5.914677038271156,3.937900461924996,3.3327443933648664,2.496449584982665,1.9655373614873377,1.3498864870115834,0.8998546225729812,0.7774549120660035,0.5707530573599795,0.3364203138553338,0.2274285344840682,0.1391387239901078
0.0,52,52.0,0.0,121.0,0.0,0.0,0.0,0.0,-90.0,0.0,-45.0,0.0,0.0,0.0,58.892325333327804,19.630775111109287,5.883095729758467,3.9646467231673945,3.3698360047448985,2.6733589327791356,1.8851052900147518,1.3494108188738827,0.7593172312697427,0.5458377923906471,0.34697618816799763,0.25967278390573967,0.17031964152310655,0.09940660739707045,0.0632726767264959,0.03730532206481548,0.013855194250734927,10.422344928329963,7.820754346724549,6.785199503471942,5.516186173229159,4.606414649908868,3.538716919903663,2.7166896698233,1.8514551742109329,1.3390645658241043,0.9326009731408996,0.7076620269716197,0.5239149422770477,0.3073019464596471,0.2356155889283932,0.12207720103309627
0.0,53,53.0,0.0,121.0,0.0,0.0,0.0,0.0,-90.0,0.0,-45.0,0.0,0.0,0.0,58.892325333327804,19.630775111109287,5.9210218004997275,4.466127668123521,3.6713759618384243,2.7639648401414423,1.9555518738449325,1.1736801708485407,0.8575254465468992,0.5100328593989992,0.35951344469608876,0.22448668437666405,0.16690644956687478,0.0992028778671398,0.057626344934148664,0.031851792991499976,0.020214100652567603,10.393187544101496,9.011967255054218,7.045416429895521,5.211414237262238,4.272619838863779,3.3674262644151236,2.5441222633354768,1.803372629053313,1.3425189281489855,0.9882376069720482,0.7012336320125957,0.5001426063590392,0.32688441002722846,0.2357781208319258,0.12880023044205402
0.0,54,54.0,0.0,121.0,0.0,0.0,0.0,0.0,-90.0,0.0,-45.0,0.0,0.0,0.0,58.892325333327804,19.630775111109287,6.518611792712113,4.99130056814732,3.591110054721398,2.50547145495688,1.8924451521720618,1.2916535313103974,0.8768682053877771,0.5216978025736186,0.33296179134672316,0.2226638194461486,0.14382811301403584,0.09655967334591527,0.05519410466006177,0.036333416482078905,0.01844463577742689,9.571895884984796,8.01616105744925,6.501085106141796,5.789918071429501,4.5524169524808045,3.569981234837881,2.4560151789798303,1.6878123596272623,1.2068416464629008,0.9824754788622416,0.6880194311590645,0.45943433553991336,0.3380110596579685,0.21525958133916395,0.13709334500618536
0.0,55,55.0,0.0,121.0,0.0,0.0,0.0,0.0,-90.0,0.0,-45.0,0.0,0.0,0.0,58.892325333327804,19.630775111109287,6.510182511152774,4.563899547426025,3.548636262491233,2.6752035521042274,1.7888347977628178,1.199623493387181,0.8267243864519391,0.5615035398847369,0.3387303174340994,0.23689692916283597,0.14137912471420544,0.09078347446118941,0.05059553914572392,0.03607718035112143,0.01846650147626814,10.59452954066974,8.093614532008877,7.262174868964349,6.135239545644477,4.530171360901783,3.525399517684115,2.3911034880752333,1.9656022441020562,1.244275950656974,0.9588511865648114,0.685089414803837,0.454499280141073,0.34075399309914495,0.23423198911693877,0.1446613877004586
0.0,56,56.0,0.0,121.0,0.0,0.0,0.0,0.0,-90.0,0.0,-45.0,0.0,0.0,0.0,58.892325333327804,19.630775111109287,5.63628539590481,4.618426910329645,3.4206775872754536,2.574427345926543,2.0217326950041867,1.3354366541052087,0.8695007961973696,0.5438369534451506,0.3368834904978423,0.20461694130355784,0.14948200869884273,0.08792354806780929,0.05655856402748312,0.03294089372281492,0.01641375126520734,9.702229409839713,8.484931869331582,6.75850223055734,6.11590421497867,4.7049961736378165,3.3753182957218755,2.5779273797895823,1.7047471779263386,1.27777222418254,0.9411541637167201,0.6506543282852423,0.4477235843207287,0.306664138717364,0.2136119062789321,0.12360458838912017
0.0,57,57.0,0.0,121.0,0.0,0.0,0.0,0.0,-90.0,0.0,-45.0,0.0,0.0,0.0,58.892325333327804,19.630775111109287,6.118101506000508,4.413761006881738,3.511196913239001,2.762857915237314,1.8983478961858913,1.2249041779627405,0.8522454542803958,0.4629765186849008,0.3561431841229376,0.21902369216579304,0.14868346176805683,0.092285104100488,0.05935671463901298,0.032139532815820694,0.016723895225001013,9.690791610070443,7.486194267956582,6.62070318516706,6.189141566565891,4.630976936299959,3.247384662674915,2.721146840545317,1.8112880290436941,1.2984851708169614,0.9251482826666596,0.7091356976973658,0.4845053218675626,0.33672917136826147,0.2214318775263158,0.12941224430088769
0.0,58,58.0,0.0,121.0,0.0,0.0,0.0,0.0,-90.0,0.0,-45.0,0.0,0.0,0.0,58.892325333327804,19.630775111109287,6.139886024371803,4.407153564083517,3.4590553219300797,2.652674071328178,1.9000724986448447,1.141742799649325,0.8053928256232845,0.5007744367614945,0.34268785930897117,0.22608966078788764,0.13784444143063077,0.09399300763698329,0.051011425027059396,0.026619527341961956,0.013715624735860524,10.23979766494043,7.6990984282534365,6.519342136654677,5.851125803990913,4.550757334877492,3.563849990126148,2.7337403063391252,1.729961458515996,1.215497865239381,1.0094475794982083,0.661717156208525,0.49647201171447114,0.3390713859038581,0.2260996836786212,0.13411996812455
0.0,59,59.0,0.0,121.0,0.0,0.0,0.0,0.0,-90.0,0.0,-45.0,0.0,0.0,0.0,58.892325333327804,19.630775111109287,6.6230173312192555,4.390732449996876,3.045851371092,2.699012049828534,1.9515936009480126,1.3674387573473414,0.8417233155908953,0.5359648017035971,0.33647569734119287,0.2291502676476069,0.14441343663812062,0.0973859524992563,0.058532764382903925,0.029096683750765164,0.017362836240279175,9.335706734491392,7.710934505316819,7.145651142451757,5.842249732960613,4.523614224077226,3.404338528099335,2.4444363296384677,1.7661560112757937,1.3400817009116641,1.036902261304325,0.710004876740387,0.5002377346101821,0.29597473011310493,0.2052034327436267,0.12911394382739255
0.0,60,60.0,0.0,121.0,0.0,0.0,0.0,0.0,-90.0,0.0,-45.0,0.0,0.0,0.0,58.892325333327804,19.630775111109287,6.274431903758606,4.6003604457427665,3.2719573577147294,2.6517853173364094,2.0138467661866066,1.1527608261878282,0.7936308925141293,0.4919727199148886,0.3282237847111603,0.2310709581852442,0.1410674963592936,0.09233712629685707,0.051422217146607635,0.03584284590916306,0.018476438816489846,10.523798333207546,8.0181741380176,6.500529895381124,5.856012510240912,4.912811423301782,3.5557917753366866,2.4950260746590165,1.8540703416997395,1.3593538260210998,0.8992963013068607,0.6489540293850122,0.47614351775130914,0.3466442582636587,0.22638514567346268,0.13081970622227776
0.0,61,61.0,0.0,121.0,0.0,0.0,0.0,0.0,-90.0,0.0,-45.0,0.0,0.0,0.0,58.892325333327804,19.630775111109287,6.762651434959226,4.291604037673081,3.4006417336684676,2.623863148471089,1.9685540692946961,1.302503616846824,0.8824136467403028,0.4863969050306949,0.3367275596250913,0.2303708435290864,0.14652314973243108,0.08492502253669697,0.058574288367289326,0.029765052134417522,0.013111300439082941,10.12788128525212,8.58972618571417,6.547500655917704,5.922581847693133,4.33820327415321,3.324705842914525,2.622489974094908,1.9207332321597832,1.3963036062519778,0.918488260716567,0.7020163701929665,0.5110856318989933,0.3042173160830174,0.22026093761885668,0.1297584784832544
0.0,62,62.0,0.0,121.0,0.0,0.0,0.0,0.0,-90.0,0.0,-45.0,0.0,0.0,0.0,58.892325333327804,19.630775111109287,6.022576224310206,4.502347701021775,3.527288664935891,2.598128827547834,2.046679531970978,1.3563424460894202,0.8508936819603585,0.5064133558022854,0.31674998345389394,0.18748687638248804,0.13814683513369513,0.08499552281158346,0.055963249483465684,0.03275753499284856,0.014403470738756948,10.96810491403935,8.9252615028235,7.51872886269108,5.865864204250921,4.352212290546704,3.4898915716143804,2.466980441302147,1.8904430221135278,1.3567484262642058,0.9052762534842542,0.6978189850671956,0.4948524980331388,0.31297920552562347,0.20394819884870147,0.13616231887766528
0.0,63,63.0,0.0,121.0,0.0,0.0,0.0,0.0,-90.0,0.0,-45.0,0.0,0.0,0.0,58.892325333327804,19.630775111109287,5.912593070402832,4.368100791730603,3.425079076119504,2.562242559415065,1.7997707942950032,1.2392693532327574,0.8383678607422853,0.45958646883654203,0.3184152797667404,0.20856099515984794,0.14119622583579663,0.08311507007569695,0.053016071759027096,0.03214309308665412,0.016712950977475,9.661370065445539,8.95599459131475,6.4167953760822085,5.771224910886084,4.8272422149246355,3.435716948055462,2.5307266432285696,1.841804571458778,1.1410864125755338,0.8915861202891769,0.6288754171539666,0.43271556791293636,0.31624775016376194,0.2227890282630149,0.13217558119652797
0.0,64,64.0,0.0,121.0,0.0,0.0,0.0,0.0,-90.0,0.0,-45.0,0.0,0.0,0.0,58.892325333327804,19.630775111109287,6.1036760971550335,4.48754649189904,3.5967137745892455,2.5857314035154033,2.028687896389825,1.3011533012762981,0.7879671817854313,0.542513140977607,0.3065159475676897,0.19542794905075397,0.13342069317762661,0.07222352060089943,0.053929793383382725,0.03063653262914169,0.013915885954308734,9.109277104554604,8.30829617224452,7.230402850380993,5.329259469650115,4.870647318436166,3.106957327680261,2.31664054387073,1.7459931609424209,1.3241909520033128,0.9009785992845547,0.6340978103703774,0.4591052694112635,0.34292243021315755,0.21128419078481697,0.12465090691258698
0.0,65,65.0,0.0,121.0,0.0,0.0,0.0,0.0,-90.0,0.0,-45.0,0.0,0.0,0.0,58.892325333327804,19.630775111109287,6.495656726971259,4.139787722733078,3.7352157482164214,2.850950951907532,1.9965725191927026,1.122065605267412,0.7799065080751155,0.5033009634145366,0.2998959495002602,0.2080594166945693,0.13811316629389536,0.09176048676116129,0.054158149921686695,0.02797847012325677,0.016119892750012556,10.804717198476146,7.885258685216634,6.91115673474821,5.795567102980872,4.911702102081028,3.568838835599637,2.587508174151034,2.025063695193116,1.254563866923937,0.9570217485206782,0.6382319059445348,0.47339934880612694,0.3246132678683875,0.21715051279276637,0.13316320402898657
0.0,66,66.0,0.0,121.0,0.0,0.0,0.0,0.0,-90.0,0.0,-45.0,0.0,0.0,0.0,58.892325333327804,19.630775111109287,6.120261496884259,4.7618325081704835,3.720538936419101,2.9355943997441125,1.8863443408575455,1.231166720074652,0.7908119273383303,0.4354130597040416,0.32276006667433954,0.20829396261575872,0.1447560445767481,0.08772371182647401,0.050496479283360186,0.03205328344011969,0.013010090901476888,9.259030791969234,7.888488304126694,7.220785386847301,5.5170507294792674,4.5963602390249845,3.8749993947298123,2.680264777823092,1.719291200705485,1.2989584630663151,0.8434749050897659,0.6629944596950216,0.4538507132012085,0.2884757321815845,0.21198553040865117,0.11948043949663692
0.0,67,67.0,0.0,121.0,0.0,0.0,0.0,0.0,-90.0,0.0,-45.0,0.0,0.0,0.0,58.892325333327804,19.630775111109287,5.644708693877281,4.589031374949541,3.7186833292232415,2.6155695168942117,2.0531785020945197,1.3599811579651044,0.7382462209507763,0.49567296836590097,0.33322023931781036,0.20390522450367124,0.1313434850304398,0.0846111132305941,0.059740677371231,0.03183316817673309,0.012544066293663867,10.271871117762506,8.083745857872588,7.033623878625079,5.996718620893708,4.29289478139406,3.5925269920986773,2.6544778837216394,1.7465175362567547,1.3382983924598206,0.8665217848001756,0.677776736808745,0.4853845511854199,0.31627718612000016,0.21830924468082796,0.12925193798484455
0.0,68,68.0,0.0,121.0,0.0,0.0,0.0,0.0,-90.0,0.0,-45.0,0.0,0.0,0.0,58.892325333327804,19.630775111109287,7.2821493981160215,4.321030050457305,3.575422628229924,2.7025886613440453,1.8838034423590813,1.2725471937825215,0.7943082605594843,0.5725227207337024,0.289072682651936,0.20095611218526238,0.1212834433674641,0.09705857930357292,0.05224673652693185,0.03080380347156913,0.019186156744779005,9.914159890875297,8.258239338672421,6.301765908875191,6.161041098976122,4.380038974887018,3.572573036054766,2.5687982041020416,1.7710071947871444,1.2518191557566036,0.9018326882094312,0.5901649788467618,0.4471339957261561,0.29784569318966647,0.20922037517243486,0.1286944488759577
0.0,69,69.0,0.0,121.0,0.0,0.0,0.0,0.0,-90.0,0.0,-45.0,0.0,0.0,0.0,58.892325333327804,19.630775111109287,6.792837125989706,4.889856764017977,3.5039175741179966,2.655784391198609,1.9146044375227085,1.3914468504092559,0.8086364824651064,0.5375733949333377,0.34395842027676954,0.1928429730290917,0.12874941015470434,0.07837426187737345,0.04776969825972707,0.03105393872544806,0.011721063780104722,11.011956610135675,7.779193956899993,6.862379293717292,5.64338723714828,4.637881437191595,3.5914463441282756,2.5244360533860153,1.7792177831579714,1.2348878237032368,0.9260598233248544,0.6225088692942317,0.4481579850459364,0.3124896172162723,0.19695587229640174,0.13005113100052007
0.0,70,70.0,0.0,121.0,0.0,0.0,0.0,0.0,-90.0,0.0,-45.0,0.0,0.0,0.0,58.892325333327804,19.630775111109287,5.78285137834978,4.500060138359039,3.6136327048267,2.742903425136643,2.0371117609597746,1.3523170033399388,0.893727548924135,0.508861606179727,0.32331279116087286,0.20071101479325126,0.12349904833087284,0.0912413538275737,0.0519138271295687,0.027370452316954653,0.014728449588470062,9.382954241968287,8.039623962009662,6.902041434483568,6.021976786126231,5.012396435175417,3.467863840530193,2.4067596258681503,1.7709392113772628,1.1363726177990798,0.8728926154612386,0.6241417855327467,0.45451369742781633,0.3273377918031985,0.17540410488595953,0.11711185970544966
0.0,71,71.0,0.0,121.0,0.0,0.0,0.0,0.0,-90.0,0.0,-45.0,0.0,0.0,0.0,58.892325333327804,19.630775111109287,6.2526051599491,4.209070745992613,3.516022378262278,2.655754889233811,2.041269427457035,1.2304454862322616,0.8803185448162543,0.5165037205451809,0.3241661683160566,0.21108390266300053,0.12157032485696312,0.07697535035818094,0.05433897627055789,0.028366394530940933,0.015823039013354086,10.547673245963487,8.06023648232056,7.343966054456603,6.23265770894103,4.655990742795526,3.625554208502316,2.4955581002687537,1.7931806792973888,1.259351058057245,0.8811960522294089,0.6298908341166549,0.4474537978018122,0.3005988088615963,0.190878530294722,0.11685702986319407
0.0,72,72.0,0.0,121.0,0.0,0.0,0.0,0.0,-90.0,0.0,-45.0,0.0,0.0,0.0,58.892325333327804,19.630775111109287,6.346176311313755,4.27882970775683,3.45717206765769,2.6750925231932112,1.701927229925195,1.3440869158730755,0.8274416172049408,0.5281637295815563,0.3299386813749738,0.20837240099821233,0.12545000909096338,0.07726464016197993,0.04367188333581436,0.024897398370779263,0.017020848924064948,9.224533794794565,8.540499606783344,6.625592475184643,5.920660606591582,4.462596024408381,3.538394278592635,2.7220110071718544,1.9153913862887044,1.1810046363499134,0.8800766442014621,0.5944478958303879,0.42211729060316594,0.2875731545369868,0.17525712497945228,0.12675141966033043
0.0,73,73.0,0.0,121.0,0.0,0.0,0.0,0.0,-90.0,0.0,-45.0,0.0,0.0,0.0,58.892325333327804,19.630775111109287,6.2303628033013405,4.681405287295638,3.8611352512280157,2.5528675088812873,2.106481961676856,1.3422394718185708,0.8114730440449345,0.497030911877891,0.32598848101936373,0.19208015033349443,0.1281529453905937,0.06785657701745945,0.050901710275978986,0.02897901516405196,0.01803029691933762,10.380638292654464,9.079284721158668,7.494341538924968,6.138819671861954,4.299092195843906,3.530968450511728,2.662344162748834,1.709878566494997,1.2621236829363673,0.8433331598068092,0.6160506613059785,0.46362191723676915,0.3038273602767866,0.1783747638962283,0.12284165124226189
0.0,74,74.0,0.0,121.0,0.0,0.0,0.0,0.0,-90.0,0.0,-45.0,0.0,0.0,0.0,58.892325333327804,19.630775111109287,6.75736552412618,4.412073492970186,3.6285025877273753,2.701273377520024,1.9789076468475322,1.3520020229592726,0.8651821400691805,0.4847569492640511,0.3143202033934699,0.18611336480695226,0.12345160549961409,0.08194817061836136,0.0486200883985077,0.0253747327843578,0.01565466516764148,9.656884584377337,8.356232125626459,6.399019644046617,5.903173509853806,4.623520642469972,3.6067023370443296,2.5482998164640422,1.7073165294314168,1.0951375555715883,0.8901719526755854,0.6222928008946551,0.4490856261321679,0.28704233293136344,0.19730624392215587,0.12314402565758002
0.0,75,75.0,0.0,121.0,0.0,0.0,0.0,0.0,-90.0,0.0,-45.0,0.0,0.0,0.0,58.892325333327804,19.630775111109287,6.463714252803041,4.643028219340502,3.4116431905278497,2.776637633815289,2.0128368246815533,1.3937637595692312,0.7778818443582037,0.49391393157015423,0.2948670386651007,0.18479240981224368,0.11514094732505811,0.07725930087132955,0.04590752520013656,0.025850378843257957,0.01796830179036816,10.092198978026671,8.334311208982118,7.2587375758988575,6.142342316830144,4.836780804532598,3.30675792274195,2.619363954500743,1.9589127680412104,1.320305979253906,0.8613783905256451,0.6116589141480935,0.4434380109437305,0.29522410079417516,0.19580510639840976,0.12260759884686971
0.0,76,76.0,0.0,121.0,0.0,0.0,0.0,0.0,-90.0,0.0,-45.0,0.0,0.0,0.0,58.892325333327804,19.630775111109287,6.015116398228692,4.804551532007934,3.4696543255475,2.8071870121002642,2.109709556731355,1.39262822358804,0.7730836793913266,0.47759398405368403,0.29464062401069363,0.19016742542574033,0.12634407901753725,0.07206133902963696,0.041507684378244494,0.027627278124249366,0.016151053481861553,10.663001090335099,8.36294908380125,7.1700507032448755,5.69108593277424,4.610817513158424,3.582690468564048,2.4366989706591964,1.7911705663051198,1.2454773680773228,0.9191399170820537,0.6345648940077075,0.4236805885801235,0.29076886261526197,0.21801357079593334,0.10698635834679932
0.0,77,77.0,0.0,121.0,0.0,0.0,0.0,0.0,-90.0,0.0,-45.0,0.0,0.0,0.0,58.892325333327804,19.630775111109287,6.1051449027279805,4.48000982811659,3.4335118138166125,2.5341359144699647,1.9606586155332901,1.205962397039761,0.8643535392628909,0.5327401818664439,0.31215730846383183,0.20516587413509868,0.10586038843684595,0.07849178778989363,0.04322179681369211,0.02696151784152483,0.015355165826505302,10.3789493248184,8.226561458267168,7.424870300396034,5.32165909530435,4.690399928788166,3.6145348599313083,2.611274872463094,1.8958788674496267,1.226560554585516,0.7959939588263039,0.6275191688452642,0.41756681595063905,0.28001076106640266,0.1948690676460459,0.11625662979768497
0.0,78,78.0,0.0,121.0,0.0,0.0,0.0,0.0,-90.0,0.0,-45.0,0.0,0.0,0.0,58.892325333327804,19.630775111109287,7.102672157675842,5.000956234940981,3.551939112216611,2.666326740834793,1.971645068088733,1.2859260708587523,0.8417730449890062,0.4459323004439554,0.2832205245259351,0.17632279221106348,0.13155326097745185,0.07595188171466842,0.04779404435824071,0.02109481409059563,0.016158661404678386,11.518488267120665,8.730871437500278,6.9411011286770306,6.248271852903748,4.474091897376753,3.7007648870220895,2.1746357501766282,1.8773079600274016,1.2934300949880395,0.8679625699648621,0.497594013424221,0.4200469153874335,0.3018477221550924,0.1894256120739527,0.11844878100875526
0.0,79,79.0,0.0,121.0,0.0,0.0,0.0,0.0,-90.0,0.0,-45.0,0.0,0.0,0.0,58.892325333327804,19.630775111109287,6.438354017588264,4.524735409104493,3.4633624799776817,2.7181232604704566,1.9443373439764586,1.2175085631439961,0.8308801138959873,0.5369723219741874,0.3085154579807127,0.18893708283636232,0.11219799389260465,0.07838344089528868,0.04203629993291669,0.027145288330109346,0.012317751598516235,9.373680229989981,7.465547449748169,7.573328858139544,6.135495536535869,4.672426771191534,3.5631246719494767,2.5292816044533595,1.894735928273747,1.2609858949388082,0.752542205399261,0.600929234126511,0.4259190501021027,0.28062405441019583,0.18055036857118226,0.1148845402200312
0.0,80,80.0,0.0,121.0,0.0,0.0,0.0,0.0,-90.0,0.0,-45.0,0.0,0.0,0.0,58.892325333327804,19.630775111109287,7.094650512751969,4.31121026290352,3.501166383517855,2.737301814229965,2.1329959827534886,1.3748749732146746,0.8195642984192589,0.5137786964274947,0.31045899542395217,0.17718031360000067,0.118642025738641,0.0731104827526817,0.04326175707107738,0.024976068289003235,0.010421440456128316,10.754360835097966,8.18960280753205,5.845675901438158,5.987843761899341,4.419885798791022,3.6907921352847466,2.561317883464847,1.7307394303267989,1.076291037935553,0.8270905316973765,0.5604208663089999,0.4275237770101924,0.2763090142815653,0.18529603955013804,0.10699116745510268
0.0,81,81.0,0.0,121.0,0.0,0.0,0.0,0.0,-90.0,0.0,-45.0,0.0,0.0,0.0,58.892325333327804,19.630775111109287,6.901030142046702,4.7456455195169545,3.8770225351287073,2.775771398418297,1.9623152514302509,1.2150265392508004,0.8214734015382874,0.4667036255737801,0.29310728096169464,0.19644321429706918,0.12400885982947885,0.0739865229628975,0.04591246075990063,0.02873523962080366,0.01470020942633786,10.156788819558766,8.09620418061217,7.222817399015432,6.2873227085619146,4.59868028202915,3.533190085683609,2.5443184993557377,1.8608892115552138,1.2057961727501587,0.8520067525332602,0.5840969487941498,0.4658392575617182,0.27568945524023486,0.1774586156348482,0.1134081603871383
0.0,82,82.0,0.0,121.0,0.0,0.0,0.0,0.0,-90.0,0.0,-45.0,0.0,0.0,0.0,58.892325333327804,19.630775111109287,6.499533270751945,4.857695060292272,3.824486528686642,2.77607872956951,2.0594333259223325,1.4213455763537672,0.8870197474764228,0.4751794107837957,0.2771136925284702,0.17475381162458056,0.1230786812798003,0.08084232551425286,0.04580647205756245,0.02455412595764918,0.012746032376569415,10.671122401343723,8.645395238016931,7.2563626619704324,5.85879331283948,4.745656086394229,3.625200594206214,2.3713429277705957,1.9184677151559055,1.2474731017269787,0.9067001708560982,0.5603956800206698,0.439361129119722,0.2653724977691317,0.1842752592840136,0.12228192320137943
0.0,83,83.0,0.0,121.0,0.0,0.0,0.0,0.0,-90.0,0.0,-45.0,0.0,0.0,0.0,58.892325333327804,19.630775111109287,6.683956671748661,4.46118996782733,3.581062882193927,2.6652062498791693,2.1100960724979356,1.3537768345840462,0.938209431999444,0.480044227699295,0.3125634144696848,0.190799297924619,0.118099785053673,0.07290183543403862,0.04868482994058577,0.027376202973642978,0.013469556093741213,10.71541069329729,9.0672225149281,6.600596170937225,5.805657433913705,4.936818102275055,3.7423113428727905,2.393941150691052,1.6746835501593413,1.2078750168253543,0.8271305249798837,0.6272630918700743,0.4392748289354943,0.2809587680563979,0.1888202954887209,0.10947354146094437
0.0,84,84.0,0.0,121.0,0.0,0.0,0.0,0.0,-90.0,0.0,-45.0,0.0,0.0,0.0,58.892325333327804,19.630775111109287,7.244922578970748,5.1218174183094956,3.917038233020545,2.984275446123689,1.9538730766827053,1.3800524106276495,0.8066664013059899,0.533225272814074,0.3075130482469083,0.1882129007527281,0.12832865070288768,0.07383997375613328,0.040539212392841716,0.027765383335702446,0.013532981458072905,10.3754597639446,8.444377895391872,7.1595401240767576,5.597120251003569,4.17183948604814,3.5946020467391175,2.5830463187405375,1.7748714874253457,1.1414713672346073,0.8497957451372774,0.6054302825586566,0.4312665987005819,0.280388948617029,0.19686521658079748,0.10764535232852505
0.0,85,85.0,0.0,121.0,0.0,0.0,0.0,0.0,-90.0,0.0,-45.0,0.0,0.0,0.0,58.892325333327804,19.630775111109287,6.5123641995387,4.37791232227235,3.3427854334681335,2.763503927672206,2.014977834820244,1.3221824234670756,0.8502692092607499,0.5117212439433303,0.28766583456907513,0.19565375434701812,0.10970358061733004,0.06835531550716956,0.040286939779735534,0.028084716860650408,0.019344700320602697,10.121814035391031,8.596740723677883,7.389852584506771,5.989574596996972,4.934566746049713,3.5854379423442047,2.3695865121142092,1.8058367361161443,1.1763431046118542,0.8461351476038241,0.6253883573479412,0.4104036969895242,0.29618802775687536,0.18210019263311206,0.10871621389603517
0.0,86,86.0,0.0,121.0,0.0,0.0,0.0,0.0,-90.0,0.0,-45.0,0.0,0.0,0.0,58.892325333327804,19.630775111109287,6.903522702707769,4.509649234872838,3.974645639171004,2.798753291123511,1.896983361052671,1.30117184955403,0.8604878889971123,0.5371864916194481,0.30678734895109566,0.19060188557663793,0.11005815889850883,0.06736056384369438,0.04375707168852758,0.025548594462569556,0.013965418911964017,10.439290859778893,8.511597607775668,6.751253575989556,6.028140048409286,4.581342023258562,3.6328148202332713,2.3243175594281027,1.827506489883963,1.200657481138595,0.8818427534419105,0.5425243747590962,0.4242696723787635,0.2730481567106852,0.178788306956797,0.10921637954381602
0.0,87,87.0,0.0,121.0,0.0,0.0,0.0,0.0,-90.0,0.0,-45.0,0.0,0.0,0.0,58.892325333327804,19.630775111109287,6.496617937577385,4.647103049706362,3.728872254985986,2.9162013520426444,2.0386938744645042,1.3673809548168765,0.9040502356939187,0.45998710464374826,0.30058142237834584,0.1856810303008527,0.120106280482175,0.06798003414219529,0.04317268738557006,0.02416254729414489,0.012816292050193585,9.998740631524488,8.108605943953526,7.109859247213746,6.4296541102577045,4.655459944397207,3.9098315966524493,2.5104202340194695,1.7797366252602616,1.1782145973079532,0.9042265214169084,0.592583528728292,0.3999765076209762,0.26273512172019037,0.1865315630216537,0.11045925930843421
