Line_number,Fiducial,Easting,Northing,Height,Elevation,tx_pitch,tx_roll,tx_yaw,txrx_dx,txrx_dy,txrx_dz,rx_pitch,rx_roll,rx_yaw,PX,PZ,S0X_time_1.086e-05,S0X_time_3.256e-05,S0X_time_5.426e-05,S0X_time_8.680e-05,S0X_time_1.411e-04,S0X_time_2.279e-04,S0X_time_3.689e-04,S0X_time_5.860e-04,S0X_time_9.115e-04,S0X_time_1.411e-03,S0X_time_2.192e-03,S0X_time_3.418e-03,S0X_time_5.339e-03,S0X_time_8.301e-03,S0X_time_1.338e-02,S0Z_time_1.086e-05,S0Z_time_3.256e-05,S0Z_time_5.426e-05,S0Z_time_8.680e-05,S0Z_time_1.411e-04,S0Z_time_2.279e-04,S0Z_time_3.689e-04,S0Z_time_5.860e-04,S0Z_time_9.115e-04,S0Z_time_1.411e-03,S0Z_time_2.192e-03,S0Z_time_3.418e-03,S0Z_time_5.339e-03,S0Z_time_8.301e-03,S0Z_time_1.338e-02
0.0,0.0,0.0,0.0,120.0,0.0,2.9244612703106085,19.389624089131715,4.845293128079096,-106.92944313554698,0.0,-44.92084181170004,4.47951432924429,-8.417606017347389,2.569842665436731,34.2040194976165,17.630926776418704,5.801554440948544,3.4382295977616937,2.2535044707561545,1.4934340623615787,0.8562404898340402,0.5077046655912029,0.25502210278267473,0.16131300464286713,0.09012889807288536,0.036044047162985746,0.022946078013450638,0.0033845893596133915,0.01373727311591099,0.01877752179284234,0.008661388013921325,8.44331650486542,5.9419278579188495,4.536510463049794,3.5339772589662326,2.321942982054666,1.57332091994822,1.0018845776557725,0.6459206441908967,0.43988642111043447,0.25208957197786097,0.15344537491041657,0.07951402116153693,0.053609872469380294,0.015963941576961377,-0.009352977592069718
0.0,1.0,1.0,0.0,120.0,0.0,0.288323867872073,-22.228827309415998,2.5860978366750835,-107.16286201330423,0.0,-44.65531235190298,1.0424520233782868,-1.8645392713204227,4.595090253582178,34.2040194976165,17.630926776418704,5.809182625418979,3.332232362524688,2.2439540218466023,1.455187114299967,0.8365163840898424,0.47994144813207307,0.27793162532136023,0.1532384489859258,0.07603107481839559,0.03819098881244428,0.02904756583172225,-0.00324774544102782,0.0020056489113386934,0.011035338815701396,-0.0021054080493315363,8.311524723664325,5.802961350418698,4.655205286024576,3.2612013214289077,2.322117002099367,1.5936312531528332,1.0138833415319664,0.6377047593278692,0.4079976742919498,0.24976036730480464,0.15651353885271083,0.07743555664673465,0.0314131663144821,0.03206240914500287,0.017793502661050627
0.0,2.0,2.0,0.0,120.0,0.0,1.8234247877253313,16.07570992743524,-2.620629947668796,-107.04212499814398,0.0,-45.10597015798801,-1.8448313765513187,6.459106936252319,1.520064994786888,34.2040194976165,17.630926776418704,5.916014707754893,3.3100796681477327,2.222833826259034,1.3845654066264839,0.8186537285174308,0.463632738982044,0.2481692549988606,0.13989900159921356,0.07963716023378783,0.05715341097215128,0.018417366130697256,0.02182089224227072,0.019632872804000782,0.0016359359321494321,0.002609956283229982,8.006832858710586,5.586089966239944,4.343691224313976,3.34481908218437,2.3011271898343533,1.5570801176668907,1.0097354958819087,0.6445208497568922,0.3818262548380391,0.2545197233304803,0.14848172241097052,0.0773709519055591,0.045126751257209136,0.02707591081114938,0.010087021814532065
0.0,3.0,3.0,0.0,120.0,0.0,4.964338504322008,18.231220697887572,-4.86812931849482,-107.23850391860786,0.0,-45.17081927714412,-2.2865779133796527,-9.45035693865947,-3.1635015747536457,34.2040194976165,17.630926776418704,5.927575613327315,3.3128827107924814,2.1693355666439267,1.3988614977034708,0.782371002618962,0.4630740989066422,0.2503388434150228,0.1276430241818292,0.06791443266190353,0.03922983199395223,0.027335746246116902,0.007991223035370296,0.0006782653760621436,-0.015463747262096296,-0.001939918194753888,8.144012746587205,5.8020823305078455,4.42977780118546,3.319506332222912,2.253841165192502,1.5174921844818021,0.9542244817706758,0.627783822863851,0.41779079687464515,0.2265263616055478,0.1407482773130256,0.09415773748694235,0.052102500688342344,0.04249824702555109,-0.0027931841170204426
0.0,4.0,4.0,0.0,120.0,0.0,2.7659575933023213,-21.669968337235357,11.4560007403146,-107.14739389889914,0.0,-45.59816893339483,-2.993535070994451,3.460054257379584,2.4900786917279083,34.2040194976165,17.630926776418704,5.651053236005593,3.335648708122483,2.1363747912079667,1.3725338824605113,0.8025175352120415,0.42015283161140554,0.22903270248862964,0.11336101395489068,0.07140413218017537,0.02482306145292714,0.029285617075426713,0.0040585891815877375,0.0010479788658140968,-0.02163649726283275,0.00024033593758353012,8.117038795517269,5.85846344305833,4.350491041492661,3.3237366855611907,2.267654594201976,1.4506612873630778,0.9549869179239092,0.577760625057976,0.369484932800183,0.2415236151824436,0.14685509837918623,0.09455246578217119,0.061286792268473694,0.0333424154414597,0.016580025923927138
0.0,5.0,5.0,0.0,120.0,0.0,2.5486855083533317,9.68396458467457,-5.136945095673266,-107.10126339268128,0.0,-44.664152383097004,-3.0715925283200955,6.751275896210505,4.042054447665006,34.2040194976165,17.630926776418704,5.755339399745517,3.3144244394609848,2.1161016390555507,1.3912086822697494,0.7635070487736597,0.4543397092036789,0.22824197881041272,0.14142191586433603,0.0697127867886019,0.062417895470772033,0.022169603239868794,0.018391311857651298,-0.009884619326611261,0.020605928338272586,0.019626820536999656,8.531894458155005,5.679563433686545,4.336666911263549,3.2469537094170726,2.18226703521051,1.450502347157798,0.9085415568527548,0.568850019323323,0.3797670691506166,0.2255000731936597,0.13142868682066738,0.07890741749724474,0.05577874020676514,0.007543761323448039,-0.003983599904710075
0.0,6.0,6.0,0.0,120.0,0.0,-7.155966607710306,9.2404669538491,-3.0275289680652495,-107.473375527041,0.0,-45.10760551020164,-5.377003483445905,7.118819890235759,-1.160633350862963,34.2040194976165,17.630926776418704,5.770079063634397,3.16925471924723,2.2647444014736537,1.3573917791746077,0.73819903252128,0.42928575180999057,0.21789063630519323,0.1311562901714281,0.07183802282243974,0.05126095639205602,0.0145489819105759,-0.0011778388443066702,-0.0006502938735131001,0.018317050843982965,-0.005779490521429107,7.8048094867541336,5.747635851165481,4.3708914905965495,3.226499926275839,2.1526467376632272,1.3835749555252579,0.8715713375009918,0.5684348047691267,0.3657878136273118,0.259646556729953,0.12403739053404422,0.07647966943549023,0.037437185253124665,0.023604094109347336,0.002711025279498014
0.0,7.0,7.0,0.0,120.0,0.0,9.206269912613624,3.7228166401772853,-12.955132009917815,-107.06482060019873,0.0,-44.99734555394407,-4.814581619651495,-8.60582272630943,-1.0735772032190685,34.2040194976165,17.630926776418704,5.875981240772913,3.305272842624616,2.1977541069842905,1.2866677688812294,0.7320040309532316,0.3789695186387015,0.2094639109174416,0.11125084303116535,0.06765750060863696,0.022537860786180933,-0.00251024949054289,0.015572505781454943,-0.019061189730745928,0.006116033290602527,-0.003851908978084119,7.830810038759778,5.8107404389419335,4.429192680074509,3.0700382344618173,2.168141474605173,1.341711614947352,0.8549403174224445,0.5304858852378287,0.3381611289586761,0.22464459906769282,0.1276458964521891,0.07937920857131894,0.05615268267838702,0.02567531584443257,-0.01030399452345916
0.0,8.0,8.0,0.0,120.0,0.0,0.24267716489918278,-13.163519408798141,7.756256505480518,-107.1391054502639,0.0,-44.99525063769735,-4.18434587172034,5.408850204761276,-3.6460195344623694,34.2040194976165,17.630926776418704,5.798475613155074,3.3140475934607245,2.1233699858585804,1.2849314201582385,0.6964400102863153,0.39623011779839656,0.20091440809723546,0.10485610332115193,0.049528655003834646,0.02315712270752787,0.019833139063044215,-0.0011687073744143517,-0.009279114521029284,-0.014743829257917854,-0.014284775381627325,8.301256935152972,5.85863222163669,4.251001387563954,3.151349803790376,1.9947813492148903,1.3342578937669474,0.8380695518906232,0.5446860103298206,0.32096667945142016,0.22266783302690968,0.13533770552290372,0.07137720949407314,0.04963336884153695,0.009879316757757002,-0.007462562060863608
0.0,9.0,9.0,0.0,120.0,0.0,-3.9076519990742264,18.330493460384304,-8.414580402349817,-107.13303416303508,0.0,-44.967103047079874,-0.7351102242360277,9.883649715481695,4.772217530488929,34.2040194976165,17.630926776418704,5.885515826869022,3.334472749418956,2.052042177955124,1.3354633527957462,0.7163026169122555,0.37095748773485737,0.2092077307903157,0.10650203895972882,0.06544824775139696,0.028592657648949135,0.009229418063314277,0.0005781520870989446,0.008270115926576166,0.010612443726302568,-0.007646892615704215,8.20749100085914,5.663816493539079,4.290360432859641,3.1325546283807397,2.0808411724711924,1.3210208547748252,0.8554489311001435,0.5281063568644938,0.34528508246622025,0.2037558210858813,0.12593131658543102,0.08293293642823084,0.056521572779059975,0.022373016209312424,-0.005025252906322549
0.0,10.0,10.0,0.0,120.0,0.0,-2.9981477955998663,-12.016563560789727,4.715013970136738,-107.0902683894259,0.0,-44.9399970012918,1.1562573354070638,-7.849222638640445,-1.5065410334865783,34.2040194976165,17.630926776418704,5.837005290662833,3.308367131605447,2.0860614022630735,1.3074721333394508,0.714892678100684,0.40266814164131665,0.21899939030211035,0.10829349890479154,0.056605881413645844,0.031890807193984794,0.014476791179847577,0.013228482479466792,-0.00447852065937698,-0.015006868028101769,-0.003805663615442586,8.181234388553307,5.670490410477284,4.324632143430164,3.034411012151361,2.00804474259459,1.2751680913584629,0.843007757278681,0.5234856260902503,0.33888580439845783,0.19316079354645224,0.1345409094110581,0.06938955225632056,0.02788482473465155,0.024752166456223034,0.006822238475010388
0.0,11.0,11.0,0.0,120.0,0.0,-7.080644201004221,-3.759803681557184,13.353778697405957,-106.81211830062459,0.0,-44.91610895990462,0.9131181631955639,7.524031351161302,-1.1112437593758475,34.2040194976165,17.630926776418704,5.808007014644763,3.2919675203266747,2.0873646009908953,1.2172850464896117,0.6847107371793965,0.3782185632331557,0.18386723474252087,0.10355770169255211,0.0654247154694423,0.016881046094232723,0.001462873359668897,0.0049598703796319525,0.0037568187531064764,0.012975241658769633,-0.005427321657315306,8.012878692377592,6.029294811237339,4.213269119144639,2.965586178437479,2.013157101069525,1.2743345599068312,0.8048966621342369,0.4867372776314406,0.33013308034901556,0.21493339392928362,0.1112024116444485,0.07857975469162169,0.04395852800764354,0.017804561568440777,0.017335904867661043
0.0,12.0,12.0,0.0,120.0,0.0,-0.33139246791860444,24.502921491483697,5.7806146884530385,-107.26161726131123,0.0,-45.101816512668194,-1.570567992491301,-7.621252183484906,0.6736031827900968,34.2040194976165,17.630926776418704,5.691583105251618,3.3137295938176177,2.027440476114438,1.2216472003747563,0.6964778285960708,0.35247242119582384,0.19473073052355586,0.1012223202164036,0.04382880799682035,0.0667003238559647,0.01869040586131376,-0.006284637781579969,-0.005965770502240979,-0.013507209091276461,0.014775295859477417,8.081104406702769,5.581714770277463,4.249370061511031,2.9656831475531815,1.9419083123707177,1.1977163556871568,0.7854042438017939,0.483807316077895,0.31736930318266066,0.1929254933578971,0.09114443354691225,0.04567075205728091,0.03954010914827426,0.023636184631864312,0.009162811002494805
0.0,13.0,13.0,0.0,120.0,0.0,8.65613656371287,-24.288246807469655,-1.1950288594951992,-106.93442767541687,0.0,-44.75240416806736,-2.3131368857824,-9.569418289174314,-4.399707116673545,34.2040194976165,17.630926776418704,5.738144031444589,3.2320758119003465,2.1154462392020585,1.2548303370678568,0.6524127628816367,0.3346117811106235,0.16584694662838814,0.10866470585084707,0.04022293787518902,0.021461676099410507,0.013827898126389262,0.0017917813605733994,-0.0045304085903915825,0.003377507645801026,-0.0015684725849427514,8.37262574311669,5.698867364569296,4.265712745011733,2.873557912012359,1.9125003406664425,1.1906673492225457,0.7710523642312193,0.4847909649217413,0.30847348363751825,0.18948103794356097,0.11651418580482531,0.09508860505233872,0.029610161139055617,0.028027598793422537,0.011390292330309654
0.0,14.0,14.0,0.0,120.0,0.0,6.247050160319727,-16.225595960161073,-7.087280038303842,-106.50307785204954,0.0,-44.956024509121235,-3.699316545562638,4.189713027823183,-0.24824164263330495,34.2040194976165,17.630926776418704,5.751324386486323,3.317010573041066,2.0773632601322984,1.227183021563921,0.6285828292228699,0.3555666077172391,0.17195405557404705,0.11227232264099386,0.037421514089079747,0.018668282468340312,0.017338304070905187,0.015593722247198516,0.0034876220603400616,0.009115970163163376,0.009810455368493039,8.26087769063547,5.60442877771831,4.163106092977503,2.9770208765852995,1.9098491127763257,1.1709633066278122,0.7368771426409313,0.47288126893171006,0.2949629263088691,0.18718506428368825,0.12193022918109296,0.08445092728109821,0.037404466160813075,-0.003381203652599144,0.002355625909145771
0.0,15.0,15.0,0.0,120.0,0.0,6.245121685252936,13.960674979016062,0.4606285405233983,-106.91079338453979,0.0,-44.7088912580672,5.0905124869651175,-3.437419598638738,2.67888988763713,34.2040194976165,17.630926776418704,5.786318697447282,3.2481804231189817,2.0260331525175346,1.2020877984526233,0.6377430358291032,0.3382699093229583,0.16912088718835122,0.09236673071530586,0.043893030280126165,0.00012873081850206872,0.009749466321642992,-5.64970119109557e-05,0.012032331738906894,-0.004336249489368978,0.007145719115981794,8.097503437576922,5.622117464459765,4.034656929443678,2.900433608958957,1.8413736270607184,1.1903403842551583,0.7363750579820771,0.47630107532514854,0.28277453847853573,0.19534741663013763,0.12556116066335316,0.08448063521059627,0.054959738539367725,0.03188963030853762,-0.0027105666626896785
0.0,16.0,16.0,0.0,120.0,0.0,3.078729246849072,-12.791259944883643,0.2456978669203913,-107.18363364957807,0.0,-44.97498646456019,3.729072987202551,2.000548441103726,3.6622214282997927,34.2040194976165,17.630926776418704,5.76595966049032,3.019949640036171,2.0826209519781242,1.1594950090275313,0.6213475824165836,0.28293826063118904,0.1349571744116886,0.071360742679715,0.056801049573304147,0.03812782214914209,0.001250192707502984,0.025105476827691778,0.0032465479266780197,-0.004052115416219904,-0.006708667537044041,8.47722541095707,5.621690471278657,4.0986013505720065,2.9973597236343434,1.8208972192723294,1.122834310214102,0.7180638591997083,0.4757970754528708,0.29034026397351925,0.17334410532640918,0.09652836098111084,0.045863163004317385,0.05036130857835537,0.026240703326640077,0.016670967743474773
0.0,17.0,17.0,0.0,120.0,0.0,8.460824339468513,-5.732383243369082,2.9847567518260085,-107.0048878848739,0.0,-45.11700203376515,0.3433990102869457,-4.838694605798295,2.9916535238259474,34.2040194976165,17.630926776418704,5.718740970092652,3.130771019866984,2.0368718190183834,1.1549960957675578,0.6123336015810872,0.2871271659284946,0.1562703333139162,0.08464621863628999,0.0412011672614897,0.002662668721086628,0.026068306465639866,0.004178938644706405,0.014429870527342927,0.0047116715156644545,-0.00012361297872990088,8.224954488933085,5.545536900932596,4.190748205308122,2.910691969460582,1.7767442766064787,1.0882801965247204,0.6589576014894593,0.4644416715768939,0.2993400068020306,0.16484711771121566,0.12126073567635588,0.0737351108230835,0.019877148407722776,0.016599979123635103,0.03023496948188137
0.0,18.0,18.0,0.0,120.0,0.0,-8.434699922483846,-23.57198052732825,2.0915481446505666,-107.34424563186968,0.0,-45.344768710067186,-1.8926839280725052,8.016226133024826,-2.2952139976933728,34.2040194976165,17.630926776418704,5.811238208318991,3.246852100741183,2.038729045576041,1.1712208297136626,0.6202221456578645,0.2898468018659538,0.15692330658942305,0.0999927870493233,0.049085199465009444,0.03866778446344762,0.02931914629668063,-0.007998429306844156,0.004572291237633235,0.006258137368875611,0.021911850949662585,8.228146870724022,5.533681447551287,4.223702962861424,2.939149506294617,1.7809915902995415,1.090567800534036,0.6984763023459368,0.43982322233363325,0.3029695832826431,0.16308702796757202,0.11067210504295256,0.07858474397506088,0.04594905027594799,0.039557427626899455,0.011627245387952572
0.0,19.0,19.0,0.0,120.0,0.0,7.621542318142858,1.2304601931344976,-5.016595026370354,-106.91757766084986,0.0,-44.91238053879039,-5.189024683228763,-2.9447534080262727,4.65032782434802,34.2040194976165,17.630926776418704,5.860145339358868,3.3390374937886707,2.038919732709635,1.1660301953432661,0.5941189990649378,0.2848055844714854,0.12809467283511963,0.07994500282487596,0.04151000305048122,0.023294779602618006,0.016449339930789578,0.004267785157603153,0.014570897570473529,0.008469804471370662,0.010169876109294939,7.669695203463505,5.320549306999642,4.1768263414011795,2.8030610726814995,1.8039579179150569,1.0905518909173224,0.6875532302310076,0.4232187589197003,0.2639408477985191,0.17810229230755084,0.1058127878612891,0.06889432357743612,0.044267050877894704,0.02856792181904224,0.0012560923446297764
0.0,20.0,20.0,0.0,120.0,0.0,-8.882155713678763,24.052199683683178,3.183204179839077,-107.06656303225073,0.0,-44.977194687467886,-0.43965381525942593,-8.245586856033293,-4.226864531232889,34.2040194976165,17.630926776418704,5.879244971929036,3.410683850144097,1.9453332174729536,1.1247457123083429,0.5538351293305332,0.27176611820105673,0.13872172128071392,0.055029163295849684,0.03908542780958761,0.0297990735580197,0.014773648460475127,0.007243864391161219,0.012301108516163374,0.01951535810402812,0.005384815495367119,8.297396701185512,5.337933866209095,4.1450339609939695,2.7959543824036075,1.7849125334064682,1.0658298901442533,0.6582970677181412,0.43600979000583895,0.28025942537754883,0.17294816168878216,0.1212774415807413,0.04962364178534355,0.04613753016409891,0.013391719204165566,0.0001883324871214849
0.0,21.0,21.0,0.0,120.0,0.0,7.249568522052392,24.335702294838548,3.83553262272126,-106.89237099380993,0.0,-45.17739694303776,3.1429540736604715,-8.341681247523516,-3.694652948215218,34.2040194976165,17.630926776418704,5.738607416506777,3.158231336867615,2.019134832531004,1.1495141967852405,0.5525214716024204,0.27920813253250454,0.14084995094072222,0.061576554468796244,0.051329361075172164,0.03824901178491026,-0.0012777738811438483,0.0022442448861333016,-0.02397698378532743,0.0004945431523387165,-0.015080112833013111,8.106999390033083,5.639320459447085,4.12490394824155,2.7132441168668917,1.7144607093484283,1.074271699958256,0.6533915289784973,0.4118980993540028,0.272828733513557,0.15742948404977852,0.09873471247702474,0.057179941687674644,0.03895111953036193,0.012238854092534793,0.006864992780494423
0.0,22.0,22.0,0.0,120.0,0.0,-0.15607656446739426,12.763063292249477,-2.82337152983326,-106.786497025231,0.0,-44.879364092526046,1.729418517877811,-7.214744060056506,-1.462671890471002,34.2040194976165,17.630926776418704,5.863204436716049,3.1552512335876925,2.066827168901164,1.092405503457856,0.5690694355404569,0.2761884939928416,0.13813659859199098,0.06840288683278502,0.06211784050944992,0.022023629384802648,-0.0008030494276042993,0.01422809450406683,0.0010885408494617642,0.0047090316438353815,-0.020527365960943157,8.188100224055033,5.619327882352641,4.130847731319944,2.8128999666827355,1.7386259091248388,1.0297869708224285,0.6119105897227232,0.41486468402858984,0.25984931995806204,0.1792726114828355,0.09064656406129754,0.05536589506380337,0.02624052370386654,0.02676657082820402,0.017269128189737686
0.0,23.0,23.0,0.0,120.0,0.0,1.2707783434076028,12.885116876221481,12.565757001145961,-107.00977056189244,0.0,-45.492688427066454,-0.7278161430625922,-4.327476537494153,0.18983679149631882,34.2040194976165,17.630926776418704,5.705401519975753,3.1045176207048035,1.9764896329789505,1.0747942261560701,0.5416712959301863,0.2588367578180862,0.12025581980692387,0.04190918683712855,0.028258807637966017,0.04208007945135811,0.010462268726279958,-0.0023898915741051114,0.015338996826170626,0.011797960889644582,0.007407555223572389,7.8115589418527955,5.759287047500057,4.057411921425351,2.820259941209731,1.7382052758617783,0.9973628010394007,0.600476773153177,0.38267143256789143,0.26508037852183547,0.15366555263956214,0.08635366394545918,0.07989501768334678,0.054140254890162304,0.02735971475726913,0.02068105390705962
0.0,24.0,24.0,0.0,120.0,0.0,9.950873432027723,9.137349618142132,-12.704336087071773,-106.92319580475602,0.0,-45.44345262085109,0.13782528017254542,1.1918558479737342,1.0877635019673138,34.2040194976165,17.630926776418704,5.594740561511325,3.184326485253404,1.8844947266587413,1.0770781902258348,0.5568524535863502,0.24927008503644635,0.12441011524737632,0.08057611870852266,0.052916491582609464,0.035875460299204597,-0.005758423506845647,-0.006899298344046203,0.01318218771251605,0.0035207559429997013,0.003593659129465559,7.9596241113624115,5.5905070550471665,4.150451527812136,2.7300446103926532,1.6889117568881866,0.9885268630152226,0.6084929208839214,0.3752315900348952,0.25278090282145527,0.1542427112933325,0.08750402819144716,0.06720162188947001,0.04222296645313222,0.031111764952699978,0.013741536242295328
0.0,25.0,25.0,0.0,120.0,0.0,8.23111564046619,-18.258393955591025,-7.950745404474649,-106.94354864989047,0.0,-44.68047366046271,1.4973462095665382,7.529265758024572,-4.593585231401752,34.2040194976165,17.630926776418704,5.684335779002981,3.1144102388565846,1.8960923882767104,1.0706256321016836,0.5315336231500081,0.2561157765585383,0.11532763943374275,0.056211349693026734,0.020819808482635,0.04017311383420415,0.027819553636598247,0.019841373174977715,0.017902926098773968,-0.005904298489741144,-0.0006492276645001689,7.839519294861136,5.475913301717817,4.043733548946687,2.6878820501711185,1.6932939850473925,0.9350520668171425,0.6014708563158719,0.38305543537423636,0.25372972741095134,0.15127797433344634,0.11187714200148996,0.04856736038998151,0.03341495225606819,0.02951529174143772,-0.00171826653486464
0.0,26.0,26.0,0.0,120.0,0.0,-6.004332204978109,-0.8041037910543096,-7.645459093180999,-106.83768927337918,0.0,-44.73227374288746,-1.77487910879711,5.8107971555172515,2.2699439692544114,34.2040194976165,17.630926776418704,5.934784636391634,3.0215624780961297,1.9300544428019561,1.0605134883787044,0.5186937667788164,0.2457956627647955,0.11555593315075059,0.06449483451221757,0.03435021052934679,0.03868798476286153,0.03752340424765805,0.01859379266060627,0.004286029648744742,0.004766579050035528,-0.007317480557302462,8.183006297611055,5.607018851308138,3.942517416794707,2.6736583022697586,1.650723254055798,0.9635962493174194,0.5998787955631409,0.38528908400059714,0.2445240577285268,0.1648439206564971,0.0923402841950329,0.049202166122104964,0.024933375137744736,0.003989149454210663,-0.002913375227575706
0.0,27.0,27.0,0.0,120.0,0.0,1.7852316483711732,3.006529506694733,2.0835704476356263,-107.52994711504621,0.0,-45.28950180338633,-2.5957673802797756,6.719728541688422,1.1052641180732161,34.2040194976165,17.630926776418704,5.600041097325319,3.129412788001234,1.887319603352654,1.0551193797536829,0.5165404611289379,0.23584374743599715,0.12011365163999979,0.07494646061215797,0.06604896999583483,0.028840836781818684,0.018561028979576944,0.02776483564440501,-0.00010482421462835317,0.024587818436773514,0.008138579223428173,8.134227576251707,5.453079795379636,4.099117872936522,2.7422189916553337,1.6770252196620488,0.9498488837409337,0.5562539219239303,0.3577552645775635,0.2348272905412281,0.14847039509643742,0.1096845417805562,0.05845186996807036,0.04731055024484026,0.012316272958915204,0.01422418785797833
0.0,28.0,28.0,0.0,120.0,0.0,2.2657636992047365,4.25931018161765,10.456753313072365,-107.1959352703912,0.0,-45.02034311540564,2.962413486158862,-6.625503946713776,1.7530180104591118,34.2040194976165,17.630926776418704,5.910116083276684,3.1432017022375014,1.9240048892805952,1.037984741653602,0.5052128902303956,0.24536916623746863,0.11419568300852831,0.05379559676453436,0.03857948247563512,0.013590871262415743,0.015814936805313252,0.018688981046129705,0.01799068097118751,0.024827174584589978,0.002797695297275233,8.273297665952157,5.642173646522243,4.005899293260781,2.738926081378468,1.629778538793653,0.9510849748694821,0.5458277258622932,0.35842754064579496,0.24686834507373795,0.1517209624873128,0.09393012053718831,0.04373005426264879,0.029409780892907925,0.028042636970374332,0.018369239516247807
0.0,29.0,29.0,0.0,120.0,0.0,-2.1961198408860216,-3.5644914564043404,-3.8308342413514644,-106.69040053850263,0.0,-45.340589208280676,3.8993512257076546,-8.543693335869499,0.44906637556699636,34.2040194976165,17.630926776418704,5.659068837488763,3.1895641923858307,1.8019036234814145,1.0491371858065928,0.4815926033168901,0.22979932952459622,0.11297909392218086,0.06272273514558505,0.02695820481484356,0.00851300524646023,0.030968700134050654,0.003008582174842364,-0.0004554833471471535,-0.00810773451387989,-0.013808839596143378,8.06581462710703,5.585996001656436,4.0272550648926835,2.5899186042965106,1.5859719630632336,0.8747870163585684,0.5520388177939841,0.3447815218739775,0.2382321727618547,0.16503685751199856,0.08772366856217971,0.048882753335582806,0.022934223921824398,0.015131655033322422,0.010484927124723048
0.0,30.0,30.0,0.0,120.0,0.0,-4.892887185760541,14.323314670534678,-10.061439969135364,-106.88223350568474,0.0,-44.91186143409551,-3.775960514053593,-2.7063349785724373,4.071721165978143,34.2040194976165,17.630926776418704,5.838641731581662,3.1136812221206314,1.7903094337823378,1.047914204778424,0.4773071082482855,0.23263621005470786,0.12012408865820433,0.07068721563144463,0.047557896865291154,-0.004840740691172227,0.020676689421455573,0.01570764112709417,-0.009920420092231992,-0.009681451973466097,-0.009154896185128443,7.8599813109824295,5.461046000800996,3.9199819964760385,2.682455979762546,1.575563995149931,0.9006011347774727,0.4624675424094531,0.338425880742605,0.2346098608154329,0.15710060132781326,0.07385929011360641,0.059705485265010426,0.04174599716050363,0.005709120585210899,0.007743832528057666
0.0,31.0,31.0,0.0,120.0,0.0,7.989534083213687,-8.229096343278915,14.230459914172123,-106.70679715883665,0.0,-45.177464620249594,4.135315343673064,0.8313254151997267,2.272379224508385,34.2040194976165,17.630926776418704,5.520112662915209,3.1092353178406,1.7853754832939421,0.9758576536392972,0.4840156767392498,0.20315355002628094,0.12727520964794423,0.05967433326057604,0.06261476187642731,0.0012921712408046973,0.003506911354433385,0.007361202159286997,0.008890107169294295,0.007285642384530725,0.0037440480261828986,7.912386642425079,5.480053043381017,3.8735143879707095,2.578548382895979,1.4928054338349313,0.8708369478914726,0.5193833470788304,0.32184478801188054,0.23644027985132374,0.16026485692263992,0.09808720595377231,0.05967880327763098,0.00944047851836815,0.024412773913153225,-0.0015570703855972805
0.0,32.0,32.0,0.0,120.0,0.0,-0.400584274589308,17.15994066485044,-14.703966958389078,-107.23767823693906,0.0,-45.33257392815436,1.9884754207131488,9.556236459363689,2.318049132556002,34.2040194976165,17.630926776418704,5.785487192276924,3.0553112972248435,1.7929899460894885,0.978958006464345,0.4777938267287925,0.19515367644977144,0.11266541027261628,0.04253437918121944,0.03352737524245657,0.04700257411351201,-0.00021598663820912578,0.008157852224904588,0.002908356341210337,0.015600568324067214,0.015034956954817118,8.042982376667517,5.5460140716906166,3.761671433528872,2.561120649008295,1.5242494352529061,0.8412608729705215,0.525884850842507,0.3514341804879039,0.2276642585709115,0.136077443694041,0.08195595916875564,0.05667342839892936,0.04339355437800672,0.013335483210582914,0.03271997222221554
0.0,33.0,33.0,0.0,120.0,0.0,-8.84678653835675,-24.541784873195873,13.728347395235538,-106.94208412627324,0.0,-45.26832037986283,4.418644035236053,8.302461927145416,1.0034909188595904,34.2040194976165,17.630926776418704,6.0510346548733125,3.1222885936063247,1.7927327585957669,1.0272550576844417,0.4700517830596487,0.204955140250794,0.0972800135823029,0.06480794303547646,0.04730282750169582,0.019781996496239244,0.025763181567307447,0.003691427500471424,0.0014612634194207186,-0.021084964820455472,0.00586682135270299,7.863168909490841,5.5498805368284065,4.043508002720303,2.5123104044740296,1.503061579397326,0.8279407367766147,0.5316889399135705,0.30575369622470233,0.19588415448776283,0.14142408229207246,0.09317056332011323,0.05940195941982235,0.021767697936647762,0.013851149651451095,0.01828714017864123
0.0,34.0,34.0,0.0,120.0,0.0,6.619952463102138,-2.462000926014589,7.93486239803347,-106.60370447569747,0.0,-44.82421929721839,0.05077193249857548,2.9207672243993894,-0.6410859667347566,34.2040194976165,17.630926776418704,5.76460661747486,2.9997560571069055,1.7760473402319585,0.9390678808413085,0.44701257924722965,0.22181410531566756,0.09883669010459724,0.05150788374793737,0.029915267548075625,0.004984542575911612,0.004111947917017967,0.00299173394646775,0.012473973224564547,0.0019631480681879345,-0.03995741233313318,8.250918368367264,5.479544771224604,3.801885432276113,2.459197063619561,1.4704072639176735,0.7827567991629699,0.47821507933304847,0.30940459710852725,0.19866011237418246,0.1292086361358766,0.10062306508997779,0.052909361391716876,0.04471656667861777,0.02129365641218342,0.005696320088125451
0.0,35.0,35.0,0.0,120.0,0.0,-0.35385908224754736,-16.015125689030903,6.938195619175545,-106.75595967445474,0.0,-44.59303477501362,-2.1521063817931205,1.056190138614582,4.8142117082338665,34.2040194976165,17.630926776418704,5.589164494263332,2.9191917740448527,1.7854958990337646,0.9687381820850229,0.45223664678433795,0.20093861252889902,0.11252175360299749,0.0633709133573464,0.02817794069189113,0.005590262842994836,-0.014135396483188636,0.021903171603091347,0.001586829933256141,-0.01837202495937353,-0.013174448568260827,8.43182932756136,5.493618886713435,3.8505208133146778,2.601188759330692,1.4750465984650016,0.7907938775938974,0.4849324650683469,0.31824114192564856,0.19137404337172859,0.13874184297781383,0.08718598535891252,0.07165897577631462,0.04475625475238716,0.021095559759153802,0.026018669910401637
0.0,36.0,36.0,0.0,120.0,0.0,6.8178023920537925,-13.940232300914419,-14.869422696601132,-107.15644572527951,0.0,-44.919576903723836,-1.595744267382043,0.9809356325137628,-1.938120842870581,34.2040194976165,17.630926776418704,5.841276737196437,3.0610927743391576,1.764947191647511,0.9074286034304774,0.42695907962342294,0.20236496418852642,0.09812548164385679,0.03970434447614831,0.03789947289791283,0.003343731439467668,0.003426003589931807,0.016596674073167332,-0.00957292516998092,-0.005049573003017741,-0.0030079341950953265,8.123678038298895,5.357282396190775,3.6817123785356216,2.4459298805382215,1.4586982472925019,0.8329365386787,0.48334982018275713,0.2743058493742998,0.1804560703343272,0.13903638163356669,0.06868884298457076,0.06212244169239267,0.02302899026922154,0.020092315154490545,-0.005721924174072699
0.0,37.0,37.0,0.0,120.0,0.0,-6.441386605513674,-0.5315759211527649,4.252894221788178,-106.8072637278968,0.0,-45.415570371225044,2.0003853549981807,-9.444097276838,4.534944101540985,34.2040194976165,17.630926776418704,5.818967392735256,2.904796929463419,1.7237744432756077,0.9331269852040224,0.42166260489102925,0.19380739467498126,0.09052034645006017,0.05916181291405087,0.03207883871395154,-0.0053926355339392225,-0.0017983408528870308,0.018278801475999598,0.00949140932776146,0.011626462262991067,-0.012261004480120241,8.21853151394754,5.338838175493977,3.837790944194298,2.4544037390019713,1.4388672263317919,0.8014197242170651,0.47669668762139783,0.2850770797187129,0.17150422163379855,0.11608005783203167,0.08453596916297045,0.051997451859531085,0.034543676856198774,0.02408403040577495,0.02519259973866202
0.0,38.0,38.0,0.0,120.0,0.0,-1.3042337313414283,13.488419287532423,-3.925175973352257,-107.30265503891093,0.0,-45.14654300700275,2.2308128102661327,3.0577404229352787,2.295946311835298,34.2040194976165,17.630926776418704,5.995420979127304,2.96816139537277,1.7125031902222185,0.921299053811247,0.4119071846857277,0.18505411169491048,0.09175565459213157,0.030511484516000904,0.03112454848128472,0.02936118235089078,0.004317111286557048,0.0022544350214385284,-0.00669676032348121,0.006984116015669969,0.008569001015595986,8.087525037372885,5.387324182644884,3.729787362662342,2.4852623897234505,1.4535685807615186,0.7976218235134689,0.4808142867923009,0.2829813824734181,0.1906983767876949,0.11306176197385119,0.09135311809273275,0.04098971333839961,0.04849194278302858,0.0015156882666174827,0.009289435657694736
0.0,39.0,39.0,0.0,120.0,0.0,-1.643488828559148,-24.93155662320489,-10.319285556060553,-107.03940887260701,0.0,-44.82093451497839,-1.1271392220556558,-9.693853227596001,-4.458436868337673,34.2040194976165,17.630926776418704,5.717951766853782,2.913757688135334,1.7873813011386062,0.9209368143074494,0.3926961065229704,0.18925295668395822,0.08921346786754705,0.04184546538092028,0.0312984141820285,-0.0028671578553386805,0.02480830540740646,0.0022810459040575,-0.0035473652290163218,0.004432083155951234,0.010745577489204199,7.657869655651084,5.32711640637199,3.748490462567682,2.475115010388001,1.3639176258095087,0.7924521448912357,0.44898922483653325,0.2757536978325962,0.2058255493666696,0.12981306261895792,0.08958463091067465,0.05282012960027889,0.0490686155911412,0.018609595315769382,0.009641871986336467
0.0,40.0,40.0,0.0,120.0,0.0,-7.28164705204672,9.066180207205981,0.9968841636332506,-106.35194839279629,0.0,-44.86007847050357,-4.115046081672231,-1.9838111830999399,2.2773258540338635,34.2040194976165,17.630926776418704,5.712151129039687,2.9921153535162266,1.6709556248014015,0.9109081848016911,0.40597883230082055,0.17413730845967781,0.08611607240711462,0.05289915634782841,0.023451592637916092,0.01568988375075241,0.009877140595694387,0.008546603345862954,-0.00018159374201142742,0.0014223558876299597,0.007517899222800256,8.12673533578853,5.413179368656499,3.729137176064378,2.4244915349973715,1.3693043574383994,0.7545725590496357,0.4099998479274787,0.27396511514516686,0.18732727289989343,0.12596148029832258,0.08280927835877645,0.056383315189752196,0.030441820808394686,0.02050774844400239,-0.008117821775075055
0.0,41.0,41.0,0.0,120.0,0.0,2.1765658823004514,-8.527285671473805,2.0866496088507844,-106.8513397763226,0.0,-44.90099660348204,1.592651281188836,-0.5274846866839855,-1.1104282669511378,34.2040194976165,17.630926776418704,5.845999116331027,3.0464850492785476,1.6559925185465953,0.8950706646312483,0.36891729491277175,0.17316908788167182,0.08894789895505603,0.040836018439904184,0.02796290473127904,0.01207069286628477,0.0005617740022608002,0.01963039465344953,0.006971580343505351,-0.004777824328866947,-0.0006338238944949051,7.923109367638547,5.334186949949942,3.6205300538096217,2.3194531910099836,1.3761401562227902,0.7610824255930859,0.4098354030398657,0.2567677477299535,0.16896439724162446,0.13381280782615346,0.09483943019205195,0.05055416868918456,0.023434847580153434,0.02065244452977803,0.028921397264747344
0.0,42.0,42.0,0.0,120.0,0.0,3.0068031810021587,-22.398152205229536,-0.8281639580058116,-107.20499925476003,0.0,-45.03908153771903,3.1163905547408723,-4.504390171282077,2.494390580160327,34.2040194976165,17.630926776418704,5.686407983364822,2.9642032600544437,1.588742968852827,0.8667545348060706,0.3817820090133494,0.16711268917203426,0.09587243173292978,0.05077498641782382,0.018618123772064975,0.01909794791498272,0.024562702856432226,0.00016926954840392264,-0.0036456181589710457,-0.008451246221398697,0.02195914267756449,8.141540702333309,5.375357605090632,3.7865681042950228,2.2941490868873973,1.285772922355289,0.7267752590024316,0.4187732252240516,0.27183380557021086,0.17599342404870655,0.10576871549985858,0.06873020942496191,0.038636443435795816,0.030774618692879015,0.0380131502024844,0.009621663249917978
0.0,43.0,43.0,0.0,120.0,0.0,9.520992220276646,-10.90546161265214,-2.8637850364315547,-106.65959025010028,0.0,-44.81091303189143,4.089069925903576,4.730663437271456,-2.6068562237041393,34.2040194976165,17.630926776418704,5.917114839970999,2.8203658237624674,1.627017838267486,0.8839072100410348,0.35709424268226136,0.17177262744370062,0.06321650121829989,0.03400112468346955,0.01137688186287972,-8.215105721771573e-05,0.03477314108166145,0.00010671056402292243,-0.002387414136123598,-0.004723295574272986,0.012151837165528607,8.05266502161136,5.183290824863185,3.6031579389823687,2.3105914652798196,1.3359681402191603,0.7228885119741758,0.43968442146395165,0.2674443941004584,0.16560508334755006,0.11338895814728878,0.08113262595200414,0.05209713228647322,0.03399713193186908,0.0014405703247168545,0.004850626288256276
0.0,44.0,44.0,0.0,120.0,0.0,5.057388669749567,-17.438843084714534,2.692056696887505,-106.7779654683111,0.0,-44.78042665658755,-0.3728838966489952,8.62522862919245,4.5543373627859935,34.2040194976165,17.630926776418704,5.811261581930353,2.8105100497550133,1.660750713390056,0.8421864295404542,0.3521386588302745,0.18083338901853288,0.08961997001850813,0.04208197353575614,0.03399942047863727,0.03404408147222265,-0.0037248396037711795,-0.000361302850893426,0.006413325644237151,-0.01680138539181154,-0.003886215794714714,8.084394913646026,5.303542097866323,3.6933764045282804,2.339533163475758,1.3103879365204731,0.7008833070451997,0.4136320675129367,0.26697402085845295,0.16400539104645678,0.11589369151493276,0.07936430965821134,0.0402896382229683,0.028282126817401283,0.024753898494153097,-0.005042874055260573
0.0,45.0,45.0,0.0,120.0,0.0,9.636487300334853,3.9823619440584146,-14.075068368260535,-106.9596541655878,0.0,-44.834659837224436,3.278874940451846,-3.3403746504070853,1.7374632327839468,34.2040194976165,17.630926776418704,5.731981211144887,2.826141578922275,1.5637529456035257,0.8649414916616723,0.3488955472191381,0.16102211318401793,0.06652361544850591,0.06369270457384707,0.026928438039421406,-0.0033168744477049972,0.004586008992056327,-0.010765195619595637,0.024690500244512723,0.008952550561141902,0.0027364295060799495,8.06682720827163,5.21557300537696,3.6396861974408656,2.1879079984858083,1.3018420908201351,0.6785977555774934,0.3918443107258689,0.26018999972637297,0.16427690370169296,0.10457147712827977,0.0731811388797874,0.022298178885395585,0.0332001683473632,0.024672670615967167,-0.017140284945714457
0.0,46.0,46.0,0.0,120.0,0.0,-1.6441823350014388,-16.922172546548243,-2.1442804669387563,-107.19618954027614,0.0,-45.22907654850724,-0.26453378579537173,-9.042291480223902,0.26269616987186684,34.2040194976165,17.630926776418704,5.760585732205036,2.7892602446423833,1.646484129259259,0.8425442768077835,0.359655364205448,0.14730889840574668,0.06754680302531163,0.031243133521004385,0.011903983937662859,0.008026810026358983,0.0025698795439024003,0.011270107811167572,0.005606028487960352,0.010032011308583933,0.01438275692105624,7.922807230384485,5.134328255334372,3.578908954123459,2.246609485826517,1.2376651506677534,0.7300115893324313,0.39932097862504723,0.23573825136911147,0.17139928149377784,0.10723103786695477,0.06429898211185806,0.05280252387071401,0.040986055470479364,0.022483683872918377,0.018968909139219683
0.0,47.0,47.0,0.0,120.0,0.0,3.1385169941206925,-3.1030446796527684,-13.226134298107613,-107.03112546816979,0.0,-44.50157870921035,-2.3324802403169795,5.011120016797861,-0.4988091137033077,34.2040194976165,17.630926776418704,5.577262589199287,2.8670720227216964,1.5869961576531164,0.8008518634783225,0.36107753258813113,0.14415754043219256,0.06386593131619671,0.03536211405076121,0.02127573619689687,-0.0009900425468274323,0.006407983458813252,0.01891425496406159,-0.00541452273715022,0.00865862338749156,0.006492409279332649,7.962652263846059,5.120088915636806,3.6844193836773895,2.2780906340858285,1.263507947680093,0.6840301189571143,0.39059467056601443,0.22786081840405503,0.16288964415604443,0.1085387233883641,0.07794411483496302,0.027247299353756423,0.022386905486031946,0.014795501002227365,0.0072007819590924746
0.0,48.0,48.0,0.0,120.0,0.0,5.514379664014266,11.694176351844341,9.170134067901195,-107.07699545345636,0.0,-44.8238495368018,1.2284370522656274,9.102739699513013,3.935100287880111,34.2040194976165,17.630926776418704,5.597274119554438,2.7160217211477393,1.569350928243502,0.8374301998545802,0.34343817595460824,0.14857948449171848,0.07694442577334641,0.03742391716816379,0.01925836035009522,0.016875795671208213,0.00479153425250823,0.0003691993575407034,0.005299483561642527,-0.013438216325587733,-0.002282640799790423,8.032964487900626,5.063639904500472,3.6054698257688296,2.2343127849925812,1.279337065369107,0.6444493176230891,0.38803356840305003,0.2454012960688054,0.18179234994545562,0.11236875323457055,0.056423945350251616,0.03761258400647622,0.04714212787280603,0.004881182625948825,0.026069071123299516
0.0,49.0,49.0,0.0,120.0,0.0,-9.48074220544213,13.510384513946967,-10.147843209672125,-107.05768322501498,0.0,-44.8675256025422,-3.630201256801891,3.305243190498569,1.4266411082317116,34.2040194976165,17.630926776418704,5.956713801466094,2.8754067207031455,1.5306373779010047,0.7999580311704005,0.32560261440542604,0.14483773867502103,0.06726975714955942,0.018489192891881476,0.027145157109660926,-0.0003058695790418599,0.010118840481995522,-0.001672933691160161,-0.003225033533195207,0.0020975374266995984,0.028525315540853868,8.125102599434648,5.296604320294961,3.5219453363636344,2.213999665603529,1.2035992163264337,0.6315260397308522,0.3674995533330622,0.21453231450657403,0.1908137833391726,0.09411937452443496,0.06817774413740837,0.042525466328453186,0.027603784650315884,0.025281619000796604,0.025033635236309325
0.0,50.0,50.0,0.0,120.0,0.0,3.0659158425708064,16.468794666200132,9.244189310817259,-106.74354951547468,0.0,-45.087936784855046,1.4935680800974507,2.285468432561011,3.187383197091261,34.2040194976165,17.630926776418704,5.689261370130088,2.8123012159043053,1.5480514506587253,0.8257629265502185,0.33722699008261636,0.1485033399019975,0.05698635613666553,0.05196241426197733,0.020634194168195973,0.009522508929145461,0.008063062838479303,0.012766332007928111,-0.006399800579096262,-0.006486940778477357,0.013273346711498131,8.240004168250877,5.127586073971157,3.4720083421803367,2.2107200129524265,1.238929072964619,0.6742429770625517,0.37458885894373417,0.23631749680772587,0.15161347781499246,0.1061957240676608,0.06089437922667505,0.05250592753319465,0.025726352617002058,0.007116467548377971,-0.013300918334909533
0.0,51.0,51.0,0.0,120.0,0.0,-0.28392395673584403,23.601525010556827,-14.170506199775264,-107.08861776017189,0.0,-45.063242599603,3.1674386775621435,-0.6134979064796262,3.020514002794636,34.2040194976165,17.630926776418704,5.767790249770592,2.550114634688949,1.5318162407710616,0.757627028232249,0.3376665432050586,0.1248708124814064,0.07718017145890713,0.03708633557153712,0.0068942189462620675,0.005032134592521689,0.001713064410185758,-0.001343294451838624,0.017969259933895816,-0.006473730820165382,0.0019609071815580776,8.071409141248857,5.088792743533987,3.2779279932897105,2.192709364258014,1.2318330816359324,0.6315990505896866,0.34051589490215056,0.23148761525638434,0.14974839408189208,0.1078901606652175,0.0570411882632387,0.04985487593683616,0.025615642912982184,0.024303225251846316,0.006370540381020877
0.0,52.0,52.0,0.0,120.0,0.0,-4.379808084191936,22.354075327046857,8.350019259703835,-106.88490516912016,0.0,-45.170483799202316,-4.044178466255747,-3.967459556202286,-0.9410948404781116,34.2040194976165,17.630926776418704,5.661588906050485,2.717331676491618,1.4532162882623412,0.7430464628523097,0.32008916533759824,0.1058382506691,0.05616725661224544,0.04006888665873607,0.012433872126571087,0.022110531095383155,0.001503824764990975,-0.006200012430479368,-0.013431706676020123,0.0006335205189892412,0.015266565331121945,7.947295481488054,4.99266306513794,3.4191102304467393,2.0974398458752943,1.192799308822082,0.6341916771702176,0.35662769864551724,0.2441443898638092,0.14344254143577476,0.09110093755196724,0.0699906062290077,0.031189582535704495,0.01816132376025859,0.01820379288778707,-0.0015250910026755223
0.0,53.0,53.0,0.0,120.0,0.0,-4.176257084577076,22.587877373591084,13.751263634788142,-106.97104092518504,0.0,-44.8872094450042,-0.08883455705290551,6.6532626375126895,2.4007196844685463,34.2040194976165,17.630926776418704,5.562845918838115,2.559485812004582,1.4466635156850605,0.7275832803959706,0.31464431427571365,0.12790565922682215,0.06591863111210243,0.03604715334716806,0.032157221359598656,0.009478229587674039,-0.008333559280306971,-0.021133641832322757,-0.024997510595560848,0.012307144209910786,0.010146923590512785,7.826328510401021,4.943423979524923,3.3676611962965075,2.0552635198601705,1.1749639009617616,0.631975674106824,0.33123383641194853,0.22151000234223417,0.1496617029955056,0.07689619609304069,0.05507054202654874,0.03893340420156474,0.02946957439364022,0.02497883433027967,-0.0055014153036465185
0.0,54.0,54.0,0.0,120.0,0.0,-1.938948162953407,22.0356814982408,-7.304938398250107,-107.38374718821613,0.0,-45.092376564684415,4.200605441820507,-5.291924750031343,-3.3060165174818055,34.2040194976165,17.630926776418704,5.645318762507818,2.6724232686961944,1.4567068155341454,0.7107294755408012,0.30832331842514465,0.12847786245667128,0.053493258928459915,0.012443380640765375,0.018769697238381775,0.0020428338554717516,0.0006714272243104674,0.017002917382650085,9.583755979240653e-06,0.002518854343830412,-0.006109821061545965,7.922885083562996,4.9334114379596254,3.4261804811307814,2.165538875016204,1.1240235959561982,0.631092532868858,0.3317152581252016,0.2020688725219779,0.14464206452666625,0.09936230194943736,0.062336917984542155,0.04469874820232768,0.039250604885005674,0.016251798481501746,-0.0006518033291860502
0.0,55.0,55.0,0.0,120.0,0.0,9.537124489861274,-0.8648393224312727,-4.510943238569544,-106.86685497553646,0.0,-44.9291042271697,-2.70461096049059,1.9221926257567734,-2.1787632205649574,34.2040194976165,17.630926776418704,5.614542517914673,2.7101634484667714,1.4522414255321536,0.7240315605461966,0.3132193851171769,0.15154526657278675,0.06748086116496414,0.04029889520229306,0.027530315396076685,0.011227821857492926,-0.0007886068914568119,0.003967124746440024,-0.00551792392290267,-0.004549170240659033,0.008377049912908639,8.331726264347441,4.792537520996994,3.2876048081239415,2.007380812873138,1.1056085007118575,0.6023067364505226,0.3251254188029664,0.20057948532163494,0.14523345238378485,0.115593461515625,0.04442762050493685,0.04413236903455315,0.026233404193356576,0.0064032680162893,0.00995684553467633
0.0,56.0,56.0,0.0,120.0,0.0,-5.99282639764356,24.712000085350745,3.1467445788435526,-107.08095460031323,0.0,-44.97587308309343,-4.974714829519773,-1.998815107213618,2.3311485247161166,34.2040194976165,17.630926776418704,5.7249943075343666,2.67066065387605,1.3871188895112654,0.6890531108528061,0.3072662235757434,0.11259219367042911,0.044613694746049946,0.03191875154563788,0.009672261939712927,0.02189890706189898,-0.0020480510767187845,0.0030603927611640093,0.014452605970842636,-0.012437308322810255,-0.0038438556198360763,8.069998074648991,5.200550636484513,3.242298284797159,2.0291367412453623,1.1067750842944062,0.575674424611721,0.3178743588726624,0.17971227771146903,0.1240335881793543,0.08314061713487507,0.0826811754558616,0.029533913007427477,0.02061155931771958,-0.005706779139048773,0.0010166394781035096
0.0,57.0,57.0,0.0,120.0,0.0,-6.334771596154418,6.536207070163165,8.600662832180774,-107.19619203574177,0.0,-44.762467845005915,1.038852944460988,0.16071550763540543,3.623966014942857,34.2040194976165,17.630926776418704,5.638909142698926,2.6440271072788892,1.405843713417853,0.7134734518781465,0.27303140943798254,0.11304715695927947,0.06378664798750346,0.027170255621611454,0.012827293386746569,0.0151157453539516,0.005997387607962458,0.00726525100666961,-0.001812649004282119,-0.03124988043270773,0.010701598495886346,7.872349817823953,5.0102513116093235,3.302983503245936,2.0029570331473776,1.0927250554178516,0.5841977866461979,0.3276284117523277,0.20595876014265468,0.14080544049322577,0.08724054280861959,0.05286596735314531,0.028787240374301658,0.0136502901858674,0.01083216533851165,0.020629623120896
0.0,58.0,58.0,0.0,120.0,0.0,-0.6756856070568489,6.6373616143512955,-6.026928706691821,-107.2720782312475,0.0,-45.640361915980264,-4.067717914203729,-8.562598497590376,-2.179827601357357,34.2040194976165,17.630926776418704,5.77194842286243,2.5710964622198973,1.354178632939061,0.6893456388658776,0.27113639422768826,0.10431715036010505,0.06992497674415803,0.024164838111886647,0.03437340421599751,0.012052147833601982,-0.0018166416325236306,-0.013071541590118354,-0.0007852828522189076,0.009608996886818037,0.0015172055921171387,8.044990615117673,4.739972433115354,3.1307962998929795,1.9449273924914656,1.0222283894001787,0.5734524211928004,0.3106875345840873,0.19849588487674852,0.1332299197288264,0.09144666108688419,0.05247532768300128,0.042926515381942934,0.03531134126428604,-0.0009761726310968666,0.009542742503332997
0.0,59.0,59.0,0.0,120.0,0.0,3.014071938215226,-2.8948960992025263,12.313796018772148,-107.0899988171908,0.0,-44.85522839202211,-5.05170344638932,-6.31053084052337,2.2409474360629877,34.2040194976165,17.630926776418704,5.5931053615191235,2.4858154929356884,1.3342282709865412,0.6728354535186021,0.2626284618230312,0.1187936500616803,0.051268109675556756,0.030291637675404555,0.015301403537826153,0.0012007078988131008,0.0038851727478364795,-0.00992493763973942,0.022746499960376254,0.0024735108859308148,0.01201065983567855,7.814619910693325,4.763442821043411,3.2350257703312493,1.9541142386116996,1.0830757882857356,0.5473326986345319,0.3079615783926214,0.2214513020245397,0.13336336076711494,0.09161803768590933,0.05423155143219933,0.010275285067199852,0.009260319054677965,0.0033096928465452865,0.003161543031093903
0.0,60.0,60.0,0.0,120.0,0.0,-4.568295787646619,-17.44869972796938,-8.17399251967881,-106.91302949113674,0.0,-44.89780190468264,1.8582149754936925,3.570485310326738,3.5401172342140477,34.2040194976165,17.630926776418704,5.608819590245629,2.5270818665937647,1.325042384355214,0.6468560786250509,0.2910883951063584,0.11576654746441672,0.04553448620513491,0.03149603511272628,0.021953977063376234,0.02034940779862488,0.01673024146801961,-0.007662599077337174,-0.008399774562281272,-0.0076455807526760455,-0.0041278491023198005,7.811757564618696,4.849138556749787,3.215269666126838,1.9828789514416625,1.037471847401136,0.5456013273189408,0.2911504624584116,0.20116890663211429,0.1350443188621696,0.07140304835053252,0.05692173243415488,0.029769923117966984,0.014790512114246554,-0.014948181197393223,0.010202263285121162
0.0,61.0,61.0,0.0,120.0,0.0,4.6348820791207945,-3.366185869397686,-13.908893485271763,-106.79127626384394,0.0,-45.31189731429488,-4.426517476150922,-3.1524978149930565,4.47946037660336,34.2040194976165,17.630926776418704,5.706979964328057,2.5400466779369886,1.3059846919001215,0.6768585145879525,0.2604090683750338,0.13132000807916724,0.05837914130825707,0.03107009656833576,0.013419168404331461,0.01909379024945823,0.0014994685317641383,0.01581267389776558,-0.005297832142679903,0.0021717273454407355,0.01658564032237906,7.8510701919000425,4.703885449685261,3.2278294773914027,1.9280783697790715,1.0706885291085217,0.5078463874651272,0.30472826773618356,0.19093227962771495,0.11765208596946843,0.08545560603391528,0.07019856599058279,0.020038245997038184,0.028807753734557733,0.026367745552478186,0.00784134774332351
0.0,62.0,62.0,0.0,120.0,0.0,-9.898724306420569,21.070140522597406,13.36729438023129,-107.0480151255729,0.0,-45.32965108458659,1.605515521667867,5.024744417491004,-1.604222292020748,34.2040194976165,17.630926776418704,5.577632233305166,2.4629481902687713,1.2905771021950212,0.6372687634108745,0.2802512204675564,0.07101265509655408,0.042291590727701035,0.026534016362327717,0.00860295954657564,-0.001978442057464832,0.00048322556151529465,0.006025812356236006,0.008327494377489232,0.03081301889817917,0.01848464706504665,7.828109772543019,4.8513662402427205,3.0566547203308287,1.8776314969594563,1.0184852547377645,0.5389817467005901,0.2995047259595807,0.17437694320758937,0.14287872771047375,0.09713174224303306,0.056144759590222464,0.03729127571724641,0.03755522670521952,-0.019889303649316528,0.012314885119292698
0.0,63.0,63.0,0.0,120.0,0.0,7.540593936191577,-1.1449126264493223,-12.797019924885348,-107.40395054385618,0.0,-44.42330262437159,1.9115361939396749,1.4905842013106039,-3.529778678894133,34.2040194976165,17.630926776418704,5.444346534840236,2.4872585033966073,1.3007351995203391,0.6253312066957798,0.26683383538445526,0.11171589722967236,0.05862131148294646,0.041122696733936086,0.0026995789568716767,-0.00022894786552883108,-0.0006173112646604894,0.014689715648013519,0.007252381824760707,-0.005189068196468917,-0.012576260628727931,7.942566412417051,4.644276547011984,3.1717184092147552,1.89036135860356,1.0429746439929877,0.5156132901161249,0.2826558076848791,0.18556402825822724,0.11423876760918113,0.08809775809394865,0.05718701618524583,0.03868424484608118,0.008826487496797026,0.014522912679986583,-0.005463067592198861
0.0,64.0,64.0,0.0,120.0,0.0,-8.435786064766775,21.85077873929955,-14.017886554446427,-107.1068825102727,0.0,-45.13226113906185,-0.3720205436649873,6.9937990196153486,3.523241968123589,34.2040194976165,17.630926776418704,5.740759630469733,2.3871610529036844,1.319012536217729,0.6289758533154255,0.21460545002160017,0.11015065608558897,0.06186087127514121,0.03888676812433588,0.006028097503869512,0.0315837215664208,0.010452565893609336,0.0006713197356830207,-0.004965320928179633,0.0017966564862236687,0.019104012073613227,8.086489887980479,4.632020337965578,2.983572877775487,1.8857823137425327,0.9704764682524211,0.508377374854137,0.28985447566805433,0.1623961278954365,0.13284254018558206,0.07959046107969547,0.06188896729307135,0.04499008963809525,0.030948317892449822,0.006893081195531708,0.019937791132604552
0.0,65.0,65.0,0.0,120.0,0.0,5.9743197802407515,1.380916932604535,-6.086542794452967,-107.22890150188559,0.0,-45.11330686078615,-0.2989230942687855,2.6039059541517062,-3.1399520337523237,34.2040194976165,17.630926776418704,5.6384686881580475,2.3861892738452246,1.2692103070813527,0.6248601556804108,0.24891550774359958,0.09111139481934473,0.05182977223924189,0.0028670215989016444,0.0038082897285479367,0.02095042960388096,0.015184735209058883,0.011401453981210062,0.006739595005867408,-0.0027547502262514883,-0.0011491031643810145,7.908046646116022,4.88707034619531,2.911338117382734,1.860890031208489,0.9636290497607078,0.47767808913837756,0.27525394589542956,0.16817431271871044,0.1360216861727458,0.06548678898959605,0.05419807234119825,0.03719087722487426,0.004227425536585786,0.017584004715681698,0.011227678764731993
0.0,66.0,66.0,0.0,120.0,0.0,-2.166601673620006,0.3718723581665806,0.7782350835449847,-107.38679973316603,0.0,-45.355499400819355,-0.8870867733673653,-2.2969476684020096,-3.533379217262942,34.2040194976165,17.630926776418704,5.733071372188064,2.261451002366188,1.2387411355244442,0.5851299976854486,0.23026839736144344,0.09836171690338431,0.04144937557054685,0.008872485048318807,0.03814526097208071,0.00811249801177913,0.0073892932086637815,0.0005593391965277696,-0.012100364572246645,0.0030737561350080954,-0.013795725768748174,7.9706287998764065,4.657795349160485,3.034304747119042,1.7354827019160792,0.9857499903476294,0.4650607852687577,0.27216022496731535,0.1670347076102755,0.11197565469955074,0.07812209678300534,0.03855688735869041,0.023767198424366844,0.02412350448357715,-0.010872973399165013,-0.0101754163780037
0.0,67.0,67.0,0.0,120.0,0.0,-4.077493331886181,16.344629554303573,-5.026154704812953,-107.00844101195823,0.0,-44.8939383582687,-5.072994323406968,-0.9704447185595768,4.2990308866440134,34.2040194976165,17.630926776418704,5.3361285619740215,2.305345443831174,1.1909736866441176,0.5629093051919376,0.21099843570297735,0.10794419624786651,0.05898873954440412,0.015149422314982114,-0.0008058194381088245,0.01746222641597749,-0.011357530555051737,0.009485449723784737,0.013024656378589452,0.006069102200698111,-0.01044491660862422,7.862849648184484,4.717475059420382,2.8678548026705615,1.7802155816102916,0.9390647721571314,0.4768097010680504,0.2823765783299281,0.1559914800722603,0.1366956481281513,0.08782756586476614,0.07897116232036026,0.035673804454304826,0.02781990911601889,0.011847402553954788,-0.0018832130030848873
0.0,68.0,68.0,0.0,120.0,0.0,-9.573690169830067,-2.00414489403758,-3.0390622387794792,-106.91756724544977,0.0,-45.2786780364014,1.9307365495602016,-5.309756642496726,1.9062582525833243,34.2040194976165,17.630926776418704,5.30224252606896,2.264305349643576,1.1850401849145635,0.5476403326158926,0.2335043848473111,0.08122412147518616,0.047501350395097994,0.03641702195915131,0.028130835757429962,-0.010427625037609575,-0.001817027487610744,0.005685221408409614,0.007313182171493361,-0.010714282065906976,0.0003079743782921342,7.670504709321323,4.559873921994727,2.9491448056065237,1.7106587043735357,0.9218847306578096,0.44125226733490325,0.27439186858548514,0.18370243795255034,0.12458979826046945,0.08194466650111452,0.0647102295877308,0.020825093630819365,0.023108532548279354,0.008107575751986177,0.019457789152710615
0.0,69.0,69.0,0.0,120.0,0.0,4.771534532692591,3.5257272042271595,-14.606333333136947,-106.96219150880648,0.0,-44.70955142022021,-4.377074036070833,-0.16062946629572394,1.3196768794840725,34.2040194976165,17.630926776418704,5.670248431833203,2.197008236243656,1.1625026331773325,0.5677127758534727,0.236770854436873,0.09931310972948877,0.04897464807130718,0.021300208584198323,0.004890136277514142,0.017005123280221655,0.017917617182275712,-0.00622823893455219,0.019331038893452404,-0.021326883610703055,-0.0055604254593144605,8.070762875087013,4.468452844672303,2.8388902714759827,1.7415100432840593,0.9181324441751466,0.47872068500540016,0.28002731848462714,0.16848069325462725,0.09729867777930422,0.07626618314383588,0.0322236678992337,0.023645521470562682,0.019970699180505848,0.012093371891838407,-0.007985082557556256
0.0,70.0,70.0,0.0,120.0,0.0,7.729182035462131,-24.489310808017628,10.238529688889486,-107.02940208643784,0.0,-44.65981022539583,-0.03125061667505634,-7.55320235517019,2.6941512328928425,34.2040194976165,17.630926776418704,5.700422075430072,2.2425428638173877,1.1444413555566155,0.5292391578557448,0.20849316431246612,0.06937014174489446,0.038061506884000035,0.014661059471269432,0.02826742347033537,0.02108456327918555,-0.01128778766273704,0.023924771604364625,-0.0029463767808034025,-0.004641068349964587,-0.009818253886363143,7.771290699155353,4.575486080324324,2.7982863881634388,1.6338825178481589,0.8474644778161816,0.4504229728885102,0.24525994967066997,0.15045523641232864,0.1094143339979235,0.06586053255035951,0.040723547232501364,0.038015739062701885,0.012110842769377548,0.017549915499266582,0.026346117054356896
0.0,71.0,71.0,0.0,120.0,0.0,-5.409465769928747,6.266712341606613,7.230446436401266,-106.98898600979246,0.0,-45.041197018113124,-0.4241624101870631,6.41211334261137,0.34136832536434447,34.2040194976165,17.630926776418704,5.46218243383762,2.3309428352815513,1.0806249112107034,0.5394568692688066,0.23325708541540136,0.08205294067650741,0.020612208055313355,0.036508969047426905,0.015150177544277598,0.020254025412914736,-0.005899903583908224,0.005957136117949306,-0.006408854712733356,-0.008359969370736867,0.007557014415537156,7.83512724042217,4.341973984200363,2.7146578336285683,1.657580297177143,0.864934432166192,0.45994128289649033,0.23301599308022017,0.15567173537692078,0.13348441573794845,0.07681051191597789,0.040755387972757476,0.04921217486492917,0.04365413796210196,0.03347367378014695,-0.015684556448151383
