Line_number,Fiducial,Easting,Northing,Height,Elevation,tx_pitch,tx_roll,tx_yaw,txrx_dx,txrx_dy,txrx_dz,rx_pitch,rx_roll,rx_yaw,PX,PZ,S0X_time_1.086e-05,S0X_time_3.256e-05,S0X_time_5.426e-05,S0X_time_8.680e-05,S0X_time_1.411e-04,S0X_time_2.279e-04,S0X_time_3.689e-04,S0X_time_5.860e-04,S0X_time_9.115e-04,S0X_time_1.411e-03,S0X_time_2.192e-03,S0X_time_3.418e-03,S0X_time_5.339e-03,S0X_time_8.301e-03,S0X_time_1.338e-02,S0Z_time_1.086e-05,S0Z_time_3.256e-05,S0Z_time_5.426e-05,S0Z_time_8.680e-05,S0Z_time_1.411e-04,S0Z_time_2.279e-04,S0Z_time_3.689e-04,S0Z_time_5.860e-04,S0Z_time_9.115e-04,S0Z_time_1.411e-03,S0Z_time_2.192e-03,S0Z_time_3.418e-03,S0Z_time_5.339e-03,S0Z_time_8.301e-03,S0Z_time_1.338e-02
0.0,0.0,0.0,0.0,120.0,0.0,5.340472829924515,0.6088696485954266,14.427908708196192,-107.87612623055556,0.0,-45.18960318023123,1.2844753673358555,-9.736953672052461,-1.4125394307434478,34.17116048210502,17.650919203761195,5.169642553816936,3.8419555777163326,3.193003806562172,2.9052570162776385,2.5497801228237114,2.276978003457339,2.05196176086456,1.758150928176532,1.4959279969670924,1.2737148133277285,0.9587377106995432,0.746432692460942,0.5262207337933252,0.3411274605894474,0.22494333332537597,6.941344512089236,5.750952232290729,5.258359686151714,4.848662921198227,4.38691471174747,3.978281348342672,3.8020832133500493,3.2751769431452593,2.893184468455977,2.5584536155459,2.1092151275545987,1.740835405860743,1.3584424214175237,1.0336908894632522,0.7035582579212022
0.0,1.0,1.0,0.0,120.0,0.0,-4.255791670975531,-20.15213486492301,-5.330667982604179,-106.49556326009107,0.0,-44.31135499012517,4.694179227972434,-0.7781319756796883,-0.1337951167521183,34.17116048210502,17.650919203761195,4.765021689923773,3.4842480501324538,2.9581675244903525,2.6096993711434533,2.1765485347789753,1.9977128404290279,1.6876403513768532,1.4768669481494419,1.2462433211843569,1.0684382922679727,0.8102370850088629,0.6951570490949445,0.448664288722948,0.3117258690005384,0.2000548058040354,6.71410065985474,5.591813741591509,4.9427411640879155,4.317686499814265,3.899142221483789,3.506835455420103,3.293969857902794,2.9533016139622865,2.588598063768009,2.440357819868655,1.955228976253493,1.6588759603714913,1.2366852207996166,0.9450394761233094,0.6533614708110755
0.0,2.0,2.0,0.0,120.0,0.0,7.557437282566891,4.97036997487842,11.267329215634426,-105.95335468517497,0.0,-46.91722377599763,3.297076636862221,3.423983308008175,-2.067675943981262,34.17116048210502,17.650919203761195,4.648220272657152,3.2956521750700576,2.722009673348268,2.300169792069245,2.0354557673047426,1.7940853565520911,1.5321474678132385,1.3283974106906113,1.1060562916859176,0.8829202845926587,0.7363289216101236,0.5482841107991152,0.3732018901810637,0.2931948059391637,0.1756051747133611,6.730451445922815,5.287279725811221,4.705006405142448,4.236860958351888,3.715201104203702,3.372170714010643,3.078213311400233,2.66743272717135,2.3718784212757327,2.0708693040789967,1.759918781037942,1.4871506032773947,1.129411137479556,0.8256882395232975,0.6059949692106075
0.0,3.0,3.0,0.0,120.0,0.0,6.05100261636386,-18.98623955081822,12.831952847046246,-107.48822060434996,0.0,-44.507297367005165,4.744575018222715,6.412105026186442,-4.609303315100397,34.17116048210502,17.650919203761195,4.71004337560448,3.119775901626886,2.6443011543457513,2.2079729540757524,1.8344711030958682,1.4972567122994045,1.3398677033371944,1.1432207889660893,0.9995412852623606,0.7884806475856904,0.6454846082571706,0.4847488816461188,0.36219322361468514,0.24902292951478347,0.1399049610658183,6.563473467803211,5.0148562760574915,4.58059141228306,3.9084189729193257,3.4282785756839838,3.0618562054644745,2.8628774530695256,2.5089568187666496,2.1944503629277015,1.8946346674358867,1.5764753050508147,1.3242805681329548,1.1224339114613717,0.781728261639075,0.5484291863504904
0.0,4.0,4.0,0.0,120.0,0.0,3.3468469857082965,9.369136401999953,-14.51912672595031,-105.36848027289672,0.0,-44.47035880981359,-0.0246463048986314,-2.213149194100497,-1.8487330041235461,34.17116048210502,17.650919203761195,4.59196789983822,2.776307413752495,2.490315851010396,2.036423250932161,1.6812534768956535,1.345399446586618,1.1443537044039385,1.0064108593039998,0.8669889175442954,0.7073541399895283,0.5759230133954253,0.45575570339916244,0.34116697505876076,0.22655626581601457,0.15303592715365158,6.640007180307575,4.796389777220941,4.209204359708285,3.7333109570847176,3.2890695073530094,2.899091557518658,2.55285975574184,2.216305544954152,1.9802925151333217,1.734025753314399,1.5259734880381366,1.1838579908058646,0.9239515502357956,0.7353815078899634,0.5407527482728862
0.0,5.0,5.0,0.0,120.0,0.0,-6.8665084141072015,-3.875388068364842,12.181938021372972,-107.69350458712043,0.0,-44.716971837979884,-2.679269993146096,6.7809745181520285,0.8275809785721897,34.17116048210502,17.650919203761195,4.458797287186974,2.795451018861676,2.2452870705563313,1.8584019033560162,1.5057271855909233,1.2697909394194584,1.0315478460264251,0.8681249204910462,0.7240350174978348,0.6392242560354576,0.5316677369258827,0.4110682969771896,0.29530100854219726,0.19843669207547468,0.1143447594290412,6.466795771209821,4.712462644666224,4.026769091957625,3.6056448739957516,3.0626802277666334,2.698773358825817,2.350519045805356,2.0438157047592784,1.7778066400996606,1.6000683844688994,1.3768838782520096,1.1269901964977362,0.9051941320980126,0.6881788805662044,0.5102541342284408
0.0,6.0,6.0,0.0,120.0,0.0,9.74417638082156,5.947848182150363,4.070811458197323,-103.53161662040321,0.0,-42.64147454788265,-3.792336596626512,8.512004206573149,1.0450557254171002,34.17116048210502,17.650919203761195,4.463508978258592,2.5440817615007605,2.010215759481665,1.8141096940716404,1.4136092276476817,1.1019410833014576,0.8895185090480807,0.7885855770691131,0.663662763272735,0.5687546242581756,0.47390070940627005,0.37761445748691974,0.2535464201092114,0.18506699151396833,0.11140511144622929,6.718207715809568,4.7453832073961495,4.068982525634079,3.631899540601244,2.931621890083163,2.5015859486267598,2.12861101046274,1.9582551379257105,1.676571494854242,1.4677347355053187,1.2595564117656466,1.0136191027300387,0.8423702586134169,0.6522890905109631,0.4342128600946608
0.0,7.0,7.0,0.0,120.0,0.0,6.590643701071006,24.62031616856072,-12.158578665761993,-106.32435415548909,0.0,-44.89845947896788,-2.9318737980728833,-6.992362516338801,-0.22656348424148653,34.17116048210502,17.650919203761195,4.434190368790978,2.4954909481610708,2.0104150170001076,1.713907450347751,1.3315493191842835,1.073641995457104,0.8708491482151082,0.7061883217463035,0.625666843711829,0.511753004665914,0.4086024207237386,0.2992638935348006,0.2334554353191577,0.18734355572507871,0.11758300642753551,6.632562975950257,4.381410987740165,3.8910934716665135,3.33116377418421,2.8767171596882566,2.3541083405112246,1.9820908904396828,1.712650164948185,1.5517203278137477,1.355487812495383,1.1540121482441594,0.9540456843712237,0.7350961436828322,0.5681101882815368,0.4318515983059535
0.0,8.0,8.0,0.0,120.0,0.0,0.07164550465092745,-9.346314100719283,7.85738550532745,-106.56361889564828,0.0,-44.81012871853953,2.53051058328099,-6.774952427716001,4.744341504031558,34.17116048210502,17.650919203761195,4.292640518355271,2.4672545720294172,1.8716000553964551,1.5899388270514825,1.2351366029652333,0.9947560798690044,0.7821664193885662,0.6187683469414612,0.5142126908459006,0.4580671104846442,0.36277071398798394,0.2757796268932286,0.22176043848782548,0.15829416470863095,0.09709656650036266,6.675681966383059,4.338653189463942,3.5850978491694554,3.2100939382480904,2.73270591863688,2.272858776510509,1.9996929135567705,1.5857848420736862,1.4243897245818982,1.227281664573834,1.1140299239952238,0.9033549759920482,0.7116898802485232,0.5587765955881647,0.402530800260335
0.0,9.0,9.0,0.0,120.0,0.0,9.290357145502991,11.595803000965596,-6.896730404942998,-107.02526113659229,0.0,-45.3793027170108,2.5046137063612264,5.251990587826818,4.432831609771373,34.17116048210502,17.650919203761195,4.300858519101918,2.366458226831741,1.7476144498719748,1.4321709270072904,1.20245870065621,0.9459947902984089,0.7203033744698925,0.5702827604448801,0.4840289890750203,0.39503592120602105,0.3266690549663791,0.26685965964480496,0.19575340364089064,0.13119252933206418,0.1004211065764354,6.767466296926114,4.392978151375178,3.498386827942937,3.1133904243477977,2.563327100067573,2.092832211447905,1.8082631956703457,1.5809654081429,1.3296193614662715,1.1178635917343676,0.9740134084549305,0.8237759595848118,0.6438338080695599,0.5072126185805166,0.37621231334764804
0.0,10.0,10.0,0.0,120.0,0.0,-3.458093130407301,5.812376301916178,-14.833186272957157,-106.22134498370721,0.0,-44.77352534609494,-3.745437447509158,-6.021902519555498,3.476157252578629,34.17116048210502,17.650919203761195,4.3032360043522475,2.276798542872886,1.7310779964230816,1.3565833565299599,1.0874959086217317,0.8554717827112066,0.6478130891648348,0.5122080418828511,0.42024010372739595,0.3654399350024759,0.2925426453828181,0.21372735474012805,0.15121447438774188,0.12407160107176161,0.09337864592275533,6.347955060528119,4.209907093786644,3.4325805118144723,2.8245806267931988,2.4879132014391265,2.125787652398543,1.6329387779577476,1.4125737903995714,1.19519450521125,1.0598690034206875,0.8912790156495721,0.7714919252907522,0.6009364967428947,0.4615089984687452,0.3747194952995586
0.0,11.0,11.0,0.0,120.0,0.0,7.4619014368217975,17.808913023722724,8.651375996410739,-108.31820730220667,0.0,-45.114748917460304,0.897941906669704,3.8092417738207693,-0.8514784396307871,34.17116048210502,17.650919203761195,4.373802449437642,2.231915171163409,1.7391997865008106,1.3510856631746457,1.0672854578633,0.8010840092658673,0.6313566822988774,0.4968064959030683,0.37257115433525123,0.3348929836745096,0.26146396588295967,0.20519623751288932,0.1587569325843855,0.10865384785500799,0.06602941860195333,6.595364908732953,4.300508053881782,3.39491206961053,2.9183337086972125,2.406000340431136,1.9349206233453304,1.6743857701091207,1.3657645246511232,1.1044757284130688,0.9474137087737995,0.8335934022799341,0.6794892302112019,0.5532445882838983,0.46855245766297693,0.33219667006348264
0.0,12.0,12.0,0.0,120.0,0.0,-2.384730759456253,24.591513515708513,4.020086144991225,-106.42489174554895,0.0,-46.271825129309164,2.8331472882005966,3.9934670673947394,4.213194327812925,34.17116048210502,17.650919203761195,4.537434360079663,2.311703437665715,1.6039287388535668,1.2755610924631782,0.9874070450403768,0.772932420082209,0.5882683178859401,0.43678526174057786,0.3553802686772136,0.2758711865188519,0.21598941643586947,0.17631997034493385,0.16109236661125434,0.10978258031989792,0.0714747262781139,6.661088454264341,4.255120989064792,3.4369653805273033,2.773457140703509,2.3606238365092325,1.920433578592578,1.5637477658876682,1.2093969749510607,1.071699682033367,0.8987353887056262,0.7801026808133485,0.6513719545281077,0.549170099304126,0.41687173799602223,0.3194294835762634
0.0,13.0,13.0,0.0,120.0,0.0,1.847593248926243,20.195034706304476,-12.673713343562822,-104.69416705631461,0.0,-44.46771615346023,3.9300558153359235,-5.025077079941047,-3.0701328592081625,34.17116048210502,17.650919203761195,4.486354750089093,2.168238412252999,1.5251587745605129,1.2102849811778822,0.9034219771497123,0.7348635455158001,0.5537279182914612,0.43804149503653206,0.32487022051140446,0.2529710837581511,0.2069780121868692,0.176564733245517,0.1278153394242764,0.09735756020951462,0.0625910333475144,6.637237153826734,4.07629059008761,3.1947694153835453,2.768672823791648,2.2413020407994755,1.8635717405035692,1.4586949608954558,1.2217007256883639,0.995182496177961,0.8640059029179177,0.7312567414881249,0.6066586060897176,0.494690335079247,0.36241288923885573,0.29165722844205755
0.0,14.0,14.0,0.0,120.0,0.0,-8.379751308693272,-20.700161132369942,-13.820122196340787,-105.64669983957492,0.0,-45.15093678993016,-0.6530483959395343,-8.930133458483002,1.041218132185227,34.17116048210502,17.650919203761195,4.456396714295137,2.137559050923839,1.467683683169703,1.1614252704850818,0.8817194535115555,0.696438817048469,0.5082367838097773,0.37967158668320494,0.29571147936950953,0.2438580782940372,0.2022323711159246,0.1560024140968703,0.12867255210124323,0.09629805070597909,0.05792502922954201,6.773813253361739,4.089873500588104,3.274579984218887,2.6048671098491067,2.2100818956080537,1.7448880205199917,1.4395292203676142,1.175043809407875,0.8991058916308873,0.7813018232252481,0.6715306399737707,0.5794326254335986,0.4731777927916251,0.34811829551179113,0.26974238838910614
0.0,15.0,15.0,0.0,120.0,0.0,-5.318466543757776,5.460411347202903,4.473522466787898,-108.3967939297924,0.0,-46.07966533290832,-4.069435213386415,4.918946227718298,2.8148266000041193,34.17116048210502,17.650919203761195,4.507244336009025,2.227738219136126,1.4455150035222875,1.1469810905048712,0.8239003541336388,0.6845284761029452,0.46331905875227114,0.3684732676867244,0.25978450930473207,0.2143552050861935,0.16767943176414035,0.1484518242348583,0.13027990588985797,0.10167689674640853,0.06250647744863488,6.7578917065048785,4.171324960552822,3.1870871789790285,2.5548615795038567,2.1370884739809135,1.7750107212100883,1.39565819334955,1.1215871997004316,0.877643737727619,0.7420524674040697,0.6074092617155565,0.5391259210151172,0.42201207709624367,0.3322743045645368,0.24344097903068995
0.0,16.0,16.0,0.0,120.0,0.0,-4.501620953839664,-9.607859227099697,-11.578539852723019,-107.36411280469393,0.0,-44.77884294079796,6.095130739692829,-5.114080895257189,-1.2582002205419007,34.17116048210502,17.650919203761195,4.428367132148124,2.1403861997068927,1.4512539957012913,1.0839155334264738,0.8259642930102832,0.611219196107021,0.4455051399181166,0.32564354781782495,0.25365581704092405,0.2017711319871985,0.17407665672039796,0.14904923890804964,0.10109996783949797,0.06961167746517719,0.0590429809575583,6.6782960627204595,4.185140571624007,3.2205957953190363,2.5013061113162567,2.068598863666577,1.6922669727048893,1.2941503096705131,1.0317470329066982,0.8815281293828408,0.7172646882559067,0.598869088775829,0.5002401791658663,0.4234621020969888,0.3195027385322688,0.2518349223016194
0.0,17.0,17.0,0.0,120.0,0.0,7.60323869184711,21.794410133179184,6.906389520956587,-108.02092692252361,0.0,-46.6349580551115,6.503545406662454,6.617328618096149,-1.5167137832896316,34.17116048210502,17.650919203761195,4.316437699625792,2.186820158283178,1.408506946609581,1.0261795228485415,0.7833298210771438,0.6052663048135636,0.4561483318354577,0.34693866853328065,0.22478958612458316,0.1750280188801408,0.1408234366733214,0.10556081077931434,0.09261896408372425,0.09123049730273819,0.04422947670438422,6.712512183018954,3.9568907234726747,3.152952774759028,2.467581508037468,1.9562096229627703,1.6459260243101719,1.3318975772490085,1.020719928036764,0.8669813920624055,0.6695903344499641,0.5433843067371251,0.4726581684729072,0.376834996987139,0.3139210227348864,0.22745203960224716
0.0,18.0,18.0,0.0,120.0,0.0,6.8212265974682325,-6.641585981563903,13.335817224881144,-106.78732868131661,0.0,-44.2710389966133,-4.74835809309651,-9.037014883579676,-0.6513754547563622,34.17116048210502,17.650919203761195,4.2681078789939155,2.1719562449086123,1.4183698368112545,0.967169488339418,0.7230763355360578,0.5694121624423112,0.4038418312690057,0.31594643394791194,0.2513354621631736,0.15725322240674658,0.15787594650729123,0.1039964542688407,0.06500067647950088,0.06644770025712532,0.04340385522333129,6.764332444651909,4.184213485147895,3.1163835645527262,2.502543817830694,1.9633030511230642,1.5697229208077135,1.2401435972618458,1.0051930637847724,0.8102356261972015,0.636175672529724,0.5323382710884806,0.42515386491672824,0.3597558881396162,0.27509306518207427,0.22285185578133473
0.0,19.0,19.0,0.0,120.0,0.0,8.87197745474517,9.584730856782578,14.323757249739831,-106.54748555381006,0.0,-45.09248889432706,0.36566807262316914,2.0668053482819086,1.853338589800532,34.17116048210502,17.650919203761195,4.476015627940613,2.0473457021793333,1.3849900100830022,1.0107108259450972,0.7041140753513254,0.5492023198146998,0.41258617725177044,0.29038414650289573,0.2043066423541987,0.16729907991837856,0.13310394223518704,0.07877299986441039,0.08705634309070624,0.06093257351586909,0.04274030764495229,6.921109997223325,4.262034158244228,3.222511456515678,2.4900941780440253,1.8884405016004246,1.5148973632832425,1.226540424510818,0.9109509362036695,0.7849253617023807,0.5776722518604095,0.4778674099908458,0.4099574114611351,0.3035511419168214,0.27573094814066745,0.21706056392106388
0.0,20.0,20.0,0.0,120.0,0.0,1.8566202324726895,-9.942022374254183,13.957974023754502,-106.74627861321946,0.0,-43.734533396607745,-1.498597621591995,6.620106503116492,-4.129839011070201,34.17116048210502,17.650919203761195,4.4614148362000385,2.2255096018845513,1.3820675232685606,0.9487595490837605,0.6836082011832707,0.5233710961918466,0.37534813790448457,0.28157357967183244,0.20744379469952007,0.1698921353491964,0.13473601272416824,0.08931032598432458,0.06688056060791657,0.07168822843973435,0.021898320877026676,6.643838795885568,4.254551689604336,3.044425374818556,2.3607683773622887,1.857759092047138,1.468861309004398,1.1788644764699348,0.9386001066617091,0.7168196463642507,0.564411429146909,0.4628227585530264,0.39229077261355233,0.32998288584973395,0.27875933293954724,0.20014651227253924
0.0,21.0,21.0,0.0,120.0,0.0,6.727660925865472,-0.42510977473569866,-7.078749202481054,-106.85151519255817,0.0,-45.77041290031627,0.03199355242986163,-6.231221070436794,-1.3516297675134248,34.17116048210502,17.650919203761195,4.396339869956118,2.033378577980493,1.3664155903200352,0.9138322828807315,0.6837470610109333,0.5005770460004304,0.3356958925658508,0.27496390279091426,0.19083288107175284,0.16479970435579297,0.09787955039988766,0.06288228986303003,0.06434117064995412,0.06608607957020793,0.028252875957905384,6.9575135851782655,4.1218242406183325,3.2101259603894765,2.3029989438984892,1.7694183853381806,1.4106546626061123,1.1307060371575874,0.8593969331555166,0.6787190801722933,0.5521174891105624,0.4305915177974619,0.3825950312867551,0.3212112182629345,0.24017970615963136,0.19249715151195015
0.0,22.0,22.0,0.0,120.0,0.0,4.649143322814096,11.635335839217099,-9.348271288389029,-107.83778071775329,0.0,-44.62590428294614,0.7812066787286676,-9.468692688028513,3.3490319258591867,34.17116048210502,17.650919203761195,4.581936644004184,2.143185184121963,1.3714748553569245,0.9485553519917163,0.6727589941137819,0.4623623475379251,0.3624002811087579,0.24821134997952488,0.2084598385851972,0.1276107176975688,0.11521746865288418,0.08702845929190638,0.06906451717129339,0.045829521467962216,0.04149077187001032,6.645183023338847,4.064061988424712,3.0856996581817913,2.32742472123098,1.7507774846860726,1.3996407664120107,1.098221662883613,0.8339355610668584,0.6806450986022983,0.579070607674668,0.4338551256766611,0.3596846863943952,0.28828437105033833,0.23371814113268546,0.17958807651958042
0.0,23.0,23.0,0.0,120.0,0.0,3.7831730920938718,24.176728379955605,-13.811302878151464,-107.31309269969971,0.0,-45.615827146845334,-5.121551226845204,-3.7352175105764047,4.970553616200592,34.17116048210502,17.650919203761195,4.448721671886361,2.1240645138226806,1.3668260543593689,0.925493322454936,0.6267256327917857,0.4637949481798991,0.32304303815432894,0.24686555620763917,0.18860175342593605,0.12744760527896457,0.07164131025993745,0.07144651240680698,0.06843222106761297,0.05342271759661473,0.017961015657775848,6.7710447613344,4.302368608531896,3.2214313665655365,2.3003321867706252,1.7116213125501651,1.3881094111834917,1.0589640466050294,0.8533429422929195,0.6835958900030796,0.49729392711697257,0.41026484858303613,0.30706088545983284,0.2777660095422154,0.20029556262841705,0.177255533131955
0.0,24.0,24.0,0.0,120.0,0.0,-7.7584918392034785,22.05212476689171,8.194496494824957,-109.0773918829455,0.0,-45.67359366211765,-6.205306950590966,9.441219125364334,1.3970358752041285,34.17116048210502,17.650919203761195,4.491137706266242,2.105919883885146,1.4153691481376103,0.9353595843425846,0.6174277640061311,0.42985328660128475,0.3080799360945267,0.22004646413937584,0.16780355393177254,0.11631838111889731,0.08879621532382599,0.04012590196034811,0.04628092545438267,0.03596337620079036,0.007791653451173084,6.677030792757344,4.082717979318575,3.058585738584737,2.2538087762487935,1.6489504860245416,1.3564004174607023,1.0747699796361179,0.7963504832222594,0.6375866739057072,0.4725197273651018,0.3700166439911816,0.3130566328745649,0.25804322723456913,0.19521306707185704,0.16498655531287437
0.0,25.0,25.0,0.0,120.0,0.0,3.5639642659633957,9.552438187707708,-8.764393463817349,-106.16514593289818,0.0,-45.72813903098964,-8.148229842379093,2.3032122804472444,-3.58429958614105,34.17116048210502,17.650919203761195,4.389153492740648,2.118171863194284,1.34607252454372,0.8628011876511574,0.6269944289418637,0.4279431378328647,0.3210505150751689,0.2176290655402454,0.17388554813051876,0.12239957481231135,0.10098794191992592,0.0620853224440878,0.05973958938428123,0.039844997008481986,0.03413468292203288,6.962045149969684,4.132550049768058,2.945691905588583,2.2779882752421012,1.6936505634142311,1.2841182867948953,0.994855084740109,0.7714485279058272,0.6076562310010823,0.47074522335115887,0.34999966888056366,0.30900192737519105,0.24008571837585937,0.20151948397470715,0.1432829922077698
0.0,26.0,26.0,0.0,120.0,0.0,-8.898613580120465,-22.46374979367961,-0.4385177111328318,-106.59338959271658,0.0,-45.11933432271775,-1.990768133984806,-5.5507583641208935,-2.5122750441572874,34.17116048210502,17.650919203761195,4.398910034174987,2.108777831977956,1.3737753773256174,0.8516377640383891,0.5831254891150109,0.4246604594639517,0.28036387464880563,0.24441064122241501,0.13179444379151867,0.1090479763141185,0.10483420611853522,0.06969876766549445,0.034154945878340566,0.03663715577282881,0.03263545222183552,6.821712651586073,4.162534976705845,3.1481495888963997,2.3081663715629293,1.6897265213949175,1.2900912303505545,0.9745985509284198,0.8027373770338889,0.6170310365822346,0.44057603964538916,0.3472468641191045,0.2824463262245738,0.2374601654921421,0.18469311691608564,0.14832692003663756
0.0,27.0,27.0,0.0,120.0,0.0,0.38262299369176134,-19.364089932262207,4.838464800482786,-108.71214600275297,0.0,-44.22238234458766,0.8502398634128268,9.797260834656218,2.687849804781619,34.17116048210502,17.650919203761195,4.453250039605092,2.1049578804887106,1.3975060859655675,0.877274067549921,0.5634745275098849,0.38101309087045987,0.29191797056637736,0.20699634850540108,0.1371836501328896,0.08998332337375439,0.06679662244447912,0.06730631030696373,0.03251442727105841,0.033009814801290886,0.029633094164362824,6.648253801134364,4.364249339039998,3.002349241029818,2.263996973372687,1.623701307488352,1.2482185707371003,0.9278306691922669,0.762470103003673,0.5666279723008771,0.44920808588922306,0.3490972839481705,0.2808600058601642,0.20809550465562315,0.17981565908648622,0.14059740630154338
0.0,28.0,28.0,0.0,120.0,0.0,-9.792101283965799,21.410776940778867,-4.073506597374694,-106.53136900704973,0.0,-44.557632300173296,1.2990871542178088,-0.22047945776110645,1.9460525120547292,34.17116048210502,17.650919203761195,4.410029049851638,2.2115089409424233,1.2964570761352299,0.856664321688822,0.5414856506385868,0.35299711695515584,0.27280504098366654,0.20042119026646382,0.15365919771280395,0.1076699453275701,0.07861397941159712,0.06468783044942494,0.036201549518272785,0.02926301328292275,0.03209268269576604,6.705799820156171,4.280521466758147,3.0417547969645953,2.2175574826855335,1.6087690045455902,1.2237337954795666,0.9233397086662293,0.732122928180006,0.5741258791177551,0.4371355838166464,0.357212908897653,0.268677553618412,0.20668464289727573,0.1675146689487308,0.14238439088365235
0.0,29.0,29.0,0.0,120.0,0.0,-6.733623748549538,-4.312627586800893,-14.620773778349056,-106.0539288876472,0.0,-43.6258177658474,5.163426933138958,-5.880703449227971,-0.20448775272137265,34.17116048210502,17.650919203761195,4.437905364424789,2.1249543967157116,1.3783037382838963,0.8611901286720514,0.5396539863402364,0.3654295687991044,0.2577459620140542,0.19823122678784116,0.14360680820243457,0.11317182211744392,0.07354566295831343,0.07522425508621224,0.03361710682316514,0.05617381066807969,0.0313209919877182,6.821579174321341,4.232021678589468,3.0601420204726564,2.22292654200689,1.5498479113036643,1.1632747333166593,0.9057741591791256,0.7073564644052408,0.5624166868060584,0.42747488612117895,0.33487464283463153,0.24622343920774636,0.20275284549893496,0.16662451035046155,0.10420636067557962
0.0,30.0,30.0,0.0,120.0,0.0,3.7227743915717575,5.430101646683994,8.174640626853702,-105.29304708456756,0.0,-45.4074907622156,0.5083130423310316,7.238277334968831,3.441962278442082,34.17116048210502,17.650919203761195,4.465402196655094,2.1206853013032148,1.4016984577252707,0.8657732136946805,0.520099565810518,0.3606100640848337,0.2679321040513582,0.1805007909845344,0.14207425116867006,0.0818227923590541,0.06573703339406302,0.02709954713394754,0.05235377231215109,0.02508267854290013,0.025304215478890408,6.682612567036191,4.181398550179159,2.990816961511121,2.2483449541206326,1.5719344216713234,1.2019288578954286,0.9113091015302308,0.6777158195381294,0.5277376455519358,0.39111186288593486,0.32209775214215897,0.22402518919637612,0.19768997508684025,0.16554022680299044,0.11819409509035708
0.0,31.0,31.0,0.0,120.0,0.0,-5.084940559854143,17.948060216795895,-2.9659292068636667,-107.62339375384785,0.0,-45.19577449161028,-1.3491039997967258,3.2685531751722294,-1.019385171902262,34.17116048210502,17.650919203761195,4.3235304717012655,2.1645938137933944,1.4052554034302789,0.8537311030559941,0.5325163638709087,0.3324842073141104,0.24664157995805655,0.19430514710478572,0.10059187232132769,0.08877146840751424,0.05598036866092421,0.06253463264964287,0.03156204482171045,0.029629582433665643,0.03635899718183032,6.774966594566112,4.345217462949947,3.117519814376888,2.282933224523445,1.6192566653560903,1.1382265204777269,0.8623378367019044,0.6985714407546553,0.504895092546505,0.37432309722403206,0.3016471444236583,0.25216443004672207,0.20217099606689437,0.15313686254918035,0.12649569411964276
0.0,32.0,32.0,0.0,120.0,0.0,-8.377912774915625,18.42801875656864,3.96327880562502,-107.85697885686166,0.0,-44.509109691123584,-2.612584589961706,-5.151876529485131,-3.8006835169422226,34.17116048210502,17.650919203761195,4.333884080188686,2.0370054369537143,1.3288208837936757,0.874738243997839,0.5059979606762794,0.3080360223953693,0.23564926291231383,0.17953388034246756,0.137810451052942,0.11090781096334273,0.04861974051393963,0.0405159210850399,0.0460499199398114,0.0215110769492643,-0.0009965740848049964,6.6600558838759545,4.148417091555287,3.1359778409801065,2.2706245048651112,1.552079008003201,1.1516681941430766,0.854410241061183,0.6517581993204083,0.5115593788178554,0.36944077197246783,0.27759382387106735,0.20484362835034733,0.18426541200715613,0.1281345832621104,0.11471619115182878
0.0,33.0,33.0,0.0,120.0,0.0,-2.7123324527657573,-5.674755449008568,-2.8541615330961516,-106.96968323046035,0.0,-45.79677719020566,4.254504729043221,5.414905271671085,-4.673371230045453,34.17116048210502,17.650919203761195,4.502822365020543,2.1264071775269584,1.3321274989771448,0.8420445243710378,0.5161129432887791,0.32353104660940285,0.22476917707242025,0.16648729074244728,0.11224765127571848,0.07603617712158618,0.06890613637902934,0.06548831586199974,0.04992898191076003,0.022826252326538995,0.02218534732585883,6.863927862534357,4.336550688376397,3.062797522014952,2.18628025374764,1.5332081073449535,1.1318737781807895,0.8323767227068137,0.6457377602867762,0.46705109899223246,0.36883819272594937,0.28446453177224335,0.21750014659574624,0.16918802778477324,0.13618180864666576,0.10222639428933411
0.0,34.0,34.0,0.0,120.0,0.0,6.301640510230747,4.3326813787216985,8.018932325803195,-107.5756971079432,0.0,-46.55643589053966,-0.21822673118123115,1.8222878390829216,-1.676528177331523,34.17116048210502,17.650919203761195,4.375770974827472,2.1518509572661264,1.3952726324669136,0.8687078365953507,0.5116443600375381,0.3162079364731789,0.2008022860062385,0.16208635027197008,0.10320283181342263,0.06039626117951817,0.07153442008982853,0.03961522027769636,0.03326334881463226,0.019768230054250862,0.011470153926159302,6.737636643120713,4.174854760801439,3.1973496326646216,2.211623665858955,1.5052328327182665,1.109116986356675,0.8051101007075795,0.6015546977232571,0.4959418844674896,0.35249116835716326,0.28715645940742723,0.2083862579355859,0.15753695214238464,0.12382483147059706,0.1174621240006647
0.0,35.0,35.0,0.0,120.0,0.0,8.845999494681898,9.423580346735108,1.6986812242770526,-106.84995597719212,0.0,-44.39193628865256,1.4859292321392137,-9.422255374406014,2.2820060930532424,34.17116048210502,17.650919203761195,4.504374274389288,2.1510836379568388,1.3592397663378382,0.8682034806855956,0.4806054122221391,0.3293644653618592,0.21428044023224008,0.15634065307988954,0.10975333266317609,0.06296654979824261,0.05535000333043117,0.048671710083679945,0.0376337586770818,0.03299407485727013,0.02512335979761839,6.824919246979865,4.145701629854731,3.1664037931173263,2.2854344370848345,1.504863715626537,1.0786365541156617,0.8029036593666989,0.6130475983120403,0.49827184944859837,0.3503819448517109,0.2744052706591038,0.20475319985993554,0.16923065391507713,0.14331846184975572,0.08940294701705108
0.0,36.0,36.0,0.0,120.0,0.0,-5.731963271703373,-2.9571955038989586,-11.217798070651547,-107.22545022419143,0.0,-43.83992958569003,-2.9349579405616675,7.597873653351247,1.1982480813575416,34.17116048210502,17.650919203761195,4.380110137707636,2.163187583415185,1.3573489891141528,0.8585469213560483,0.47091433545979733,0.3012197382503565,0.21461894774728024,0.15982352677678544,0.10750286378726635,0.07623220903266359,0.06005363123464563,0.039049987927614105,0.008168736581672484,0.02407199557810768,0.00613228606937254,6.61848724887078,4.2925387174781235,3.1731747788121396,2.2886153102846456,1.595848326159619,1.0823158917789637,0.7957396760460719,0.5998275793712607,0.46528462430430395,0.3492914107800282,0.2475498199783274,0.2120057837586232,0.15821876100246243,0.12291692555642446,0.11063879848159233
0.0,37.0,37.0,0.0,120.0,0.0,-4.03419441990676,3.0888018773671853,5.372373819711722,-106.47652128692822,0.0,-45.398455552739065,-4.063397717641794,1.5047629843866837,4.908569345399204,34.17116048210502,17.650919203761195,4.418106389849251,2.16043640400425,1.348405324368782,0.8306279948012959,0.467216944782787,0.30563317481043,0.1989914757923244,0.1411169237699575,0.1019003063846917,0.0709415208014798,0.07720040349062127,0.0348374665719296,0.021983196509901902,0.019227050439323705,0.0109637277415312,6.8295640304655985,4.21872529988107,3.0593713118638735,2.327264949177341,1.551843173609177,1.0539695944447347,0.7664676961208392,0.6029160002821095,0.44377622381397913,0.3289386604108578,0.2471947809218436,0.18838487284504016,0.15745483375115002,0.1295771431318834,0.0896540532439474
0.0,38.0,38.0,0.0,120.0,0.0,-2.6351457945610557,2.0619338168105337,10.730172299560646,-106.2499365998306,0.0,-45.17301479609819,-0.7792600402102927,-2.241640712030617,3.7624181891390585,34.17116048210502,17.650919203761195,4.477887160005112,2.1974289409081513,1.3127468482517866,0.8616386598717014,0.482855550109099,0.29190622562998036,0.2090471976979027,0.14118754113467732,0.10982991105075211,0.07858392199286895,0.036928410378780446,0.03936352203650105,0.022928407916198865,0.021215965572826536,0.021874398906195667,6.91677519863814,4.258235241848155,3.1405152675011454,2.2851100274206226,1.4906038283222862,1.0525467389339103,0.728430904049892,0.558956435880841,0.4528354830363978,0.36945089747498727,0.2415919225737171,0.1771259543342362,0.14510242593393471,0.11132650694182994,0.0872308206036571
0.0,39.0,39.0,0.0,120.0,0.0,8.487965551290735,14.340376741183455,-12.763325030113826,-108.213216604589,0.0,-42.95669892991772,0.7453406381453294,-1.1027492593779993,-2.627250655757681,34.17116048210502,17.650919203761195,4.577563727518194,2.159068506052716,1.3936673622213647,0.8518933997345135,0.514550369659631,0.2761634848753771,0.18810951714646604,0.13426981802025084,0.10289160859776952,0.06850916809164867,0.02997574761841648,0.06635031588676496,0.04520451030202115,0.011086649594184608,0.021431813418161284,6.78474585414869,4.215259236028921,3.074592207869817,2.2381417604907266,1.5333314146603834,1.088667362464748,0.7625543130556335,0.5472380038987509,0.43559203756168924,0.3087432182509914,0.24468898380925652,0.1712270580009067,0.14219408865970562,0.12314277568636363,0.07090984531949689
0.0,40.0,40.0,0.0,120.0,0.0,3.810913570910161,15.173253973631482,-14.315191140068052,-106.74899806117737,0.0,-44.07559788946355,-7.885780587622666,7.996396626544737,0.7136664994287614,34.17116048210502,17.650919203761195,4.434828132955974,2.1328010581482855,1.318003748069419,0.8528390221637414,0.48729976954889237,0.27644260253158437,0.18389054324440698,0.12749317500618615,0.0852903290394382,0.06383003407722387,0.03898457617898844,0.02050835636227829,-0.003912056773781945,0.014957375345137034,0.0016239905848701493,6.83285411727693,4.249690864023985,3.112096164896152,2.246917921657076,1.472463225824222,1.0495123704352394,0.7246879682295077,0.5423703074133335,0.41725267431355584,0.3243598078159106,0.22654104827466362,0.1635661535818003,0.11269785580979692,0.12069535135860276,0.09876900203447916
0.0,41.0,41.0,0.0,120.0,0.0,-8.213222388485292,21.606884119782208,14.995658287445742,-106.74299162933494,0.0,-43.90926079590703,6.083057701024641,2.482928068315317,2.878836630496795,34.17116048210502,17.650919203761195,4.466540890726872,2.1637070009580928,1.3102209979540624,0.8631182469632571,0.47845435937707315,0.2990791844881502,0.17215005306076966,0.1399428527541862,0.07750783312460227,0.0670393278765865,0.026445765792895506,0.023098317729585836,-0.003443601476458339,-0.014344682428852132,0.0206308207982459,6.841890207067465,4.3374421805717835,3.0760912675510106,2.1745495541204036,1.527913599499516,0.9937036678949016,0.7360191887124956,0.5382078418542077,0.4266516397871598,0.3040893234268382,0.22871119442575272,0.16726317166874022,0.1261736186049021,0.08971923511250443,0.0746339559044106
0.0,42.0,42.0,0.0,120.0,0.0,9.25046759301756,22.090705928220437,-9.26307076031103,-105.9642121498313,0.0,-45.15695618611778,8.5286249610929,5.929839421390035,1.1007971200903839,34.17116048210502,17.650919203761195,4.4959517021509505,2.1464515472452024,1.3756243272269684,0.8364536356035157,0.4949010133998862,0.28881838371041835,0.17648909502291554,0.12304458180749486,0.085264941471318,0.048350050233441445,0.03756460208284114,0.022508439565747954,0.008362494573401167,0.015830164927666576,0.022508082826976486,6.91638024036383,4.191271048910463,3.0887159362147303,2.251123024787044,1.506931572816565,1.0381626411374705,0.7137329985352396,0.5560751348605526,0.38602894372280494,0.3125321813116605,0.23081092167706074,0.14894869891077356,0.1122397586710302,0.10454477164431288,0.08085371023351018
0.0,43.0,43.0,0.0,120.0,0.0,-4.360289849998102,22.227828458798548,-10.146052407089114,-107.64339421929128,0.0,-45.96510112485829,-3.0793274154506953,9.418941543997494,-1.7575982442818647,34.17116048210502,17.650919203761195,4.411642978735999,2.1622573107053666,1.3799480388333758,0.8643875539530657,0.47091870285967435,0.2911811832753127,0.1724536057449571,0.12644412013182038,0.07446518146878511,0.041390649827402405,0.06753491559977734,0.029652622208647086,0.013829193788507088,-0.005551750171705269,0.009633089783059302,6.6851995555361645,4.345662259617232,3.0827986424415936,2.293423572847878,1.4357458310137892,1.0337427037060476,0.6995771418246758,0.5172523271631414,0.4284992284796775,0.3123908505028107,0.22016707559565138,0.14630675173628757,0.09103112970520749,0.0829331218374286,0.07000392523344608
0.0,44.0,44.0,0.0,120.0,0.0,-1.0873074192908767,-24.191566219245132,-11.165699584854663,-105.50176642325738,0.0,-46.516418455035875,-1.7616440638404027,9.108426945831944,-3.3857830885844145,34.17116048210502,17.650919203761195,4.6123710200222,2.0213895196646563,1.3643875342465561,0.8687862894904866,0.4801348714734829,0.2825628969946899,0.16020972084628674,0.12216034563420976,0.0742800508639478,0.060614824633679766,0.05015307073203107,0.06476974090480983,0.017930984974915104,0.010757721215500431,-0.010005068665262434,6.657169510435449,4.273545139599926,3.171090006691001,2.3332275217388543,1.5250189411162112,1.0162998671435728,0.6877458900355247,0.5327494890761235,0.38318094759439686,0.31770905932135696,0.235435627037559,0.16052462706244638,0.10135272525525268,0.09655171132047144,0.07000411464257764
0.0,45.0,45.0,0.0,120.0,0.0,9.676147546494171,-14.945258446430188,-11.491950306088757,-107.90771659703017,0.0,-45.00460051580019,-5.997483766637459,-0.16041641044310673,1.6814323522595709,34.17116048210502,17.650919203761195,4.3554479494373055,2.1500485533293423,1.3168373878791926,0.8468585166213369,0.4850525229917985,0.28733929850324097,0.16289210079573954,0.11870547869240411,0.08451231657310465,0.05166069187490023,0.0500985007549899,0.022210883483227157,0.033917689088582295,0.029702989228424292,0.012295700546810825,7.009823078888424,4.212087903870489,3.21757912701091,2.310884253810054,1.5322304902641695,0.9900482750686855,0.6659406595871126,0.5113762424438885,0.3969813678114125,0.32137454611378335,0.21956734947471304,0.16146378749928533,0.13936183133912416,0.08506835305756902,0.06098676302095635
0.0,46.0,46.0,0.0,120.0,0.0,-1.4777371557997228,0.01698191889400391,-2.412218003909196,-105.52838951413429,0.0,-43.14885109042821,3.088352024804724,-3.405783701581095,0.5767338610921389,34.17116048210502,17.650919203761195,4.50048364316556,2.138396860744068,1.3683268681461875,0.8340229432792109,0.48965634790896756,0.2806608016790915,0.13854795101039924,0.09606001866549528,0.08035121730714358,0.07485873867998526,0.018446990791425318,0.01586331265976172,0.010273314789050901,0.006932479644545622,0.0250153083074351,6.660794394309627,4.151404079537368,3.1965160828165473,2.193793291753362,1.518837562380447,1.0491272203544855,0.6579961757877866,0.4687565463626087,0.3851027743505568,0.2742835905838256,0.20921118699283153,0.1500700151789676,0.1054716310329925,0.09437259609687185,0.06765716766203919
0.0,47.0,47.0,0.0,120.0,0.0,3.3121163437286345,-21.208477294606137,11.589028100782237,-108.78421486011754,0.0,-42.93696509038452,6.370384603899327,-2.502304355612404,2.303927921419878,34.17116048210502,17.650919203761195,4.260203779507456,2.2348091503526364,1.3299080937947987,0.8750353716291434,0.4784601055131345,0.24833087426461523,0.156846391155037,0.10785995826405778,0.06840638801427022,0.041343410073004086,0.027763439398221373,0.01833182137602239,0.01725265188747636,0.019453364330485477,0.022298926844242145,7.02399033693296,4.3285903122607134,3.1306321742007928,2.261269473078638,1.485976111537792,1.0059275833268166,0.6709136082404964,0.4782512862798421,0.3710291566423498,0.2792906028098845,0.21196792924974628,0.13956438755903564,0.1267914705237277,0.07996667317766336,0.06459882805027226
0.0,48.0,48.0,0.0,120.0,0.0,4.927417489085904,24.84817081911104,-11.778287141598167,-105.85525690001779,0.0,-46.85835445829915,-4.001089276523869,-5.780337753343343,0.05998697671068953,34.17116048210502,17.650919203761195,4.480857892677966,2.0688608810817133,1.3902019956371463,0.8191197771201102,0.48459071520199154,0.2741849520463944,0.15310619949066742,0.09661260221538656,0.07041070561746823,0.046947089965526316,0.041244620211756,0.02700499247918277,0.02535295790102799,0.0254537636723803,0.00748493445128538,6.893936259945201,4.180808939890802,3.120533084184614,2.1951539551633568,1.5257907554872363,0.9619632672935504,0.6990653326920863,0.46711558798768066,0.3656305440800818,0.27508549988902664,0.2037840197240809,0.1487781452576989,0.10778223115505632,0.09402802390525199,0.05197283751907728
0.0,49.0,49.0,0.0,120.0,0.0,7.4504642323305745,18.325746074570525,-10.115702788411168,-107.62663765066213,0.0,-43.707708494296284,-0.145142050965546,6.492934137136942,3.2616673439097887,34.17116048210502,17.650919203761195,4.466471503099562,2.115404916108896,1.3841154008142567,0.8481792707383993,0.47727673770906304,0.27173556335755905,0.15185613953125301,0.1072765711018808,0.07847490963088612,0.0570307241830777,0.02581397565926298,0.027195813270148285,0.00643442493990708,0.019527256956135962,0.019570130301058208,6.800880744476129,4.225832029180407,3.2029488154336474,2.1757322614454493,1.4653639206615292,1.0066009163833736,0.6371186242469652,0.46887026514504787,0.33525940738966026,0.2650338595932222,0.21542714298776638,0.14402404589089465,0.11229330310028703,0.08061750144467793,0.058160627297352205
0.0,50.0,50.0,0.0,120.0,0.0,-0.9956112621057667,-22.59201166841853,-11.61066514732661,-109.26935060497098,0.0,-46.078164135196886,0.6195997667117026,-0.8109000454596824,-0.6165182619321516,34.17116048210502,17.650919203761195,4.51235997835865,2.182908522946854,1.3829724416043143,0.8637276083153165,0.5249920811382356,0.26929694721514563,0.17375380765251222,0.09062003256122565,0.07387361522222086,0.030923674801597707,0.02201393713199999,0.021241734186476593,-0.011087435785865681,0.0134859820120986,-0.0003661450453190662,6.793860189848436,4.317826732597251,3.2052090846243306,2.3306096049945473,1.5283057953757633,0.9464273803463781,0.6536470812103194,0.4508674102908003,0.365538901844501,0.2603977203657137,0.20084895370478634,0.128497604446146,0.08739234296812573,0.06969925085545997,0.034018090480466896
0.0,51.0,51.0,0.0,120.0,0.0,-8.100131568585756,19.391633457978166,8.565326654394521,-106.68176676212639,0.0,-44.682339986700086,4.047087806676544,0.0009908339558855062,-2.8894674482889746,34.17116048210502,17.650919203761195,4.344400382829994,2.10127393768396,1.4054634372751391,0.8773200019673595,0.4811847327925261,0.26574370002052067,0.16257751106857213,0.10165114891705342,0.06834011157445236,0.04312479839523982,0.024987361986032314,0.03675541986599771,0.005845867525135873,0.016925702651530147,0.011951926025018877,6.73122566379972,4.390747212222241,3.2207807754653577,2.3348351455539933,1.5459883604745046,1.0190204802241805,0.6532690397229333,0.4770505501345843,0.3389052149390917,0.2489477813221187,0.20006893768719036,0.15543414024734745,0.08838529552973554,0.09218122192526625,0.05253249432629521
0.0,52.0,52.0,0.0,120.0,0.0,-2.8486087782479874,-8.822524493497902,3.702696684312606,-108.0613923855098,0.0,-46.40966243886177,-1.1558129343378432,-7.5178307719648485,0.1768604544738661,34.17116048210502,17.650919203761195,4.5099713913862995,2.1846499664544874,1.3428640416630728,0.8542648291408417,0.4697379864721653,0.2677325651269328,0.15650695943690726,0.10611605775128119,0.08330830180573137,0.059802290767464274,0.0261218547047831,0.042257657678954216,0.03285581446209229,0.0035182933213530774,0.020135113158701562,6.888060559748564,4.348481478566704,3.1996459964303954,2.28301223117439,1.4941021273656945,0.9728049049726383,0.620620669101393,0.44522976783306045,0.33517907996757484,0.24573428970898548,0.18658343140979122,0.13396699786533708,0.09790905716952408,0.0689551001327036,0.04072985196556984
0.0,53.0,53.0,0.0,120.0,0.0,1.4793911614618604,23.334856699087858,6.962828699600667,-106.35573067038581,0.0,-45.65632323405221,-5.696189976487588,8.416325003436086,0.8136633340375754,34.17116048210502,17.650919203761195,4.488348570133722,2.1189074583998933,1.3568913617929805,0.8114064674422001,0.47192365488124915,0.24406055926605677,0.1419204698104523,0.11016825342045726,0.05847972600794798,0.05003328374364578,0.02991989641920023,7.522085339881773e-05,-0.005234188444564653,0.023725686270748166,0.0022902104533181348,6.976408153156437,4.1330033773693,3.2687324310851276,2.3210371931895324,1.5433298728147085,0.9687029048626504,0.6414413763975213,0.46455466302301857,0.33462980295521133,0.24503010897524566,0.18998048161900635,0.13986540129918199,0.09401375518712375,0.06398977904677391,0.02465830803133744
0.0,54.0,54.0,0.0,120.0,0.0,4.82206233266588,-8.385695869295027,14.02555477140837,-107.50009639657004,0.0,-45.11176337442781,1.4897065248262094,-5.961166435525778,-4.2010565052461875,34.17116048210502,17.650919203761195,4.67640037295552,2.055734337967055,1.3543760558650322,0.8704811756739239,0.500463843941116,0.24481991743464437,0.1415749817823952,0.07929732962007788,0.07000394342520137,0.06291406420709002,0.038605727343651204,0.008424474894217354,-0.007852225780137282,0.009701625260258112,0.009491120671728165,6.6683582083467865,4.340035321995284,3.2233878213159644,2.2952088283089602,1.5123244763472556,0.9882482789259045,0.6122254600603673,0.4377872677260689,0.30632152601535356,0.2463787860869904,0.18832187037336268,0.12904240990505036,0.09657249639704635,0.06418349371838453,0.020327534367358215
0.0,55.0,55.0,0.0,120.0,0.0,3.3821087402388983,-13.716053464313344,8.116964920356562,-109.04525859913232,0.0,-44.370241195554286,-3.7910444149985416,-2.4387799861161685,-2.4971134907889847,34.17116048210502,17.650919203761195,4.3810225665864655,2.1394004988640116,1.4047442336997067,0.8476955738592865,0.4786042290178998,0.2564106612137966,0.14079317297902877,0.10181085156883515,0.0511280343637497,0.03636005960657801,0.029711641584257858,0.039075366080245394,0.011740333270941292,0.007517608291108004,-0.0012480210915752398,6.7538972232993215,4.075743238491418,3.20393813967676,2.2267407749772445,1.5286640721192883,0.9968058208356857,0.5992760829118853,0.4421418310308789,0.3094075422288333,0.24700649753999102,0.15770793578411446,0.12301837086874501,0.08859312432039787,0.06280062241717124,0.060031186654856336
0.0,56.0,56.0,0.0,120.0,0.0,1.5803144299263359,-10.58464957194835,-3.404987050276361,-105.56896188957684,0.0,-43.78457959838225,-4.6254518001650595,-2.7219752479911286,0.8761598683893848,34.17116048210502,17.650919203761195,4.5482219413401275,2.1631261965427293,1.3601595400750535,0.8670040015865285,0.4496548856387692,0.2683407930013795,0.13969393581383838,0.07411229671032774,0.08387071374003058,0.0583514740302587,0.03200253536455938,0.02676933411724888,0.027787855797835,-0.005355045450402943,-0.006716788754908029,6.802267055532476,4.241249603705212,3.20044130606127,2.301207745076602,1.5371448153322258,0.9954299222766341,0.6480255235352756,0.41064274210674206,0.3138181539418312,0.24737485770998252,0.17902526865504817,0.11675034139889046,0.07723945350282288,0.08164694553458479,0.06743774666649652
0.0,57.0,57.0,0.0,120.0,0.0,-3.4544815331205614,4.307112209203368,12.272200182349529,-105.1899946219319,0.0,-44.7111622229929,-3.727234182496436,7.447348318730935,-1.2947513443164018,34.17116048210502,17.650919203761195,4.527317094592715,2.1605652599368095,1.31878926654902,0.8660644184801973,0.4810928811912783,0.2590077968926278,0.1219521194731677,0.10146809479038793,0.05653341902032303,0.04354266501704408,0.030303251515241516,0.017192942409990395,0.0109971051176488,0.01738691173707486,0.026889961899504544,6.917539867696637,4.412552113857345,3.1447071163701805,2.3393610586741724,1.5294402768693536,1.0049659242705398,0.6354312055726137,0.3909037975140057,0.30261602287821143,0.21643004454162368,0.16884574206943948,0.12752270399075016,0.12562672457833962,0.059852164993469695,0.05945183359415038
0.0,58.0,58.0,0.0,120.0,0.0,-3.0856952571357654,2.9135917944184087,-11.734231970950432,-107.67013345487241,0.0,-44.2043261463089,-3.0661512347069375,-6.942154460064556,1.1563798254959226,34.17116048210502,17.650919203761195,4.554102162259746,2.123650529517947,1.3780024148988832,0.8373118891133456,0.4863956305340802,0.2667977744345422,0.15183333138571253,0.08524795732259068,0.05588668656503458,0.028339862166499682,0.022092656589603035,0.03473074823068658,0.024422656105779976,0.005463617580842944,0.010874613581225703,7.030009244366751,4.248386577007982,3.1634194296030067,2.2995202999317037,1.5168697085972724,0.9543005619091242,0.6208124575937187,0.4170277288710356,0.2999209055600985,0.23333593053668936,0.1676346791872019,0.1277089390214108,0.10373010428529056,0.07015574524628457,0.05422348554945254
0.0,59.0,59.0,0.0,120.0,0.0,5.6380130088156655,1.6389702584141297,-1.6578712948930114,-105.45176922108323,0.0,-44.64894564995939,-1.5110561522052057,6.406608979805547,-0.7399773220538455,34.17116048210502,17.650919203761195,4.500669645476742,2.0847141427255083,1.3495810520340656,0.8709898356886825,0.49443987666462835,0.26330481431749314,0.15818577576820475,0.0975582377901072,0.04860660783611058,0.04017484327111099,0.032410539713215586,0.03240742231423793,0.019475696051476615,0.012211006176537337,0.015280138419675036,6.726207371845219,4.3148599577965605,3.1527651266882004,2.2700495728057066,1.5070899487135447,1.0006039399843252,0.5947953734662002,0.404842041827354,0.3161437148049546,0.23436542985164088,0.17695967692077125,0.12105257609461575,0.07849486387374198,0.06435433867770297,0.06141646047391736
0.0,60.0,60.0,0.0,120.0,0.0,1.9324885048125484,-21.601379503408825,4.292483713173024,-107.5137092495995,0.0,-46.107554480047895,1.2877800550539997,0.5467994030007155,-0.8838959889701918,34.17116048210502,17.650919203761195,4.081948884417268,2.125494393984363,1.3518312991993275,0.8424020763117832,0.5029718965367043,0.2666343692233428,0.13410478152417601,0.07969119576990805,0.050738295011313994,0.032940955061113074,0.02806766053048391,0.00611916710860899,0.014549999407559673,0.007091578461198476,0.0058995038655745395,6.887818663582758,4.212888766633338,3.0832344176697504,2.1768137999171215,1.5355380206773472,0.9789219993984366,0.640661288880516,0.3874842876472561,0.30660747165666347,0.22640381547012095,0.13773638787036208,0.1214474982784398,0.07666126369294894,0.06320573149401881,0.052656313438790986
0.0,61.0,61.0,0.0,120.0,0.0,1.4617667109752333,10.64093043695788,-4.874712749873865,-106.49181128552559,0.0,-42.97851145090908,-4.082600957817601,-4.16578340542425,-4.8496456040890035,34.17116048210502,17.650919203761195,4.433241182502135,2.156652781257484,1.3284303345251744,0.8700502451351653,0.4825789043146844,0.27875292169437965,0.1274010242075018,0.09283914195220677,0.051266687625465136,0.04333452769958856,0.018688905145685043,0.008049868072087518,0.007832240972752572,0.017326387616286132,0.0021322378231057883,6.860979468378851,4.269751385876026,3.1425987434597995,2.3060821217398333,1.5204028761221813,1.010349945889447,0.6183139441874923,0.39078149001448553,0.3032951999160934,0.21829430256884286,0.14903876916467917,0.0977918550193206,0.04163627890070296,0.034171236337086436,0.0626845456642883
0.0,62.0,62.0,0.0,120.0,0.0,1.9108711550783717,-9.225641096090087,0.699781560455353,-108.34063036161186,0.0,-44.00837951853188,-0.7617702772221064,4.115893046722947,3.917308094793043,34.17116048210502,17.650919203761195,4.4881655860533165,2.1308638004098417,1.3768286556525575,0.8784794640367442,0.47347169746684215,0.2745706124729401,0.1382577622272365,0.08441060397548408,0.03688927655402064,0.03823790868852003,0.0049813004284947615,0.020143591714787395,0.01840819839131485,0.0021311043480451283,0.005991235303297299,6.884651905442977,4.162078413306599,3.1205166266373836,2.308203897900736,1.5576213074048502,0.9759054185825188,0.5873853837288147,0.4090511497227372,0.31932570716164077,0.205544079677345,0.14629638140316453,0.13575128700757622,0.08765261281273448,0.052406759148924745,0.04027848157871354
0.0,63.0,63.0,0.0,120.0,0.0,5.168750607303812,1.60156735029976,13.45801639559026,-105.63173072956168,0.0,-44.43529738206716,5.158666315592219,-6.458014300585111,1.1067155431827027,34.17116048210502,17.650919203761195,4.614641212030431,2.13286444237699,1.3315758946095893,0.8381370216783401,0.48432221738125675,0.2603286861566861,0.13770160811923246,0.08295676995320209,0.05645090337283413,0.04059158687314832,0.02595385072350887,-0.0003354628628582934,0.021292657049049042,-0.0017092021482703404,-0.004056921512964541,6.97506157076633,4.2721319256060815,3.241939780340478,2.3203971009291418,1.5155539842303332,0.9966727924435668,0.6197768279337796,0.4073229306573322,0.2871405310334833,0.2220402904190191,0.18083371802735804,0.11412103586693714,0.07900591411784721,0.06436747119071234,0.048285479832050456
0.0,64.0,64.0,0.0,120.0,0.0,9.014576667977543,8.01394038205244,3.6808252286776195,-105.72621815568442,0.0,-44.4006381183828,4.884214071292041,9.525181091642008,-0.42424786745557963,34.17116048210502,17.650919203761195,4.429870020910587,2.1331718336343393,1.3363161403677402,0.8569013110586979,0.504833711408492,0.26010601263449545,0.1491929290367947,0.10780104709943285,0.04328282517999563,0.037864066660634535,0.03579766070937008,0.011242138432496173,0.014708283158823658,0.00986482059650752,0.002290514990709684,7.071131029088792,4.331775024153078,3.050806014114481,2.3126998036788424,1.5289466142109043,0.9794707646742411,0.6102566909991306,0.4035666744428115,0.2807360337160821,0.19779160063926168,0.18709062305352595,0.11429463774183224,0.07666927268230199,0.06680414775073631,0.024280432797122886
0.0,65.0,65.0,0.0,120.0,0.0,-3.948166165362341,16.959070908959504,4.160771990670927,-107.38650592267092,0.0,-44.47689599096104,5.208537459483603,-9.951818700523615,-0.47243216081325556,34.17116048210502,17.650919203761195,4.509136832376259,2.1905604789096107,1.339689754845312,0.8537319006931827,0.4700225425979897,0.23715115523089964,0.11878944677391766,0.06609531786054987,0.05504028422073433,0.04278265432687883,0.05315955317938134,0.018196274301341086,0.015676816401479325,0.016286096929117522,0.01043921236461885,7.10780339282131,4.462907055266783,3.141200689609667,2.27643926719665,1.5457171012514106,0.9582386249478207,0.6154067621717396,0.3929743311897872,0.28569384440259055,0.22925008311259717,0.14498970652595494,0.10792187792170721,0.0798477158298103,0.05559460861028383,0.032948320930785216
0.0,66.0,66.0,0.0,120.0,0.0,9.653766794113881,-9.548792251348603,-7.993618731945311,-107.47806905662819,0.0,-45.81165855074519,-2.8833974480650695,-4.179769376174822,2.9435190116797187,34.17116048210502,17.650919203761195,4.565083338455669,2.043542756498457,1.3778136244713364,0.8446288615428357,0.48116345717874837,0.2577735601261322,0.11945243074764386,0.06399872616002364,0.06012925384866852,0.0378574752964972,0.022173591553107906,0.022606050115175233,-0.005718626965054905,0.0075878263952874675,0.007348196882346792,6.962023915208157,4.285106011140722,3.2211383696270532,2.2935986784188387,1.547536515815867,0.9960391434757799,0.6265352034260433,0.38900572958290475,0.2798764011283881,0.20313167123545764,0.139792897365435,0.12088622651922264,0.0703059601413318,0.05897969559588608,0.03385783388645676
0.0,67.0,67.0,0.0,120.0,0.0,-1.6962399080160129,-1.1535982954547563,-6.01025848253628,-106.22204240245631,0.0,-44.343007886758514,3.388083704942754,-4.349736984987098,-0.7788904822581699,34.17116048210502,17.650919203761195,4.40377509120396,2.211731368598947,1.3681175681225652,0.901990491793735,0.49947680509849735,0.2540226251999931,0.11182240654651411,0.07119896445653524,0.042993019724141386,0.04964629808272944,0.04916170164232843,0.013839509639073438,0.007622695293671898,0.008902561099853702,-0.010749601980413808,6.812310093074185,4.425760279712963,3.214442265586061,2.2298538357252453,1.5786994789740698,0.9571096366696545,0.5995826618796737,0.3886859439386958,0.2717474388424175,0.17798832315730223,0.14439195275492353,0.1007159179200162,0.08020384630365542,0.05840246365170865,0.048783795912421934
0.0,68.0,68.0,0.0,120.0,0.0,9.777224105549024,7.354104438753801,14.46762591688109,-108.7476885835963,0.0,-46.831533873370006,-7.481290129882544,-2.1305242897458303,2.370002610343816,34.17116048210502,17.650919203761195,4.488518517691543,2.1319133223683058,1.3665320954795441,0.8373706916598257,0.47564181149138063,0.23647175491141145,0.12145439462547064,0.06181711481781075,0.030490104825912304,0.025938993797706845,0.01200788176318957,0.02052731606617348,0.005622104907671415,0.007601656334415093,0.007729582914100126,6.976281883822796,4.202018102395918,3.058932714810426,2.2711444698309093,1.574231954859677,0.9866683502510631,0.6207521207715151,0.36756259155986887,0.2607689418396007,0.17708788597268368,0.16182294943923145,0.10846470115096643,0.06356108207735923,0.04327226553556685,0.04127496237937236
0.0,69.0,69.0,0.0,120.0,0.0,-6.646164390511611,5.550037742508167,3.9836596401915187,-108.10088242824699,0.0,-45.68854901397654,5.3383922772477534,-7.167543401131933,3.305844917584137,34.17116048210502,17.650919203761195,4.527754220461207,2.1641981639855676,1.3714963437549885,0.8700214332900946,0.49047321902160995,0.2758812410624684,0.12207293458960126,0.0926602979610936,0.040374901671906445,0.04130663056550779,0.04361939057874431,0.015108460736990088,0.0006884205106968098,-0.00574542395268915,0.001668764708115853,6.965882429320046,4.325368985992106,3.1801135020085702,2.345192239412567,1.5515203458462865,0.9273026758709891,0.5858007501078752,0.3862700985965919,0.2774344581838333,0.20820430433560513,0.14229371194139742,0.10807516430973761,0.08220306974949793,0.02953235987681059,0.027876235263840542
0.0,70.0,70.0,0.0,120.0,0.0,7.656799712639135,16.385248381138396,8.076514297051332,-106.97368519142096,0.0,-44.664881183991525,-0.14195286692575815,7.490304821945951,2.1875002821994274,34.17116048210502,17.650919203761195,4.474312303381847,2.2075950142592395,1.363327544927576,0.8659628966473756,0.48962903867407165,0.26749849175914914,0.11484102046316351,0.06428880831750078,0.02858339324745712,0.0013612100710607838,0.010364904992363559,-0.0028281161432515134,0.0015856198790349845,8.450046429577581e-05,0.011349871665954248,6.84755016312009,4.259938556732676,3.2552919897730437,2.3296256943658333,1.484398574314215,0.9919865007964596,0.6217320875887679,0.355569467648425,0.24613473874603153,0.18389390992651333,0.12315633840114679,0.09700703110897105,0.04894923900235944,0.03474399758181828,0.03244215322197987
0.0,71.0,71.0,0.0,120.0,0.0,-3.856993352545029,-11.133686048843611,-4.028799548677318,-105.11840165462729,0.0,-45.00139429095137,-2.230716186764507,-2.428645080625575,0.8456098013680613,34.17116048210502,17.650919203761195,4.443118161747872,2.0847151002539293,1.3492799518446097,0.8513278023388595,0.47457352149105647,0.24984623925135072,0.1474940576070212,0.0770696423663784,0.047642167602244045,0.01616269398278379,0.024002731932796235,0.009334325206614712,-0.004439787902950918,0.04103468388516013,0.012790817387615965,7.108110581052905,4.29795651222085,3.2443384548741805,2.40170104404351,1.5589854137599979,0.9626254665692687,0.5824458106288216,0.37107039439930767,0.2606411216650193,0.22634025347286563,0.1494413140495097,0.08586968577416568,0.0730825958631952,0.052433595129847646,0.048575663367230716
0.0,72.0,72.0,0.0,120.0,0.0,4.314160994909011,-21.786408886552806,11.1448006978991,-106.66768238620793,0.0,-44.17326857030166,-5.153204753463039,3.171063204761893,-2.3778059894145764,34.17116048210502,17.650919203761195,4.369053670841346,2.1740774241783742,1.3727512457878646,0.838547675498877,0.4938899712283586,0.2740200205096407,0.1364060634326008,0.05731650116116126,0.031160622923773813,0.03675936451815818,0.0253839999357486,0.023716080884140837,0.02048715144698162,0.005307270000438794,0.010003450722517241,7.129224024733998,4.2793616315810965,3.3335832311664038,2.2637269291637754,1.5086840708111522,1.0055078928126868,0.5923360787111197,0.364302795099219,0.2511005260635498,0.16061331123098593,0.1529956488527191,0.11647242614524167,0.06271838092726956,0.043513479530040006,0.012651042766124727
0.0,73.0,73.0,0.0,120.0,0.0,6.536403768400209,-11.500879157148836,0.09036751062261672,-106.73253255827916,0.0,-46.979965628970916,-5.379126250961706,-2.4212630041114114,3.0061437357024943,34.17116048210502,17.650919203761195,4.480156967900463,2.1951770238305266,1.3435185569739279,0.8784629347380299,0.5050237691860342,0.24774591129706805,0.11845579119617165,0.0735354113776175,0.06003710655659996,0.019983106766397352,0.018638091312336142,0.028459883591341176,0.01363049432914008,-0.02681054959432707,-0.015337406267158269,6.923301649512116,4.408484749081854,3.2479434508563734,2.2578168127434015,1.4985817031568862,1.0163986015263977,0.6161108363458538,0.37346803457178895,0.2636071748539559,0.1848477410935661,0.13886321760808776,0.10035208980197452,0.054149295028182956,0.03424936023550203,0.034874409194436976
