Line_number,Fiducial,Easting,Northing,Height,Elevation,tx_pitch,tx_roll,tx_yaw,txrx_dx,txrx_dy,txrx_dz,rx_pitch,rx_roll,rx_yaw,PX,PZ,S0X_time_1.086e-05,S0X_time_3.256e-05,S0X_time_5.426e-05,S0X_time_8.680e-05,S0X_time_1.411e-04,S0X_time_2.279e-04,S0X_time_3.689e-04,S0X_time_5.860e-04,S0X_time_9.115e-04,S0X_time_1.411e-03,S0X_time_2.192e-03,S0X_time_3.418e-03,S0X_time_5.339e-03,S0X_time_8.301e-03,S0X_time_1.338e-02,S0Z_time_1.086e-05,S0Z_time_3.256e-05,S0Z_time_5.426e-05,S0Z_time_8.680e-05,S0Z_time_1.411e-04,S0Z_time_2.279e-04,S0Z_time_3.689e-04,S0Z_time_5.860e-04,S0Z_time_9.115e-04,S0Z_time_1.411e-03,S0Z_time_2.192e-03,S0Z_time_3.418e-03,S0Z_time_5.339e-03,S0Z_time_8.301e-03,S0Z_time_1.338e-02
0.0,0.0,0.0,0.0,120.0,0.0,0.0,0.0,0.0,-107.0,0.0,-45.0,0.0,0.0,0.0,34.27253218749016,17.55503396713325,10.39414363357581,9.634443467940656,9.152087678561998,8.624023533490469,7.976575483771961,7.30392323679667,6.426436750583202,5.543149494067933,4.66878202641993,3.603224078444876,2.5582470290394665,1.6011966306653582,0.8398385661230907,0.4438223952585765,0.1788434800948202,10.958546990661459,10.533856351194604,10.165235547834012,9.844211732496332,9.464370946465994,8.958532252230793,8.294736076279944,7.59158955711111,6.758000571538056,5.751952960423652,4.600714282357659,3.369982273322618,2.1685255771305534,1.189727119189569,0.5700646101442342
0.0,1.0,1.0,0.0,120.0,0.0,0.0,0.0,0.0,-107.0,0.0,-45.0,0.0,0.0,0.0,34.27253218749016,17.55503396713325,10.355485986887555,9.567290123595232,9.183756822042694,8.692222249175638,7.956226583329817,7.274862821600116,6.376778429932907,5.529563748180689,4.57853487299999,3.610285640736034,2.5512232970593813,1.5672914626501564,0.9090083568209859,0.40681190811445134,0.1427380723780404,10.934224095040712,10.463772297339672,10.240377471221063,9.88603344147741,9.44330486711676,8.900853898402437,8.303387222344597,7.540290068962746,6.733693539548799,5.73254464847351,4.611905251519566,3.340590499392513,2.1515152440216356,1.2269662301280249,0.539815138750706
0.0,2.0,2.0,0.0,120.0,0.0,0.0,0.0,0.0,-107.0,0.0,-45.0,0.0,0.0,0.0,34.27253218749016,17.55503396713325,10.397836308847921,9.63561260839723,9.147839573874831,8.633510344236752,8.021169597110067,7.2065622871431385,6.402235348133244,5.53806651312287,4.483219490899675,3.547684074500389,2.5317921374365606,1.565318380578771,0.8796942469227153,0.34501714232756703,0.10308594808518988,10.910519606861147,10.511444711734518,10.240217691586665,9.917156419061927,9.445988529063197,8.918020253445228,8.30802525334593,7.587422952421799,6.7064985776071815,5.762568205712642,4.624472671322566,3.334908038454363,2.131873227039369,1.2177011473490889,0.545765393873027
0.0,3.0,3.0,0.0,120.0,0.0,0.0,0.0,0.0,-107.0,0.0,-45.0,0.0,0.0,0.0,34.27253218749016,17.55503396713325,10.43364458546353,9.630777781685524,9.207688987566279,8.669787785062246,7.97948438005231,7.23139849924892,6.397390433409305,5.433936257861057,4.5423189803749535,3.5824807392232003,2.5344107798301425,1.5263104531165137,0.8160032090935475,0.3632876329146794,0.14406195422028573,10.968997860242359,10.540125441357464,10.18217727840948,9.913829685660287,9.481487091351802,8.935653398229796,8.317224311111847,7.582875934431303,6.7821290984447025,5.762178459624872,4.623381469986711,3.298613766406306,2.125242098973373,1.1350670562178975,0.5548969580920423
0.0,4.0,4.0,0.0,120.0,0.0,0.0,0.0,0.0,-107.0,0.0,-45.0,0.0,0.0,0.0,34.27253218749016,17.55503396713325,10.393341842266567,9.561375862282642,9.102277403767769,8.610860336507308,7.991481959731148,7.25026132685261,6.389816939169418,5.485055735634092,4.52748741361535,3.6046094017050154,2.5046545936583264,1.5750518739802462,0.8310876870742926,0.3764948786793041,0.14993649364558764,10.959129574419244,10.503045847834516,10.270486270620625,9.886121399907193,9.4431033629993,9.015632818866255,8.350381063759723,7.541082613828193,6.704551990903484,5.757198923824378,4.587807262395029,3.3049114799891317,2.069479924960792,1.1414250542758655,0.5376233627815004
0.0,5.0,5.0,0.0,120.0,0.0,0.0,0.0,0.0,-107.0,0.0,-45.0,0.0,0.0,0.0,34.27253218749016,17.55503396713325,10.370019092371392,9.581787699017028,9.258379953016892,8.691525762587705,8.000409560533832,7.269325881670945,6.37575455376252,5.453286355108038,4.49289855934567,3.5664748651667195,2.48803349927191,1.5475897037712485,0.7876661271840277,0.41369941645090025,0.14190949926038313,11.029956036576326,10.543515139452923,10.242800700956495,9.910442218255145,9.487814353014574,8.989892783920121,8.289125250587283,7.593055394800512,6.7458322265875195,5.734592843596116,4.555187363696292,3.2819535075232746,2.0906390842484828,1.1362754146164027,0.5031544282998603
0.0,6.0,6.0,0.0,120.0,0.0,0.0,0.0,0.0,-107.0,0.0,-45.0,0.0,0.0,0.0,34.27253218749016,17.55503396713325,10.303819853134883,9.643795411692386,9.167248121483514,8.611393412528857,7.986602044080349,7.357470763744638,6.440882159144522,5.484611257437911,4.515830699141389,3.5410425442701166,2.4786533254657157,1.5785734420451232,0.8013400864594167,0.3289405515671664,0.05585901952528792,10.910364452628725,10.542710060913082,10.24108116644385,9.869202349801037,9.49607946114892,8.941019335242238,8.305539381673828,7.513015197262164,6.7670755101052915,5.754039584805279,4.537401752352192,3.278816279716913,2.0676303958766167,1.1408381738000788,0.4974210848600335
0.0,7.0,7.0,0.0,120.0,0.0,0.0,0.0,0.0,-107.0,0.0,-45.0,0.0,0.0,0.0,34.27253218749016,17.55503396713325,10.458990865352353,9.639293903827934,9.215715554730012,8.657208937228074,7.992395579567931,7.239045253907742,6.432571131911821,5.489299387520059,4.562327149938188,3.525302327281051,2.5131774566898204,1.5316837444733227,0.7916367370023435,0.3560739417098562,0.134653921569458,10.948849270506882,10.5292859442995,10.266567422165094,9.868175267804826,9.432656079919418,8.945811072549441,8.32262122418811,7.573490574527655,6.741994096505163,5.71911760939112,4.539773601632503,3.26628341588158,2.059299022775813,1.146901608932133,0.49220108864150597
0.0,8.0,8.0,0.0,120.0,0.0,0.0,0.0,0.0,-107.0,0.0,-45.0,0.0,0.0,0.0,34.27253218749016,17.55503396713325,10.479328152789806,9.716243107490111,9.159255279200606,8.648850684991483,8.020385635831484,7.329143762422257,6.406176313450219,5.484152193976042,4.550207805444871,3.48199427238985,2.4773404275886324,1.5090371408381826,0.7465890716024681,0.35892733387970854,0.08008305697410914,10.967978700212655,10.545226894822983,10.266757883896123,9.922940820967412,9.469658627428911,8.947350999716836,8.29493438615122,7.623424683774771,6.728434359565918,5.722612126130977,4.527958035696066,3.261183143257461,2.0465906921555104,1.1321977779104286,0.5384996032843988
0.0,9.0,9.0,0.0,120.0,0.0,0.0,0.0,0.0,-107.0,0.0,-45.0,0.0,0.0,0.0,34.27253218749016,17.55503396713325,10.383942872606823,9.622299163807677,9.24700787603914,8.61410011481559,7.991341434314755,7.267324030773355,6.392113496242698,5.543965158524742,4.523161323261807,3.518049935906799,2.4528025301069674,1.49066198607694,0.8190539846959317,0.3441410865172355,0.09963426081032098,10.946169652959119,10.551237899158313,10.253728196034647,9.900761116295723,9.448103879578488,8.99535847897663,8.298717215287098,7.6076269444333775,6.795569641498646,5.728850573267176,4.522281164597284,3.23023429917889,2.02010169379659,1.133890143805897,0.4688921606930462
0.0,10.0,10.0,0.0,120.0,0.0,0.0,0.0,0.0,-107.0,0.0,-45.0,0.0,0.0,0.0,34.27253218749016,17.55503396713325,10.44001356224051,9.714103493166233,9.223396945697385,8.632535226466956,7.976520864873004,7.236333270185596,6.471275464805694,5.441422690485784,4.569296454053749,3.5185287034587533,2.4702095328645797,1.4634382326414597,0.7771742775634856,0.3047308448182924,0.03334526897879439,10.963968018327456,10.530671973639686,10.241607234641956,9.971561073114714,9.524614455988061,9.010696941811082,8.297565807735637,7.614624602134198,6.7809267704967855,5.7734051594359705,4.580622186892315,3.179411121437446,2.0070385142687504,1.1092928974418372,0.49208597016288175
0.0,11.0,11.0,0.0,120.0,0.0,0.0,0.0,0.0,-107.0,0.0,-45.0,0.0,0.0,0.0,34.27253218749016,17.55503396713325,10.313563031858925,9.654522215138861,9.232225784349957,8.633556831252106,8.08892135101813,7.2500639502185535,6.4367183058103015,5.552414941052067,4.570716207744707,3.5068428281056745,2.4471426087654273,1.4744569932431817,0.7507745683428638,0.3380457646446864,0.1547628693313194,10.969877709370724,10.555937225899052,10.255998393230353,9.948561663477097,9.507287406958872,9.001540187375982,8.315160639169147,7.569486299254192,6.798894580069953,5.72727764744645,4.510115688674945,3.2012512955955446,1.989707506787074,1.1151655713642066,0.458363954958143
0.0,12.0,12.0,0.0,120.0,0.0,0.0,0.0,0.0,-107.0,0.0,-45.0,0.0,0.0,0.0,34.27253218749016,17.55503396713325,10.479822610653622,9.592806876608476,9.19611065472896,8.70033023340589,7.9508649887634855,7.307084175610468,6.450314667377503,5.539390549640241,4.49600675990563,3.5030111141873697,2.4281070758128087,1.4440865678272443,0.7759267710179878,0.2982991888689067,0.08525312660938271,11.006067521463871,10.517381175977308,10.284807872674236,9.988344543972271,9.477570067399375,8.956493267865202,8.369747092401228,7.589621208028638,6.76206385431177,5.748582036422282,4.528591861511285,3.181419692993553,2.0165211123543116,1.055649035325892,0.4780406346537489
0.0,13.0,13.0,0.0,120.0,0.0,0.0,0.0,0.0,-107.0,0.0,-45.0,0.0,0.0,0.0,34.27253218749016,17.55503396713325,10.524176353182797,9.670665454787855,9.210641379920515,8.657007068697771,8.099273666129127,7.336964562043968,6.433814217994048,5.5177347317335315,4.56729752421335,3.5232603561722904,2.463909637056064,1.4739969200458496,0.8032101407667788,0.3246255240932232,0.08130971071066648,10.979334008906099,10.558144144007228,10.252576650459456,9.936778416210695,9.485274400649917,8.981882775123887,8.362635184379393,7.613890877982265,6.763043270226871,5.6790576165298265,4.4735689097884075,3.1949958882316376,1.9702556919090513,1.0417467763554322,0.49409863891072586
0.0,14.0,14.0,0.0,120.0,0.0,0.0,0.0,0.0,-107.0,0.0,-45.0,0.0,0.0,0.0,34.27253218749016,17.55503396713325,10.373891545799161,9.634439506735527,9.225995572996764,8.666931592504874,7.989575645244602,7.238397311550201,6.418530998759429,5.511051863628816,4.5288276163658985,3.4583530110180196,2.4384965058960146,1.4435273921657024,0.7058910571020084,0.27527660981177954,0.027751032831151018,11.016430119151021,10.549653051403293,10.241712622135683,9.958245496264182,9.465613932864784,9.004520329225267,8.312213013660866,7.60338157547758,6.730202676624099,5.7563985250186605,4.4713700448904605,3.1701951480902317,1.9322160616458754,1.0708603103959717,0.47576178450179524
0.0,15.0,15.0,0.0,120.0,0.0,0.0,0.0,0.0,-107.0,0.0,-45.0,0.0,0.0,0.0,34.27253218749016,17.55503396713325,10.424044779135729,9.621693934290423,9.220366770604778,8.645791331198755,8.004943470589211,7.330665152727609,6.346485508767127,5.547169813264419,4.505846365670459,3.5145145958852955,2.430479047948763,1.4970546118843433,0.7209425149491274,0.31543973044920603,0.08350750559663131,11.023247335292854,10.52407915020596,10.300722700696905,9.948952243493627,9.49715260746342,8.975547003819322,8.361898742725256,7.63746599650905,6.780689794904502,5.691481863688292,4.407693528782921,3.1294213332039402,1.9124687156817692,1.077499337099772,0.4516512708836916
0.0,16.0,16.0,0.0,120.0,0.0,0.0,0.0,0.0,-107.0,0.0,-45.0,0.0,0.0,0.0,34.27253218749016,17.55503396713325,10.46308719844251,9.632934232047438,9.234429238565752,8.615331131764737,7.995827011848895,7.227748158326625,6.408053153341712,5.408003415845035,4.450295789549657,3.4295515998955577,2.3883478166497834,1.4208455704920593,0.6765549586170829,0.3639647284731674,0.12734624247057671,11.05915997151209,10.564915463804805,10.237205239442318,9.921342059818983,9.454472167338496,8.998430380394298,8.35058351158202,7.628946755792074,6.757972044558685,5.714965402217326,4.461223368621961,3.141641960038226,1.9259163689883307,0.9775647486028782,0.4516209588183487
0.0,17.0,17.0,0.0,120.0,0.0,0.0,0.0,0.0,-107.0,0.0,-45.0,0.0,0.0,0.0,34.27253218749016,17.55503396713325,10.416736103267747,9.655906112245559,9.177060550275826,8.726282147829375,7.980816017704934,7.228407626448133,6.409077278884709,5.47099270004641,4.501199788360033,3.521847098683446,2.348369072332116,1.3861802259584792,0.681265140170472,0.33750803758258874,0.12861706216446106,11.032195259977183,10.589829104379765,10.253063952133134,9.98423429184512,9.528081819954785,8.967060556148983,8.394469891973978,7.604834300167786,6.736410771603241,5.704137557662337,4.454601790347505,3.0997882542109085,1.8784096524062244,1.03594404300638,0.43303195763695984
0.0,18.0,18.0,0.0,120.0,0.0,0.0,0.0,0.0,-107.0,0.0,-45.0,0.0,0.0,0.0,34.27253218749016,17.55503396713325,10.410439702338154,9.66403766723171,9.149571704922163,8.751143343900313,8.056326476249463,7.357441132207228,6.3745741905317,5.509636003250638,4.568118713707526,3.422386201738767,2.3349806428202253,1.3433646034172186,0.6476501811126706,0.2916757346860274,0.10818326408680401,11.034739766573248,10.568420260971099,10.251431175604539,9.963675875315202,9.553317263476947,9.03664994218638,8.361202579307342,7.6520910414066075,6.764119559528278,5.658445256004556,4.432230088363382,3.095261713939987,1.9327396754652697,0.9927306502949812,0.4739386190765603
0.0,19.0,19.0,0.0,120.0,0.0,0.0,0.0,0.0,-107.0,0.0,-45.0,0.0,0.0,0.0,34.27253218749016,17.55503396713325,10.40803556839867,9.678666140056782,9.270721695233032,8.661058322930325,8.001389460415162,7.233538804517176,6.421911838495983,5.460106029744722,4.518435437486586,3.4281565013705215,2.4087134276385185,1.451736769052096,0.7549112851263382,0.28187664656176414,0.14951887143886544,10.99423933144476,10.537965133663192,10.257232292730114,9.991800511818195,9.585397672864877,9.041539514340403,8.394004187364226,7.63508123145651,6.750991182009576,5.675998157146204,4.397787775557249,3.080353824454199,1.8497527910175398,0.9871647332318471,0.47132483996787483
0.0,20.0,20.0,0.0,120.0,0.0,0.0,0.0,0.0,-107.0,0.0,-45.0,0.0,0.0,0.0,34.27253218749016,17.55503396713325,10.39443996766914,9.673923636290302,9.215733833087302,8.699961906894265,8.02456492974657,7.271256793854999,6.463057013697199,5.484248715860937,4.54243757819079,3.4480140894470046,2.3446577940619013,1.331088316694159,0.6425239684066166,0.25113805501628644,0.09473300797048993,11.046908943927107,10.624650909879719,10.294337580568616,9.975237512650095,9.52858338372873,8.999798753656519,8.339256713136328,7.6250356305763685,6.7840229126995535,5.695613427137866,4.408851675565014,3.0608527017387765,1.8535357054572723,0.9999443999678704,0.4387776802718523
0.0,21.0,21.0,0.0,120.0,0.0,0.0,0.0,0.0,-107.0,0.0,-45.0,0.0,0.0,0.0,34.27253218749016,17.55503396713325,10.436593375018697,9.63720601102633,9.164138545567331,8.619353476551314,8.073542350707616,7.314969776701798,6.455379293537728,5.485186611755747,4.493930571611699,3.4574441515742116,2.324769271142062,1.3917893383734004,0.6959448155615152,0.2944162552812538,0.052672613072675345,11.035260104991107,10.597538735228424,10.348853775731671,9.974427107215734,9.574316251979122,9.016384918273197,8.329937073757637,7.632910034954096,6.782213937055017,5.6471490887755,4.38237263832772,3.030377540997019,1.8502479287338063,0.9708270970031372,0.38875115263957555
0.0,22.0,22.0,0.0,120.0,0.0,0.0,0.0,0.0,-107.0,0.0,-45.0,0.0,0.0,0.0,34.27253218749016,17.55503396713325,10.359948212514885,9.715952539557142,9.166574819052704,8.672507139141619,8.051172230191002,7.352027323909873,6.474513651629284,5.550637489861437,4.434718015035935,3.4030624233025253,2.263071621433076,1.3447538947272641,0.6788435046603621,0.2957362813151929,0.107737107598708,11.084728790455866,10.61250217873413,10.300419976294783,10.00635217580495,9.516676605199343,9.022177627260998,8.444452042205562,7.6769072887854755,6.736550790564395,5.7218707598690095,4.350764756970365,3.023751448655691,1.8567755838385616,0.9475301496289801,0.3597854377599857
0.0,23.0,23.0,0.0,120.0,0.0,0.0,0.0,0.0,-107.0,0.0,-45.0,0.0,0.0,0.0,34.27253218749016,17.55503396713325,10.453648102171412,9.593302426215919,9.162194302036657,8.667687856147143,8.033461665793471,7.2493075231161335,6.355595395482162,5.498742241920422,4.541989425521421,3.463104352152819,2.3158573627313768,1.3285918163051214,0.611422599800281,0.3117177019265317,0.11769113566296395,11.068232000843441,10.584768034513809,10.29434783574371,10.006570984672889,9.579608592900163,9.056531810519363,8.4499911005256,7.610614274084715,6.759080718792403,5.685760644919128,4.365163255324698,3.0319243249526204,1.81277361352589,0.928486651400659,0.40211995304157094
0.0,24.0,24.0,0.0,120.0,0.0,0.0,0.0,0.0,-107.0,0.0,-45.0,0.0,0.0,0.0,34.27253218749016,17.55503396713325,10.531865933287394,9.699883285536902,9.183597031215013,8.698754622946499,8.056383571583908,7.3406246754382245,6.387883636573334,5.477039868783765,4.494855851907794,3.3630414721793076,2.3167342365161985,1.2945558523561287,0.6134669486409976,0.24398394147894167,0.15244770499040905,11.077030168595774,10.625041728651995,10.326703609725048,9.93905309817657,9.469034828897426,8.99397826486463,8.383725200423616,7.603847185159777,6.745724529690499,5.644467359972318,4.324694372550241,2.979371224737357,1.7802477469121583,0.8948493218397536,0.34861637857177646
0.0,25.0,25.0,0.0,120.0,0.0,0.0,0.0,0.0,-107.0,0.0,-45.0,0.0,0.0,0.0,34.27253218749016,17.55503396713325,10.4496848301176,9.715942294069691,9.171097953354455,8.714321072904404,8.121684993019047,7.382246917207143,6.489511959560985,5.508370096922446,4.427445257522878,3.3565330491873824,2.213554446310598,1.306774315945571,0.5841979727182828,0.19359453065639115,0.10134135268557912,11.007378521177392,10.54739159669141,10.27288650042263,9.966115938041066,9.583286937474226,9.051440107844662,8.43399052021163,7.660628547683298,6.787401948026198,5.584965048491378,4.277646533490683,2.9577749613265762,1.7643172013373414,0.9063894465769696,0.3607329924434751
0.0,26.0,26.0,0.0,120.0,0.0,0.0,0.0,0.0,-107.0,0.0,-45.0,0.0,0.0,0.0,34.27253218749016,17.55503396713325,10.430840120501477,9.618079687951383,9.16985199823253,8.63643663143411,8.014382211716361,7.371913859052669,6.48749132587754,5.478769209678892,4.490422288766067,3.394215322016048,2.2152079179492135,1.3292865431188614,0.5793237821396008,0.26738106952276386,0.10585469998801482,11.067492087447686,10.678286846556324,10.340095173913028,10.006669101602816,9.601159608982638,9.023193271932147,8.432478732315342,7.682321191822878,6.734560033136284,5.597033474806878,4.312866929859196,2.9635343868045254,1.7494665649345216,0.8744045535525077,0.39900637891994534
0.0,27.0,27.0,0.0,120.0,0.0,0.0,0.0,0.0,-107.0,0.0,-45.0,0.0,0.0,0.0,34.27253218749016,17.55503396713325,10.396881571658154,9.708164444845396,9.322448391592784,8.762102260068682,8.098208896327328,7.306110971491604,6.45996089038686,5.478637809773342,4.442825901348508,3.387414137415265,2.2134588696730555,1.3065149801677898,0.5937615179019853,0.27924458956610865,0.06875099751503604,11.018849577975958,10.61042404689595,10.327503336443707,10.048122125824294,9.583942172661613,9.030404442948292,8.396343132517652,7.656793769392201,6.7253058417420215,5.624129392562908,4.256466166072191,2.916961288292019,1.7240244299790137,0.8935532346657423,0.39871054751232193
0.0,28.0,28.0,0.0,120.0,0.0,0.0,0.0,0.0,-107.0,0.0,-45.0,0.0,0.0,0.0,34.27253218749016,17.55503396713325,10.358077546560525,9.6907220588282,9.21218680034908,8.63036971071509,7.987913190631156,7.30008738981403,6.360029193930934,5.473633654789879,4.4766329548360835,3.3633105522678135,2.1289901878185726,1.2860340683281708,0.5787602513937665,0.26224112710734826,0.10477705587495897,11.061857203096933,10.617406048800074,10.293516745292093,10.057172128764718,9.579384550569339,9.027838987287277,8.355227862094376,7.6974414953626935,6.780580202783087,5.581005641042158,4.284047306478517,2.8799524737164868,1.692635826887244,0.9030406496193094,0.3766333927110483
0.0,29.0,29.0,0.0,120.0,0.0,0.0,0.0,0.0,-107.0,0.0,-45.0,0.0,0.0,0.0,34.27253218749016,17.55503396713325,10.44105468841875,9.776063362271863,9.14013171926175,8.680118639199558,8.040689843495993,7.235238675338872,6.431793921143552,5.478422303991048,4.468199869071444,3.2546606996688743,2.1933717473822774,1.306535545640472,0.604444532090534,0.27176679645944474,0.11994999588281002,11.099971653870071,10.675438622225577,10.353609406205399,10.028919772307068,9.618657722957376,9.074855562267125,8.466197342358855,7.647792546875123,6.762328344136084,5.595202921189296,4.2928650874322365,2.8424722520762935,1.6818016149662567,0.8737849729400669,0.354734760523387
0.0,30.0,30.0,0.0,120.0,0.0,0.0,0.0,0.0,-107.0,0.0,-45.0,0.0,0.0,0.0,34.27253218749016,17.55503396713325,10.432842941866397,9.642844314300302,9.138385612197604,8.685746508854868,8.088405814690475,7.322837380485932,6.356156566377495,5.510293264660936,4.502673919781782,3.273046705161774,2.2343470109038663,1.1953773117203896,0.6334379344477679,0.2153195155083091,0.11498782300302504,11.013946265748059,10.693239916396701,10.354622417228155,10.038902265316832,9.604313827557636,9.047043679713664,8.39039144319805,7.681378779302889,6.711120614962884,5.5618227284696635,4.232239236871335,2.8505482172012764,1.6727762151095964,0.8551967562573108,0.37074027466611115
0.0,31.0,31.0,0.0,120.0,0.0,0.0,0.0,0.0,-107.0,0.0,-45.0,0.0,0.0,0.0,34.27253218749016,17.55503396713325,10.416164628776823,9.67316108938961,9.345090404061702,8.658687626227499,8.030100264065823,7.241314835569378,6.390260878815537,5.470527663300506,4.47261699108063,3.244323450947339,2.1565903502059895,1.2205495187740976,0.4976312704324861,0.2128417171018691,0.09009155933188961,11.072110079562965,10.665144447067382,10.32011031782848,10.057635980354725,9.609754712395015,9.020741744816789,8.431804639045396,7.682056186580339,6.734439695793333,5.574481179324127,4.220036920735388,2.8210630207918874,1.6383063453386717,0.8347689847346912,0.3279244097089802
0.0,32.0,32.0,0.0,120.0,0.0,0.0,0.0,0.0,-107.0,0.0,-45.0,0.0,0.0,0.0,34.27253218749016,17.55503396713325,10.476725571793432,9.660913693314358,9.250597197390187,8.691190280573345,8.081013575634266,7.283244346111551,6.486847546882556,5.476478168113504,4.379787600572995,3.268402517658744,2.1845102699929666,1.2372383938621137,0.5637580484579255,0.17099553667720818,0.10464173485553592,11.023425321890144,10.621473175940226,10.383219080769585,10.057936009853796,9.577488774295697,9.048161708037934,8.443317292244384,7.6976268666900785,6.70917178447332,5.540337549047221,4.180309721970164,2.792281443002982,1.6189441651459069,0.8197692271702761,0.3200474780341459
0.0,33.0,33.0,0.0,120.0,0.0,0.0,0.0,0.0,-107.0,0.0,-45.0,0.0,0.0,0.0,34.27253218749016,17.55503396713325,10.414639908241341,9.599410572941029,9.261457663689486,8.648257478724252,8.084681683258722,7.369564646374774,6.373621965970262,5.48091889174028,4.390704622804737,3.255986215066098,2.115243673070817,1.1601196465020391,0.578898860284266,0.18029569958508926,0.07278204449895412,11.052502777294057,10.714937968011215,10.349998561582415,10.054887102830378,9.580232516008266,9.06968623674121,8.459374203338966,7.619775565813463,6.705285697844966,5.556992954749638,4.174197687424472,2.7855635738345406,1.6160668128401208,0.8278081252514752,0.3357713264010926
0.0,34.0,34.0,0.0,120.0,0.0,0.0,0.0,0.0,-107.0,0.0,-45.0,0.0,0.0,0.0,34.27253218749016,17.55503396713325,10.458564140573712,9.6487175879195,9.204960112685514,8.658765228467017,8.009325234679345,7.305279416330726,6.408664443778355,5.5333817680888515,4.497605600001247,3.3059945472990813,2.155821363932683,1.2044188129261395,0.5722236760010284,0.16927857014213987,-0.003276255253204602,11.080387114709637,10.641597547465249,10.431841607857839,9.998491043819971,9.671009262864017,9.048684623020623,8.43705106591171,7.61405676906658,6.748233900681868,5.512415977321249,4.106940777803034,2.7950931799030627,1.5512581180472582,0.8189875836485422,0.31327888018850747
0.0,35.0,35.0,0.0,120.0,0.0,0.0,0.0,0.0,-107.0,0.0,-45.0,0.0,0.0,0.0,34.27253218749016,17.55503396713325,10.451704574583186,9.722753036027603,9.212508885118773,8.74225971790406,8.039169059351648,7.2810957046933815,6.383316534102913,5.392067423028389,4.312870808786829,3.261463728543896,2.084264167441146,1.1946971129723458,0.6085840105143353,0.24883991508647296,0.02157309251314623,11.075758441457854,10.637161758804787,10.39870507047706,10.05835079947567,9.582227301245002,9.12618910779951,8.428378748032973,7.6349402851863895,6.717423243598472,5.468717145983694,4.145540475199348,2.789908149891004,1.609409385833879,0.7858449481219698,0.35259012956751884
0.0,36.0,36.0,0.0,120.0,0.0,0.0,0.0,0.0,-107.0,0.0,-45.0,0.0,0.0,0.0,34.27253218749016,17.55503396713325,10.494171145832556,9.705142325627662,9.259425570226304,8.676134251693277,8.043368415977042,7.328126297393507,6.400449873188168,5.508686903586195,4.3581308424516205,3.243029403994169,2.0638383560636457,1.1781642080144226,0.5161276040386154,0.208555701409155,0.04122812409213321,11.104964515729248,10.636223570210616,10.41898688507995,9.995860763802023,9.60398829484349,9.071064450607572,8.449092665853136,7.660979299846529,6.70602912791115,5.497686282369249,4.0696081781801965,2.7464030548457727,1.5522294753484356,0.7652337942197277,0.3241611764301833
0.0,37.0,37.0,0.0,120.0,0.0,0.0,0.0,0.0,-107.0,0.0,-45.0,0.0,0.0,0.0,34.27253218749016,17.55503396713325,10.50074930053685,9.649632002241502,9.221881071757139,8.708851948144028,7.987272956277223,7.260441376292823,6.439585797463373,5.441282731772231,4.437882062835254,3.1560955518813354,2.0626711171675955,1.1542530825215718,0.49226124576135843,0.19041496924567874,0.0558558412058945,11.085064389194214,10.698306706310955,10.359499796861487,10.04873372306304,9.595762603766245,9.041787673032559,8.37662393385644,7.6666745630339665,6.68335251403023,5.48641206199891,4.071969253690699,2.711655599080625,1.5206908361472264,0.7879667452945257,0.2787116488535124
0.0,38.0,38.0,0.0,120.0,0.0,0.0,0.0,0.0,-107.0,0.0,-45.0,0.0,0.0,0.0,34.27253218749016,17.55503396713325,10.451063235652796,9.646286743916214,9.1742604904494,8.70561139692628,7.9704093615034965,7.353695223691505,6.495805977965081,5.481444611777088,4.346789844389563,3.2232362171251796,1.9531305910721024,1.1074700113974492,0.5179922234599739,0.2098424732119004,0.06581649272825449,11.097823187165497,10.633324213564928,10.402677707361487,10.065540782757472,9.594287052876318,9.10226827378787,8.466256162009728,7.672027866983366,6.702197808292366,5.428995813420429,4.029782523265901,2.6441112470442496,1.5491156286147172,0.7738633415341306,0.2795708791225579
0.0,39.0,39.0,0.0,120.0,0.0,0.0,0.0,0.0,-107.0,0.0,-45.0,0.0,0.0,0.0,34.27253218749016,17.55503396713325,10.502475363508331,9.619906946590035,9.196840952799961,8.66208239755071,7.993615663414166,7.379993078895625,6.392087925759217,5.481189532958017,4.35025092390987,3.1357471513171036,2.0065034566100004,1.088273495449689,0.5178197766100285,0.22272224411975325,0.05268723836129785,11.13126864430784,10.675379475954701,10.39232975771188,10.01790672107154,9.668595219417023,9.148438010853157,8.424921180205416,7.640086582702724,6.675177605128376,5.442494811138149,4.037769264222964,2.625818898224432,1.5169677747791648,0.7312052537141579,0.28216733985017034
0.0,40.0,40.0,0.0,120.0,0.0,0.0,0.0,0.0,-107.0,0.0,-45.0,0.0,0.0,0.0,34.27253218749016,17.55503396713325,10.434266524292077,9.639586787266884,9.163062253750036,8.669352740056922,8.053745334516382,7.270876513338325,6.433536720532756,5.413207708386461,4.337458542144036,3.1685276856559104,1.971336186528857,1.136178194698707,0.5145647168110825,0.23700887337637594,0.07856895083768628,11.137235996076377,10.691011375717517,10.383898832906405,10.050581478185272,9.60467762492767,9.092746690897762,8.47843848486036,7.643198774607144,6.652209094482488,5.394224801796869,4.036693989352716,2.6044865000893163,1.455484055192034,0.7539859915225668,0.30379287734551486
0.0,41.0,41.0,0.0,120.0,0.0,0.0,0.0,0.0,-107.0,0.0,-45.0,0.0,0.0,0.0,34.27253218749016,17.55503396713325,10.483765095773814,9.66753699099865,9.235133779249255,8.709697827113137,7.9959150300158495,7.33911631160417,6.432074301763499,5.399314660663009,4.335003059151469,3.118510311814092,1.9749136978366775,1.0948250219253077,0.46873449941576795,0.21923173408110075,0.046390793840885645,11.13692112914837,10.722643009602296,10.409459749893895,10.044854930867961,9.642207584007176,9.101925246561747,8.435318622524854,7.5969914162302015,6.648835559583666,5.44908404240685,4.008529588125816,2.614012675202072,1.4171670972097532,0.6788645810636647,0.27474430421722523
0.0,42.0,42.0,0.0,120.0,0.0,0.0,0.0,0.0,-107.0,0.0,-45.0,0.0,0.0,0.0,34.27253218749016,17.55503396713325,10.394908190378771,9.654025239320697,9.201754427129977,8.73282664025438,8.063894431471448,7.3254448657525195,6.328738445009779,5.450863419604838,4.317134718344758,3.1389397773845458,1.9425965035935377,1.0733820343219473,0.4496721503424457,0.09058168852892139,0.07129384485096475,11.092416668142965,10.682678376800991,10.419473160423252,10.070807752589703,9.661523361601109,9.10144622573826,8.372813039474414,7.681403033379208,6.600854851294963,5.346992894171259,3.961878017568696,2.5651983411901242,1.4226680908490563,0.6648176377821046,0.31663384823644675
0.0,43.0,43.0,0.0,120.0,0.0,0.0,0.0,0.0,-107.0,0.0,-45.0,0.0,0.0,0.0,34.27253218749016,17.55503396713325,10.434907083896782,9.646071757452306,9.177848668217619,8.745391523402404,8.042076001731704,7.31347088091299,6.402540489544849,5.45760334198234,4.289786992256622,3.163240605876144,1.9582260809545795,1.103907587269608,0.46246286964578565,0.15410832179247655,-0.011304178632117953,11.106871058733672,10.654890076931709,10.397326879693745,10.078786548913799,9.631333996777776,9.112912040456663,8.466066871876375,7.61639501140893,6.552353945384825,5.276224497991826,3.93273759858679,2.5497600558104594,1.4338578224479013,0.7308292802270411,0.2860395709657743
0.0,44.0,44.0,0.0,120.0,0.0,0.0,0.0,0.0,-107.0,0.0,-45.0,0.0,0.0,0.0,34.27253218749016,17.55503396713325,10.474155870126662,9.679309874879293,9.23272466071096,8.667259305597963,8.069041597965638,7.2878640390074425,6.505510927076209,5.514785465491284,4.345632362029811,3.105056113154762,1.9110826451893939,0.9617860976436755,0.5070172215063051,0.11909797648535395,0.03373184305588433,11.12454786469064,10.684971798406231,10.42229714421978,10.070531979266208,9.644883678439948,9.10029627942984,8.467061446491087,7.6530502981674475,6.6302213914285435,5.330726204017799,3.8681418735070547,2.507966969334438,1.3882911556913506,0.6640955911272265,0.3089828156085431
0.0,45.0,45.0,0.0,120.0,0.0,0.0,0.0,0.0,-107.0,0.0,-45.0,0.0,0.0,0.0,34.27253218749016,17.55503396713325,10.426395470001598,9.632031974207488,9.209959063500781,8.69848983130027,8.016370021219114,7.268823234224846,6.372142355376761,5.327751657219307,4.244817945037559,3.0391273838051154,1.9237825368469925,0.9826455450305867,0.4443358313912876,0.18123485427081876,0.033640558259864166,11.111922854861415,10.682566637868518,10.391175011982194,10.038975748213254,9.690760064756168,9.13479071750175,8.419555298986998,7.6814485240117945,6.6185747722900565,5.3268243565517785,3.8575730028284734,2.4635229565955186,1.394247788297575,0.6778100330191273,0.28000990202839776
0.0,46.0,46.0,0.0,120.0,0.0,0.0,0.0,0.0,-107.0,0.0,-45.0,0.0,0.0,0.0,34.27253218749016,17.55503396713325,10.533842881191822,9.64203908541386,9.191900765526524,8.718897095383248,8.043032420662119,7.299267580005558,6.467948135470964,5.405511504963154,4.242835000326655,3.0029272639817277,1.9046982026313324,1.0178349752623932,0.4139499968550297,0.13463322069793895,0.00034620716451579797,11.155962528348853,10.732868634277354,10.388005108533626,10.050442220664712,9.655698852428243,9.087880178170634,8.450817296087203,7.647551520552399,6.580522393135146,5.3149213666681305,3.831030994543553,2.433240974988277,1.391401401082044,0.6556619288082753,0.2628169703473245
0.0,47.0,47.0,0.0,120.0,0.0,0.0,0.0,0.0,-107.0,0.0,-45.0,0.0,0.0,0.0,34.27253218749016,17.55503396713325,10.453229663215378,9.68361262985056,9.17018241945969,8.7009094142686,8.030584161347635,7.3043339722237315,6.40799523543423,5.404298518740641,4.215986319447411,2.9421227104208802,1.9059310587076206,1.0226427891482628,0.45999463742133545,0.11520464003984957,0.07872443447605174,11.154974894948323,10.739825420379626,10.42784748589275,10.061398127379933,9.630265031094728,9.104946859327859,8.532003560297628,7.633243358824926,6.560874873026562,5.270224287949593,3.7911921145124605,2.450820534660009,1.345474979582653,0.6319593697422707,0.2852060898179011
0.0,48.0,48.0,0.0,120.0,0.0,0.0,0.0,0.0,-107.0,0.0,-45.0,0.0,0.0,0.0,34.27253218749016,17.55503396713325,10.439386556005822,9.716097173599305,9.246351886865043,8.689555966010538,8.090563354426841,7.3035113320539935,6.350292727023795,5.384392637728443,4.190804918948079,2.9368661976437824,1.8797337102691176,0.9254358754605615,0.4422703414299016,0.13631955853120653,0.04125576567519304,11.159108289136901,10.750395501222021,10.413926658163147,10.061092979248743,9.652533880090626,9.170334599709621,8.543010743680714,7.571989217187319,6.530251850440387,5.237563076981948,3.7308464090128313,2.332340527395957,1.301218945445439,0.6115324254674835,0.2747652980311577
0.0,49.0,49.0,0.0,120.0,0.0,0.0,0.0,0.0,-107.0,0.0,-45.0,0.0,0.0,0.0,34.27253218749016,17.55503396713325,10.407883139129533,9.665460020314152,9.206629104433057,8.764538021109729,8.075048514419588,7.345165424969859,6.449823211483063,5.374747267820933,4.182884385797553,2.901809268678537,1.8174724388494725,0.9225768673122491,0.40628824396741375,0.2017757248589333,-0.012758241265205972,11.134319626434111,10.74597882495432,10.422371703296868,10.033027893009558,9.67158333334141,9.12511774396706,8.47197372000044,7.559677215744736,6.537748774556281,5.227963780594728,3.749635307694408,2.3810460472191735,1.2650737812609592,0.6243609620283718,0.2290527726376863
0.0,50.0,50.0,0.0,120.0,0.0,0.0,0.0,0.0,-107.0,0.0,-45.0,0.0,0.0,0.0,34.27253218749016,17.55503396713325,10.433827287602359,9.729877674910417,9.216744714937239,8.667414261574228,8.065199173000353,7.204235054367575,6.453365321833696,5.354450180088013,4.1467972870775975,2.9426279268435347,1.838527362212316,0.9512212345292889,0.3848951505157551,0.12764132975008707,0.025773582568269542,11.164992905313241,10.681698051938323,10.420514775794967,10.063881338290102,9.707378267082904,9.124675211192644,8.451495595058145,7.593816807331331,6.488696938508276,5.1744176477926,3.7348176181059025,2.332502284338171,1.2634727397049386,0.5740141240957654,0.2517648858647175
0.0,51.0,51.0,0.0,120.0,0.0,0.0,0.0,0.0,-107.0,0.0,-45.0,0.0,0.0,0.0,34.27253218749016,17.55503396713325,10.480266331215836,9.632985291066268,9.228220669043871,8.741174489546562,7.953808123213809,7.31813996048216,6.489663740881705,5.336814724574766,4.1920342813808675,2.9217214518868095,1.770002160937701,0.9169272129589422,0.36687023615582987,0.19468649875348973,0.07006894488912133,11.170099922955373,10.687033563333534,10.433318348582372,10.051253254958857,9.679164025128408,9.100292715161439,8.40364885754602,7.577339771839789,6.538550064349903,5.122778536447798,3.6725239650534727,2.2848714522454885,1.242593956778834,0.6072320125448153,0.20249349874884848
0.0,52.0,52.0,0.0,120.0,0.0,0.0,0.0,0.0,-107.0,0.0,-45.0,0.0,0.0,0.0,34.27253218749016,17.55503396713325,10.53529567761462,9.664071139855515,9.206304698006422,8.698805717506723,8.018650531598201,7.281113374884231,6.416253700369242,5.259522541527675,4.087820351379162,2.8952971599191866,1.8070766304534618,0.84103920202581,0.47774954368836564,0.17728098077733254,0.04755596618794822,11.171531910904017,10.713766563653328,10.371504902988045,10.088551856843312,9.651961894511668,9.146842521160462,8.475672806549069,7.585971817576392,6.476801502192252,5.133134344301072,3.638877806968455,2.246233011670544,1.2648581859010086,0.5870610818682329,0.2530350517061272
0.0,53.0,53.0,0.0,120.0,0.0,0.0,0.0,0.0,-107.0,0.0,-45.0,0.0,0.0,0.0,34.27253218749016,17.55503396713325,10.413815979564088,9.734698360749487,9.256326681287232,8.71117503520704,8.15352769106258,7.283682351600155,6.37837070605372,5.281024650955665,4.1287549061760735,2.8401566566466045,1.7978259242304515,0.9084943928224636,0.35418689658045704,0.11595470802609997,0.057976275353070816,11.154377668529182,10.72476095827907,10.400787513404552,10.126154558824,9.645912746244996,9.05714748519052,8.488167867174669,7.5680224533838585,6.487931583742217,5.108591706412557,3.594252568029217,2.2092824670995017,1.222475846992137,0.5701989110747986,0.21317252213659876
0.0,54.0,54.0,0.0,120.0,0.0,0.0,0.0,0.0,-107.0,0.0,-45.0,0.0,0.0,0.0,34.27253218749016,17.55503396713325,10.465805163694665,9.776472590384751,9.185239111658158,8.658736640985461,8.087761594875463,7.293706267580058,6.438952115277668,5.309886836079573,4.116556500561745,2.8048740347199583,1.6975011055648652,0.8532306074978233,0.3481993168059072,0.14845329008286398,0.08282472529451897,11.159945030396946,10.725476207569805,10.5092719757821,10.113817524092216,9.713451121887426,9.146454297293797,8.453691046158719,7.5973150447482745,6.427618638520061,5.039491660219329,3.5779313881292842,2.177453928210981,1.1696434576737127,0.5446475469417741,0.22454133937835524
0.0,55.0,55.0,0.0,120.0,0.0,0.0,0.0,0.0,-107.0,0.0,-45.0,0.0,0.0,0.0,34.27253218749016,17.55503396713325,10.37764063231587,9.717344720064814,9.217200700590016,8.681705937676867,8.072402294304577,7.340484021237648,6.422074324849863,5.21179089170908,4.0479215240081015,2.842785311744148,1.686905617536437,0.8809242700543778,0.33293070473758607,0.12509490514795446,0.06406897265122488,11.172203179786662,10.74436426232549,10.451665725972283,10.052182430995101,9.682000406912724,9.152337555070341,8.482410332483706,7.5558294451172365,6.407562131814743,5.038956352569204,3.5146781548433843,2.1824938709984845,1.135833365101733,0.5443502812044861,0.25637423929139636
0.0,56.0,56.0,0.0,120.0,0.0,0.0,0.0,0.0,-107.0,0.0,-45.0,0.0,0.0,0.0,34.27253218749016,17.55503396713325,10.404778965982967,9.69932646720777,9.157988894711801,8.682980102468106,8.101478896344268,7.33910925555049,6.446227652131861,5.287360665933908,4.0583438559509295,2.742818457590272,1.6415188826355418,0.8007829544829614,0.2983200701053361,0.1283808094021018,0.028731920197911487,11.172004648146784,10.710958607649669,10.445100025485907,10.067891333829305,9.715484704242002,9.100817450109856,8.448251305154379,7.556633664981512,6.385417701373056,4.948295057443643,3.482475879696006,2.1020302880917323,1.1328405997382052,0.4718982416544111,0.1942244874720874
0.0,57.0,57.0,0.0,120.0,0.0,0.0,0.0,0.0,-107.0,0.0,-45.0,0.0,0.0,0.0,34.27253218749016,17.55503396713325,10.516819748786073,9.667834781596419,9.235332098560917,8.665103260639105,8.027107920940184,7.251110326862161,6.4567807797984065,5.309128414653172,4.039663562978545,2.737866861815663,1.5452815007215632,0.7730865790354593,0.4048995542028868,0.0922098705311933,0.06755946114171166,11.149564797854111,10.76688591886636,10.459455900105434,10.150161758904858,9.677997997900217,9.20128458191468,8.453045910432579,7.577252899779219,6.390613421477781,4.9488160563633095,3.4451956809856714,2.08059207005847,1.123955355275126,0.511719141745923,0.23685151273549654
0.0,58.0,58.0,0.0,120.0,0.0,0.0,0.0,0.0,-107.0,0.0,-45.0,0.0,0.0,0.0,34.27253218749016,17.55503396713325,10.463788792938372,9.749927711947821,9.1500099821032,8.730291383518194,8.038799177133019,7.350506123424743,6.389733580343157,5.227121889496192,4.0043079083282755,2.665000572724136,1.5771637562364613,0.791964634693561,0.3043064916311486,0.18420725489123133,0.08504773673878425,11.219400523597539,10.743480424766258,10.517828614878784,10.149428635664334,9.70915461825799,9.149130664705126,8.447399469613398,7.5095986413383775,6.332092285705497,4.907033581187764,3.450889310707252,2.055557983247275,1.0756320989751997,0.49373083227009007,0.20141374381042695
0.0,59.0,59.0,0.0,120.0,0.0,0.0,0.0,0.0,-107.0,0.0,-45.0,0.0,0.0,0.0,34.27253218749016,17.55503396713325,10.482636987330592,9.712130651652826,9.218693342045658,8.757225498849166,8.011658147857407,7.299388647585486,6.2835032583393815,5.245979774789577,3.9519107772430933,2.6827859600863104,1.5649116769028437,0.7608178077100586,0.3422673702767135,0.16930765858257138,0.01975891314516584,11.164718441884018,10.75692248258148,10.483093748013296,10.09015927675452,9.682591479092801,9.219017385981413,8.450715078167482,7.507966704630394,6.257731492250141,4.8882362048593935,3.389792984031021,2.0532555198443716,1.0528668587900694,0.4419190089477022,0.2061993788005407
0.0,60.0,60.0,0.0,120.0,0.0,0.0,0.0,0.0,-107.0,0.0,-45.0,0.0,0.0,0.0,34.27253218749016,17.55503396713325,10.414176307976339,9.713548336266841,9.221980149687422,8.759296773332208,8.039369835125905,7.330655058692131,6.321622951004627,5.200708235840366,3.9104358942758153,2.63226124262054,1.524175514104545,0.768649872366445,0.34253141778757973,0.11767823712985107,0.006203366265925447,11.206363940788538,10.817837750962127,10.479646510207159,10.120656237179988,9.691864070753017,9.186234977234916,8.464392945419881,7.477638160776734,6.277564075685051,4.848041850652011,3.358075068241384,1.9931076122624216,1.022010284567238,0.4727587029864084,0.17024842148478603
0.0,61.0,61.0,0.0,120.0,0.0,0.0,0.0,0.0,-107.0,0.0,-45.0,0.0,0.0,0.0,34.27253218749016,17.55503396713325,10.479843494877462,9.788008568094044,9.256419820962535,8.806288928095757,8.044964484374852,7.246431347053058,6.307423394931744,5.164865154144781,3.85941456671034,2.5859627673376218,1.574289726973349,0.7174707891344189,0.3427840684865953,0.07766213247424544,0.06627320588507592,11.191997532577743,10.774951768704579,10.467610001742933,10.168495954748007,9.729844560050834,9.102523323076394,8.416295649899169,7.448175621751037,6.261290800823319,4.800575513526282,3.3009547874387066,1.9396643112323888,1.0351391666524843,0.4512428739040142,0.19433913995735597
0.0,62.0,62.0,0.0,120.0,0.0,0.0,0.0,0.0,-107.0,0.0,-45.0,0.0,0.0,0.0,34.27253218749016,17.55503396713325,10.47104007563584,9.66865406480316,9.192122310150511,8.641438841455361,8.010532125586327,7.290727193886244,6.308464357528632,5.160401769944416,3.885310137106573,2.5803679554930317,1.5525858047223526,0.7674995940145856,0.32339952023146984,-0.00020049176192421525,-0.027755348876213597,11.275387364882716,10.800118850094709,10.465572692403287,10.138262878100175,9.681606956932072,9.110033036979234,8.408815931986528,7.476493774614442,6.170248279972113,4.7885988521499945,3.269646520489623,1.9207817901475719,0.9740963164840154,0.42507588605166846,0.1421319459383787
0.0,63.0,63.0,0.0,120.0,0.0,0.0,0.0,0.0,-107.0,0.0,-45.0,0.0,0.0,0.0,34.27253218749016,17.55503396713325,10.418430444151818,9.747491518888912,9.229323418497454,8.683899052278814,8.037632751368205,7.335103518339992,6.235180551552399,5.1570671745264445,3.8892141300243988,2.619530418632489,1.5056000138014205,0.7179699254430665,0.2675309994079009,0.08599939967747892,0.05634491195697684,11.186516657585472,10.73289306396949,10.491432498291944,10.16563548695878,9.672843288922213,9.144290338341104,8.422065031970586,7.432565594933983,6.202647723177039,4.740832109152725,3.1860406460770228,1.8880274280783977,0.9841717664940692,0.39263808370463493,0.15384038583446674
0.0,64.0,64.0,0.0,120.0,0.0,0.0,0.0,0.0,-107.0,0.0,-45.0,0.0,0.0,0.0,34.27253218749016,17.55503396713325,10.507153769961935,9.751890076585635,9.24247902347574,8.668655809189731,8.065050931204224,7.307125387207149,6.246109353339698,5.054802429026368,3.7274055435862508,2.51963140493749,1.47421614611213,0.6794215093265003,0.3222423950822177,0.09142466358961,0.03594346215462711,11.185571012257057,10.75982316299543,10.47555829508024,10.141197660150729,9.706527691348004,9.178828419006779,8.455039019525119,7.394024365009894,6.135269886406211,4.7091253219130165,3.1826278599786733,1.871103202252388,0.9552975033806806,0.38159224694395744,0.18853572445102118
0.0,65.0,65.0,0.0,120.0,0.0,0.0,0.0,0.0,-107.0,0.0,-45.0,0.0,0.0,0.0,34.27253218749016,17.55503396713325,10.491357795253467,9.677008066044294,9.18888841592679,8.691359918775811,8.02932811217712,7.257106481104168,6.278654218028463,5.082944087853171,3.736094034206245,2.5131541244526385,1.3862136412989947,0.5814508311233272,0.29311734575069903,0.026244297653893522,0.01240006160906666,11.18449275210298,10.787860171144679,10.532550330747979,10.132920500169671,9.6964323081983,9.162922881349077,8.359224590051905,7.40502698944023,6.116977886151463,4.634732950156164,3.0670570140830518,1.8090207088795214,0.9092658791706959,0.4219034871754218,0.16394130305199422
0.0,66.0,66.0,0.0,120.0,0.0,0.0,0.0,0.0,-107.0,0.0,-45.0,0.0,0.0,0.0,34.27253218749016,17.55503396713325,10.455007409481954,9.745960953655773,9.240083876274685,8.731695625604976,8.079079175205804,7.2916295068602235,6.289526070045092,5.0161658916938885,3.71090111340675,2.454561291904629,1.3588379811905453,0.6805587843369009,0.24520118455053325,0.09983574251462382,0.02323653873434641,11.189609558829687,10.755632989326148,10.48393923173181,10.158569796873595,9.680956064676673,9.172157039114907,8.415439109654022,7.339111382284945,6.082500132283846,4.613165355466858,3.087205133033165,1.7925848228548384,0.9039579468679123,0.3879060551462823,0.1363689563174603
0.0,67.0,67.0,0.0,120.0,0.0,0.0,0.0,0.0,-107.0,0.0,-45.0,0.0,0.0,0.0,34.27253218749016,17.55503396713325,10.402258789257779,9.818327355552547,9.21283153666121,8.672034488310775,8.10755943255617,7.2940820368577866,6.199124547833256,5.027854215831178,3.731935742531772,2.438506890056116,1.3263309860025843,0.629532918183185,0.29527229493274987,0.06726456817015043,0.03327101172497484,11.181240847511381,10.778461059200115,10.458573792826229,10.238126177195927,9.710250298503812,9.163381220914472,8.406381237172395,7.296510175065172,5.979527665504041,4.586768176262252,3.033877935146403,1.7490341908252376,0.858395686462483,0.36610631732530474,0.14134191430560722
0.0,68.0,68.0,0.0,120.0,0.0,0.0,0.0,0.0,-107.0,0.0,-45.0,0.0,0.0,0.0,34.27253218749016,17.55503396713325,10.465074172680819,9.7047671156679,9.27028053507421,8.705970293108244,8.035537140999006,7.274900031341076,6.242666169452063,5.053362617161445,3.6611089325246504,2.370280773882428,1.2460490039044838,0.6044553366987123,0.18842155936399257,0.012708900313155622,-0.019746787277208615,11.17998132031411,10.800200675802774,10.492582889056635,10.141389622148376,9.729027932719488,9.187801233805185,8.352788685239362,7.336810371866361,5.991549506677956,4.4962193152705945,2.9717703502684936,1.7469451550088588,0.8512461147688255,0.3914753889707747,0.09574438940449304
0.0,69.0,69.0,0.0,120.0,0.0,0.0,0.0,0.0,-107.0,0.0,-45.0,0.0,0.0,0.0,34.27253218749016,17.55503396713325,10.454915732268073,9.72559977544066,9.24599933363006,8.764663608449363,8.095053920809281,7.256097843489644,6.149935247414123,4.888996002745238,3.5569674314748427,2.283616380789276,1.2772637181249102,0.5430085897222986,0.351786268055294,0.0940117216442551,0.03948855501909569,11.230596613734884,10.743635646511965,10.48699097206495,10.191990315446619,9.654806323562974,9.176282664706756,8.355450817604591,7.2782533725819265,5.954145759470949,4.43012602375914,2.946206534097265,1.6905829633778204,0.7986516670929885,0.3964873231382777,0.12781541317005402
0.0,70.0,70.0,0.0,120.0,0.0,0.0,0.0,0.0,-107.0,0.0,-45.0,0.0,0.0,0.0,34.27253218749016,17.55503396713325,10.476079562009659,9.668484738012598,9.201773233334816,8.756591716045913,8.06748899809938,7.256103042184096,6.147953213526408,4.93270556585294,3.58425550811343,2.2783613604762016,1.2696576467271654,0.5482187563840275,0.26097448572274784,0.006298487388494298,0.014688337867230953,11.208444024439384,10.793213982707222,10.473668520014776,10.186886414501807,9.726442782922268,9.172122899613179,8.37164728670644,7.258083034312833,5.886988072094921,4.383768729561867,2.856865773540371,1.6043949273527733,0.8147130339976844,0.3412932571107804,0.11441156025860391
0.0,71.0,71.0,0.0,120.0,0.0,0.0,0.0,0.0,-107.0,0.0,-45.0,0.0,0.0,0.0,34.27253218749016,17.55503396713325,10.421838643540562,9.664398689925244,9.266326395025967,8.704760103593017,8.030774473366856,7.246287296284906,6.17831695467979,4.87651656981556,3.5918144511849652,2.2048684916177357,1.2287910318468707,0.5566553513064475,0.1710943748371358,0.06180081956754668,0.052682339056457556,11.156972553397138,10.802839238230991,10.523202278448185,10.100999112126734,9.742339968870354,9.175362899114404,8.305865537154615,7.256241149204208,5.9089516122759935,4.364415224269428,2.833677932113497,1.5875155868277089,0.7787102495745096,0.33323574638686154,0.13001738266951654
0.0,72.0,72.0,0.0,120.0,0.0,0.0,0.0,0.0,-107.0,0.0,-45.0,0.0,0.0,0.0,34.27253218749016,17.55503396713325,10.437616619224173,9.740958167169346,9.274326724366679,8.738188905877385,8.043150913148745,7.215077066040522,6.168612935848242,4.8026444277638864,3.4715425720379116,2.206203159522339,1.1752026099511272,0.4901938556164085,0.18996859140819022,0.05623117654162619,-0.03776586418534973,11.191815077639808,10.761450241582217,10.45486582273594,10.125550285169048,9.74571263395047,9.111456953918962,8.281568821147726,7.160905827165641,5.868326431530216,4.287127072482645,2.786670107991725,1.5305176999489059,0.7202466703516933,0.2980017983360266,0.146913548423163
0.0,73.0,73.0,0.0,120.0,0.0,0.0,0.0,0.0,-107.0,0.0,-45.0,0.0,0.0,0.0,34.27253218749016,17.55503396713325,10.471436119750528,9.715344644818616,9.314456842126,8.70861346232383,8.140426758634156,7.223735628918083,6.139659934272855,4.827180220625887,3.4766006185137845,2.183110439632199,1.146127858422943,0.5650268535023907,0.19420067994906953,0.029322941561725997,0.02848668872025096,11.19795252358292,10.839788776097908,10.454970595461637,10.181059277766531,9.762250247862305,9.084467134462658,8.312255715523651,7.14254523663788,5.775715355861708,4.187447067285379,2.7397532270635683,1.5494128986573703,0.7251827017186265,0.30524716852550987,0.11779115532099718
0.0,74.0,74.0,0.0,120.0,0.0,0.0,0.0,0.0,-107.0,0.0,-45.0,0.0,0.0,0.0,34.27253218749016,17.55503396713325,10.536554462170239,9.645819447052247,9.299047008725001,8.634783877346988,8.022648265158024,7.279901559415884,6.151385873003057,4.852098662049939,3.4032861680394424,2.1270969807052373,1.1105869640534565,0.43446366981303375,0.16640340905575657,0.08303913590915886,0.012413368626589373,11.228310122925201,10.762105746199534,10.465440816335612,10.203556559346184,9.780889622429138,9.101071554707486,8.26779547642539,7.0825462132418515,5.737668190941435,4.206106048734953,2.669797649448134,1.4595408826747236,0.7218950708882864,0.34614885217648217,0.10373652775253529
0.0,75.0,75.0,0.0,120.0,0.0,0.0,0.0,0.0,-107.0,0.0,-45.0,0.0,0.0,0.0,34.27253218749016,17.55503396713325,10.508085218157287,9.727890539706127,9.226465838927426,8.707837414551504,8.059877398746217,7.17846616264614,6.011000667670579,4.716798620285254,3.2643169384608703,2.0172919539811027,1.0604706983862686,0.5024224787205589,0.13601403922649735,0.13517869533142626,-0.054626952065281884,11.191504406652317,10.740197387285269,10.52637106178266,10.065443275357685,9.736758095938916,9.102538358833618,8.298441251162583,7.0789655373189975,5.648167317739772,4.114667022057173,2.583725244536429,1.4286223652556462,0.6602301234649536,0.253282202853633,0.1484491431331999
0.0,76.0,76.0,0.0,120.0,0.0,0.0,0.0,0.0,-107.0,0.0,-45.0,0.0,0.0,0.0,34.27253218749016,17.55503396713325,10.474467446606742,9.74333254867032,9.253575778187573,8.733613169861142,8.057170335744187,7.154620050402787,5.998657894589747,4.662024828240377,3.258150773187166,1.9762827367558304,1.0639791430965042,0.4076094900013087,0.1338965200254467,0.019214879465819686,-0.014075143491458102,11.235506254498071,10.765157818289925,10.526499422600878,10.145481329922799,9.724437536047155,9.108695212926634,8.209663708477539,7.03640556838299,5.581546392860538,4.013741359043451,2.5626973504675683,1.4362948465422944,0.6523025805967576,0.2671712702217634,0.13177564849210127
0.0,77.0,77.0,0.0,120.0,0.0,0.0,0.0,0.0,-107.0,0.0,-45.0,0.0,0.0,0.0,34.27253218749016,17.55503396713325,10.398498872671478,9.788993256020149,9.253319958426198,8.780624572928804,8.051110477963807,7.120936539739325,5.973851266313174,4.605012615043566,3.2614460256509745,1.9573725599311793,1.0193828760813592,0.4200218338759196,0.2058503410043076,0.07553678069178757,0.04053919990522647,11.223265413795572,10.787491553687019,10.472204760306479,10.125862644617422,9.752567082445411,9.113882423177284,8.19396236467231,7.023165497349609,5.570584920519503,3.9468656912584392,2.466534596423747,1.3345181671195583,0.6607019131135438,0.2672040036813235,0.12143752103444688
0.0,78.0,78.0,0.0,120.0,0.0,0.0,0.0,0.0,-107.0,0.0,-45.0,0.0,0.0,0.0,34.27253218749016,17.55503396713325,10.512431012099098,9.746761998066392,9.257264439202443,8.79190940860575,8.013470028260636,7.169461105057325,5.896894353878229,4.566537060612063,3.2194917736642727,1.9257307316960444,1.0122468448282367,0.4020897512690142,0.13346759736130084,0.049190343774287194,0.04370022101410572,11.226345279080064,10.811273672503033,10.499979405245831,10.158089838659063,9.771019623799884,9.091973190044378,8.149750094453763,6.917877358415333,5.462463387753323,3.920957534178613,2.488259945848103,1.3075892860587441,0.6459339665208655,0.2323349670582935,0.09783558776550753
0.0,79.0,79.0,0.0,120.0,0.0,0.0,0.0,0.0,-107.0,0.0,-45.0,0.0,0.0,0.0,34.27253218749016,17.55503396713325,10.464274651863978,9.725335763966081,9.2329079961603,8.72483189863196,7.999026206239529,7.103334515963581,5.963899666200429,4.481856477696475,3.092688277126424,1.8995104783757526,0.981696746489686,0.4050850229055879,0.13816844691463984,0.07397391201622326,0.011120374553976856,11.26394777223671,10.747270295265539,10.478551608210392,10.240018831184063,9.678009064861236,9.07154486571167,8.108118763213959,6.880418244962736,5.417793301220113,3.834910925935838,2.39495209362025,1.2606110333953586,0.5574600039054234,0.24896347610464126,0.11864189368489085
0.0,80.0,80.0,0.0,120.0,0.0,0.0,0.0,0.0,-107.0,0.0,-45.0,0.0,0.0,0.0,34.27253218749016,17.55503396713325,10.41895320531784,9.702033400034466,9.351926425862242,8.713922435491856,8.01556358404396,7.086136039742306,5.859182323664007,4.495904438164796,3.0997224580399005,1.8277788959500432,0.9036233620390755,0.38278518692199204,0.13050805871748472,-0.012324677979036754,-0.038339431574618,11.238443030370073,10.773981144515494,10.479360049779517,10.180677249094172,9.748335100514167,9.015306902849458,8.085194907957113,6.841387289987127,5.36303059991483,3.7634027747514414,2.318593563938971,1.2273571819383249,0.5336676233046447,0.2280216964727904,0.060167797395332706
0.0,81.0,81.0,0.0,120.0,0.0,0.0,0.0,0.0,-107.0,0.0,-45.0,0.0,0.0,0.0,34.27253218749016,17.55503396713325,10.449951795269403,9.719431237175797,9.281678300595425,8.674113000893032,8.029966179827207,7.120854216358694,5.7988400773049955,4.471849445246013,2.9267862911113296,1.7926694859069099,0.8379094897916329,0.39919319422987387,0.1077333283252068,0.026084526330055265,-0.03899316447440467,11.164052325580125,10.774121892923842,10.51525059388542,10.193559836304521,9.758442536838817,8.99583732941656,8.061222665385044,6.7297612399321345,5.264357875714912,3.679405696183213,2.221857269652063,1.1605196560440465,0.5342528647577447,0.19930956686302415,0.05530477999470677
0.0,82.0,82.0,0.0,120.0,0.0,0.0,0.0,0.0,-107.0,0.0,-45.0,0.0,0.0,0.0,34.27253218749016,17.55503396713325,10.508580731684633,9.685256490047212,9.183993895395883,8.72558242487631,8.068099150138906,7.110502286633205,5.7861293518981,4.333158908806058,2.9688394059660066,1.7331130045778464,0.8813747018519422,0.3291311287716102,0.1351321568605941,0.01348852154518844,0.03161465148235154,11.209872052507361,10.770116770962609,10.536436821462319,10.192241514705325,9.683093182438206,9.022878797149719,8.013245530512268,6.708337356769262,5.211015401189794,3.6123489616035083,2.19423278742549,1.1097468324163986,0.518786761953867,0.22383887648563056,0.09801879530986823
0.0,83.0,83.0,0.0,120.0,0.0,0.0,0.0,0.0,-107.0,0.0,-45.0,0.0,0.0,0.0,34.27253218749016,17.55503396713325,10.493421941458184,9.678660586343838,9.221601071153293,8.70673068502402,7.990037849934932,7.053991851636186,5.694570727809311,4.197380778498293,2.875218035494995,1.690310669552038,0.8058277062170135,0.3472861200567139,0.07103785542947,-0.020394544935533887,0.028755060807803778,11.226850031502153,10.804022814921863,10.416903515518694,10.157106501919428,9.655469408239636,9.024932917366101,7.978394851930435,6.666732545821243,5.11462797137599,3.4888649809907313,2.1287658901893924,1.0809122028633407,0.5098021841285111,0.18407320942766292,0.055399424157003635
0.0,84.0,84.0,0.0,120.0,0.0,0.0,0.0,0.0,-107.0,0.0,-45.0,0.0,0.0,0.0,34.27253218749016,17.55503396713325,10.409817714180091,9.69872219155695,9.22576456545757,8.741268266162436,7.9165372988828535,7.044525601643781,5.704545939570113,4.25598303726751,2.8284642675769573,1.6538682112633418,0.7574811644525449,0.25343863443798154,0.05088230697678642,0.0051571722627949505,-0.0013906321768724153,11.269700715267462,10.828816650114453,10.53415233672382,10.146559423284764,9.692668394408935,8.997768766302322,7.922344637161639,6.614304738704432,5.07493726810333,3.4306978812036344,2.0376639949014366,1.0546281838083116,0.48201397103809035,0.16273345976236586,0.05675415540287661
0.0,85.0,85.0,0.0,120.0,0.0,0.0,0.0,0.0,-107.0,0.0,-45.0,0.0,0.0,0.0,34.27253218749016,17.55503396713325,10.460829777203276,9.735092899245688,9.303484731859193,8.7011435990668,8.007351934488026,6.920225338683233,5.648467871214001,4.203918710031412,2.7144662079827433,1.533672175825498,0.7428110388066073,0.28846715752637786,0.12098172760422539,0.009732094914408063,0.0006980107683111861,11.228033813162435,10.750190450465096,10.512368796039032,10.168854405068137,9.670110132436204,9.003010765817896,7.937147163814551,6.5364800297533625,4.961404262109932,3.3904776572377524,1.9901709022735634,1.0258686004115782,0.4280461175952989,0.17493514410705974,0.09614615920351481
0.0,86.0,86.0,0.0,120.0,0.0,0.0,0.0,0.0,-107.0,0.0,-45.0,0.0,0.0,0.0,34.27253218749016,17.55503396713325,10.419601540552204,9.625109761042584,9.212520121715727,8.7020485784033,7.979771500811131,6.887671102386086,5.552986842952588,4.051421376200025,2.6888034598080615,1.5347729902598748,0.7481262680201611,0.27224187900017965,0.05732215355204817,0.01839922160680355,0.004950209741373614,11.242744135362077,10.832360202272467,10.561011602179974,10.181279944717346,9.619345973240472,8.937665971869473,7.883363000915644,6.427427119896815,4.864055001641338,3.30424252094137,1.9711408521597986,0.9760477429577288,0.47102869202590253,0.1728210153385221,0.09270697790975586
0.0,87.0,87.0,0.0,120.0,0.0,0.0,0.0,0.0,-107.0,0.0,-45.0,0.0,0.0,0.0,34.27253218749016,17.55503396713325,10.462333182435975,9.646107102014966,9.202713434329358,8.690990850743107,7.93616580762037,6.800032484891241,5.564057130264762,3.938639820338777,2.515339715060018,1.381239636892939,0.6376121041878446,0.34029492758087193,0.13698640650878463,0.017450716176330625,0.06379978118703002,11.233158945921133,10.827101788163482,10.542706659684876,10.119822247651216,9.667599094767473,8.901834839297353,7.8311280646340204,6.357009609780924,4.781545851532339,3.1966595756824008,1.8319257208880007,0.9751674097614345,0.41145811904331847,0.21315854514927493,0.04891271978576565
0.0,88.0,88.0,0.0,120.0,0.0,0.0,0.0,0.0,-107.0,0.0,-45.0,0.0,0.0,0.0,34.27253218749016,17.55503396713325,10.467228289650421,9.66270311328762,9.252466822521326,8.667977598176913,7.920467263616377,6.85764363792828,5.4469177037411285,3.903793707595425,2.4987082739987545,1.3807056641796274,0.6716387202799486,0.2902282114044811,0.10249505572663895,-0.01770015743319013,-0.034470856667349746,11.262789513139175,10.845361903475046,10.530760088449028,10.176356299653712,9.659810784689427,8.858978049414487,7.761140954250671,6.281015420400395,4.673735489006567,3.1022011290082343,1.7752703769395233,0.9124423873745512,0.4051730685723997,0.12035935836427489,0.040595179526713224
