Line_number,Fiducial,Easting,Northing,Height,Elevation,tx_pitch,tx_roll,tx_yaw,txrx_dx,txrx_dy,txrx_dz,rx_pitch,rx_roll,rx_yaw,PX,PZ,S0X_time_1.086e-05,S0X_time_3.256e-05,S0X_time_5.426e-05,S0X_time_8.680e-05,S0X_time_1.411e-04,S0X_time_2.279e-04,S0X_time_3.689e-04,S0X_time_5.860e-04,S0X_time_9.115e-04,S0X_time_1.411e-03,S0X_time_2.192e-03,S0X_time_3.418e-03,S0X_time_5.339e-03,S0X_time_8.301e-03,S0X_time_1.338e-02,S0Z_time_1.086e-05,S0Z_time_3.256e-05,S0Z_time_5.426e-05,S0Z_time_8.680e-05,S0Z_time_1.411e-04,S0Z_time_2.279e-04,S0Z_time_3.689e-04,S0Z_time_5.860e-04,S0Z_time_9.115e-04,S0Z_time_1.411e-03,S0Z_time_2.192e-03,S0Z_time_3.418e-03,S0Z_time_5.339e-03,S0Z_time_8.301e-03,S0Z_time_1.338e-02
0.0,0.0,0.0,0.0,120.0,0.0,-0.189981557422513,-0.16793060002611448,0.5744229392683367,-107.0,0.0,-45.0,0.86821465236928,0.5289477403394607,0.18551230265105922,34.27075459658479,17.56211432789952,1.6852788671858168,1.5160883134738954,1.4550222494481688,1.3897441255934306,1.3097022721260174,1.2163460280706222,1.1076478549529247,0.9882761130340605,0.863005298180796,0.73088258190535,0.5943189435109186,0.4600922527231861,0.3366499424544225,0.2323601093418784,0.1452674173557396,3.2473942253813686,2.9990614923520327,2.9091878060969574,2.8123686843677826,2.69224151494498,2.5497981237753073,2.3803706524463473,2.1892296473361013,1.9819278309540869,1.7543262430788078,1.5071027268723358,1.2487421422395844,0.9926897689578226,0.7562321830433983,0.5358472586256037
0.0,1.0,1.0,0.0,120.0,0.0,-0.13814150525634128,0.47086639659959606,0.7889385562208624,-107.0,0.0,-45.0,-0.504518881972537,-0.35163050897805803,0.3752091192227125,34.27075459658479,17.56211432789952,1.6211123156861376,1.4151931105224305,1.356709275600699,1.2955947729618216,1.2212423929174028,1.1348617386364357,1.034449272031166,0.9242013241443042,0.8084166100297963,0.6861088284890435,0.5593972863721799,0.4344672716139515,0.3191258908158801,0.22122875953424925,0.1390225862791139,3.1667556780549844,2.857390233274754,2.7686922372834397,2.67564613168171,2.561236491924429,2.42622484661047,2.26603604066607,2.085527567836505,1.8898152028446662,1.6748650981152475,1.4411714309192387,1.196581343174361,0.95365120946143,0.7286746149826749,0.5182147033321184
0.0,2.0,2.0,0.0,120.0,0.0,0.7686135511184358,-0.8146785571057826,-0.8370206280943391,-107.0,0.0,-45.0,-0.5070295624232408,-0.6007886459631957,0.9412829485250289,34.27075459658479,17.56211432789952,1.5766572477566498,1.3242118949213082,1.2669461515768548,1.2094168797911486,1.140136891954559,1.0600362272669588,0.9671163725410455,0.8651436573151747,0.7579862178342328,0.6446309860530272,0.526936953936786,0.41055162774091514,0.3026930633495794,0.2107347637917285,0.13309844669585513,3.113138163241945,2.7275036134763067,2.6376444314850613,2.547723825073084,2.4384663701113647,2.3102844733136214,2.158646537122552,1.988012381516466,1.803085160050596,1.5999282128858805,1.3788687769997299,1.1471656897400273,0.916550548114019,0.7023871020379524,0.5013174335974453
0.0,3.0,3.0,0.0,120.0,0.0,0.44514401400609827,-0.5768601392819195,-0.3828155696648585,-107.0,0.0,-45.0,-0.10079035067144071,-0.6482636087559015,0.5008586198178708,34.27075459658479,17.56211432789952,1.5485636436443326,1.2430758185958903,1.1849772050855247,1.130438618785852,1.0656749276510038,0.991236093885353,0.9051027204609305,0.8106472801550924,0.7113472080664401,0.6061684642820991,0.49673763094741946,0.3882138640826477,0.28727323966032803,0.20083617168428092,0.12747608744093342,3.0821328746712586,2.6103672711087222,2.515577388439558,2.4279857209606157,2.3233358649897276,2.2014285111264944,2.0577093403524933,1.8962520662669347,1.7213688084520802,1.5292127371732367,1.319959350031444,1.1003244371682852,0.8812738349690586,0.6773001820286818,0.4851190013946747
0.0,4.0,4.0,0.0,120.0,0.0,-0.9978015689309898,-0.4559730670117421,0.9233812568070987,-107.0,0.0,-45.0,-0.7192921868707645,0.20658707828630352,0.04519453795902839,34.27075459658479,17.56211432789952,1.5333037811727168,1.171909047550328,1.1102287334437697,1.0579843493679038,0.9972256345247694,0.9278970180837127,0.8479198461273685,0.760303347222386,0.6681692996195456,0.570467640388833,0.46861736814187815,0.36733388863854954,0.2727944885862142,0.191494123077232,0.1221378428348347,3.068881774518823,2.507120300230917,2.4022866863257186,2.3158910424351675,2.2153016622983013,2.0991535216591326,1.9627710842947406,1.8098485350740598,1.6443257279967578,1.4624387171329778,1.264225043642905,1.0558989145455926,0.8477147554006425,0.6533487278873972,0.46958502182345024
0.0,5.0,5.0,0.0,120.0,0.0,0.593223694925193,-0.6978277786348965,-0.8210281879814114,-107.0,0.0,-45.0,-0.6952028272548378,0.4060934963362075,0.7992341096835796,34.27075459658479,17.56211432789952,1.5276816431133993,1.1107515328220394,1.0423131885396029,0.9914698346081536,0.9342284969378161,0.8695152174074775,0.7951303528147146,0.7137445826365592,0.6281547700743597,0.5372989818588052,0.44241071866697995,0.3478018904663727,0.2591906122152337,0.18267259873702074,0.11706720310910511,3.068913750529874,2.4185554904019053,2.2978480098413554,2.2109892395368043,2.113868978115662,2.0029970782354747,1.8734144502692724,1.728434734834881,1.5716415771981418,1.3993471994523947,1.2114636591241075,1.013741580919321,0.8157740631228914,0.6304716476318704,0.4546830435659082
0.0,6.0,6.0,0.0,120.0,0.0,0.35921577015402884,-0.2502788878620641,0.2535909228444624,-107.0,0.0,-45.0,0.4628426134722028,0.08176197807097241,-0.38204299184726676,34.27075459658479,17.56211432789952,1.5290558196578352,1.0593838663094888,0.9809889671150946,0.9304021545241449,0.8761851896810214,0.8156401603018023,0.7463419392861139,0.6706405553242475,0.5910348816885728,0.5064545058351587,0.41796708090416157,0.3295173679661053,0.2464006429652877,0.17433819252875976,0.11224873170149727,3.0785155047691357,2.344825958607649,2.2025280649409327,2.1129404944711636,2.018589027650528,1.9125343170201106,1.7892550720241645,1.6516720088609325,1.5030259110398787,1.3396985028811266,1.1614876263605773,0.9737151611255939,0.7853590587877244,0.6086116067886267,0.44038242817142176
0.0,7.0,7.0,0.0,120.0,0.0,0.4939942603424472,-0.6935750503176301,-0.6304637859738365,-107.0,0.0,-45.0,-0.6372282658574191,0.1058972355192509,-0.9129953396076822,34.27075459658479,17.56211432789952,1.5353720590932303,1.0172880723709838,0.9260895678314538,0.8743778144641153,0.8226531057983167,0.7658683439675708,0.7012021903811635,0.6306935520045137,0.5565667393153905,0.4777455324329881,0.39514922303803496,0.3123882569983738,0.23436838837416935,0.16645990325343163,0.10766798891907846,3.094798580730505,2.285417546665175,2.1166335186097927,2.0215247147437982,1.929058819569839,1.8273749642808743,1.7099386970103427,1.5792477048795979,1.4382101914065328,1.283270642075644,1.1141228355012252,0.9356918542331154,0.7563831102875685,0.5877147715027321,0.4266542375710084
0.0,8.0,8.0,0.0,120.0,0.0,0.3298084104547121,0.5846245840606299,0.30311881633378834,-107.0,0.0,-45.0,-0.9446303227530388,-0.02774772562138894,-0.12764096663484414,34.27075459658479,17.56211432789952,1.5451005318579631,0.9837011919949668,0.877452331947809,0.8230736512747769,0.7732407110462911,0.7198379212750013,0.6593940335025681,0.593634964380041,0.5245305229852054,0.451000695072983,0.373831967834252,0.29633014786294093,0.22304201879751445,0.15900894434861929,0.10331146142300428,3.1156161858321556,2.239287428166087,2.0403688270893787,1.9366277897456836,1.844923613427308,1.7471606914378845,1.63513861737046,1.510873001183622,1.3769459731232467,1.2298578897349899,1.069207569224777,0.899552608148668,0.7287652112252663,0.5677305707091542,0.4134711291654746
0.0,9.0,9.0,0.0,120.0,0.0,-0.0938073263593533,0.42696627860201297,0.06981702323958228,-107.0,0.0,-45.0,0.7814354312148579,-0.22936410543859442,-0.08871470781420188,34.27075459658479,17.56211432789952,1.557139295412071,0.9577061216496765,0.834868297008721,0.7762302065216973,0.7276041365178822,0.6772240525412268,0.6206317789245182,0.559222117355222,0.4947270468288855,0.42606417577945793,0.35390101884581426,0.281265581423364,0.21237369371198173,0.15195856983867445,0.09916649703947336,3.139426834560131,2.2050587835946556,1.9737466536652681,1.8582074814039113,1.7658801174344698,1.671562887041588,1.5645533702858723,1.4462809232895038,1.3190032513873242,1.1792694639767825,1.0265915265155043,0.8651864545037792,0.7024295743261928,0.5486114758705168,0.4008072579048057
0.0,10.0,10.0,0.0,120.0,0.0,-0.2217915835558728,-0.23340703483020064,-0.8025992553700196,-107.0,0.0,-45.0,-0.6306986713792293,0.4022493444882991,0.7150646900810849,34.27075459658479,17.56211432789952,1.5707162083974846,0.9383216774933273,0.7980591357819451,0.7336311855372479,0.6854439587128935,0.6377349443573013,0.5846576636632251,0.5272354774675675,0.46697560277113576,0.4027941376841647,0.3352519116319679,0.2671234157789838,0.20231922276994543,0.14528391506813357,0.09522124448468838,3.165154630644379,2.181202132708356,1.9165583879231556,1.7862501117840641,1.6916775517636233,1.6002810477955483,1.4979046725490766,1.385224532818129,1.2641689564904526,1.1313283292990153,0.9861349297056053,0.8324898984802741,0.6773052568518823,0.5303127969044953,0.38863818488015217
0.0,11.0,11.0,0.0,120.0,0.0,0.17164123212858695,-0.8068810749516153,-0.8158067118952059,-107.0,0.0,-45.0,-0.5845913528471667,0.43736116922605905,-0.43826693886778245,34.27075459658479,17.56211432789952,1.585303280693355,0.9245742313330331,0.7666765218930802,0.6950835287040958,0.6465012928024445,0.6011085343062885,0.5512388239038977,0.4974761921017675,0.44111205269857806,0.3810613307736898,0.31778907559603786,0.25383825587572756,0.19283775815326645,0.13896185088735855,0.0914645976365938,3.192067343880339,2.166174519491733,1.8683906206360845,1.7207299152197588,1.6221146171533036,1.533041826588129,1.4349355515875657,1.327475277817669,1.2122455813980435,1.0858701009475575,0.9477077072399078,0.8013663587385024,0.6533258153297279,0.5127924930339464,0.3769407919948636
0.0,12.0,12.0,0.0,120.0,0.0,-0.18703181666242852,-0.8991455406488551,0.18614573996690953,-107.0,0.0,-45.0,0.7193132088776264,0.8199506772298442,0.698861022752703,34.27075459658479,17.56211432789952,1.600547681147249,0.9155468525327108,0.7403154755855893,0.6604013745000372,0.6105528792935923,0.5671097168930433,0.5201646355729217,0.469763918038396,0.41698713749959065,0.36074785015103633,0.30142499380229565,0.2413499393218379,0.1838915151322072,0.13297085008280876,0.08788614400236422,3.2196784990726304,2.158512727786618,1.8286675484292465,1.6615787588921975,1.5570321527995457,1.4695984991995703,1.3754086621964556,1.272821494090314,1.1630499287233178,1.0427420436240726,0.9111887452772409,0.7717256530695058,0.6304289871450567,0.4960109973954702,0.36569320229238045
0.0,13.0,13.0,0.0,120.0,0.0,0.06761512565036254,-0.5555241182198227,-0.43650415763581507,-107.0,0.0,-45.0,0.7108429510428869,0.41209402747875945,-0.09942404842464425,34.27075459658479,17.56211432789952,1.6162189780073042,0.9104084962501874,0.7185338637015598,0.6293953151081216,0.5774053794812454,0.5355279509808508,0.49124437903058665,0.44393490297898025,0.3944649757687883,0.34174602877040594,0.28607944967317595,0.22960307244253134,0.17544551805634412,0.12729086495687691,0.08447611704660103,3.2476727726072494,2.156887787600894,1.7967023734723468,1.6086688949815693,1.4963027051328122,1.4097304363451404,1.3191048025651098,1.2210670437730808,1.116411965701015,1.001802156182564,0.8764652019038149,0.7434835257937618,0.6085563967550142,0.479931054336962,0.3548747055354734
0.0,14.0,14.0,0.0,120.0,0.0,-0.594520650304009,0.569282967398685,0.35182710148643337,-107.0,0.0,-45.0,0.8259786791506996,0.5899278713058265,0.7646714534720176,34.27075459658479,17.56211432789952,1.6321702994110476,0.908427906539731,0.7008725578471132,0.6018668145220588,0.546889392144178,0.5061750816952403,0.4643051941955415,0.4198402876583278,0.37342172891139114,0.32395744885895367,0.2716788508244681,0.21854661128055902,0.16746736929180606,0.12190321506435824,0.08122535206910605,3.275851269964198,2.160130861755523,1.7717466670501802,1.5618077061291344,1.439818863589594,1.3532421783260493,1.265821643320297,1.1720300757781612,1.0721737777986795,0.9629183345036727,0.8434318783677445,0.7165612132826784,0.5876532844806083,0.46451756842181824,0.34446568865986704
0.0,15.0,15.0,0.0,120.0,0.0,0.34756543942220164,-0.1495253623251771,0.6846770602808994,-107.0,0.0,-45.0,0.5195378290541743,-0.6492293009251244,-0.8111669780375812,34.27075459658479,17.56211432789952,1.648310601654687,0.9089768387765561,0.6868731521706017,0.5776067889888683,0.5188537467579366,0.4788832479675667,0.43919029497744505,0.3973446001935483,0.35374441268586165,0.30729205818336375,0.25815562148127424,0.208133482841473,0.15992703887645132,0.11679048420519508,0.07812524534794815,3.3040925872559477,2.167239706166089,1.753032057892436,1.5207415381407254,1.3874821261729529,1.2999618623449418,1.21537266109346,1.1255418947446516,1.0301886128473052,0.9259676053182784,0.8119906423084705,0.6908850442992046,0.5676682560136427,0.44973746423706645,0.33444757075650594
0.0,16.0,16.0,0.0,120.0,0.0,-0.5873418769747036,0.9220085287672002,0.6351938363605223,-107.0,0.0,-45.0,-0.30239983690495875,0.07104995179292306,-0.4063024551143213,34.27075459658479,17.56211432789952,1.6645853801823265,0.9115263541876326,0.6760919472544886,0.5563970596483855,0.49316050535484357,0.4535028069459747,0.4157574098241752,0.3763244185634199,0.3353298378775899,0.2916673790331517,0.2454476559453588,0.19832024240505441,0.15279667289442186,0.11193642585674879,0.07516771628871659,3.332325815771203,2.1773728599897026,1.7398023756515995,1.485165287033233,1.3391935525517074,1.249738954214231,1.167586238777521,1.0814459294675967,0.99032000803653,0.8908354244357926,0.7820498984331842,0.6663860721500682,0.5485530509388538,0.4355595561751888,0.32480274226506595
0.0,17.0,17.0,0.0,120.0,0.0,0.5512246189853109,-0.7894496914224978,-0.4169170449127775,-107.0,0.0,-45.0,-0.8011142669296225,-0.13718200523648338,0.01756927971085398,34.27075459658479,17.56211432789952,1.6809635644381469,0.9156389790859428,0.6681100274412182,0.5380134665612895,0.4696809185422859,0.42990026413590904,0.3938774127547164,0.35666718110390006,0.3180836649411504,0.27700779931121844,0.23349782647394374,0.18906676318729,0.1460504187764733,0.1073258763045835,0.0723451723433276,3.360512259484022,2.189836705993266,1.7313365575629656,1.4547348136945097,1.294846850760693,1.2024414082128512,1.1223048731456753,1.0395967957511396,0.9524409922577671,0.857415033553886,0.7535241024967028,0.6429997359176911,0.5302623287192438,0.42195442742605066,0.3155145080859817
0.0,18.0,18.0,0.0,120.0,0.0,0.6448664952981262,-0.1356945942708323,0.047445822926302395,-107.0,0.0,-45.0,0.11416973642790662,0.9511743142083824,-0.08165973896690848,34.27075459658479,17.56211432789952,1.6974288060602747,0.9209587041633535,0.6625398366755719,0.5222296856001969,0.44829240397315906,0.40795623881825444,0.3734331092953694,0.33827012817405483,0.30191955925970454,0.26324393645547706,0.22225353970222356,0.18033595504742433,0.13966426591524134,0.10294467479921063,0.06965047648183804,3.3886333206952624,2.2040689250314207,1.726963638362752,1.4290799984687297,1.2543240176641557,1.1579524822794116,1.0793844243300919,0.999859450470382,0.9164333565455041,0.8256068704897853,0.7263333147968041,0.6206655482932891,0.51275347072596,0.40889431747667515,0.306567034340625
0.0,19.0,19.0,0.0,120.0,0.0,0.48718016456202373,-0.14950048300944818,0.8690258430440709,-107.0,0.0,-45.0,-0.6515210237458553,0.8423028581435377,0.46893928636427673,34.27075459658479,17.56211432789952,1.7139738066904693,0.9272001742223539,0.6590288803132054,0.5088210814478027,0.42887648355647695,0.3875635140958868,0.3543181450412789,0.32103936050585175,0.28675843527759637,0.2503120660701482,0.21166633641666774,0.17209350929755113,0.1336159001476472,0.09877959012829671,0.06707691701875795,3.416682639134306,2.2196206829210134,1.7260714404995965,1.4078170092449105,1.2174932917360974,1.1161674670962787,1.0386933503940536,0.9621084329738699,0.8821869859676079,0.7953180282184341,0.7004027897246834,0.5993268077622613,0.49598639701499614,0.39635301747316604,0.29794529852935137
0.0,20.0,20.0,0.0,120.0,0.0,0.004660167945806704,0.45260424311781144,0.07260965866684677,-107.0,0.0,-45.0,-0.7508559761363516,0.8549043499166782,-0.7938045444031909,34.27075459658479,17.56211432789952,1.730596699047962,0.9341379611586188,0.6572612036433687,0.4975681895472559,0.41131753688698997,0.3686252229480066,0.3364360103844828,0.30488900131236985,0.2725277792266231,0.23815360813589365,0.2016915300794392,0.164307666992872,0.12788457080229554,0.09481825304997715,0.06461817961156971,3.4446610951267367,2.2361390508309977,1.7281105061041444,1.3905589907582514,1.1842089815325607,1.0769905639070552,1.0001118887267377,0.9262271875981729,0.8495992471982085,0.7664617585237592,0.6756625982212862,0.5789303330983364,0.4799233966634495,0.3843057728511538,0.2896350428551163
0.0,21.0,21.0,0.0,120.0,0.0,-0.4096681459438929,0.18946299882510176,-0.23241947799065277,-107.0,0.0,-45.0,-0.17634823550443635,0.2756921050581087,0.8142677759530588,34.27075459658479,17.56211432789952,1.747298784435228,0.9415964827146901,0.6569572282556174,0.48825961961681386,0.39550219535325326,0.35105321198720574,0.31969912190147987,0.2897404502665811,0.25916104149563796,0.22671466451594438,0.1922878800277629,0.1569490083638496,0.1224509691400124,0.09104909408378388,0.06226832126379988,3.4725736987613787,2.2533505762502477,1.732594582485203,1.3769248453270386,1.154312669597426,1.0403320904401931,0.9635311678690511,0.892107458216504,0.818574426977558,0.7389570163985566,0.6520472802851353,0.5594262183057184,0.46452897057911924,0.37272919268896193,0.2816227304966655
0.0,22.0,22.0,0.0,120.0,0.0,-0.21626241351613507,0.7348242004069292,-0.49846896466940516,-107.0,0.0,-45.0,0.978649861381214,-0.5267745735679357,0.7069604624063159,34.27075459658479,17.56211432789952,1.7640831474944878,0.9494408920792287,0.6578724270152384,0.48069431113973293,0.3813192010442834,0.3347666093287626,0.30402796764890727,0.2755217182701312,0.24659709087197149,0.2159456022055806,0.1834172957343781,0.14999026130157916,0.11729711713231333,0.08746128620166346,0.06002174617840876,3.5004276947047774,2.2710465150202217,1.7390987096061297,1.366546077160768,1.1276353149458644,1.006106127884208,0.9288522533945046,0.8596487434787385,0.7890232175177169,0.71272804161127,0.6294955249515188,0.540767606311846,0.4497696857899364,0.3616011652815292,0.27389550463042134
0.0,23.0,23.0,0.0,120.0,0.0,-0.8210187203477752,0.5931241756303884,0.06316796280919457,-107.0,0.0,-45.0,-0.8875107836096596,0.3059371775622999,-0.9484229644538296,34.27075459658479,17.56211432789952,1.7809538266641576,0.9575690940214141,0.6597952186060589,0.4746831568399389,0.3686595738479075,0.31969060681061406,0.28935030925615857,0.2621668327277095,0.23477972389802354,0.20580067740776714,0.1750445689228633,0.14340612702887268,0.1124062656270872,0.0840446920031707,0.05787318331972062,3.528231434279123,2.289069953379493,1.7472557171603529,1.359071847039249,1.1039998481213324,0.9742286590560398,0.895985146461069,0.8287578003526624,0.7608622455182267,0.6877039741308006,0.6079498754114245,0.5229104798605894,0.43561404030446693,0.35090077947308845,0.26644115001441654
0.0,24.0,24.0,0.0,120.0,0.0,0.5444978697061136,-0.19998061935713096,-0.32495745547572197,-107.0,0.0,-45.0,-0.15890305234468372,0.5499370284712937,-0.9324165325255587,34.27075459658479,17.56211432789952,1.7979153294278027,0.9659049249141232,0.6625443759909033,0.47005005687651924,0.3574169585768701,0.3057554526932311,0.27560043779525506,0.2496153039420085,0.22365722343691286,0.19623769607679892,0.1671371306904555,0.1371731212856635,0.10776280104440397,0.08078981499652887,0.05581766555367843,3.5559937216773676,2.3073048575922313,1.7567517396738537,1.3541724686036534,1.083223941835902,0.94461619679278,0.8648477624971075,0.799348183901189,0.7340136417758807,0.6638185003823869,0.5873564571586644,0.5058134681895935,0.4220323377120769,0.3406082513232634,0.2592480569610664
0.0,25.0,25.0,0.0,120.0,0.0,0.13933095796074912,0.4395823338064535,-0.48557442622302394,-107.0,0.0,-45.0,0.9508277301790002,-0.7117133128155981,0.9291670960950595,34.27075459658479,17.56211432789952,1.8149723570090375,0.9743924546945567,0.6659661725581902,0.4666324868943759,0.34748805437904073,0.2928956403209489,0.26271848291738126,0.23781164426847054,0.21318196124175962,0.1872177070676145,0.15966483110620477,0.13126942953148749,0.10335215982923587,0.07768775464125517,0.053850510246880784,3.583723446869775,2.3256669638682843,1.767321201382564,1.3515416037635724,1.0651227286256815,0.9171848650864509,0.8353649205600848,0.7713398127230149,0.7084046484509632,0.6410095275995913,0.5676647272459575,0.48943766819831974,0.40899657076166684,0.33070485571459546,0.25230518753814746
0.0,26.0,26.0,0.0,120.0,0.0,0.7350373076882821,0.4415170436043361,0.6258270884463266,-107.0,0.0,-45.0,-0.9958831219389432,-0.827613817307981,-0.2032976394256798,34.27075459658479,17.56211432789952,1.8321296534981222,0.9829913194460396,0.6699314337095723,0.46428166720908626,0.3387730567880779,0.2810492713317945,0.25064977589466,0.22670493277846923,0.2033100398988198,0.17870472446958122,0.15259973902925514,0.1256747748227812,0.0991607499630628,0.07473016483885384,0.05196730121463067,3.6114293879197295,2.344096345914179,1.7787416020844888,1.350897407096614,1.0495113145657042,0.8918498730981602,0.8074673724251916,0.7446585517470304,0.683967260977538,0.6192188838292216,0.548827242898504,0.4737464789261188,0.3964803132218441,0.3211728625402411,0.24560204384901263
0.0,27.0,27.0,0.0,120.0,0.0,0.44039424895910617,0.5988325076940442,-0.7367451477489855,-107.0,0.0,-45.0,0.9405125546289033,0.36497455169015214,-0.10177030900770068,34.27075459658479,17.56211432789952,1.8493919271501973,0.9916729665287214,0.6743326174565368,0.4628624155188455,0.331176066443362,0.27015756848809747,0.2393442673365685,0.21624841930710378,0.19400096999379593,0.170665476095565,0.14591596013548463,0.12037029716084272,0.0951758789037308,0.07190921558593984,0.05016387191713701,3.63912011092767,2.3625514585447336,1.7908283428505924,1.3519828443281559,1.0362070006838877,0.8685253116543185,0.7810908959303144,0.719235806662963,0.6606379014762573,0.598392041422541,0.5307994478815331,0.45870544826343035,0.38445861938332837,0.31199547713865466,0.23912863825375333
0.0,28.0,28.0,0.0,120.0,0.0,0.7488487207682955,0.472696632044721,0.514234954164625,-107.0,0.0,-45.0,0.8454081034498753,-0.6019562962525815,-0.7508985982370684,34.27075459658479,17.56211432789952,1.8667638124361559,1.0004176839402665,0.6790810125908912,0.4622527564004197,0.32460543711403905,0.26016451237746513,0.22875599982174205,0.20639916283849058,0.18521737876022792,0.16306917544401825,0.1395894713553271,0.11533844322938178,0.09138568738336296,0.06921755752942067,0.04843628981109026,3.666803924663983,2.3810044429403407,1.8034297594412378,1.3545653786037908,1.0250311708366442,0.8471242002075532,0.7561754709564666,0.6950081268077383,0.6383571204279351,0.5784778620938412,0.5135394751511408,0.44428213091393304,0.3729079306171153,0.30315678466790086,0.2328754654028466
0.0,29.0,29.0,0.0,120.0,0.0,-0.8772867416006676,-0.43825052362906725,0.5503055096961371,-107.0,0.0,-45.0,0.40335239169521064,-0.3895379677072357,-0.7831225531933934,34.27075459658479,17.56211432789952,1.884249854396668,1.0092122867888011,0.6841041151013483,0.46234335035056306,0.31897404943618146,0.25101657733842037,0.2188426348127708,0.1971177001524699,0.17692474683084788,0.15588731475703596,0.13359797011528854,0.11056286555041393,0.08777908854837653,0.06664828918625666,0.04678084177119751,3.694488864823826,2.399437484003067,1.8164224762153882,1.3584361863933518,1.015810838045299,0.8275587166563423,0.7326645498210678,0.671916815533094,0.6170693233507327,0.5594283618377573,0.49700796443945267,0.43044595671175917,0.3618059884499206,0.2946416981360453,0.2268334759639077
0.0,30.0,30.0,0.0,120.0,0.0,0.5506407083366889,-0.9380980404088692,0.28845195062036266,-107.0,0.0,-45.0,0.34791188464277867,-0.8117531075540481,0.6198145769671579,34.27075459658479,17.56211432789952,1.9018545047399427,1.0180483423172417,0.6893432212477002,0.46303679485895244,0.31419950638863886,0.24266254429383521,0.20956503224703327,0.18836774148753002,0.16909117004269947,0.14909347706439932,0.12792073694391085,0.10602833018518268,0.08434571197442274,0.06419492661112232,0.04519402050299543,3.722182693656231,2.417840026249071,1.8297071504836127,1.3634090355734891,1.0083798631063217,0.8097405503996465,0.7105044276303193,0.649907548797119,0.5967225193178881,0.5411984941667085,0.48116789353846007,0.41716810847596275,0.3511317536621411,0.28643590982596656,0.220994051930473
0.0,31.0,31.0,0.0,120.0,0.0,-0.260975079760577,-0.07571851350984304,-0.3077305069875431,-107.0,0.0,-45.0,0.7643449246439216,0.21026084375470933,-0.7327387447927707,34.27075459658479,17.56211432789952,1.9195821238116397,1.0269208276525448,0.6947512580557128,0.4642468406834636,0.31020425282142056,0.23505337115145034,0.20088688028728346,0.18011589065149375,0.16168714355417757,0.14266316533632822,0.12253851015261356,0.10172063219418344,0.08107585213286407,0.06185137531412667,0.04367251187440896,3.749892907110973,2.4362066767440513,1.8432046440580516,1.3693189327517248,1.002579872306731,0.7935813286519503,0.6896437127808803,0.6289300038966704,0.5772680883562314,0.5237459502622761,0.46598442215336017,0.40442140865478715,0.34086533095371474,0.27852584587301005,0.21534898340952646
0.0,32.0,32.0,0.0,120.0,0.0,-0.19240892214530625,0.7291584160243672,-0.9020227516600707,-107.0,0.0,-45.0,0.2501717716646228,0.43297965870665744,0.8968929823631258,34.27075459658479,17.56211432789952,1.9374369852799538,1.0358271290171173,0.7002908582354614,0.46589755839121666,0.3069156251249251,0.2281421046216505,0.192774371970159,0.1723313875368126,0.15468536582147074,0.13657364707004493,0.11743337143527159,0.09762651814832606,0.07796042092487253,0.059611904247892804,0.042213183099172505,3.7776267453219305,2.454535648080691,1.8568526333808892,1.3760206254027025,0.9982609077011582,0.7789930760072744,0.6700328935605544,0.6089375009131203,0.5586605650589008,0.5070309747352879,0.4514247472962879,0.3921802140756521,0.33098789875984375,0.27089862377248,0.2098904467915976
0.0,33.0,33.0,0.0,120.0,0.0,-0.05870297601521446,-0.48752997030921286,-0.32403430645775333,-107.0,0.0,-45.0,0.5093657232383324,0.6776907865270243,-0.6285436389859194,34.27075459658479,17.56211432789952,1.9554232819067732,1.0447663059004553,0.705932676094555,0.4679224833184762,0.3042658391022698,0.2218838204108167,0.18519592495394538,0.1649858713856933,0.14806056025429604,0.1308038128114176,0.11258864134955399,0.09373361505292183,0.07499090393477781,0.057471121698852566,0.04081307171041668,3.80539120429638,2.472827618806691,1.8706026507225422,1.3833870265598647,0.995281845643332,0.7658886766412746,0.651623993719768,0.5898866596538923,0.5408574361003254,0.4910161957671574,0.43745796928485353,0.38042031817380767,0.3214816438323,0.2635420126109858,0.20461098421392382
0.0,34.0,34.0,0.0,120.0,0.0,0.9726594578159764,-0.027993813707047455,0.816857729356125,-107.0,0.0,-45.0,-0.997911981985161,0.5175272781899505,-0.9840004944436058,34.27075459658479,17.56211432789952,1.9735451316077317,1.0537385575988225,0.7116539334385482,0.4702637612650462,0.3021919248585307,0.21623558158959644,0.17812194024548092,0.15805316342282047,0.14178931262544295,0.1253340472667573,0.10798878374945414,0.09003036510837248,0.07215932008634295,0.055423952931755956,0.03946937526747881,3.8331930477844973,2.4910849114600144,1.8844175354500268,1.3913076151230852,0.993510618677679,0.7541823168773985,0.634370307890392,0.5717370747344325,0.5238189497257429,0.47566646846792743,0.4240549674964241,0.36911886012408834,0.3123297002328566,0.25644439583126566,0.19950348423336142
0.0,35.0,35.0,0.0,120.0,0.0,0.5640907978019314,-0.2809271019820898,-0.5908024577146995,-107.0,0.0,-45.0,0.7949845051938522,-0.018575445000002855,-0.3658212042975886,34.27075459658479,17.56211432789952,1.9918065834392686,1.0627448419924341,0.7174371792853458,0.4728713123188175,0.3006356174914555,0.21115640741220731,0.1715245956622268,0.15150906765393224,0.13584992254386968,0.1201461117949583,0.10361931833354877,0.08650596578713099,0.06945818441454871,0.053465619449231984,0.03817944174337926,3.861038818873473,2.509310908582781,1.8982692653430298,1.399686852766205,0.9928242736424627,0.7437898928896726,0.6182262066646094,0.5544510110627899,0.5075079356722051,0.46094873034198997,0.4111882851081238,0.35825424034689224,0.303516092413777,0.24959473635448134,0.1945611636313802
0.0,36.0,36.0,0.0,120.0,0.0,0.15943350642736442,0.4796160642117058,0.13713506470051384,-107.0,0.0,-45.0,0.8612388773979198,0.3919597870160625,-0.08664708304094582,34.27075459658479,17.56211432789952,2.010211623367415,1.0717866071745519,0.7232692440527654,0.47570202605686984,0.2995432118784093,0.20660724694108323,0.16537766982796637,0.14533118874006196,0.13022226751527485,0.11522303718962655,0.09946674055837001,0.08315031475634299,0.06688047369161038,0.05159161973994669,0.036940760544405954,3.8889348511295183,2.5275096444042977,1.9121371325436802,1.4084426484801438,0.9931088957258866,0.734629374032073,0.6031470008323186,0.537993121457389,0.4918896343391495,0.44683186780644896,0.39883202212377217,0.3478060419020048,0.29502568208624,0.24298254389720184,0.18977755027887588
0.0,37.0,37.0,0.0,120.0,0.0,-0.08323426856779981,0.09606243912253887,-0.5716622141660908,-107.0,0.0,-45.0,-0.2997373662677587,-0.016798827223661217,-0.005635889438853514,34.27075459658479,17.56211432789952,2.0287641797735287,1.0808656055309807,0.7291403673160581,0.47871899786872485,0.298865389124402,0.2025509535183377,0.15965639267279613,0.13949876592079744,0.12488767830618581,0.1105490257672874,0.0955184482420171,0.07995395922032332,0.06441959466950715,0.04979771139952114,0.03575095411695894,3.916887279237346,2.545685524287263,1.9260062262083306,1.4175048935774281,0.9942594247887144,0.7266211167505926,0.589088854527352,0.5223301875287001,0.4769315343472263,0.43328659276341197,0.38696173605253464,0.33775495732284794,0.28684411860142645,0.23659784433236802,0.18514646699341455
0.0,38.0,38.0,0.0,120.0,0.0,0.08036687528277575,-0.18781245333271257,-0.291727513277664,-107.0,0.0,-45.0,-0.31334422112425697,0.05930245822092961,-0.3469516917122799,34.27075459658479,17.56211432789952,2.0474681286944163,1.0899837671889432,0.7350434779125917,0.48189081319921945,0.2985570214099246,0.19895225745437733,0.15433731867340866,0.13399252199276257,0.11982882449725953,0.10610936187329963,0.09176267425059444,0.0769080492971836,0.062069354722649704,0.048079894518050385,0.03460777010018483,3.9449020491380704,2.563843135712909,1.9398661836071915,1.4268140832083154,0.9961793868558324,0.7196881273918033,0.5760087376818864,0.5074308843503852,0.46260321789378217,0.4202853282881763,0.3755543496599883,0.32808272047945786,0.278957792590722,0.23043115095466973,0.18066201632613163
0.0,39.0,39.0,0.0,120.0,0.0,-0.011804130464925677,0.2032630595630096,-0.1326115384384583,-107.0,0.0,-45.0,0.17036703788270624,0.43606782407312683,0.9804220318392474,34.27075459658479,17.56211432789952,2.0663272988088073,1.0991431155869598,0.7409736057696956,0.48519088403910315,0.2985769611428279,0.19577773532056236,0.14939821939505554,0.12879452636541858,0.11502960925923672,0.101890330003372,0.088188424720222,0.07400429508007154,0.059823934693578475,0.046434396236896575,0.033509073986060435,3.9729849276831652,2.5819871238481205,1.9537101726958286,1.4363200348634781,0.9987805604741832,0.7137562746417199,0.5638644090905955,0.49326556888052125,0.4488762135281695,0.40780210256103794,0.36458806526147397,0.3187720430915099,0.2713537926314602,0.22447343752106266,0.1763185662197697
0.0,40.0,40.0,0.0,120.0,0.0,-0.8105670614604745,-0.5702214419273224,-0.9468477172577967,-107.0,0.0,-45.0,-0.022524438165326233,-0.1645023641964185,-0.30620363969831077,34.27075459658479,17.56211432789952,2.0853454761852,1.1083457124725817,0.7469274060685978,0.48859683994376285,0.2988878195245967,0.19299577498741186,0.14481799225388187,0.12388807122536255,0.11047507251185844,0.09787913981681,0.08478542232090922,0.07123492706602991,0.05767786376204317,0.04485765638544223,0.032452842251456206,4.001141511825069,2.6001221119455034,1.96753407155625,1.4459807097840913,1.0019825947275447,0.7087544539852424,0.5526144224243804,0.479806091597944,0.43572385613043746,0.3958124502403438,0.3540422850704104,0.30980655554319037,0.264019864722827,0.21871611294651047,0.17211073648333658
0.0,41.0,41.0,0.0,120.0,0.0,0.4123167008007129,-0.32372144352081555,-0.48404388629659967,-107.0,0.0,-45.0,-0.04276852988759772,0.029772316562499457,-0.9366944374604262,34.27075459658479,17.56211432789952,2.104526408805039,1.117593623127767,0.752902777999058,0.4920899741873611,0.2994557389116135,0.1905765360919731,0.14057658278505789,0.11925755984947407,0.10615130173375946,0.0940638573888299,0.08154405411633707,0.06859265966480979,0.05562599617359587,0.04334631411582132,0.03143715592935024,4.029377237363582,2.6182526523316385,1.9813358131590657,1.4557611395243195,1.0057125931193895,0.7046147076321222,0.5422181486180282,0.46702563040845707,0.4231211539872164,0.3842933205472876,0.34389753715185867,0.3011707516798056,0.2569443743731424,0.21315099754382244,0.16803338603246476
0.0,42.0,42.0,0.0,120.0,0.0,0.07259446721805429,-0.6765084197731515,0.709571543601808,-107.0,0.0,-45.0,-0.9975638309251522,0.9469856143704118,-0.9734074103106882,34.27075459658479,17.56211432789952,2.123873810873369,1.126888895254659,0.7588985622186417,0.4956547443207881,0.3002501626942365,0.18849190599271531,0.13665491806145366,0.11488840612100329,0.10204534978184084,0.09043334211408736,0.07845532361616184,0.06607065752644851,0.05366348967813854,0.04189719546034408,0.030460194588807776,4.057697387265241,2.6363831978704226,1.9951148673026746,1.4656324569969812,1.0099046752769836,0.7012723039540119,0.5326358091216322,0.45489854555646553,0.41104466292516834,0.37322299140689064,0.33413540656462526,0.292849937292023,0.25011627111504764,0.2077703007044172,0.164081600848085
0.0,43.0,43.0,0.0,120.0,0.0,0.7531515560294659,0.6371542360416487,0.9864406887063133,-107.0,0.0,-45.0,-0.29825536901365,-0.13945244366568277,0.6294097805987529,34.27075459658479,17.56211432789952,2.1433913669277223,1.1362335469068998,0.7649143030638891,0.4992783253599763,0.30124360582966137,0.1867154515168398,0.13303484924743236,0.11076694432322212,0.09814515915405005,0.08697718873262311,0.07551080665549655,0.06366250445031896,0.051785785541841226,0.04050730174241332,0.029520230695577142,4.086107099571686,2.6545180868383618,2.008871835090115,1.4755710290793123,1.014499526467029,0.6986657807395232,0.5238285155073407,0.443400254047328,0.3994723674928238,0.36258098906265745,0.32473847130468353,0.2848301820175408,0.24352505527895704,0.20256659992431703,0.16025068260912367
0.0,44.0,44.0,0.0,120.0,0.0,0.7911913586325463,0.033081733778989264,0.1659987443383628,-107.0,0.0,-45.0,-0.8266414656516261,0.03294961720006384,0.04325347914443167,34.27075459658479,17.56211432789952,2.1630827357551805,1.1456295602764703,0.7709500634626386,0.5029502130508313,0.30241142864338416,0.18522236695589556,0.12969910158502773,0.10688034831344861,0.094439492192011,0.08368567400306273,0.07270261077024957,0.06136217465993223,0.049988590007580075,0.0391737987773209,0.028615624327233836,4.1146113749126645,2.672661536363753,2.022608134727668,1.485557686172283,1.0194439432123659,0.6967369565989403,0.5157583118334031,0.43250712193750546,0.38838356918379274,0.35234801265292814,0.3156902426892036,0.2770982744119289,0.2371607468679524,0.19753282108648848,0.15653613795791688
0.0,45.0,45.0,0.0,120.0,0.0,0.3318890794043885,-0.6352962732067069,0.5577210662099545,-107.0,0.0,-45.0,0.4331066542978266,-0.10884358643182934,0.9893372756608527,34.27075459658479,17.56211432789952,2.182951554127205,1.1550788791694098,0.7770062822951458,0.5066618741042355,0.3037316160517233,0.18398941884749087,0.12663123039092422,0.10321655921585235,0.09091786677166434,0.08054970759659776,0.07002333776751987,0.059164006247295974,0.048267857089754854,0.03789400680440998,0.027744818218704472,4.143215083639492,2.6908176411640334,2.0363257606483534,1.4955770429114428,1.024690381825903,0.695430914714657,0.5083882169719959,0.42219637277336586,0.3777587816758074,0.34250586330330335,0.3069751098448311,0.269641679960542,0.2310138563889815,0.19266221991701746,0.1529336683597759
0.0,46.0,46.0,0.0,120.0,0.0,0.9314072262167954,-0.06598268648322603,0.8992816885263222,-107.0,0.0,-45.0,0.2425230345334599,-0.607839945263146,-0.1252469812500241,34.27075459658479,17.56211432789952,2.203001440361772,1.164583408727037,0.7830836656006168,0.5104064399359339,0.3051845639475677,0.18299488811425393,0.12381558189061415,0.09976422081350919,0.08757049707287205,0.07756078682924095,0.06746604921767228,0.0570626766082391,0.046619772598996204,0.036665391096747206,0.026906333115772396,4.171922972595224,2.708990375427062,2.050027100901809,1.5056169034433138,1.0301965154005066,0.6946959628965017,0.5016822648011543,0.4124460104438119,0.3675796330276129,0.3330373773506202,0.2985782879864688,0.2624485018217248,0.22507535750596092,0.18794836453847266,0.1494391605206916
0.0,47.0,47.0,0.0,120.0,0.0,0.5402982253907438,0.5474180125625012,0.9083559980057885,-107.0,0.0,-45.0,-0.045840179798658065,0.15667126467878423,-0.7154156367769349,34.27075459658479,17.56211432789952,2.2232359977223193,1.1741450164518683,0.7891831045008126,0.5141784402501469,0.3067528741273176,0.18221851013185994,0.1212372579310837,0.09651262186744179,0.08438823905455972,0.07471095488949353,0.06502423461942906,0.05505317970607364,0.04504073930111913,0.03548555319872275,0.026098763415787193,4.200739671538145,2.7271835964489672,2.063714800370164,1.5156677442387727,1.035924803684572,0.6944835736066491,0.4956055407464422,0.40323475474492976,0.35782877473511776,0.32392636336904557,0.2904857701941147,0.2555074441083196,0.21933666139032326,0.1833851190492314,0.14604867732949828
0.0,48.0,48.0,0.0,120.0,0.0,0.8020542465667249,0.2841312879079483,0.009722133600650773,-107.0,0.0,-45.0,-0.5364582450570805,0.46442322087647114,0.18320528663925484,34.27075459658479,17.56211432789952,2.2436588176630234,1.1837655339404147,0.795305614004565,0.5179735727426649,0.3084211588139026,0.18164141327744387,0.11888208379697816,0.0934516446413685,0.08136254029187899,0.07199276225411708,0.06269178201161783,0.053130805015360466,0.04352736312267557,0.034352222745908115,0.025320773076305942,4.229669699235262,2.7454010491601624,2.0773916596551785,1.5257222672492055,1.041842079309566,0.6947483072976713,0.4901242136414567,0.3945419880254572,0.34848979750429826,0.31515754271738966,0.2826842824155488,0.248807777529629,0.21378959265360903,0.17896662806256902,0.14275844929305945
0.0,49.0,49.0,0.0,120.0,0.0,0.38780756330850585,-0.4782103132343225,0.9739558316853609,-107.0,0.0,-45.0,0.5315516962068181,-0.8807136159540407,-0.1627587494778875,34.27075459658479,17.56211432789952,2.2642734829297764,1.193446758954642,0.8014522879689044,0.5217885052416175,0.3101758555449484,0.18124605647650435,0.11673657850983955,0.09057171896415428,0.07848539385731367,0.06939923101652866,0.060462950825429004,0.05129111801059307,0.04207644032275389,0.03326324982507022,0.024571091773773368,4.2587174692427,2.763646371015078,2.0910605614423057,1.5357750162643906,1.0479191529995302,0.6954477220810259,0.48520556226736955,0.3863477113797131,0.33954715355473186,0.3067164933688033,0.2751612414421115,0.24233930722984182,0.20842636675516918,0.1746873021439765,0.13956486643504584
0.0,50.0,50.0,0.0,120.0,0.0,-0.7105622332066552,-0.6903762490747882,-0.34836094578004295,-107.0,0.0,-45.0,-0.05507549535826639,-0.4477681330026224,-0.5851497494289544,34.27075459658479,17.56211432789952,2.285083570526067,1.203190457614075,0.8076242664339721,0.5256207067275507,0.31200505294346864,0.18101616622621147,0.11478792711865737,0.08786378121615852,0.07574929594967036,0.06692382188068069,0.05833234678932569,0.04952994207641656,0.040684945557330786,0.03221659783553342,0.023848511295635685,4.2878872953892895,2.781923096943393,2.1047244178021636,1.5458220495517065,1.0541304396682725,0.6965422724254936,0.4808179962413016,0.3786325089707957,0.3309860852270856,0.2985895968195454,0.2679047156234196,0.2360923426713944,0.203239568785777,0.17054180408946673,0.13646447063077247
0.0,51.0,51.0,0.0,120.0,0.0,-0.8153947264988708,-0.14122986648900704,-0.8865735766282539,-107.0,0.0,-45.0,0.6073656189621259,-0.5313422495793729,0.24469143852886033,34.27075459658479,17.56211432789952,2.306092654552632,1.2129983665864048,0.8138227123347426,0.5294683038572328,0.3138983276684217,0.18093667352983345,0.11302395459571063,0.08531923767959292,0.07314720699429299,0.06456040359849202,0.056294898715403274,0.04784334172666729,0.03935002076852839,0.03121033681609292,0.02315188215046227,4.31718339697947,2.800234664200122,2.1183861332670975,1.555860662199492,1.0604536066856245,0.6979951992843438,0.4769310711626605,0.3713775191938012,0.32279255963224185,0.2907639879030829,0.26090338810479674,0.23005766942310168,0.19822213353516366,0.16652503599160035,0.13345394835235402
0.0,52.0,52.0,0.0,120.0,0.0,-0.07993663948544993,-0.21339343333399086,0.7369929104212716,-107.0,0.0,-45.0,0.04694100014157554,0.5861872757593596,0.27158533196121315,34.27075459658479,17.56211432789952,2.3273043089293743,1.2228721952136479,0.820048795239915,0.5333299598391644,0.31584659265200155,0.1809936511332613,0.1114331010376571,0.08292993174567327,0.07067251595528322,0.062303224651235715,0.05434583701111804,0.046227607029214655,0.03806896483666714,0.03024263720442922,0.02248011038174251,4.346609903730776,2.8185844170364,2.1320485796514497,1.5658891520151617,1.0668692450596449,0.6997724137706479,0.4735154981066089,0.36456441152034175,0.31495320905016466,0.2832275073597441,0.25414652238840946,0.22422652272319601,0.1933673267581345,0.16263212704367166,0.1305301238000554
0.0,53.0,53.0,0.0,120.0,0.0,-0.1608424562992723,-0.2602633155730123,-0.48436404940206756,-107.0,0.0,-45.0,0.005576207070690842,0.5693330696153454,-0.31125905979560575,34.27075459658479,17.56211432789952,2.348722110007631,1.2328136275460888,0.8263036802949455,0.5372047727575321,0.3178419565676831,0.1811742514118473,0.11000439794097827,0.08068811452194918,0.06831900761646739,0.06014688699502934,0.05248067377407,0.044679239142337526,0.03683922393804166,0.029311763998524136,0.021832154572037236,4.376170860460599,2.836975611161554,2.145714579501324,1.5759066233090637,1.0733605638282468,0.7018423762439613,0.4705431476847805,0.35817536799687666,0.30745527676358736,0.27596865703116735,0.24762393003547542,0.21859056269675162,0.18866872756003783,0.15885842203588277,0.12768995239725187
0.0,54.0,54.0,0.0,120.0,0.0,-0.3945532133900682,0.5922269026937073,-0.8730685026640694,-107.0,0.0,-45.0,-0.5130281019566618,0.303951536933907,-0.7779305055520598,34.27075459658479,17.56211432789952,2.370349639080383,1.2428243242759862,0.8325885209696552,0.5410921907026303,0.31987759433607227,0.18146664521485506,0.10872744537597907,0.07858641843112912,0.06608083260270545,0.058086321708037285,0.05069518434009209,0.04319493687633671,0.03565838255595458,0.02841607129188,0.02120702302509675,4.405870231535992,2.8554114179932495,2.1593868957946873,1.5859128234023816,1.0799131075740285,0.7041759724386646,0.46798704898448573,0.35219306849663795,0.30028656799532155,0.2689765575635417,0.24132594034255767,0.21314185111552797,0.18412021182810911,0.15519947050046945,0.12493051462783933
0.0,55.0,55.0,0.0,120.0,0.0,-0.7000548268693942,-0.28125267573084956,0.8438296872203366,-107.0,0.0,-45.0,0.7334957479064836,-0.9818150479358627,0.852875531311609,34.27075459658479,17.56211432789952,2.3921904847975672,1.2529059245731973,0.8389044545475185,0.5449919413293935,0.3219476283626329,0.18185996193612877,0.1075923899269629,0.0766178334375993,0.06395247992714279,0.056116766392382056,0.04898539016631776,0.04177158420130957,0.034524155096771036,0.027553997156514604,0.020603771114432883,4.435711905099622,2.873894928705095,2.1730682260949363,1.5959080072109117,1.086514496662815,0.7067463880535176,0.46582138375696813,0.34660067894557095,0.2934354056080999,0.2622409085147157,0.23524337183969618,0.20787282959607156,0.17971593664043972,0.15165101646571494,0.12224901019627085
0.0,56.0,56.0,0.0,120.0,0.0,0.9252094817071084,-0.47869572531232785,-0.6925702924957424,-107.0,0.0,-45.0,-0.7763060291937638,0.7967555224536096,0.1908591708788534,34.27075459658479,17.56211432789952,2.4142482454931384,1.2630600478293887,0.8452525995584269,0.5489039737240055,0.324047020110557,0.18234423104326675,0.10658990330015725,0.07477568557933617,0.061928751863335275,0.05423374419734887,0.047347542941329986,0.04040623862856554,0.03343437806658273,0.026724058849623904,0.02002149878762031,4.465699697083995,2.892429158085697,2.186761199817124,1.6058928257608813,1.093154189553424,0.7095289830318529,0.46402147625985274,0.34138184185482384,0.28689059022192404,0.2557519507683191,0.22936750547192516,0.20277629913907386,0.17545032558919665,0.14820898878142094,0.11964275249163792
0.0,57.0,57.0,0.0,120.0,0.0,-0.5367180651879155,0.9536209940626879,0.965863729945774,-107.0,0.0,-45.0,-0.32290476197814977,-0.4669867473389955,-0.6606067451764877,34.27075459658479,17.56211432789952,2.436526531430143,1.273288295318846,0.8516340545626842,0.5528284107057138,0.3261714715414256,0.18291032526365278,0.10571116152722215,0.07305361752097703,0.06000474095395116,0.05243304434246665,0.04577810982399214,0.039096120399146755,0.03238700276760941,0.025924848321643747,0.019459348216356635,4.495837355025501,2.9110170482238065,2.2004683776192877,1.6158682349762126,1.0998232663268408,0.712501166590615,0.4625637791745377,0.33652066859496016,0.2806413644053123,0.24950043116372467,0.22369005933867123,0.19784540091959874,0.1713180549592399,0.14486949198095236,0.11710916333836509
0.0,58.0,58.0,0.0,120.0,0.0,-0.003965950842457211,-0.08449760211847424,0.9413844613016409,-107.0,0.0,-45.0,0.19370635766684297,0.08089314588138663,-0.40462279937665135,34.27075459658479,17.56211432789952,2.459028966969596,1.2835922517835439,0.8580498978523022,0.5567655099231736,0.32831733590395834,0.18354990559401138,0.10494782471231882,0.07144557087837343,0.05817580898004192,0.05071070402964241,0.04427375972120832,0.03783860241834169,0.03138008847668464,0.025155028005072137,0.01891650158299134,4.526128561688917,2.929661472032539,2.214192252201596,1.6258354215310489,1.10651423243172,0.7156422739022025,0.46142585602075287,0.3320017329395449,0.2746773806027792,0.24347756925443687,0.21820316487739255,0.1930735982439016,0.1673140407074251,0.14162879764724856,0.11464576801716723
0.0,59.0,59.0,0.0,120.0,0.0,0.6387543232064261,0.6779620793724224,0.2791433457281136,-107.0,0.0,-45.0,0.5929865709092956,-0.45906721835824316,0.9274381006364292,34.27075459658479,17.56211432789952,2.4817591926685654,1.2939734869491653,0.864501187756223,0.5607156323191648,0.330481537315032,0.18425536827068126,0.10429201728604236,0.06994577009609969,0.056437567726705204,0.04906299164293436,0.04283135052274532,0.036631200880051756,0.030411796071123754,0.024413326864961095,0.018392178994880642,4.556576938512385,2.9483652366236885,2.227935250000652,1.6357957429815193,1.1132208415339542,0.7189334451941332,0.46058636048184415,0.3278100654880941,0.2689886724707321,0.2376750261098871,0.21289934438881505,0.18845465959424942,0.16343342619176107,0.13848333625238873,0.1122501905409716
0.0,60.0,60.0,0.0,120.0,0.0,0.6793957261486674,0.23845112120559464,-0.43647636385389466,-107.0,0.0,-45.0,0.0311410303538997,0.26521778772223836,0.12917477182295212,34.27075459658479,17.56211432789952,2.5047208673125696,1.3044335569775476,0.8709889633266557,0.5646792167331608,0.33266149855525656,0.18501979381040512,0.10373630874102771,0.06854870768725442,0.05478586139235218,0.04748639114287681,0.04144791721840954,0.03547156652937918,0.02948038206997637,0.02369853669337184,0.0178856365185045,4.587186048882356,2.967131086540908,2.241699733419042,1.6457506797740242,1.1199379362855888,0.7223575079064904,0.4600250130385219,0.3239311486507735,0.2635656293068608,0.232084875076989,0.20777148981106708,0.18398264268841888,0.15967157060310197,0.13542968944223419,0.10992014917138228
0.0,61.0,61.0,0.0,120.0,0.0,0.03403753052835534,0.011629433833462377,-0.6897737970434326,-107.0,0.0,-45.0,-0.8228150196846675,-0.8143474378984938,0.13025567393951265,34.27075459658479,17.56211432789952,2.5279176698869708,1.3149740058599422,0.877514245251036,0.5686567595873299,0.33485507649180424,0.18583689820599159,0.10327369483264376,0.06724913066965386,0.053216750499729557,0.04597758756971195,0.04012066082939595,0.03435747651594968,0.028584193061142505,0.023009508631391725,0.017396164325842053,4.617959401247185,2.9859617068588236,2.2554880033428923,1.655701797072427,1.1266613057873613,0.7258988624342718,0.45972257528834687,0.32035091194016996,0.2583989732734089,0.22669957441853006,0.20281284265910474,0.17965187948552175,0.1560240380553645,0.1324645827395618,0.1076534521622195
0.0,62.0,62.0,0.0,120.0,0.0,0.01237935230905074,0.02287671420440196,-0.41620365473172094,-107.0,0.0,-45.0,0.31896917932433144,-0.7801778989157333,0.024928520688131117,34.27075459658479,17.56211432789952,2.551353301491845,1.3255963667545714,0.8840780368834075,0.572648798758566,0.3370605045420442,0.18670098633774682,0.10289757923450822,0.06604202805439068,0.051726497177341076,0.04453345357653389,0.038846938091542826,0.03328682679424713,0.027721660487104227,0.022345149903497227,0.01692308494600455,4.648900452077728,3.0048597261537244,2.2693023017819787,1.6656507146543096,1.1333875585048991,0.7295433718804368,0.4596608223049945,0.31705572736956816,0.2534797391317603,0.221511941745823,0.19801697505392105,0.1754569620744155,0.15248658729329373,0.12958487864079982,0.1054479937174436
0.0,63.0,63.0,0.0,120.0,0.0,-0.7141794828012984,-0.9227202525398499,0.08926698758362206,-107.0,0.0,-45.0,-0.7601703404133116,-0.5344480491189869,0.6689199395474703,34.27075459658479,17.56211432789952,2.575031487204449,1.3363021632713226,0.8906813253247119,0.5766559008776004,0.3392763416009841,0.18760690763995114,0.10260175564316303,0.06492261926196144,0.050311551689914906,0.04315103691932153,0.0376242518336164,0.03225762503071774,0.026891295764109792,0.021704420750147387,0.01646575161560032,4.680012608682678,3.02382771935067,2.2831448145255124,1.6755990833977739,1.1401140094063074,0.733278256154253,0.45982251336661684,0.3140324048032473,0.24879925622399351,0.21651513016324772,0.19337777177334176,0.17139272938533073,0.14905516197955576,0.12678757008307748,0.10330175015158138
0.0,64.0,64.0,0.0,120.0,0.0,0.5898094447330653,-0.32664810730644955,-0.5183422819281223,-107.0,0.0,-45.0,-0.20526517628486185,0.7044405960036593,0.9416772123435126,34.27075459658479,17.56211432789952,2.5989559778932585,1.3470929107059217,0.8973250825067556,0.5806786514173568,0.3415014268720188,0.18855001404189517,0.10238039032951078,0.06388634335795478,0.04896854010609754,0.04182754883622517,0.0364502419986213,0.031267983980540974,0.026091685711550593,0.02108633154549549,0.016023546721738946,4.711299231885971,3.042868210451125,2.297017673747639,1.6855485671176234,1.146838580114682,0.7370919906678468,0.460191361357518,0.31126818714302323,0.244349132455909,0.21170260604250726,0.18888941326267034,0.16745425466939026,0.14572588152557198,0.12406977425978134,0.1012127762414666
0.0,65.0,65.0,0.0,120.0,0.0,-0.8421945233000323,0.13382053780768466,0.6696882564409183,-107.0,0.0,-45.0,0.7995697455462321,0.047895888067294834,0.3284702871615066,34.27075459658479,17.56211432789952,2.6231305519872183,1.3579701172256795,0.9040102662523288,0.5847176470377522,0.34373484006248595,0.18952612018504977,0.10222800513691332,0.06292884901494415,0.04769425300057424,0.040560353253363955,0.0353226772605745,0.03031611529990151,0.0253214882700447,0.020489940088064183,0.015595880332001459,4.742763638573116,3.061983675145123,2.310922960524941,1.6955008287154612,1.1535597109091102,0.7409742098109845,0.4607520011225546,0.308750745267575,0.24012124005512994,0.20706812834479607,0.18454635954917853,0.1636368336945955,0.14249503243285436,0.12142872676421326,0.09917920175879756
0.0,66.0,66.0,0.0,120.0,0.0,-0.2071887264896517,-0.8251162345016971,0.7874204004981065,-107.0,0.0,-45.0,-0.6131563877918844,0.020927437610707367,0.5802609911109513,34.27075459658479,17.56211432789952,2.6475590172037,1.3689352850087397,0.9107378212959771,0.5887734897445662,0.34597586643164757,0.19053146590177228,0.10213946092735827,0.0620459851198939,0.046485635096333015,0.03934695675882938,0.03423944719318834,0.029400323762235482,0.024579428488329284,0.01991434905305622,0.015182188806063701,4.774409104112928,3.0811765433117153,2.3248627072469485,1.7054575197852995,1.1602762834586013,0.7449156153191813,0.46148995702962453,0.3064681726676159,0.23610770289681754,0.20260572940964558,0.18034333500945887,0.15993597361041104,0.1393590601138053,0.11886177604221079,0.09719922817365612
0.0,67.0,67.0,0.0,120.0,0.0,0.22090025148490522,-0.37717337300202436,0.30941952481611623,-107.0,0.0,-45.0,0.06683556674912605,-0.11193398559107037,0.8154933604490673,34.27075459658479,17.56211432789952,2.672245212238495,1.3799899113386682,0.9175086802579423,0.5928467824971925,0.3482239662078697,0.1915626809265608,0.1021099414780388,0.061233791957369756,0.04533977576079721,0.03818499929067182,0.033198554950559504,0.02851900184938643,0.023864294760567725,0.019358703595808446,0.014781933484028285,4.806238864660811,3.1004492014115796,2.338838899912798,1.7154202729673105,1.1669875532323382,0.7489078895931089,0.4623916099725781,0.30440897974157227,0.23230088520807213,0.19830969713007293,0.17627531394309012,0.15634738243649843,0.13631456116301174,0.11636637813580807,0.09527112551969331
0.0,68.0,68.0,0.0,120.0,0.0,0.9319025722375216,0.7573832689708362,0.3583297948445694,-107.0,0.0,-45.0,-0.4043592358752577,0.5616336237747195,-0.3908396046173277,34.27075459658479,17.56211432789952,2.6971930084208693,1.3911354896562262,0.9243237645688566,0.5969381259656514,0.35047874792276895,0.19261675179818366,0.10213493783119496,0.06048849290828319,0.044253900277033686,0.03707224548837891,0.03219811042325974,0.02767062469085062,0.023174935297023982,0.01882218909660109,0.014394599446833,4.83825611934923,3.119803994775607,2.3528534803145713,1.7253906964705268,1.173693090593959,0.7529436139769274,0.46344416402520283,0.3025620877337586,0.22869338147993448,0.19417455843485648,0.17233750690990302,0.1528669591343462,0.13335827605191003,0.11394009170113666,0.09339322941227012
0.0,69.0,69.0,0.0,120.0,0.0,0.313325299801519,0.6265884355617652,0.04803186704590656,-107.0,0.0,-45.0,-0.7156962911792093,0.6542172469857781,0.5425256189664969,34.27075459658479,17.56211432789952,2.7224063113366963,1.402373510570171,0.9311839853459247,0.6010481161924416,0.3527399452422364,0.19369099089999495,0.10221023310021776,0.05980648661203823,0.043225361818233145,0.03600657666080575,0.031236323836220225,0.02685374532636314,0.02251025481232242,0.01830402903774184,0.014019694344418524,4.870464032370886,3.139243229793538,2.366908348112075,1.7353703702930992,1.1803927296552763,0.7570161919596241,0.46463561293641287,0.30091682231069145,0.22527800743292786,0.19019506400021488,0.16852534779147804,0.14949078422350978,0.13048708222146868,0.11158057328481508,0.09156393821134211
0.0,70.0,70.0,0.0,120.0,0.0,-0.024064169401614377,0.7218252823575828,-0.5520370445501424,-107.0,0.0,-45.0,0.3905139358530825,-0.5343870891535287,0.45802864263152565,34.27075459658479,17.56211432789952,2.7478890624224035,1.4137054628289567,0.9380902442230283,0.6051773429610972,0.35500739690660943,0.1947830075763547,0.10233188773490134,0.05918433954690372,0.042251634060143727,0.03498598332671413,0.030311499757513852,0.02606699026896666,0.021869211416653385,0.017803483004452437,0.013656747287609352,4.9028657349596045,3.1587691760066616,2.381005362805919,1.7453608437590649,1.1870865240339012,0.7611197772258895,0.465954706637718,0.2994629067818061,0.222047791898155,0.18636617411500303,0.16483448154043695,0.14621511090698627,0.1276979875491396,0.10928557284405369,0.08978171032136098
0.0,71.0,71.0,0.0,120.0,0.0,-0.3988641224140195,-0.4519570242121824,0.7746983495126669,-107.0,0.0,-45.0,0.8264475839027356,-0.18503883385146502,-0.658527838864831,34.27075459658479,17.56211432789952,2.7736452405323497,1.4251328342552068,0.9450434341380269,0.6093263887117564,0.357281029424385,0.19589068125521342,0.10249622524842017,0.058618778989439936,0.04133030437213267,0.034008558287036424,0.029422031489609448,0.025309055347462424,0.021250813696354807,0.01731984480168301,0.013305307799930235,4.9354643272737455,3.1783840681086497,2.3951463456164337,1.7553636340654122,1.1937747087284156,0.7652492064512261,0.46739091791619447,0.29819045497890767,0.2189959694909595,0.18268304562559026,0.16126075258360067,0.14303635667286788,0.12498812416784649,0.10705292949660167,0.08804506162091973
0.0,72.0,72.0,0.0,120.0,0.0,-0.6405806881945861,0.6503496574953409,0.45722391999782186,-107.0,0.0,-45.0,-0.44376924077396973,0.8637535019513287,0.9547343273789006,34.27075459658479,17.56211432789952,2.799678863482182,1.436657112644853,0.9520444400808012,0.6134958278759134,0.35956084219518275,0.19701213650053345,0.10269981840810187,0.05810668631890895,0.04045906753309288,0.03307249019075186,0.028566395816900115,0.024578701808751272,0.02065411797128358,0.01685244067952278,0.012964944825825891,4.968262880186672,3.198090107858729,2.409333081275925,1.7653802255952613,1.200457667392585,0.7693999367094089,0.4689344093895661,0.297089963814584,0.2161159739681093,0.17914101988895492,0.15780019384727184,0.13995109534185093,0.12235474261615575,0.10488056748756583,0.08635256301529931
0.0,73.0,73.0,0.0,120.0,0.0,-0.9810072253941342,-0.6141462423652908,-0.9130702925177159,-107.0,0.0,-45.0,-0.8793669260235104,-0.9596475517540399,-0.8742109854301032,34.27075459658479,17.56211432789952,2.8259939895704567,1.4482797866328283,0.9590941398055,0.6176862265286871,0.3618468947677999,0.1981457199131908,0.10293947589147084,0.05764509063699955,0.039635719923489056,0.03217605755882824,0.02774314808534217,0.0238747526620435,0.020078225717277316,0.0164006276603597,0.012635245791968059,5.001264436988448,3.217889465911209,2.4235673197411907,1.7754120698037248,1.207135904355892,0.7735679873386706,0.4705760009046358,0.2961523055440781,0.21340143217228455,0.175735611665069,0.1544490163748243,0.13695604953245927,0.11979520630009204,0.10276649236085944,0.08470283810544682
0.0,74.0,74.0,0.0,120.0,0.0,0.7195637876107326,-0.21709984169775343,-0.36807043695079855,-107.0,0.0,-45.0,0.9344085947378185,-0.9024794663383204,0.15883836251996852,34.27075459658479,17.56211432789952,2.852594719080823,1.4600023465271672,0.9661934045101764,0.6218981422782973,0.36413929596792943,0.1992899787952623,0.10321222940828888,0.05723116267695846,0.03885815414949911,0.03131762323310725,0.02695091759188937,0.023196089248293347,0.019522281142858148,0.015963791961423165,0.012315815718559654,5.034472015002824,3.2377842835654262,2.4378507778324514,1.7854605855244197,1.2138100208004996,0.7777498860955921,0.4723071374659102,0.2953687197578997,0.21084615847934676,0.1724624988824299,0.15120359950842338,0.1340480835179417,0.11730698624826026,0.10070878732385716,0.08309456096732264
0.0,75.0,75.0,0.0,120.0,0.0,-0.375536750561543,-0.3240592817092365,-0.4984399793510148,-107.0,0.0,-45.0,0.34315926932639673,0.6044752030205722,0.11252713903029954,34.27075459658479,17.56211432789952,2.8794851957668666,1.471826285113348,0.9733430994866744,0.6261321243298156,0.3664381946571552,0.2004436414900345,0.10351532128853883,0.05686220897943875,0.03812435405946078,0.03049562921925448,0.026188403263081694,0.02254164801945914,0.01898546891009347,0.015541347506772768,0.012006276377730855,5.067888607123248,3.257776674440065,2.4521851408040876,1.7955271595781293,1.220480694564342,0.7819426194124063,0.4741198577880014,0.294730805134183,0.2084441496745445,0.16931751321345787,0.14806048160818425,0.13122419645078062,0.11488765614307882,0.09870560979448408,0.08152645403585765
