Line_number,Fiducial,Easting,Northing,Height,Elevation,tx_pitch,tx_roll,tx_yaw,txrx_dx,txrx_dy,txrx_dz,rx_pitch,rx_roll,rx_yaw,PX,PZ,S0X_time_1.086e-05,S0X_time_3.256e-05,S0X_time_5.426e-05,S0X_time_8.680e-05,S0X_time_1.411e-04,S0X_time_2.279e-04,S0X_time_3.689e-04,S0X_time_5.860e-04,S0X_time_9.115e-04,S0X_time_1.411e-03,S0X_time_2.192e-03,S0X_time_3.418e-03,S0X_time_5.339e-03,S0X_time_8.301e-03,S0X_time_1.338e-02,S0Z_time_1.086e-05,S0Z_time_3.256e-05,S0Z_time_5.426e-05,S0Z_time_8.680e-05,S0Z_time_1.411e-04,S0Z_time_2.279e-04,S0Z_time_3.689e-04,S0Z_time_5.860e-04,S0Z_time_9.115e-04,S0Z_time_1.411e-03,S0Z_time_2.192e-03,S0Z_time_3.418e-03,S0Z_time_5.339e-03,S0Z_time_8.301e-03,S0Z_time_1.338e-02
0.0,0.0,0.0,0.0,120.0,0.0,0.0,0.0,0.0,-107.0,0.0,-45.0,0.0,0.0,0.0,34.27253218749016,17.55503396713325,1.686216053274933,1.5169545315556656,1.455862779359196,1.3905569713138,1.310480749233627,1.2170837198925386,1.1083369877039657,0.9889103984612976,0.8635800170440229,0.7313917983190447,0.5947568830619047,0.4604555561785426,0.3369391190734879,0.23258068396870885,0.14542391326058188,3.246850883794388,2.998572696029677,2.908718696843054,2.811920620131749,2.69181925545321,2.5494059615400495,2.3800135336930137,2.188911013311711,1.9816495837058608,1.7540905919258178,1.5069111039524081,1.2485937946225727,0.9925812203125978,0.7561572590850727,0.5358004154679611
0.0,1.0,1.0,0.0,120.0,0.0,0.0,0.0,0.0,-107.0,0.0,-45.0,0.0,0.0,0.0,34.27253218749016,17.55503396713325,1.6220266238200394,1.4160189097289824,1.3575096871507226,1.2963685468097712,1.2219833966681737,1.135564043762419,1.035105620494361,0.9248058294152672,0.8089648333145377,0.6865951465385396,0.5598161879650073,0.4348154807525709,0.3194037453514164,0.22144132461126453,0.13917394636257474,3.1662330226486692,2.8569339643020535,2.7682548229819655,2.6752284201674823,2.5608427510147393,2.425858954192726,2.2657025206013914,2.0852295911756222,1.889554554816608,1.6746438820070388,1.440991066860781,1.1964412572622531,0.9535483108243683,0.7286032800223461,0.5181698737189554
0.0,2.0,2.0,0.0,120.0,0.0,0.0,0.0,0.0,-107.0,0.0,-45.0,0.0,0.0,0.0,34.27253218749016,17.55503396713325,1.5775563733340061,1.3250006045563822,1.2677091027866385,1.210154058092486,1.140842742304025,1.0607052998153814,0.967741901158237,0.8657201370438214,0.7585094765082362,0.6450956967155704,0.5273378566037864,0.4108855314733968,0.30296015473391613,0.21093968687314382,0.13324488444284555,3.112629839303499,2.7270766757791027,2.6372359558563705,2.547333896461235,2.438098776893492,2.30994270406339,2.158334724766122,1.9877334447898305,1.8028407706749134,1.5997203692651327,1.3786988782965084,1.147033314452327,0.9164529476746383,0.7023191505882777,0.5012745141324777
0.0,3.0,3.0,0.0,120.0,0.0,0.0,0.0,0.0,-107.0,0.0,-45.0,0.0,0.0,0.0,34.27253218749016,17.55503396713325,1.549454029742174,1.243831058665461,1.1857052296606934,1.131141509285325,1.066347780863318,0.9918739366117616,0.9056992571119848,0.8111973686650591,0.7118469298506247,0.6066127732963561,0.4971215070694724,0.3885342026894041,0.28753009418677294,0.20103380032592172,0.1276178057931113,3.0816336074822646,2.6099664907734352,2.5151953388035344,2.427621254243592,2.3229922777264176,2.2011089225826983,2.0574175208789174,1.8959906989930548,1.7211394554444783,1.5290172939384403,1.319799187754874,1.1001992638041675,0.8811812061342953,0.6772354221269472,0.48507789477867036
0.0,4.0,4.0,0.0,120.0,0.0,0.0,0.0,0.0,-107.0,0.0,-45.0,0.0,0.0,0.0,34.27253218749016,17.55503396713325,1.5341904872697858,1.1726347767467857,1.1109243154429913,1.0586551116607055,0.9978674970040956,0.9285054943936004,0.8484890927150226,0.7608285677330766,0.6686468167681588,0.5708926745732549,0.46898512827323185,0.36764135716821006,0.2730416020771601,0.19168478607687345,0.12227503478486326,3.06838742665094,2.5067424632824875,2.401928734936883,2.3155499344099053,2.214980142624037,2.0988543532809225,1.9624977003474169,1.8096033985722781,1.6441102955473774,1.4622547839449407,1.2640739475213458,1.0557804731200644,0.8476267947673392,0.6532869800992778,0.4695456364526927
0.0,5.0,5.0,0.0,120.0,0.0,0.0,0.0,0.0,-107.0,0.0,-45.0,0.0,0.0,0.0,34.27253218749016,17.55503396713325,1.5285684540881654,1.1114519465683068,1.0429788422820028,0.992110505159753,0.9348412382513278,0.8700960623527155,0.7956738949894657,0.7142463556994549,0.6286113265250562,0.5377057949221448,0.4427632159780707,0.34809714187267904,0.2594284520310245,0.18285660728953335,0.11720005225776993,3.0684212149099803,2.4181973699611605,2.2975119538744018,2.2106695753386396,2.113567768358444,2.0027167318870323,1.8731580854963152,1.7282046088247707,1.571439045475688,1.3991739599682618,1.2113210122229379,1.013629436848879,0.8156904886294771,0.630412744135529,0.45464529315952434
0.0,6.0,6.0,0.0,120.0,0.0,0.0,0.0,0.0,-107.0,0.0,-45.0,0.0,0.0,0.0,34.27253218749016,17.55503396713325,1.5299454614660943,1.0600632104907026,0.9816272913380867,0.9310146778408436,0.8767705550077141,0.8161949907081211,0.7468612553770039,0.671120206572176,0.5914716396349827,0.5068440837218997,0.4183051152746277,0.32980101600491685,0.24662964986647168,0.17451584130236933,0.11237741278021678,3.078022525881581,2.3444843985145356,2.2022117794404292,2.112640518135006,2.0183065307838395,1.9122713398044642,1.7890144365411846,1.6514557795847815,1.5028353468478841,1.3395352078074014,1.161352860296495,0.9736089122270682,0.7852796080280616,0.6085553905323086,0.4403462314253933
0.0,7.0,7.0,0.0,120.0,0.0,0.0,0.0,0.0,-107.0,0.0,-45.0,0.0,0.0,0.0,34.27253218749016,17.55503396713325,1.5362664339251952,1.017950449547358,0.9267032561499071,0.8749640770171396,0.8232127284574805,0.7663986678103725,0.7016986595909,0.6311523192735645,0.5569847852500979,0.47811879824288683,0.39547354482929303,0.31266087890452127,0.23458897824869862,0.1666314713929101,0.10779266828014186,3.0943035653247195,2.285089557741379,2.1163349322804246,2.0212428003747487,1.9287935812508712,1.8271280333794677,1.7097126145425463,1.579044354555254,1.4380307398525127,1.2831166029454673,1.1139954261321394,0.9355911280036358,0.7563075389715287,0.587661095429419,0.4266195178367788
0.0,8.0,8.0,0.0,120.0,0.0,0.0,0.0,0.0,-107.0,0.0,-45.0,0.0,0.0,0.0,34.27253218749016,17.55503396713325,1.5460009296836514,0.984350407996194,0.8780441422429924,0.8236355115320182,0.7737761258603052,0.7203451463814077,0.6598689434321136,0.5940740042576736,0.5249308732573827,0.4513585135906073,0.37414328136840924,0.2965922868249819,0.2232545842635037,0.1591746964108155,0.10343229749969726,3.115118033855368,2.238970267200702,2.040085921060694,1.9363624156214092,1.8446743055325485,1.746928600682202,1.634926013859379,1.510681598621983,1.376776850179948,1.2297124733268137,1.0690870327637376,0.899457059298022,0.7286932917722319,0.5676792970425951,0.4134378141512956
0.0,9.0,9.0,0.0,120.0,0.0,0.0,0.0,0.0,-107.0,0.0,-45.0,0.0,0.0,0.0,34.27253218749016,17.55503396713325,1.5580465666515666,0.9583455886089748,0.8354409950242924,0.7767695151490878,0.7281167942048332,0.6777094947256364,0.6210863324942635,0.5596425112016493,0.4951106527577086,0.4264073576464122,0.35419998561543925,0.28151774887268904,0.21257860560574246,0.15211875666529942,0.09928364077810188,3.1389248012118194,2.2047500030423417,1.9734774764235845,1.8579572094376386,1.7656455226935175,1.6713445349831526,1.56435326377255,1.4461006155344607,1.3188437372409052,1.179132087301908,1.0264774160229762,0.8650957627137028,0.7023610945790237,0.548562475457363,0.4007752793980981
0.0,10.0,10.0,0.0,120.0,0.0,0.0,0.0,0.0,-107.0,0.0,-45.0,0.0,0.0,0.0,34.27253218749016,17.55503396713325,1.5716308967301549,0.9389543693610227,0.7986154303473513,0.7341497930895042,0.6859352406690136,0.6381998351592311,0.5850929854894008,0.5276382369534306,0.4673433553528528,0.40312344324384003,0.3355391532630663,0.2673660935083725,0.20251683152822117,0.145438774600403,0.09533483975034486,3.164648220052426,2.1808996013501045,1.9163010776779734,1.7860135736101799,1.6914565494308835,1.6000754270528235,1.4977161641713617,1.3850545376864003,1.2640183895837651,1.1311984550944703,0.986026831919876,0.8324037663678836,0.677240018900155,0.530265948607775,0.38860747848929855
0.0,11.0,11.0,0.0,120.0,0.0,0.0,0.0,0.0,-107.0,0.0,-45.0,0.0,0.0,0.0,34.27253218749016,17.55503396713325,1.5862257210791069,0.9252026796329226,0.7672190050694933,0.6955832815787273,0.6469725250666837,0.6015540285120773,0.5516559661793444,0.49786226430310254,0.4414647869416415,0.3813774736158459,0.31806517658467,0.25407189800108515,0.19302839509785083,0.13911160892669788,0.09157478159441569,3.1915562303897196,2.165876419999836,1.868143427890438,1.720505804704592,1.6219061699390893,1.5328480142621133,1.4347578175533904,1.3273148772319148,1.2121033530889436,1.0857472336184089,0.9476052397099022,0.8012845100036335,0.6532636344321497,0.5127476831735531,0.37691129690896996
0.0,12.0,12.0,0.0,120.0,0.0,0.0,0.0,0.0,-107.0,0.0,-45.0,0.0,0.0,0.0,34.27253218749016,17.55503396713325,1.601478069912861,0.9161731690548458,0.7408465752152376,0.6608841021666054,0.611005344427561,0.5675368999547012,0.520564583499522,0.47013419012772234,0.4173256364189421,0.36105150038128675,0.301690504043458,0.2415749740997278,0.18407549366444487,0.1331157210015192,0.08799304747588942,3.2191624707763573,2.158217538446089,1.8284288542467766,1.6613658298151697,1.5568352953851794,1.4694156481835974,1.3752409466144024,1.272670028112232,1.1629154784880764,1.042625725586036,0.9110915537662084,0.7716478308077978,0.6303696907419687,0.49596811923171547,0.3656648610576499
0.0,13.0,13.0,0.0,120.0,0.0,0.0,0.0,0.0,-107.0,0.0,-45.0,0.0,0.0,0.0,34.27253218749016,17.55503396713325,1.6171574216501923,0.911034411491686,0.7190558109343527,0.6298628123954806,0.5778403254569252,0.5359378463258319,0.4916280558556899,0.4442902065480985,0.3947899740675961,0.3420378160275645,0.28633488679895125,0.22981990395500618,0.17562313476841798,0.127431052362349,0.08457986485473418,3.247151691886376,2.156594254620522,1.79647070145703,1.6084659621802664,1.496116534524883,1.4095577674059139,1.3189464110278006,1.2209239052549636,1.1162847768216992,1.001691964561583,0.8763729580358425,0.7434094909592989,0.6084998235627775,0.4798900075935858,0.354847463846954
0.0,14.0,14.0,0.0,120.0,0.0,0.0,0.0,0.0,-107.0,0.0,-45.0,0.0,0.0,0.0,34.27253218749016,17.55503396713325,1.6331168477940299,0.9090548156298675,0.7013873690279679,0.6023208224415861,0.5473080378748385,0.5065686578044518,0.46467346590962555,0.42018140270455806,0.3737339163762619,0.3242379651011995,0.27192470236696825,0.2187556209978441,0.1676389050011244,0.12203891242015764,0.08132606334307861,3.2753250465491766,2.159837967096532,1.7715206888266313,1.5616136484438348,1.4396425314032582,1.3530789728868053,1.26567193714696,1.1718947055617819,1.0720533734808546,0.9628138781541595,0.843344277492254,0.71649074328572,0.5875992836604883,0.4644782588451925,0.34443949516740335
0.0,15.0,15.0,0.0,120.0,0.0,0.0,0.0,0.0,-107.0,0.0,-45.0,0.0,0.0,0.0,34.27253218749016,17.55503396713325,1.649265270095415,0.9096058492814807,0.687382622844353,0.5780489767254368,0.5192572844225362,0.47926142502703384,0.4395439747284705,0.39767225879778784,0.35404443731955043,0.307561860262332,0.25839234687459023,0.20833503107214602,0.16009275958896177,0.11692187541207577,0.07822303382957754,3.303561160228371,2.1669466343318597,1.7528105928736653,1.5205553018163716,1.3873148327551388,1.2998074559431423,1.2152310521481058,1.1254137773455295,1.0300745527208697,0.9258685221262559,0.8119074015605898,0.6908179317260119,0.5676166864085009,0.44969980318862157,0.3344223768838978
0.0,16.0,16.0,0.0,120.0,0.0,0.0,0.0,0.0,-107.0,0.0,-45.0,0.0,0.0,0.0,34.27253218749016,17.55503396713325,1.6655481638445278,0.9121583322572594,0.6765976555101173,0.5568290093819647,0.4935501000331879,0.45386646286448434,0.41609726209363357,0.37663930828622466,0.335618308791331,0.2919269910733423,0.24567568837950432,0.19851466964254863,0.15295683070217828,0.11206368579643125,0.07526269061116482,3.331789141784063,2.177078966010105,1.7395843862981184,1.4849858886528502,1.3390345427157202,1.2495927306283856,1.1674521847898156,1.08132458919043,0.9902118849980241,0.8907413788770352,0.7819707549702892,0.6663221235932086,0.5485037803716045,0.4355234602543023,0.32477850204139896
0.0,17.0,17.0,0.0,120.0,0.0,0.0,0.0,0.0,-107.0,0.0,-45.0,0.0,0.0,0.0,34.27253218749016,17.55503396713325,1.6819344475100122,0.9162745918888465,0.6686133439113817,0.5384366619322197,0.4700577058666247,0.430250239757918,0.39420415732351705,0.3569699481247341,0.3183611550268156,0.2772577149106096,0.23371757461269058,0.18925439136081174,0.14620525269437898,0.10744917134891244,0.07243743629548177,3.3599703052069083,2.1895414859368265,1.7311211413928167,1.4545613421084462,1.294695410824603,1.2023027942566227,1.1221778734731158,1.039481793188693,0.9523384296174545,0.8573257144805952,0.7534488118936317,0.6429387709063812,0.5302152333476531,0.4219198181209595,0.31549117798828025
0.0,18.0,18.0,0.0,120.0,0.0,0.0,0.0,0.0,-107.0,0.0,-45.0,0.0,0.0,0.0,34.27253218749016,17.55503396713325,1.6984077674791507,0.9215984575714319,0.6630419388932686,0.5226455039966791,0.4486574865369372,0.40829334222835595,0.3737474250089985,0.3385613801982254,0.30218660766011046,0.26348462072187284,0.2224653892757081,0.18051708868468846,0.13981400266147945,0.10306416328710662,0.06974012925735983,3.3880860580681254,2.20377198974167,1.726750017841363,1.4289116154931085,1.2541794734632854,1.1578209432516637,1.0792640161115497,0.9997503793435497,0.9163360054467616,0.8255219891223122,0.7262616495840408,0.6206073983144209,0.5127084344488043,0.40886112084112924,0.30654457314699657
0.0,19.0,19.0,0.0,120.0,0.0,0.0,0.0,0.0,-107.0,0.0,-45.0,0.0,0.0,0.0,34.27253218749016,17.55503396713325,1.7149608236268294,0.9278444453804644,0.6595307695980626,0.5092307898810193,0.4292309267506643,0.3878885239871351,0.35462067336745723,0.3213196694628316,0.2870155496715506,0.2505439575065803,0.2118706516987176,0.17226843660613217,0.1337607548719534,0.09889542281273753,0.06716405345077636,3.4161300424498715,2.219321735238013,1.7258589517361114,1.4076529491177097,1.2173550073004944,1.1160425028597778,1.0385791050551607,0.9620049172753026,0.882094523049985,0.7952373163212006,0.7003345380555852,0.5992713153637077,0.4959433109251556,0.3963211638267454,0.2979236671818508
0.0,20.0,20.0,0.0,120.0,0.0,0.0,0.0,0.0,-107.0,0.0,-45.0,0.0,0.0,0.0,34.27253218749016,17.55503396713325,1.7315917489652617,0.9347870260063766,0.6577637231378818,0.49797294365063755,0.411662364707338,0.3689388910953558,0.33672735874568416,0.30515890586761824,0.2727754379437891,0.23837712038728895,0.20188865525871133,0.16447666086639992,0.12802474776590692,0.09493057351708213,0.06470289039392399,3.444103139279602,2.2358378662712117,1.7278985870710328,1.3903985584726577,1.1840763581663083,1.0768717055519816,1.0000034088061123,0.9261288790059932,0.8495113724788226,0.766384966746806,0.675597562655835,0.5788773510669453,0.4798821585438421,0.3842751965013679,0.2896142043316425
0.0,21.0,21.0,0.0,120.0,0.0,0.0,0.0,0.0,-107.0,0.0,-45.0,0.0,0.0,0.0,34.27253218749016,17.55503396713325,1.7483018462633555,0.9422505387912529,0.6574610811123823,0.48866046521126344,0.3958383865762832,0.35135626491997535,0.3199798667601939,0.290000458166528,0.25939969547505215,0.2269301879882445,0.19247814048103445,0.15711232731877592,0.12258666235080352,0.09115803914590988,0.06235069315967725,3.472010358226515,2.2530469869365515,1.7323827612905969,1.3767674140285815,1.154185145153208,1.0402188974751763,0.9634280841406673,0.8920140337485463,0.8184908619283742,0.7388839127681976,0.6519852766790418,0.5593756089131907,0.46448948443783933,0.37269983167341564,0.2816026496912318
0.0,22.0,22.0,0.0,120.0,0.0,0.0,0.0,0.0,-107.0,0.0,-45.0,0.0,0.0,0.0,34.27253218749016,17.55503396713325,1.7650942022633254,0.9501000770884869,0.6583781940402741,0.48109218779943813,0.38164768603116556,0.33505974932923593,0.30429865732482386,0.27577230853685003,0.24682716547702085,0.21615350556754293,0.18360099920959777,0.15014815034975984,0.11742851093837221,0.08756698626628939,0.060101862217166985,3.4998589429626117,2.2707403965490567,1.7388865931933362,1.3663910848171996,1.1275123631449453,1.00599818588907,0.9287542222655871,0.8595599033612081,0.788943703318761,0.7126584101550864,0.6294363814406673,0.5407192406223552,0.4497318614312419,0.36157296112855053,0.2738761482412225
0.0,23.0,23.0,0.0,120.0,0.0,0.0,0.0,0.0,-107.0,0.0,-45.0,0.0,0.0,0.0,34.27253218749016,17.55503396713325,1.7819728578159233,0.9582335007006378,0.6603033748973818,0.475078902936756,0.3689812321174195,0.3199745123806997,0.2896114664601301,0.262408457716342,0.23500162059984578,0.20600130898477928,0.17522200663897086,0.14355881849080127,0.11253353527171814,0.08414727141920662,0.05795112298263415,3.527657243508052,2.288761214261973,1.7470429806861578,1.3589187925869408,1.1038809778195937,0.9741255777271435,0.8958918476272274,0.8286732660805369,0.760786541468972,0.6876376136238246,0.6078934314826755,0.5228642370945973,0.4355777929325973,0.35087367697940136,0.26642248643912303
0.0,24.0,24.0,0.0,120.0,0.0,0.0,0.0,0.0,-107.0,0.0,-45.0,0.0,0.0,0.0,34.27253218749016,17.55503396713325,1.798942322943279,0.9665746127597721,0.6630553062877514,0.4704444156486275,0.3577326171965818,0.3060307786309647,0.2758525618730978,0.2498483912705964,0.22387132137737925,0.19643138514522923,0.167308578360369,0.13732083554878238,0.10788611318531764,0.08088939237957876,0.055893504949288596,3.5554140626025545,2.3069934308939724,1.7565381167223275,1.354020907754067,1.0831086961778893,0.9445176083131162,0.864758896837372,0.7992676964706296,0.7339415238489386,0.6637552232027236,0.5873025627989574,0.5057692351388795,0.42199758756514744,0.34058219834734815,0.259230056198839
0.0,25.0,25.0,0.0,120.0,0.0,0.0,0.0,0.0,-107.0,0.0,-45.0,0.0,0.0,0.0,34.27253218749016,17.55503396713325,1.8160073014293685,0.9750674590737479,0.6664801851470733,0.4670261131601013,0.34779848715758543,0.29316301753782054,0.26296205180566096,0.23803659862688006,0.2133886186864504,0.18740476505748432,0.1598305498888808,0.13141237575765427,0.10347167302447097,0.07778444317923595,0.053924322276594286,3.5831382887006877,2.3253528006862445,1.7671064750989511,1.3513911446265534,1.0650106840601494,0.9170904227572818,0.8352802082546555,0.7712631310187809,0.7083359079738962,0.6409491586829564,0.5676132421624726,0.48939533868766777,0.4089632427731574,0.33067980298456356,0.25228782109791786
0.0,26.0,26.0,0.0,120.0,0.0,0.0,0.0,0.0,-107.0,0.0,-45.0,0.0,0.0,0.0,34.27253218749016,17.55503396713325,1.833172539890425,0.9836716585753746,0.6704487728291612,0.46467513441967634,0.33907898420767707,0.2813093065245119,0.25088524779923305,0.2269221376207667,0.20350959558957205,0.17888544608266027,0.15275997641622044,0.1258131516086382,0.09927661512598218,0.07482407257928265,0.052039155729161395,3.610838698336336,2.343779410358249,1.7785255972596647,1.3507477057491135,1.0494020797185855,0.891759250175945,0.8073865512785516,0.7445854510702511,0.6839017034301049,0.6191612597129978,0.5487780358033418,0.4737059533176192,0.39644833670737234,0.3211487634750841,0.24558528466357762
0.0,27.0,27.0,0.0,120.0,0.0,0.0,0.0,0.0,-107.0,0.0,-45.0,0.0,0.0,0.0,34.27253218749016,17.55503396713325,1.8504427490447788,0.9923586467442104,0.6748534742124838,0.4632562229095638,0.3314781562462544,0.2704108437579668,0.2395720821519284,0.21645823843015286,0.19419374440956863,0.1708401403454312,0.14607095077681667,0.12050429315453594,0.09528823972927174,0.0720004457061017,0.05023383586435209,3.638523856091994,2.3622317239298636,1.7906109189467325,1.351833600430415,1.0361002150994443,0.8684382003446797,0.781013719882058,0.7191660773865419,0.6605753453917207,0.5983370093709047,0.530752395835071,0.45866663299966604,0.3844279277506623,0.3119722876818467,0.23911246059928276
0.0,28.0,28.0,0.0,120.0,0.0,0.0,0.0,0.0,-107.0,0.0,-45.0,0.0,0.0,0.0,34.27253218749016,17.55503396713325,1.8678225657509056,1.0011087036204842,0.6796055344402118,0.46264733605575364,0.3249043054446707,0.2604115848696455,0.22897658031468673,0.20660194184869363,0.18540367529413024,0.16323804662408006,0.13973943782964215,0.11546823770680786,0.091494680747533,0.06930620859054563,0.04850442737577886,3.6662020692438917,2.380681888936394,1.8032108045207946,1.3544163311414126,1.0249265036063735,0.8470403107763511,0.7561017087621488,0.6949415731483349,0.6382973963883092,0.5784252792964221,0.5134944629587697,0.44424493809671495,0.3728784610975337,0.3031344631324372,0.23285984482344518
0.0,29.0,29.0,0.0,120.0,0.0,0.0,0.0,0.0,-107.0,0.0,-45.0,0.0,0.0,0.0,34.27253218749016,17.55503396713325,1.8853165373570506,1.009908639233221,0.68463241399858,0.4627390740464577,0.3192702624388405,0.2512579789536689,0.21905638759742194,0.1973137678223534,0.17710485289026937,0.15605064334206165,0.13374312364793461,0.11068862895391147,0.08788484488286309,0.06673445537274644,0.046847214507250684,3.6938813720218726,2.399112094530526,1.8162019017159121,1.358287109603446,1.015707986348551,0.8274777766258599,0.7325939838855743,0.6718532544299345,0.6170122730668814,0.5593780946749931,0.4969648840969005,0.4304103037133701,0.36177768184918,0.29462020506005604,0.22681838920087155
0.0,30.0,30.0,0.0,120.0,0.0,0.0,0.0,0.0,-107.0,0.0,-45.0,0.0,0.0,0.0,34.27253218749016,17.55503396713325,1.9029291177989536,1.0187500178261073,0.6898753805652681,0.463433980583548,0.31449358216439893,0.24289878150804917,0.20977234857992966,0.18855741100416146,0.16926535807860332,0.14925150055067385,0.12806127807720824,0.10615022462737274,0.08444835561801357,0.06427869795580231,0.045258687458452435,3.7215695252397407,2.4175117879469954,1.8294848867685651,1.3632597350961426,1.008278550687869,0.8096623038050978,0.7104368529767693,0.6498468088889146,0.5966679947864215,0.5411504175358024,0.48112664372141484,0.4171339175801665,0.3511045541295155,0.2864152078380919,0.22097947685592798
0.0,31.0,31.0,0.0,120.0,0.0,0.0,0.0,0.0,-107.0,0.0,-45.0,0.0,0.0,0.0,34.27253218749016,17.55503396713325,1.9206646695718688,1.027627815005393,0.6952873384015548,0.4646457587689797,0.31049666365617656,0.23528492496380063,0.2010881367113826,0.18029946075931708,0.16185567202478568,0.14281610902517214,0.12267462937168291,0.10183881192944229,0.08117550166127387,0.061932837910424005,0.04373552970979607,3.7492740234415134,2.4358755778707537,1.8429806366670611,1.369169242034141,1.0024798479157773,0.7935055353397523,0.6895789361389,0.6288719245887647,0.577215951085992,0.5236999469582322,0.46594490774749797,0.40438860672507937,0.3408391857676213,0.27850589956684296,0.21533489896414915
0.0,32.0,32.0,0.0,120.0,0.0,0.0,0.0,0.0,-107.0,0.0,-45.0,0.0,0.0,0.0,34.27253218749016,17.55503396713325,1.9385274684186877,1.0365394165049016,0.7008309022942643,0.46629843721450415,0.3072067999101533,0.22836943064049633,0.19296993083543965,0.1725091435782994,0.1548484800948306,0.13672172479907874,0.11756524975270148,0.09774113001418591,0.07805718946043937,0.05969114044978045,0.04227460619953103,3.7770021053832483,2.454201677737079,1.8566268399006616,1.3758704023720592,0.9981619435143162,0.7789195109617142,0.669970732558785,0.6088819315276538,0.5586106853606465,0.5069869348820439,0.4513868789641761,0.39214873224850155,0.3309627581287894,0.2708793995893913,0.2098768329261466
0.0,33.0,33.0,0.0,120.0,0.0,0.0,0.0,0.0,-107.0,0.0,-45.0,0.0,0.0,0.0,34.27253218749016,17.55503396713325,1.9565217091044818,1.045483882030986,0.706476712616778,0.4683255145474615,0.3045561658806171,0.2221073490777284,0.1853861348402726,0.165158086244049,0.14821849345356075,0.1309472276376075,0.11271645085189204,0.09384479888352018,0.07508489943738902,0.057548210309337544,0.0408729522913928,3.804760765720493,2.4724907663968105,1.8703750382007036,1.3832361505718227,0.9951837356915001,0.7658171293304639,0.6515642761687274,0.5898334586562839,0.5408096924339058,0.4909740162943358,0.43742166306655017,0.38039009157480763,0.32145746070992504,0.26352347873072207,0.20459782183432954
0.0,34.0,34.0,0.0,120.0,0.0,0.0,0.0,0.0,-107.0,0.0,-45.0,0.0,0.0,0.0,34.27253218749016,17.55503396713325,1.9746515114799907,1.05446141156664,0.7122019804953934,0.470669104643732,0.30248175343662403,0.21645571853535944,0.17830713631075815,0.15822009837180606,0.14194228642016538,0.12547299210496152,0.10811268810828219,0.09013825412191027,0.07225064562684282,0.05549896938064227,0.039527763475826275,3.8325567668758285,2.490745166323594,1.8841880782777807,1.3911559841857408,0.99341317729389,0.754112590612614,0.6343128711431197,0.571686109029935,0.5237732280996907,0.47562605262912677,0.42402014444089026,0.36908982760514364,0.31230643014599013,0.25642652206974936,0.19949075514912737
0.0,35.0,35.0,0.0,120.0,0.0,0.0,0.0,0.0,-107.0,0.0,-45.0,0.0,0.0,0.0,34.27253218749016,17.55503396713325,1.992920926472031,1.0634729639813403,0.7179892468991458,0.4732790999954062,0.3009252620719462,0.21137353393429387,0.1717050999359154,0.15167097312053773,0.13599814789017997,0.1202807700153847,0.1037394732836731,0.08661068694914434,0.0695469384318047,0.053538635960827946,0.03823638575219824,3.8603966506310554,2.5089682597506764,1.8980379435376757,1.399534381033619,0.9927273339449748,0.7437218041947404,0.618170897043888,0.5544021553572719,0.5074641290912129,0.46090998727096355,0.4111548709328227,0.35822634424271604,0.3034936933024827,0.24957749406830446,0.19454885050709453
0.0,36.0,36.0,0.0,120.0,0.0,0.0,0.0,0.0,-107.0,0.0,-45.0,0.0,0.0,0.0,34.27253218749016,17.55503396713325,2.0113339418554945,1.0725199885431829,0.7238253363020851,0.4761123664686077,0.299832953671969,0.2068217205893496,0.16555379146702073,0.14548830498631385,0.130365945347488,0.11535358317731521,0.09958329434547951,0.0832519891204692,0.06696675023430952,0.05166270549135518,0.03699630664342468,3.888286749267333,2.527164080440451,1.911903930368299,1.4082892640053506,0.9930123081480801,0.7345627520212431,0.6030936731146359,0.5379462576768308,0.4918476422953677,0.4467947121078551,0.39879994690009196,0.34777922780438364,0.29500411415495964,0.24296590589432776,0.18976563658860415
0.0,37.0,37.0,0.0,120.0,0.0,0.0,0.0,0.0,-107.0,0.0,-45.0,0.0,0.0,0.0,34.27253218749016,17.55503396713325,2.029894487762166,1.0816042389180327,0.729700484003852,0.4791319792037078,0.29915547891008826,0.20276310877426276,0.15982842819408258,0.13965132365132824,0.12502700018214494,0.11067562544645358,0.09563154204196721,0.08005270224810195,0.06450348362369267,0.04986693267008871,0.03580514679814467,3.9162331962028976,2.5453370331906067,1.9257711310726855,1.417350536311647,0.994163055664936,0.726555802514635,0.5890373714750585,0.5222852042922304,0.4768912623517423,0.43325094413512,0.3869309339148751,0.33772917387123197,0.2868233441803486,0.2365817847885866,0.18513493697781105
0.0,38.0,38.0,0.0,120.0,0.0,0.0,0.0,0.0,-107.0,0.0,-45.0,0.0,0.0,0.0,34.27253218749016,17.55503396713325,2.0486064419237664,1.0907276465643008,0.7356076158747511,0.4823065064600594,0.2988476820190313,0.19916240648870895,0.15450555217390155,0.1341407428949442,0.11996397319957298,0.10623217319911069,0.09187244256232333,0.07700397115832339,0.06215094202592335,0.04814731483053178,0.03466065213895152,3.9442419361292624,2.5634917048600623,1.9396291852007124,1.4266587032309317,0.9960831170701622,0.7196239733928919,0.5759589696162074,0.5073876764920052,0.46256457704499676,0.42025111117242536,0.3755247585365413,0.3280579191665779,0.2789377760066212,0.2304156453354231,0.18065085495206903
0.0,39.0,39.0,0.0,120.0,0.0,0.0,0.0,0.0,-107.0,0.0,-45.0,0.0,0.0,0.0,34.27253218749016,17.55503396713325,2.0674736346612166,1.099892236267227,0.7415417598906573,0.4856093457364205,0.2988683898470938,0.19598616881447495,0.14956292276858058,0.12893862358886976,0.11516075935446123,0.10200950342348243,0.0882949957341594,0.07409750093451413,0.059903302536841195,0.04650007649083684,0.03356068651832463,3.9723187346635704,2.5816327399633168,1.9534712623102313,1.4361635908259447,0.9986842841771658,0.7136931441182155,0.5638162334992912,0.49322403701498135,0.4488391201140973,0.4077692458219996,0.3645596266249256,0.3187481780828477,0.27133450008729465,0.22445846250823104,0.1763077591423517
0.0,40.0,40.0,0.0,120.0,0.0,0.0,0.0,0.0,-107.0,0.0,-45.0,0.0,0.0,0.0,34.27253218749016,17.55503396713325,2.08649985363514,1.1091000711138579,0.7474995700607181,0.4890181144491886,0.29918019031456067,0.19320276300300573,0.1449794254109554,0.12402824980749663,0.11060239086963652,0.09799481870475824,0.08488891826458955,0.07132551732902781,0.05775509077957186,0.044921654983257155,0.03250322484677757,4.000469187537673,2.5997647610882373,1.9672932415615603,1.445823167550158,1.0018862181243209,0.7086922203677344,0.5525677235988092,0.47976614172654436,0.4356882312622237,0.39578088686584756,0.3540149437069336,0.30978358350919744,0.26400126418542336,0.21870164636985226,0.17210027001010325
0.0,41.0,41.0,0.0,120.0,0.0,0.0,0.0,0.0,-107.0,0.0,-45.0,0.0,0.0,0.0,34.27253218749016,17.55503396713325,2.1056888483715563,1.1183532177044317,0.7534789449933633,0.4925140957764018,0.29974920465504984,0.19078232897896935,0.1407349938804683,0.11939401709348978,0.10627494800789666,0.09417617845119057,0.08164459157881554,0.0686807302561594,0.05570115762220589,0.043408687082017915,0.03148634666037672,4.028698729343064,2.6178923198955286,1.9810930566025553,1.4556024709888424,1.0056160333312105,0.704553253972212,0.5421728173152651,0.46698717356084857,0.4230869232614097,0.3842629873727229,0.3438712409469121,0.30114863163988986,0.2569264354684025,0.2131370183167013,0.1680232470896886
0.0,42.0,42.0,0.0,120.0,0.0,0.0,0.0,0.0,-107.0,0.0,-45.0,0.0,0.0,0.0,34.27253218749016,17.55503396713325,2.125044334574944,1.1276537250300263,0.7594787252064646,0.49608173893572205,0.30054485716811163,0.18869673531940376,0.13681054373263513,0.11502133193236753,0.10216547685530622,0.09054243577308972,0.07855301385270418,0.06615630010492701,0.053736657606128634,0.04195799655429572,0.03050823009723275,4.057012641848864,2.63601986858888,1.9948701776053392,1.465472639065737,1.0098078592769246,0.7012115223672912,0.5325917422480527,0.45486149746485544,0.4110117561124913,0.3731938288594368,0.3341101063042158,0.2928286304693921,0.2500989650300923,0.20775678876355652,0.16407177694900132
0.0,43.0,43.0,0.0,120.0,0.0,0.0,0.0,0.0,-107.0,0.0,-45.0,0.0,0.0,0.0,34.27253218749016,17.55503396713325,2.1445699982394086,1.1370036123995813,0.7654984552217923,0.499708212122109,0.301539645621958,0.1869195310146061,0.13318791486537448,0.11089652151025745,0.09826191354988886,0.08708317948577984,0.07560575587391365,0.06374580663430254,0.051857028948366114,0.04056658256507599,0.029567146254804246,4.085416061908874,2.654151744794159,2.008625205819806,1.4754100427928791,1.0144023900896766,0.6986055718641047,0.5237856158207175,0.4433645348497575,0.3994407182513566,0.36255294092421475,0.32471412049084747,0.2848096517040667,0.24350835467072174,0.20255353617328004,0.16024116182397521
0.0,44.0,44.0,0.0,120.0,0.0,0.0,0.0,0.0,-107.0,0.0,-45.0,0.0,0.0,0.0,34.27253218749016,17.55503396713325,2.164269499567908,1.146404863224889,0.7715381983869303,0.5033830055501216,0.3027089149235743,0.18542589346793473,0.12984982151843202,0.10700675285717669,0.09455301445216793,0.08378868076121543,0.07279492040013602,0.06144322023510088,0.05005797499305456,0.039231608872252674,0.02866145390193107,4.113913988973294,2.6722921650005778,2.02235955943191,1.4853955159578234,1.019346430236442,0.6966772290707501,0.515716487661123,0.43247265590719075,0.388353114794659,0.3523210258402354,0.31566679736858816,0.27707848584227607,0.23714462577775738,0.1975201873426424,0.15652690888570928
0.0,45.0,45.0,0.0,120.0,0.0,0.0,0.0,0.0,-107.0,0.0,-45.0,0.0,0.0,0.0,34.27253218749016,17.55503396713325,2.1841464767091407,1.15585942249599,0.7775983941670881,0.5070975814926233,0.3040306362106574,0.18419257327355146,0.12677980828350344,0.10333996051374317,0.09102829180570918,0.08064984400165032,0.07011310471357146,0.05924287536226254,0.04833544699784792,0.037950393753431046,0.02778959452141937,4.142511292220998,2.69044522329887,2.0360752327331353,1.495413675947259,1.0245924431280613,0.6953715846605283,0.5083473819434621,0.42216308807134867,0.37772946279959585,0.34247988766388515,0.30695252844933896,0.26962260019485207,0.23099829016264267,0.1926499988617532,0.15292472010162877
0.0,46.0,46.0,0.0,120.0,0.0,0.0,0.0,0.0,-107.0,0.0,-45.0,0.0,0.0,0.0,34.27253218749016,17.55503396713325,2.2042045493216342,1.1653691965029578,0.7836797492991106,0.5108450678488013,0.30548519310917116,0.18319783634441847,0.12396221095083362,0.09988478190128881,0.08767795447861208,0.07765816155275285,0.06755336609815943,0.05713944595888787,0.04668562815074159,0.03672040061055638,0.02695008766077071,4.171212717328563,2.7086148932626624,2.0497746135454564,1.505452329122137,1.0300981081780063,0.6946369534459199,0.5016423375928065,0.4124138388924356,0.36755139347989124,0.3330123654733366,0.29855653118503295,0.26243009963622727,0.22506032271906584,0.18793653967043772,0.14943048265468076
0.0,47.0,47.0,0.0,120.0,0.0,0.0,0.0,0.0,-107.0,0.0,-45.0,0.0,0.0,0.0,34.27253218749016,17.55503396713325,2.224447321974541,1.1749360538628857,0.7897831556757415,0.5146199915783222,0.307055176535775,0.18242140396345152,0.12138212123320945,0.09663049962261712,0.08449285341250208,0.07480567191320668,0.06510918999082403,0.05512792270933063,0.04510491872162604,0.03553922920276735,0.026141526570264768,4.200022892892632,2.7268050315859815,2.0634603464636707,1.5155019537169523,1.035825890744065,0.6944248144228158,0.49556644483815715,0.40320363161991274,0.35780156127952834,0.32390227040809494,0.2904648007547313,0.2554896898932662,0.2193221357782763,0.1833736746403955,0.14604025988691335
0.0,48.0,48.0,0.0,120.0,0.0,0.0,0.0,0.0,-107.0,0.0,-45.0,0.0,0.0,0.0,34.27253218749016,17.55503396713325,2.2448783873946665,1.1845618272540015,0.7959096291210735,0.5184180482752914,0.3087251891010343,0.18184439131013017,0.11902535459199713,0.093566989971659,0.08146443143546303,0.07208492113341576,0.06277446058030042,0.0532035919730737,0.043589922260896474,0.03440460746178067,0.02536257410911811,4.228946336522402,2.7450193826087173,2.077135231762267,1.5255552530701395,1.0417426284189093,0.6946897341283839,0.49008587708331797,0.3945118518645611,0.3484635596618243,0.3151343262287644,0.28266406507678826,0.24879064319402275,0.213775555046135,0.17895554911692566,0.1427502827359768
0.0,49.0,49.0,0.0,120.0,0.0,0.0,0.0,0.0,-107.0,0.0,-45.0,0.0,0.0,0.0,34.27253218749016,17.55503396713325,2.265501329569118,1.194248315488553,0.802060264330515,0.5222359041981546,0.3104816598832443,0.18144924498155554,0.1168784205446433,0.09068467698357612,0.0785846771207887,0.06948892712776143,0.06054343364731322,0.05136201626415108,0.04213743276473175,0.03331438384769351,0.024611958901814144,4.257987460618979,2.763261583205691,2.0908021517740085,1.5356067720457538,1.0478191362992844,0.6953892763296873,0.4851679174560088,0.38631850380621896,0.3395218434278322,0.30669411315823775,0.27514174279338177,0.24232276611245146,0.20841279701494433,0.17467657435871073,0.13955694163513677
0.0,50.0,50.0,0.0,120.0,0.0,0.0,0.0,0.0,-107.0,0.0,-45.0,0.0,0.0,0.0,34.27253218749016,17.55503396713325,2.286319726712757,1.2039972857063446,0.8082362021905612,0.5260710271951751,0.31231267009080727,0.18121967998666447,0.11492849496178793,0.08797449141109488,0.07584608239542777,0.06701114665321863,0.05841071145819647,0.04959901615269007,0.04074442273332016,0.032266520206375555,0.023888471727994503,4.287150577858043,2.7815351677371702,2.1044640182019365,1.5456525697271564,1.0540298331393663,0.6964839007424257,0.480780979705176,0.3786041745302025,0.3309616573374912,0.29856801480110773,0.26788590399331697,0.2360763694576027,0.20322644775091592,0.17053141381841674,0.13645677884927704
0.0,51.0,51.0,0.0,120.0,0.0,0.0,0.0,0.0,-107.0,0.0,-45.0,0.0,0.0,0.0,34.27253218749016,17.55503396713325,2.307337154109343,1.2138104755667583,0.8144386064799222,0.5299215431479972,0.31420778991088577,0.18114061664902018,0.11316339396794421,0.08542783406681456,0.0732416036213925,0.0646454447323501,0.056371219540677336,0.0479106534758219,0.039408032054362184,0.031259085092639,0.023190962130475952,4.316439906391811,2.799843572898259,2.1181237352034388,1.5556899418066314,1.060352389669595,0.6979368531784362,0.47689462335573807,0.37135000520233685,0.3227689707712924,0.2907431679676194,0.2608852334569425,0.23004224006716312,0.19820944296528503,0.16651497021087927,0.13344648122115277
0.0,52.0,52.0,0.0,120.0,0.0,0.0,0.0,0.0,-107.0,0.0,-45.0,0.0,0.0,0.0,34.27253218749016,17.55503396713325,2.3285571868348796,1.2236895953762625,0.8206686476011881,0.5337861147795094,0.3161579266514067,0.18119811780978118,0.11157154914573578,0.08303654302393472,0.07076462589082547,0.06238606632104042,0.05442018518569869,0.046293215754901855,0.03812555764971141,0.030290247526122662,0.022518335227054636,4.34585957478567,2.8181901423889912,2.131784174215763,1.5657171865225545,1.066767399827803,0.6997140492412358,0.4734795632100546,0.36453766792404924,0.31493041814064904,0.28320741525245374,0.25412899622421553,0.22421161437551843,0.19335504928375713,0.16262237331929627,0.13052287330375792
0.0,53.0,53.0,0.0,120.0,0.0,0.0,0.0,0.0,-107.0,0.0,-45.0,0.0,0.0,0.0,34.27253218749016,17.55503396713325,2.3499834023712176,1.2336363301236515,0.8269274915191263,0.5376638399210962,0.31815518412054244,0.18137932667961051,0.11014198381286466,0.08079286421849005,0.06840893029137962,0.060227610041081896,0.05255311753290557,0.0447432017247408,0.03689444382806129,0.0293582711493777,0.02186954871276948,4.3754136267040655,2.8365781313757448,2.145448157409346,1.5757334084760262,1.0732580751961578,0.7017839534327361,0.4705076734162814,0.3581493472401729,0.3074332447321353,0.27594926023763966,0.247607005303324,0.21857615363583716,0.1886568466350952,0.15884896849328317,0.1276829108562592
0.0,54.0,54.0,0.0,120.0,0.0,0.0,0.0,0.0,-107.0,0.0,-45.0,0.0,0.0,0.0,34.27253218749016,17.55503396713325,2.371619383117549,1.2436523414149832,0.8332162925053418,0.5415541665958179,0.32019273305068613,0.18167240564730427,0.10886429019610497,0.07868942504415183,0.06616866391341071,0.05816500381518769,0.05076578911000146,0.043257307888511835,0.035712273291190574,0.028461508759943733,0.021243610040232633,4.405106025359532,2.855010710740777,2.1591184473902527,1.5857383551661433,1.0798099625577358,0.7041174553012957,0.46795198641493985,0.35216772539938207,0.3002652576544611,0.26895782520364736,0.24130959135293442,0.21312792068425016,0.18410871168535783,0.15519030579576748,0.12492367468231268
0.0,55.0,55.0,0.0,120.0,0.0,0.0,0.0,0.0,-107.0,0.0,-45.0,0.0,0.0,0.0,34.27253218749016,17.55503396713325,2.3934687188069246,1.2537392693103775,0.8395361886259022,0.5454568225378158,0.32226469226088417,0.18206647631416228,0.10772860737005766,0.07671921057556368,0.06403831238448579,0.056193482257401284,0.0490542187076061,0.04183241601923678,0.03457675874551084,0.02759839719037528,0.020639573766504816,4.434940657737834,2.873490971129217,2.1727977413551987,1.5957322815964798,1.086410684173364,0.7066877440506013,0.4657866871342826,0.3465759705877984,0.29341478154716055,0.2622228112437819,0.2352275741858362,0.20785935814197726,0.1797048022495679,0.15164212975864513,0.12224236479095639
0.0,56.0,56.0,0.0,120.0,0.0,0.0,0.0,0.0,-107.0,0.0,-45.0,0.0,0.0,0.0,34.27253218749016,17.55503396713325,2.4155350088344667,1.2638987340693486,0.8458882991733357,0.5493717570267076,0.32436602016080324,0.18255156098675007,0.10672559986235756,0.07487554209772583,0.06201267473003956,0.05430856568546073,0.047414655481676275,0.04046558153529549,0.033485735074487745,0.026767452512103034,0.020056539055791384,4.464921338611468,2.8920219268075824,2.186488668358604,1.6057158388096595,1.0930497001263317,0.7094701828387061,0.4639871028396382,0.3413577274684006,0.28687061870604724,0.2557344606850688,0.22935223595558454,0.20276326795843214,0.17543954261745914,0.1482003697098004,0.11963629486149455
0.0,57.0,57.0,0.0,120.0,0.0,0.0,0.0,0.0,-107.0,0.0,-45.0,0.0,0.0,0.0,34.27253218749016,17.55503396713325,2.437821864503534,1.2741323378126803,0.8522737234504583,0.553299093163054,0.32649241612863694,0.18311852582671237,0.10584643685329344,0.07315205765702265,0.060086840371780796,0.05250604063367136,0.04584356418505315,0.039154022683401034,0.032437152031044865,0.0259672655408475,0.01949364732797712,4.495051814352966,2.910606519348368,2.200193788704307,1.6156899826899773,1.0997180918833556,0.7124421838253945,0.4625296890575054,0.3364971094615054,0.280622013281868,0.24948352172449254,0.2236752959006607,0.19783279220493402,0.1713076097344477,0.14486113063659864,0.11710288699494661
0.0,58.0,58.0,0.0,120.0,0.0,0.0,0.0,0.0,-107.0,0.0,-45.0,0.0,0.0,0.0,34.27253218749016,17.55503396713325,2.4603329111956316,1.2844416661085178,0.8586935404719209,0.5572390889432782,0.32864023124295666,0.18375902582457604,0.10508277191794503,0.07154269438408738,0.05825616808774826,0.05078194175544677,0.04433761143835334,0.037895110467902504,0.031429067412281554,0.02519649762293852,0.0189500800437099,4.525335766558697,2.9292476211537655,2.21391559474482,1.6256558998284891,1.106408366068833,0.7155830848717464,0.4613920119966422,0.33197869229405136,0.27465861921456847,0.2434612151932209,0.2181888865325299,0.19306139503477557,0.1673039201831282,0.1416206845532551,0.11463966673572845
0.0,59.0,59.0,0.0,120.0,0.0,0.0,0.0,0.0,-107.0,0.0,-45.0,0.0,0.0,0.0,34.27253218749016,17.55503396713325,2.4830717904694843,1.2948282894893703,0.8651488092699242,0.5611921057070929,0.3308063878123695,0.18446545173495374,0.10442672327426201,0.07004167236986038,0.05651626676974052,0.04913253501407241,0.0428936529583069,0.036686359270255174,0.0304596406817929,0.024453876683442503,0.018425056617383324,4.555776815493194,2.94794803882949,2.227656512575521,1.6356149476649335,1.1131142773403495,0.7188740286569086,0.4605527278797158,0.32778750842774423,0.2689704715753855,0.23765920336381294,0.2128855311649952,0.188442845731061,0.1634236179144975,0.1384754623416723,0.112244258348234
0.0,60.0,60.0,0.0,120.0,0.0,0.0,0.0,0.0,-107.0,0.0,-45.0,0.0,0.0,0.0,34.27253218749016,17.55503396713325,2.506042162094356,1.3052937649054908,0.8716405695812155,0.5651585827262057,0.33298830712492383,0.18523087908314448,0.103870854512014,0.06864347990408802,0.05486297782524284,0.04755430206858455,0.04150872166880705,0.03552541810700279,0.02952712700757297,0.023738193518381513,0.017917832449951786,4.586378523363411,2.9667105164174945,2.241418904263991,1.6455686065042079,1.1198306691808595,0.7222978448519609,0.4599915595832585,0.3239090420485176,0.2635479610019131,0.23206956071680956,0.20775812269216462,0.18397120276902357,0.15966206268155486,0.13542204603727917,0.1099143803339439
0.0,61.0,61.0,0.0,120.0,0.0,0.0,0.0,0.0,-107.0,0.0,-45.0,0.0,0.0,0.0,34.27253218749016,17.55503396713325,2.5292477060223404,1.3158396371190315,0.8781698427597732,0.5691390168792982,0.33518384482961233,0.1860490193276314,0.1034081557861348,0.06734285991029067,0.05329235908191466,0.04604392576909827,0.04018001662646574,0.03441006247876521,0.028629871685972547,0.023048298314633037,0.017427697074068705,4.617144397431701,2.9855377384946165,2.2552050703672695,1.6555184413501043,1.126553331382066,0.7258389358780074,0.45968927096322065,0.32032922436267136,0.25838181092655416,0.22668474658379306,0.20279990353144214,0.1796407988244768,0.1560148191313283,0.13245716153328435,0.10764784117555533
0.0,62.0,62.0,0.0,120.0,0.0,0.0,0.0,0.0,-107.0,0.0,-45.0,0.0,0.0,0.0,34.27253218749016,17.55503396713325,2.5526921243040634,1.3264674400424705,0.8847376328089666,0.5731339465153676,0.3373912333631529,0.18691417323951104,0.10303202546430451,0.06613479743311403,0.05180067006320127,0.04459827668256289,0.0389048926983896,0.033338186766497475,0.027766304924452714,0.022383097382292272,0.016953972404546165,4.648077892975794,3.004432333142867,2.269017252571639,1.6654660718067729,1.1332788729791456,0.7294831666742453,0.4596276392201414,0.3170344289991848,0.2534630573158575,0.22149757958438576,0.19800444665606523,0.17544622666467896,0.15247764651431045,0.12957767167846632,0.10544253529547677
0.0,63.0,63.0,0.0,120.0,0.0,0.0,0.0,0.0,-107.0,0.0,-45.0,0.0,0.0,0.0,34.27253218749016,17.55503396713325,2.576379142951953,1.337178698024124,0.8913449274626103,0.5771439387460445,0.33960903084470573,0.1878211865382176,0.10273625222320074,0.06501450805322105,0.050384358513638774,0.04321440057589977,0.03768085093527593,0.032307797134747566,0.026934936957954198,0.021741550085370057,0.01649601108760305,4.679182416103525,3.0233968747960933,2.2828576363480537,1.675413148569613,1.1400046094048206,0.7332177588106,0.45978942563328645,0.3140114673637484,0.2487830306564135,0.2165012137748228,0.19336563764900133,0.17138232586223934,0.14904648897313355,0.12678056974520935,0.10329643921677893
0.0,64.0,64.0,0.0,120.0,0.0,0.0,0.0,0.0,-107.0,0.0,-45.0,0.0,0.0,0.0,34.27253218749016,17.55503396713325,2.600312513755035,1.3479749270831114,0.8979926992696942,0.5811695795287136,0.34183607587766773,0.188765407803138,0.1025149975911129,0.06397742712168844,0.0490400480619626,0.04188950678886395,0.03650552958781371,0.03131700490481022,0.026134353475619855,0.021122665957711055,0.016053194942810337,4.710461326429665,3.042433886967238,2.2967283535572953,1.685361335264652,1.1467284626564291,0.7370311891978432,0.46015834496794417,0.3112475838287735,0.24433333994185535,0.21168911642595517,0.18887765771649118,0.16744417027677988,0.14571746637487323,0.12406297324599132,0.10120760791544021
0.0,65.0,65.0,0.0,120.0,0.0,0.0,0.0,0.0,-107.0,0.0,-45.0,0.0,0.0,0.0,34.27253218749016,17.55503396713325,2.624496016048894,1.3588576360958624,0.904681906655231,0.5852114660073151,0.34407144771971027,0.1897426486627454,0.10236277893690315,0.0630191997205242,0.047764526919153484,0.04062095743386454,0.03537669571880476,0.030364020363581833,0.025363211336369634,0.020525501991968974,0.015624933492051943,4.741917939621668,3.061545844860108,2.3106314849671348,1.6953122946011117,1.1534488733097583,0.7409130935751926,0.4607190338353116,0.3087304506759544,0.2401058584346031,0.20705504734889912,0.184534967605234,0.16362705625291443,0.14248686565376317,0.12142211807791797,0.09917417135338122
0.0,66.0,66.0,0.0,120.0,0.0,0.0,0.0,0.0,-107.0,0.0,-45.0,0.0,0.0,0.0,34.27253218749016,17.55503396713325,2.648933458444331,1.3698283279360826,0.9114134949417289,0.5892702006682183,0.3463144313083546,0.19074914624668268,0.10227445290679434,0.06213567126860088,0.04655473751707868,0.03940625736441284,0.03429223736744086,0.02944714697658589,0.024620234553423177,0.01994916009030848,0.01521066257019124,4.773555529820865,3.080735177869462,2.3245690626625053,1.7052676779788958,1.1601647232642436,0.7448541748905291,0.4614570182603157,0.30644816273446956,0.2360927109949179,0.20259303968711043,0.1803322923722751,0.1599264914866942,0.13935113263329207,0.11885535297615503,0.09719433118242554
0.0,67.0,67.0,0.0,120.0,0.0,0.0,0.0,0.0,-107.0,0.0,-45.0,0.0,0.0,0.0,34.27253218749016,17.55503396713325,2.6736286805179854,1.3808885005700442,0.9181883973237995,0.5933463869457701,0.34856448665855116,0.19178152787183408,0.10224519931139855,0.06132287870328629,0.04540776700139851,0.0382430448579551,0.03325015622581824,0.028564775976085973,0.02390421052936634,0.01939278466633276,0.014809843012490899,4.805377331945183,3.100004271973261,2.338543072341859,1.7152291178437662,1.1668752681630843,0.7488461166311711,0.46235868068972275,0.3043892316795018,0.232286262788368,0.19829738209453998,0.1762646069610241,0.15633818451609316,0.13630686429870986,0.11636013425837292,0.09526635760991482
0.0,68.0,68.0,0.0,120.0,0.0,0.0,0.0,0.0,-107.0,0.0,-45.0,0.0,0.0,0.0,34.27253218749016,17.55503396713325,2.698585554468015,1.3920396481090145,0.9250075357934853,0.5974406259777303,0.3508212221797439,0.1928367779207046,0.1022705054659003,0.06057704217749553,0.04432083849989522,0.03712908296257419,0.032248560791073765,0.027715381297458184,0.023213986524709337,0.018855560388447542,0.014421959414154743,4.837386543879096,3.1193554720209242,2.352555455500197,1.725198222211079,1.1735800784961188,0.7528815011128851,0.4634112266511605,0.30254257997308753,0.22867910920064288,0.194162602220695,0.17232712254072813,0.15285803479426238,0.13335080149282783,0.11393402084336847,0.09338858641724249
0.0,69.0,69.0,0.0,120.0,0.0,0.0,0.0,0.0,-107.0,0.0,-45.0,0.0,0.0,0.0,34.27253218749016,17.55503396713325,2.7238079867378104,1.4032832618206934,0.931871822017049,0.6015535142660394,0.3530843714920633,0.19391220685941948,0.10234615098644634,0.059894557220032764,0.043291303094376614,0.036062251460499975,0.031285659959522656,0.02689751483905989,0.022548466344143425,0.018336710055573677,0.014046518957670655,4.869586328556269,3.1387910839216313,2.366608111503574,1.7351765708868119,1.1802789884610174,0.7569537326912054,0.46460265125321204,0.30089753444296025,0.22526406680568217,0.1901834514249082,0.16851527357003712,0.14948212330730062,0.130479822009773,0.1115746695281423,0.09155941612312266
0.0,70.0,70.0,0.0,120.0,0.0,0.0,0.0,0.0,-107.0,0.0,-45.0,0.0,0.0,0.0,34.27253218749016,17.55503396713325,2.749299919610489,1.4146208311015223,0.9387821581656434,0.6056856420446629,0.3553537733536675,0.1950054223332295,0.10246819304568469,0.05927198731404935,0.042316632430796135,0.03504053940455913,0.03035975703189372,0.026109802022727013,0.02190660722585145,0.017835492596731735,0.01368305030390546,4.901979815939949,3.1583133767367113,2.3807028995619053,1.745165713004834,1.1869720517273696,0.761056965821622,0.46592170569763836,0.2994438195056576,0.2220341652491564,0.18635489064393773,0.16482470554822343,0.14620670370106004,0.12769093406293977,0.10927983050864243,0.08977730528384464
0.0,71.0,71.0,0.0,120.0,0.0,0.0,0.0,0.0,-107.0,0.0,-45.0,0.0,0.0,0.0,34.27253218749016,17.55503396713325,2.7750653327768005,1.4260538444117288,0.9457394377031648,0.6098375921947526,0.3576293543434023,0.19611430226956336,0.10263295209006615,0.0587060568544497,0.0413944119082282,0.034062038186666664,0.02946924410122372,0.025350937633794517,0.021287416920299077,0.017351201186624667,0.013331102543175098,4.934570104905838,3.1779245846801745,2.3948416406076296,1.7551671655743382,1.1936595033174369,0.765186037863354,0.4673578639569416,0.29817155004824153,0.21898263992432102,0.18267207733908328,0.16125126342014887,0.14302819388413784,0.12498127010491897,0.10704734313032604,0.08804076992325613
0.0,72.0,72.0,0.0,120.0,0.0,0.0,0.0,0.0,-107.0,0.0,-45.0,0.0,0.0,0.0,34.27253218749016,17.55503396713325,2.8011082448789795,1.437583790175026,0.9527445461348122,0.6140099395792007,0.35991111397427183,0.1972369699122526,0.10283699802102979,0.05819364445018233,0.040522334392882484,0.03312493510021582,0.028612596797205143,0.024619681921131155,0.02068995094590652,0.01688316146987412,0.012990244202750757,4.9673602650321,3.197626909031603,2.4090261190877276,1.7651824127932347,1.2003417268851693,0.7693364064948555,0.4689012897539068,0.29707122398887104,0.21610292533122663,0.17913035345134695,0.15779098060324245,0.13994316807664448,0.12234808097855489,0.10487513185554416,0.08634838108563199
0.0,73.0,73.0,0.0,120.0,0.0,0.0,0.0,0.0,-107.0,0.0,-45.0,0.0,0.0,0.0,34.27253218749016,17.55503396713325,2.8274327150328347,1.4492121576448294,0.9597983617198356,0.6182032506948806,0.36219911194338306,0.1983717707055345,0.10307713684157635,0.05773177654175506,0.03969819440842762,0.03222750736081067,0.027788369362817474,0.023914856939166933,0.0201133100099061,0.016430729887070814,0.012660062307489577,5.000353338300538,3.2174225199653774,2.4232580846759997,1.7752129059341226,1.2070192267408364,0.7735040915874496,0.47054280396433346,0.29613371454073095,0.21338864902308013,0.17572523429575307,0.1544400686066729,0.1369483492766039,0.1197887303795895,0.10276120243553558,0.08469876250495362
0.0,74.0,74.0,0.0,120.0,0.0,0.0,0.0,0.0,-107.0,0.0,-45.0,0.0,0.0,0.0,34.27253218749016,17.55503396713325,2.854042844330376,1.4609404377388675,0.9669017561516475,0.6224180835622164,0.36449345725275295,0.19951725094268338,0.10335039776898812,0.05731762130807092,0.03891988275855244,0.031368116552190996,0.026995190040914514,0.023235343115256962,0.019556637583523356,0.01599329209625915,0.012340161490491807,5.033552340713126,3.237313558300389,2.437539253911792,1.785260063650827,1.2136926040315013,0.777685621366097,0.47227385254981025,0.29535026220660704,0.21083362605524522,0.17245239832866407,0.15119490721455944,0.13404060211795685,0.11730068961256669,0.10070363827558293,0.08309058838454311
0.0,75.0,75.0,0.0,120.0,0.0,0.0,0.0,0.0,-107.0,0.0,-45.0,0.0,0.0,0.0,34.27253218749016,17.55503396713325,2.8809427773250817,1.4727701238440032,0.9740555952081628,0.6266549877891124,0.3667942989624532,0.20067213809155657,0.10365402081367164,0.05694848283991006,0.038185381541954506,0.03054520346645827,0.02623175675012202,0.022580076026976863,0.019019117621395683,0.015570261483923977,0.012030163150881281,5.066960263827505,3.2573021371740576,2.451871311770507,1.795325272587056,1.2203625365470934,0.7818779826730347,0.47408647511411933,0.2947124665331217,0.20843185386305602,0.16930767772484331,0.1480520352065198,0.13121692609611119,0.11488153262280226,0.0987005969825895,0.08152258128129229
0.0,76.0,76.0,0.0,120.0,0.0,0.0,0.0,0.0,-107.0,0.0,-45.0,0.0,0.0,0.0,34.27253218749016,17.55503396713325,2.908136703501822,1.4847027125930583,0.9812607393748365,0.6309145047602848,0.3691018183628528,0.20183532270781546,0.10398544482319232,0.056621795560159116,0.037492759523826816,0.029757283309829227,0.02549683303093018,0.021948043375098845,0.01849997241583539,0.015161077759913976,0.01172970465598535,5.100580076215069,3.277390343644573,2.466255913170514,1.8054098881956562,1.2270297616775565,0.7860785751401994,0.4759732741644294,0.29421227765450686,0.2061775075041999,0.16628704970401476,0.14500814159013342,0.12847444913875591,0.1125289312882548,0.09675030708494889,0.07999351008909385
0.0,77.0,77.0,0.0,120.0,0.0,0.0,0.0,0.0,-107.0,0.0,-45.0,0.0,0.0,0.0,34.27253218749016,17.55503396713325,2.9356288587333763,1.4967397046153703,0.9885180444425071,0.6351971679142573,0.37141622237620664,0.2030058418460454,0.1043422959896924,0.05633511887326846,0.03684016783143294,0.0290029412471283,0.024789244244259694,0.021338282139070793,0.0179984605772304,0.014765205631153992,0.01143843858537148,5.134414724844925,3.2975802402250016,2.4806946844202935,1.8155152356985202,1.2336950620984835,0.7902851690698822,0.4779273851470057,0.29384198765591807,0.20406493521005586,0.16338662854975156,0.14206005732106136,0.1258104215013848,0.11024065095617479,0.09485106491525463,0.07850218811635994
0.0,78.0,78.0,0.0,120.0,0.0,0.0,0.0,0.0,-107.0,0.0,-45.0,0.0,0.0,0.0,34.27253218749016,17.55503396713325,2.963423526725357,1.508882605262736,0.9958283620818761,0.6395035030792641,0.3737377380194126,0.20418286387928442,0.1047223768179009,0.05608613202848908,0.036225835944560504,0.028280828260088667,0.0241078740060624,0.020749875902793848,0.017513875132453335,0.014382133549296648,0.011156032014344366,5.168467136396846,3.3178738663527705,2.495189224609185,1.8256426111343116,1.2403592538104398,0.7944958668193339,0.47994244731645064,0.2935942217859977,0.20208865419808314,0.16060265826663356,0.139204747487584,0.12322220996846513,0.10801454621026865,0.09300123164690034,0.07704747125280977
0.0,79.0,79.0,0.0,120.0,0.0,0.0,0.0,0.0,-107.0,0.0,-45.0,0.0,0.0,0.0,34.27253218749016,17.55503396713325,2.991525040451297,1.5211329253123418,1.0031925403961384,0.6438340288463239,0.37606660777951306,0.20536567463852395,0.10512365555002462,0.05587262918320877,0.03564806795453214,0.027589657296283394,0.023451660842668958,0.020181952339393593,0.01704554173372709,0.014011372527812508,0.010882165834660324,5.202740218506185,3.3382732397979193,2.509741106944464,1.8357932824545653,1.247023176201038,0.798709067483888,0.48201257548766124,0.2934619295476188,0.2002433467041841,0.15793150582473728,0.13643930393725567,0.12070729234263972,0.10584855685503625,0.09119923047621184,0.07562825622098197
0.0,80.0,80.0,0.0,120.0,0.0,0.0,0.0,0.0,-107.0,0.0,-45.0,0.0,0.0,0.0,34.27253218749016,17.55503396713325,3.019937783579585,1.5334921816482274,1.0106114244531081,0.6481892569633574,0.37840308577147697,0.206553664785427,0.10554425604282015,0.05569251465425974,0.03510523906806263,0.026928199687143405,0.02281959505268657,0.019633680844523237,0.016592816970921524,0.013652455024312504,0.010616534110360648,5.237236860943485,3.3587803580133517,2.524351880037315,1.8459684906392884,1.2536876838387738,0.8029234346741184,0.4841323327104656,0.2934383756947794,0.19852385620001547,0.15536965494362587,0.13376093832424832,0.11826325220563548,0.10374070410472155,0.08944354394222445,0.07424347890815577
0.0,81.0,81.0,0.0,120.0,0.0,0.0,0.0,0.0,-107.0,0.0,-45.0,0.0,0.0,0.0,34.27253218749016,17.55503396713325,3.048666191893795,1.5459618979227026,1.0180858567979594,0.6525696927385092,0.3807474345640089,0.20774631833371743,0.10598244809123958,0.05554379834641738,0.03459579233460236,0.02629528181505539,0.02221071576220828,0.019104270308493935,0.016155086780722624,0.013304933884160288,0.010358843466741643,5.271959936731371,3.3793971994300493,2.5390230691397426,1.8561694508112674,1.260353639743716,0.807137867185322,0.48629670389851964,0.2935171311624224,0.19692518376553053,0.1529137003710505,0.1311669755567511,0.11588777393575701,0.1016890869650964,0.08773271137668458,0.0728921127746417
0.0,82.0,82.0,0.0,120.0,0.0,0.0,0.0,0.0,-107.0,0.0,-45.0,0.0,0.0,0.0,34.27253218749016,17.55503396713325,3.0777147547080106,1.5585436051991268,1.025616677947602,0.65697583544419,0.3830999225737223,0.2089432022373969,0.10643663819209269,0.05542459134845972,0.03411823557792584,0.025689782010973206,0.021624108161012817,0.018592967018231477,0.01573176494657173,0.012968381341699548,0.010108812510608918,5.306912303201153,3.400125724700223,2.5537561773344466,1.8663973533345275,1.2670219099127316,0.8113514723620351,0.4885010704361575,0.293692063954596,0.19544248459168193,0.15056034261456533,0.12865484762455884,0.11357863796792808,0.09969187879700005,0.08606532647731074,0.07157316733457969
0.0,83.0,83.0,0.0,120.0,0.0,0.0,0.0,0.0,-107.0,0.0,-45.0,0.0,0.0,0.0,34.27253218749016,17.55503396713325,3.107088016278541,1.571238842577311,1.0332047268676028,0.661408178715898,0.38546082194105585,0.2101439569669532,0.10690536074032131,0.05533310168821374,0.033671138514622355,0.025110627665321412,0.02105890090825874,0.018099052680718285,0.01532229168368991,0.012642388075661669,0.009866171280073784,5.342096802991367,3.420967877890988,2.5685526866794226,1.876653364887113,1.273693358905982,0.815563541965829,0.4907411857797879,0.29395733001505336,0.19407106459226428,0.148306383087155,0.12622208778770824,0.11133371628324394,0.09774732405125311,0.08444003499773989,0.07028568670562689
0.0,84.0,84.0,0.0,120.0,0.0,0.0,0.0,0.0,-107.0,0.0,-45.0,0.0,0.0,0.0,34.27253218749016,17.55503396713325,3.136790577213533,1.5840491578028295,1.0408508414324533,0.6658672109418132,0.38783040681293435,0.21134828799807096,0.10738726964962658,0.05526763023886845,0.03325313004385809,0.024556792536232386,0.020514263696940864,0.017621842560169864,0.0149261323038756,0.01232656231552976,0.00963066072225101,5.377516264990429,3.4419255876312604,2.5834140593089567,1.8869386295018629,1.2803688463274596,0.8197735303613913,0.4930131520638289,0.29430736410287817,0.192806377107387,0.14614871963076606,0.1238663251077056,0.10915096811592077,0.09585373516517413,0.08285553254798299,0.06902874822409641
0.0,85.0,85.0,0.0,120.0,0.0,0.0,0.0,0.0,-107.0,0.0,-45.0,0.0,0.0,0.0,34.27253218749016,17.55503396713325,3.1668270958817577,1.5969761078613205,1.048555858869996,0.6703534156406017,0.39020895196746047,0.21255595814085965,0.10788113038842743,0.05522656676966815,0.032862895694313075,0.02402729424033644,0.019989404967089765,0.01716068372175335,0.01454277595513728,0.012020528995862355,0.009402032197322706,5.413173505225244,3.4630007682141364,2.598341738492675,1.8972542695714751,1.2870492240552858,0.8239810348432478,0.49531339771516225,0.2947368706943712,0.1916440196841011,0.14408434238433346,0.12158527930357049,0.10702843586634331,0.09400948961154901,0.08131056249955644,0.06780146112229503
