Line_number,Fiducial,Easting,Northing,Height,Elevation,tx_pitch,tx_roll,tx_yaw,txrx_dx,txrx_dy,txrx_dz,rx_pitch,rx_roll,rx_yaw,PX,PZ,S0X_time_1.086e-05,S0X_time_3.256e-05,S0X_time_5.426e-05,S0X_time_8.680e-05,S0X_time_1.411e-04,S0X_time_2.279e-04,S0X_time_3.689e-04,S0X_time_5.860e-04,S0X_time_9.115e-04,S0X_time_1.411e-03,S0X_time_2.192e-03,S0X_time_3.418e-03,S0X_time_5.339e-03,S0X_time_8.301e-03,S0X_time_1.338e-02,S0Z_time_1.086e-05,S0Z_time_3.256e-05,S0Z_time_5.426e-05,S0Z_time_8.680e-05,S0Z_time_1.411e-04,S0Z_time_2.279e-04,S0Z_time_3.689e-04,S0Z_time_5.860e-04,S0Z_time_9.115e-04,S0Z_time_1.411e-03,S0Z_time_2.192e-03,S0Z_time_3.418e-03,S0Z_time_5.339e-03,S0Z_time_8.301e-03,S0Z_time_1.338e-02
0.0,0.0,0.0,0.0,120.0,0.0,0.0,0.0,0.0,-107.0,0.0,-45.0,0.0,0.0,0.0,34.27253218749016,17.55503396713325,4.55507091378393,2.6614780984778004,2.166128208132217,1.7385015607716634,1.2569695911398857,0.7925545774770887,0.41893806610374856,0.18669652518984778,0.07214521208115048,0.023895038061658967,0.006775625425107963,0.0016995695378234908,0.0003958138607663104,7.957390596070942e-05,-7.888196591800287e-05,6.94309820696241,4.923554299800357,4.272214195324316,3.6777416942392684,2.9445676851972435,2.1303893863650525,1.3481631023444054,0.7469236829993161,0.3693182944186926,0.16154840972344628,0.06243615621336362,0.02171867375746004,0.006969608305367849,0.0020946302736124752,0.000386145096538972
0.0,1.0,1.0,0.0,120.0,0.0,0.0,0.0,0.0,-107.0,0.0,-45.0,0.0,0.0,0.0,34.27253218749016,17.55503396713325,4.558063678733419,2.674906985667881,2.190670178235135,1.7875964799777198,1.33260753212745,0.8756597030754324,0.4869339525364401,0.22932191657441095,0.09352114467840293,0.03255889667689303,0.00963522540988342,0.00249087582277414,0.0005869560585325294,0.00012116344187141127,-7.517694033418339e-05,6.945713858870159,4.938515753844222,4.302172878091717,3.744961312762172,3.0644334397207005,2.2861841672006205,1.5037077472292102,0.8693857070580838,0.44821412806279237,0.20379591721097992,0.08144505288313861,0.029078999941856268,0.009500069285925358,0.002891680901366123,0.0005910070441390354
0.0,2.0,2.0,0.0,120.0,0.0,0.0,0.0,0.0,-107.0,0.0,-45.0,0.0,0.0,0.0,34.27253218749016,17.55503396713325,4.561185708207348,2.6878180025120204,2.209365790508295,1.8226419753106642,1.3910468618108307,0.9454610296091527,0.5486176937939513,0.2709709967922649,0.11591209880638971,0.04223631025405918,0.013016601757720526,0.0034710676238161476,0.000832110732055319,0.00017589152992200877,-6.873288077513168e-05,6.9484234692133215,4.95295684251618,4.325162224931208,3.7923416045349825,3.155076893237206,2.413320325183388,1.6394768971125335,0.98329738849733,0.5260699923456993,0.24780842662550542,0.10221414895607636,0.03744076500902573,0.012461284744600162,0.0038446358024306947,0.0008427172198091617
0.0,3.0,3.0,0.0,120.0,0.0,0.0,0.0,0.0,-107.0,0.0,-45.0,0.0,0.0,0.0,34.27253218749016,17.55503396713325,4.564442713033921,2.700747806951748,2.2253348826775654,1.8485620553008968,1.436202942299021,1.0037908130292679,0.6039420314178957,0.3109008396287038,0.13877059651686713,0.05271695616906689,0.016880269525868494,0.0046427092914608364,0.0011355520371210002,0.0002454240214661067,-5.912126480944916e-05,6.951230677651593,4.967419907007962,4.344976903650363,3.8271550618938304,3.2239056562059987,2.5171048998238263,1.7574945446750472,1.0881737226138695,0.6016938858908603,0.29274802094247476,0.12439336979302971,0.04671267801569221,0.015842403523764294,0.004956570468365518,0.001143674850690731
0.0,4.0,4.0,0.0,120.0,0.0,0.0,0.0,0.0,-107.0,0.0,-45.0,0.0,0.0,0.0,34.27253218749016,17.55503396713325,4.567839990547268,2.713862280591081,2.2401821277806886,1.8688021686847975,1.4712365936250063,1.0523464697914318,0.6531660061405766,0.34865576585080066,0.16165667685754165,0.06379782960911132,0.021176305323758787,0.006003333996741637,0.001500324565466013,0.0003312440018401288,-4.592456795891315e-05,6.954138954821822,4.9820666344053,4.363506368558131,3.854309220457521,3.276557944961388,2.6018277419737377,1.8598104896084244,1.1840399949096092,0.6742916831128459,0.3379283126227004,0.14765300062474276,0.05679458727370159,0.01962625857946411,0.006228298239137858,0.0014957025779326423
0.0,5.0,5.0,0.0,120.0,0.0,0.0,0.0,0.0,-107.0,0.0,-45.0,0.0,0.0,0.0,34.27253218749016,17.55503396713325,4.571382857839012,2.7272077412774802,2.2546688561412354,1.8856790946520097,1.4987146439217542,1.092650070473368,0.6967013051406976,0.3839861175814002,0.1842290667685437,0.07529237515262094,0.025848959134546063,0.007546332014661523,0.001928280516281242,0.00043462693007559057,-2.8746428440076198e-05,6.957152018349366,4.996940367074171,4.381619628526526,3.8770045798733803,3.317405495877561,2.670989088422584,1.9483430243790238,1.2712175452573147,0.7433667355033889,0.38280081958236023,0.17169192907988706,0.06758263146006585,0.023790858041525115,0.007658653051811026,0.0019000860584132873
0.0,6.0,6.0,0.0,120.0,0.0,0.0,0.0,0.0,-107.0,0.0,-45.0,0.0,0.0,0.0,34.27253218749016,17.55503396713325,4.57507677833729,2.7407971088558063,2.2691277652375335,1.9006768228397481,1.5206992066625757,1.1260569723039273,0.7350243154061562,0.416785808719751,0.20623147294523927,0.0870350314768083,0.03084024047665693,0.009261844269178867,0.002420159402147638,0.0005566256038413825,-7.218988048153589e-06,6.960273947608816,5.0120526109889285,4.399684593633223,3.8972372651574543,3.3498316968239643,2.7274929733927094,2.024823896669934,1.3501881899825807,0.8086399682181022,0.4269370593102223,0.1962414470738331,0.07897308780766159,0.02831068204693526,0.009244763225679136,0.0023576159460380404
0.0,7.0,7.0,0.0,120.0,0.0,0.0,0.0,0.0,-107.0,0.0,-45.0,0.0,0.0,0.0,34.27253218749016,17.55503396713325,4.578927407975982,2.754635359718946,2.2836924414368616,1.9146994092269034,1.5388071542586135,1.1537727281787649,0.768628989212746,0.4470461846695694,0.22747797351006127,0.0988827376803341,0.03609256599441477,0.011137598275922705,0.0029756953149558253,0.0006980637701127562,1.899194342770173e-05,6.963509205882805,5.027407562430338,4.417843911833383,3.91619446237947,3.3764088501742497,2.773783515290561,2.0907945150701392,1.4215097141447817,0.8699885967156942,0.47000995477403806,0.22106612492596053,0.09086514961454618,0.03315779070834982,0.010982311944698057,0.0028686306766178204
0.0,8.0,8.0,0.0,120.0,0.0,0.0,0.0,0.0,-107.0,0.0,-45.0,0.0,0.0,0.0,34.27253218749016,17.55503396713325,4.58294060530446,2.768725806353794,2.2984120758532467,1.9282712262288826,1.5542668504522164,1.1768639655653839,0.7980037988791667,0.474822840839712,0.24783941447763044,0.110714550014228,0.04155061397923724,0.01315965172510075,0.003593739715128948,0.0008595370232693793,5.0183419317833396e-05,6.96686262791657,5.043007910026776,4.436147898108386,3.9345494966608845,3.399040877736918,2.8119297547694853,2.147624805783504,1.4857644504286547,0.9274001427996961,0.5117763806733292,0.24596284450029837,0.1031628455220861,0.038302754808975915,0.012865781120506384,0.0034330590659627015
0.0,9.0,9.0,0.0,120.0,0.0,0.0,0.0,0.0,-107.0,0.0,-45.0,0.0,0.0,0.0,34.27253218749016,17.55503396713325,4.587122431723441,2.783071330411277,2.3133034892361004,1.9416822716147788,1.5679802530313678,1.1962628273776654,0.8236213960251657,0.5002124267695632,0.2672315485173239,0.12243017810179911,0.04716254216438058,0.015313028931635672,0.004272390416975396,0.0010414195750159281,8.661322514835507e-05,6.970339401470351,5.058855957011584,4.4546127375004,3.9526667434830847,3.4190945607361654,2.843676270995656,2.1965380063864655,1.5435295286289883,0.9809383687130628,0.5520616665073176,0.27075874744319955,0.11577628661541864,0.0437154244477757,0.014888676341891989,0.004050462056997009
0.0,10.0,10.0,0.0,120.0,0.0,0.0,0.0,0.0,-107.0,0.0,-45.0,0.0,0.0,0.0,34.27253218749016,17.55503396713325,4.591479152551358,2.7976745954712996,2.3283724717230494,1.9550856316871712,1.5805875576420907,1.2127692637609842,0.8459337603455713,0.5233369773495934,0.2856050698681331,0.13394798345953057,0.052880713458605885,0.017582248547583276,0.005009119808304019,0.0012438755452300189,0.0001284988237385361,6.973945052083083,5.0749538505748175,4.473243489999605,3.970734395082217,3.4375207838318502,2.870476743337043,2.238632528130442,1.5953613041119623,1.0307182586344077,0.5907463028310963,0.29530861116513674,0.12862239860435853,0.049365552634914614,0.0170437315977017,0.004720073154557744
0.0,11.0,11.0,0.0,120.0,0.0,0.0,0.0,0.0,-107.0,0.0,-45.0,0.0,0.0,0.0,34.27253218749016,17.55503396713325,4.596017240510767,2.8125381295458474,2.343621584454219,1.9685585270057133,1.5925285501887536,1.227055087678082,0.8653689647492754,0.544333701512513,0.302937454126223,0.14520278378020413,0.0586620544369623,0.019951748691917497,0.005800897380579921,0.0014668735628067357,0.00017601717384155196,6.977685430950758,5.091303690501711,4.49204214622078,3.98884523897944,3.454961013998016,2.8935222038808837,2.2748975915371346,1.6417887114642424,1.0768878325634168,0.6277547866533306,0.3194919928423624,0.14162526788261706,0.05522329140459716,0.019323093312877248,0.005440837206218464
0.0,12.0,12.0,0.0,120.0,0.0,0.0,0.0,0.0,-107.0,0.0,-45.0,0.0,0.0,0.0,34.27253218749016,17.55503396713325,4.600743380160141,2.8276643918969753,2.3590526173160247,1.9821382849088858,1.6040960644840345,1.2396716472568416,0.8823280487414242,0.5633484873770865,0.319226427403963,0.15614366587672582,0.06446814978768749,0.022406219605583803,0.006644303358696011,0.0017102036289739836,0.00022930525128826343,6.98156670383528,5.107907601838316,4.511010028206915,4.007043043452756,3.4718352677966866,2.913769711537642,2.3062228409394128,1.683311714930234,1.1196151503872853,0.6630463919602891,0.3432103614062416,0.15471620428106442,0.061259577751968705,0.02171848390020869,0.006211447269998017
0.0,13.0,13.0,0.0,120.0,0.0,0.0,0.0,0.0,-107.0,0.0,-45.0,0.0,0.0,0.0,34.27253218749016,17.55503396713325,4.605664472068471,2.843055816745081,2.3746672085647127,1.9958423657935083,1.6154793605556568,1.2510610932352317,0.8971818540027132,0.580531732150728,0.33448486169687625,0.16673191878225743,0.07026515491435101,0.024930855548236576,0.007535631584914735,0.0019734953529642074,0.00028846112527244503,6.9855953400734,5.124767767976532,4.530148348930582,4.025347757952019,3.4884107515805955,2.931972829806735,2.3334037895889432,1.7204021409503878,1.1590792727156116,0.6966076021258877,0.3663843530835947,0.16783360116350451,0.06744642581425414,0.024221345501486795,0.007030379383361316
0.0,14.0,14.0,0.0,120.0,0.0,0.0,0.0,0.0,-107.0,0.0,-45.0,0.0,0.0,0.0,34.27253218749016,17.55503396713325,4.610787636374519,2.8587148323468843,2.3904669495832636,2.0096789067106706,1.6267973125917519,1.2615701449858663,0.9102682362529028,0.596035481458412,0.34873687918381646,0.17693914402798422,0.07602358963220406,0.027511537957765658,0.008470980827102624,0.0022562368149370267,0.00035354546524421347,6.98977810156915,5.141886432050442,4.549458298393491,4.043768460073236,3.5048527913722514,2.9487129851739464,2.357145253691775,1.7535051426489217,1.1954642064365488,0.7284459492219466,0.3889512266013912,0.1809226554936969,0.0737571403664457,0.02682296491116659,0.007895925113753168
0.0,15.0,15.0,0.0,120.0,0.0,0.0,0.0,0.0,-107.0,0.0,-45.0,0.0,0.0,0.0,34.27253218749016,17.55503396713325,4.61612021569663,2.8746438640702388,2.406453395506494,2.0236519595174913,1.6381225706224276,1.271464928732187,0.9218901254203898,0.6100112235021645,0.36201494037746684,0.18674556964445732,0.08171805923130625,0.030134961482918433,0.00944633438538108,0.002557793447236269,0.00042458337595831886,6.994122031750472,5.159265881540921,4.56894105898153,4.0623096218628065,3.5212609848024394,2.9644300298843462,2.3780645059925423,1.7830403507137178,1.22895503356045,0.758585038275092,0.41086255315155484,0.1939349961830464,0.08016646507497603,0.029514580891481814,0.008806221828904792
0.0,16.0,16.0,0.0,120.0,0.0,0.0,0.0,0.0,-107.0,0.0,-45.0,0.0,0.0,0.0,34.27253218749016,17.55503396713325,4.621669777444734,2.8908453306390047,2.4226280792668837,2.0377639317135223,1.6494984080456838,1.280945603676143,0.9323147308542463,0.6226079826827564,0.3743576943627654,0.19613857716541191,0.08732693569867599,0.03278871365385201,0.010457628331845197,0.0028774264551890733,0.0005015664785675263,6.998634444572068,5.176908427896335,4.58859782842463,4.080973943754196,3.5376938642153237,2.979450469869438,2.396695203704924,1.8094023652950073,1.2597355548671212,0.7870605707699272,0.4320821495306059,0.20682825763210314,0.08665067724080432,0.032287475233190546,0.009759280674137115
0.0,17.0,17.0,0.0,120.0,0.0,0.0,0.0,0.0,-107.0,0.0,-45.0,0.0,0.0,0.0,34.27253218749016,17.55503396713325,4.627444115469434,2.907321639477428,2.4389925347610397,2.0520166416079584,1.6609500223189253,1.2901598440959074,0.9417739607436925,0.6339705709976882,0.3858083872584504,0.2051114397804718,0.09283202173230796,0.03546131781873284,0.011500809008428215,0.0032143104208600696,0.0005844551738049597,7.003322928735343,5.194816424311355,4.608429887757039,4.099763546839152,3.5541850832930253,2.994012338214869,2.413492511201911,1.832960628137126,1.2879869052683919,0.8139172106945124,0.45258424724746094,0.219565626182337,0.09318763912173218,0.035133049005185005,0.0107530124769186
0.0,18.0,18.0,0.0,120.0,0.0,0.0,0.0,0.0,-107.0,0.0,-45.0,0.0,0.0,0.0,34.27253218749016,17.55503396713325,4.633451252007954,2.9240751824422544,2.455548317008608,2.066411731314343,1.6724918486150724,1.2992146310163242,0.9504659387088459,0.6442379839320088,0.39641365582161886,0.21366226129304866,0.09821821300093835,0.03814224765921015,0.01257188058783448,0.0035675498426329597,0.0006731810225208035,7.0081953030237685,5.212992164806026,4.628438525746214,4.118680384663712,3.5707538000726347,3.0082861749744034,2.4288394078752145,1.8540588986298585,1.3138867265445293,0.8392061555871022,0.47235188279845214,0.2321153796923086,0.09975681444293762,0.03804288547450433,0.01178525077704985
0.0,19.0,19.0,0.0,120.0,0.0,0.0,0.0,0.0,-107.0,0.0,-45.0,0.0,0.0,0.0,34.27253218749016,17.55503396713325,4.639699438881563,2.941108334134327,2.472297017656387,2.080950809880459,1.684132130475743,1.308186135610159,0.9585573862019982,0.653541987311574,0.40622257120491767,0.22179309870124667,0.10347316924697093,0.04082192022312868,0.01366694361030757,0.00393619445549877,0.0007676492080443869,7.0132596209805795,5.231437906912345,4.648625086652202,4.13772639450409,3.587410969220417,3.0223921848000876,2.4430538537750635,1.8730146279637596,1.3376086017237476,0.8629832884375351,0.49137549161169336,0.24445043439482628,0.10633925741750054,0.04100880116173452,0.01285377333468874
0.0,20.0,20.0,0.0,120.0,0.0,0.0,0.0,0.0,-107.0,0.0,-45.0,0.0,0.0,0.0,34.27253218749016,17.55503396713325,4.646197158302937,2.9584234513466976,2.489240273433854,2.095635494267713,1.6958756801120713,1.3171277123445442,0.9661865946999713,0.6620059539463413,0.4152858371333018,0.22950924613580267,0.10858700157358737,0.04349167309150779,0.014782225465768484,0.004319253249282401,0.0008677410271295358,7.018524176039368,5.250155896871166,4.668991009103819,4.156903542222691,3.604163058752102,3.0364138124974676,2.4563964276670824,1.8901184772563167,1.3593215682677635,0.8853077954226154,0.5096516883037876,0.25654790839597097,0.11291758048480234,0.044022886440963395,0.013956321546091957
0.0,21.0,21.0,0.0,120.0,0.0,0.0,0.0,0.0,-107.0,0.0,-45.0,0.0,0.0,0.0,34.27253218749016,17.55503396713325,4.652953123702822,2.9760228728879237,2.50637976867628,2.1104674177135245,1.7077254877642023,1.3260761675104413,0.9734667177206648,0.6697439949369497,0.423655081876731,0.23681865497686172,0.11355198096170835,0.04614373011967167,0.01591410380620202,0.004715707155406904,0.0009733163661286998,7.02399748302089,5.269148337020069,4.689537793266392,4.176213817479774,3.6210142147550712,3.0504081713408597,2.4690780450407184,1.905634154935801,1.3791896151319505,0.9062411445985296,0.5271822168346184,0.26838870756695316,0.11947590600716153,0.04707753700065146,0.015090617532458647
0.0,22.0,22.0,0.0,120.0,0.0,0.0,0.0,0.0,-107.0,0.0,-45.0,0.0,0.0,0.0,34.27253218749016,17.55503396713325,4.659976280093616,2.993908919943596,2.523717235449506,2.125448231995597,1.7196836245563547,1.335056543558423,0.9804891498238698,0.6768604056750976,0.4313822114010955,0.24373146433699056,0.1183622712896721,0.04877115920991934,0.017059123852617385,0.005124520410091056,0.0010842161325756257,7.029688269458093,5.28841737771389,4.710266992093845,4.195659232471097,3.637967437149879,3.0644138785824913,2.481267406513991,1.9197986726914047,1.3973711319407145,0.9258463328525679,0.5439730550018232,0.2799571370091605,0.1259998063098468,0.050165477367915455,0.01625437944010997
0.0,23.0,23.0,0.0,120.0,0.0,0.0,0.0,0.0,-107.0,0.0,-45.0,0.0,0.0,0.0,34.27253218749016,17.55503396713325,4.66727580407384,3.0120838966187473,2.541254452619923,2.1405796101456382,1.731751727997972,1.3440856819610838,0.9873268112636618,0.6834494208293397,0.43851881106516305,0.25025961748306963,0.12301368863531681,0.051367824796226445,0.018214010510055164,0.0055446506271298514,0.0012002646133123232,7.035605467208413,5.30796511006012,4.7311802025867475,4.21524182195817,3.655025195273243,3.078456804045759,2.4930979288767956,1.9328230421219361,1.4140183211327786,0.9441873222080902,0.5600336582043177,0.29124053955370044,0.13247623568334624,0.053279777579453305,0.017445334935904465
0.0,24.0,24.0,0.0,120.0,0.0,0.0,0.0,0.0,-107.0,0.0,-45.0,0.0,0.0,0.0,34.27253218749016,17.55503396713325,4.6748611034660525,3.030550090600462,2.5589932448576853,2.1558632501254893,1.7439312504097382,1.3531748168258981,0.9940372106361884,0.6895952515950302,0.4451155956725018,0.256416542671706,0.12750348732941932,0.05392833713165234,0.019375676130062407,0.0059750576304310864,0.0013212717386146967,7.041758204309465,5.327793559409778,4.752279058112403,4.234963644135209,3.6721897322381545,3.0925541972513604,2.5046739979947246,1.944893380520976,1.4292766057592847,0.9613286018651732,0.5753763274561527,0.3022289616956682,0.13889345728103905,0.05641386396543119,0.018661233017571412
0.0,25.0,25.0,0.0,120.0,0.0,0.0,0.0,0.0,-107.0,0.0,-45.0,0.0,0.0,0.0,34.27253218749016,17.55503396713325,4.682741816571464,3.049309773950889,2.576935481999193,2.1713008785262278,1.7562235785068068,1.3623314228265,1.000665206604416,0.6953723642223605,0.4512219139836782,0.26221688066107457,0.13183017209808046,0.05644800002964461,0.02054122467114928,0.006414711108373105,0.001447035238152442,7.0481557970138695,5.347904679615787,4.773565222096561,4.25482678098692,3.6894632045071605,3.1067175893172765,2.516076462426602,1.9561723589796713,1.443284073002648,0.9773348276890316,0.5900156865181279,0.3129148467524482,0.14524096723840607,0.05956152490575745,0.019899854265601404
0.0,26.0,26.0,0.0,120.0,0.0,0.0,0.0,0.0,-107.0,0.0,-45.0,0.0,0.0,0.0,34.27253218749016,17.55503396713325,4.690927811015536,3.0683652040681,2.5950830788543957,2.186894253523061,1.768630086531148,1.3715605048450692,1.0072454299860598,0.700845951349179,0.45688531561133255,0.2676762452445064,0.13599333471185837,0.058922758379900915,0.02170795291260146,0.006862597160820101,0.0015773426799235869,7.054807741932145,5.368300348092665,4.795040382999262,4.27483333737803,3.7068477392186785,3.120954792022268,2.527367349987405,1.966800908014717,1.4561709910540448,0.9922705051277669,0.603968252993855,0.32329275469792035,0.15150941781444932,0.06271691232392125,0.021159019665891933
0.0,27.0,27.0,0.0,120.0,0.0,0.0,0.0,0.0,-107.0,0.0,-45.0,0.0,0.0,0.0,34.27253218749016,17.55503396713325,4.699429182155987,3.0877186248563127,2.6134379953838094,2.20264516679549,1.7811521573110989,1.380865479806615,1.0138043581085465,0.7060725458913363,0.46215118715352116,0.27281100705563477,0.13999351288288558,0.06134914650047473,0.022873349283153252,0.007317723816357952,0.001711973387396923,7.061723708217672,5.388982361709614,4.816706250336775,4.294985438794883,3.72434545356654,3.135271246926053,2.5385938354979625,1.9769000914460277,1.4680594289492264,1.006199693898758,0.6172520885143848,0.33335910792470946,0.1576905409144478,0.06587453960160695,0.02243659813066934
0.0,28.0,28.0,0.0,120.0,0.0,0.0,0.0,0.0,-107.0,0.0,-45.0,0.0,0.0,0.0,34.27253218749016,17.55503396713325,4.708256251026537,3.1073722681405473,2.6320022371225535,2.218555444477997,1.7937911892019374,1.3902487673944817,1.0203620548522758,0.7111007297124234,0.46706246179265576,0.277638094304934,0.14383206872980417,0.06372423817184936,0.024035090778981756,0.007779125602299488,0.0018507002328955584,7.0689135297349335,5.409952433536672,4.838564551498369,4.315285228061921,3.741958458615266,3.149670916877653,2.549791518116148,1.9865730641786545,1.4790629985517012,1.019185722753182,0.629886513816255,0.34311196203486405,0.16377707299440514,0.06902927652561665,0.023730512839684643
0.0,29.0,29.0,0.0,120.0,0.0,0.0,0.0,0.0,-107.0,0.0,-45.0,0.0,0.0,0.0,34.27253218749016,17.55503396713325,4.717419561792217,3.1273283553512483,2.6507778557384554,2.2346269473764857,1.8065485976593618,1.399712177468537,1.0269336035091512,0.7159718945341197,0.47165940338381834,0.2821748068566773,0.1475110839515709,0.06604559900745709,0.025191038368844138,0.008245867253280078,0.0019932913069638054,7.076387197155146,5.4312121904481865,4.860617029152262,4.335734861487606,3.7596888579733245,3.1641568622451683,2.560987083674534,1.9959070402429973,1.4892867273236483,1.0312909100891898,0.6418918756089766,0.35255080060757826,0.16976268206661557,0.07217634181449184,0.025038746515488798
0.0,30.0,30.0,0.0,120.0,0.0,0.0,0.0,0.0,-107.0,0.0,-45.0,0.0,0.0,0.0,34.27253218749016,17.55503396713325,4.726929878692154,3.1475890994944007,2.6697669496414593,2.2508615707188366,1.8194258153105818,1.4092571585483928,1.0335302670691955,0.7207210192891159,0.47597946293705345,0.28643864209998215,0.1510332688816598,0.0683112416392648,0.02633923121924442,0.008717046645631488,0.0021395114644078062,7.0841548499207665,5.45276317157264,4.882865439093423,4.356336504858138,3.7775387456022473,3.1787316046052942,2.5722004344236167,2.0049752110059402,1.4988270611983112,1.0425762912856604,0.6532893535618672,0.36167635272505655,0.17564189731335933,0.07531129371310107,0.026359345737009852
0.0,31.0,31.0,0.0,120.0,0.0,0.0,0.0,0.0,-107.0,0.0,-45.0,0.0,0.0,0.0,34.27253218749016,17.55503396713325,4.736798182443809,3.168156707414366,2.68897166459303,2.267261243668449,1.8324242919639848,1.4188849533919334,1.0401604133980045,0.7253774353746492,0.48005720275120506,0.2904471324501345,0.15440188278761754,0.07051958403393649,0.027477880019109786,0.009191797044079944,0.002289123748131457,7.092226768015842,5.474606827566378,4.90531154843633,4.377092329588908,3.795510204131026,3.193397350327438,2.583446368387107,2.0138385677584902,1.5077719894465222,1.0531013566934662,0.6641007974047758,0.3704904318599631,0.18141004166055572,0.07843001908751329,0.02769042438577505
0.0,32.0,32.0,0.0,120.0,0.0,0.0,0.0,0.0,-107.0,0.0,-45.0,0.0,0.0,0.0,34.27253218749016,17.55503396713325,4.74703566607996,3.1890333823501242,2.708394194289117,2.2838279287650787,1.8455454949102827,1.4285966938337242,1.0468302423906195,0.7299655583351184,0.4839242814637536,0.29421769513098234,0.15762066308641498,0.07266941110615954,0.028605359640292573,0.009669288744759749,0.002441890692174002,7.100613363475809,5.4967445206812995,4.927957134092397,4.398004509224934,3.8136053038351796,3.20815612396826,2.594735885641644,2.0225475964927253,1.5162012781166991,1.062923805656308,0.6743485859065576,0.3789957945560388,0.1870631675525835,0.08152872139874806,0.02903016630992411
0.0,33.0,33.0,0.0,120.0,0.0,0.0,0.0,0.0,-107.0,0.0,-45.0,0.0,0.0,0.0,34.27253218749016,17.55503396713325,4.757653730187945,3.2102213267813804,2.72803678090713,2.3005636213948,1.858790909457087,1.4383934568538652,1.0535443497430867,0.7345055709375921,0.48760949198155806,0.2977674952529418,0.1606937615147656,0.07475983966406656,0.029720201335323805,0.01014873019424031,0.002597575505657161,7.109325171570312,5.519177525593214,4.950803981495165,4.419075216382582,3.8318261020529607,3.223009845095823,2.606077191193597,2.0311438247566147,1.5241867953215997,1.0720993221587876,0.6840555012499911,0.38719601718675656,0.19259799609119554,0.0846039078822927,0.03037682728321173
0.0,34.0,34.0,0.0,120.0,0.0,0.0,0.0,0.0,-107.0,0.0,-45.0,0.0,0.0,0.0,34.27253218749016,17.55503396713325,4.768663977520452,3.23172274555812,2.7479017156173193,2.3174703493420536,1.8721620395413578,1.4482762965448626,1.0603061583693774,0.7390140481561778,0.4911388436019567,0.3011133232337678,0.1636256856835394,0.07679028661059654,0.030821084645329386,0.010629368658610439,0.0027559431397833987,7.118372841595043,5.541907030956449,4.973853883549686,4.440306620155647,3.850174642778228,3.237960370657414,2.617476455199545,2.0396612106047622,1.5317929100741183,1.0806813771028534,0.6932446139644011,0.3950953889711083,0.1980118596451823,0.08765237621096957,0.031728736329578615
0.0,35.0,35.0,0.0,120.0,0.0,0.0,0.0,0.0,-107.0,0.0,-45.0,0.0,0.0,0.0,34.27253218749016,17.55503396713325,4.780078206948345,3.2535398493054255,2.7679913390639417,2.3345501724437607,1.8856604082893291,1.4582462615375318,1.0671182443647467,0.7435045191524127,0.49453567952454375,0.30427148741984444,0.16642124482374757,0.07876044023619272,0.03190682916692279,0.01111049051007274,0.002916761240640153,7.127767127212402,5.564934141650239,4.997108639788856,4.461700883966569,3.868652956254494,3.253009517074605,2.6289383820884855,2.0481273717356756,1.539076946194026,1.0887210611237115,0.7019391750377679,0.40269881937177693,0.20330264799416897,0.09067120087258836,0.03308429647868351
0.0,36.0,36.0,0.0,120.0,0.0,0.0,0.0,0.0,-107.0,0.0,-45.0,0.0,0.0,0.0,34.27253218749016,17.55503396713325,4.791908406727919,3.2756748580936317,2.788308041823296,2.3518051823460504,1.899287558451007,1.4683044039604896,1.0739825802283447,0.7479879649358738,0.49782082127372734,0.3072577224461611,0.1690854988750956,0.08067023437324494,0.032976386305814,0.011591421191407143,0.0030798009912960454,7.137518876284841,5.588259881681812,5.020570055721275,4.483260163822484,3.887263058493145,3.2681590709121306,2.640466631359674,2.0565646590097617,1.5460896736633463,1.0962669505323483,0.7101625130665882,0.4100117580029112,0.2084687580340139,0.09365771945154135,0.03444198501362119
0.0,37.0,37.0,0.0,120.0,0.0,0.0,0.0,0.0,-107.0,0.0,-45.0,0.0,0.0,0.0,34.27253218749016,17.55503396713325,4.804166747057195,3.2981300053621956,2.8088542648455457,2.3692375023545953,1.9130450526880602,1.4784517836835005,1.0809007140957723,0.7524732530859541,0.5010127321827365,0.3100871134954618,0.1716237103627579,0.08251982514037781,0.03402883112568884,0.012071524911497515,0.0032448378474833743,7.147639020147985,5.611885197709804,5.044239942354857,4.5049866069283855,3.9060069507121606,3.283410793463714,2.6520641248445007,2.0649910828805895,1.552875821373557,1.1033650076056665,0.7179379352979314,0.417040125230885,0.21350904703814116,0.09660951896584007,0.03580035326868371
0.0,38.0,38.0,0.0,120.0,0.0,0.0,0.0,0.0,-107.0,0.0,-45.0,0.0,0.0,0.0,34.27253218749016,17.55503396713325,4.8168655718978926,3.320907542083382,2.829632499886085,2.3868492873662457,1.9269344737285545,1.4886894700840536,1.0878739001606916,0.756967512822831,0.5041276929232307,0.312774036234224,0.1740412987471775,0.08430956998299571,0.035063354382965296,0.01255020411819176,0.003411652171955138,7.158138562273476,5.635810963149316,5.068120115878961,4.526882350610245,3.9248866187331215,3.298766422358536,2.6637332682270283,2.0734211041076067,1.5594745972039843,1.1100585151676114,0.725288632177725,0.42379025175529117,0.21842278943711124,0.09952442237837349,0.03715802603209142
0.0,39.0,39.0,0.0,120.0,0.0,0.0,0.0,0.0,-107.0,0.0,-45.0,0.0,0.0,0.0,34.27253218749016,17.55503396713325,4.830017390041793,3.3440097411494767,2.8506452899308203,2.404642723869814,1.9409574244198395,1.4990185426208122,1.0949031923593078,0.7614764549605031,0.5071799830094802,0.3153321118511054,0.17634379711481768,0.08604000871253653,0.036079254821008044,0.013026898788373879,0.0035800297733305127,7.169028566273953,5.660037982817001,5.092212397486216,4.5489495215054285,3.9439040323898564,3.3142276719030197,2.6754761086703933,2.0818663017284145,1.5659202035729238,1.116388044296191,0.7322375855602963,0.4302688255994007,0.2232096370468613,0.10240047537365708,0.03851370060583488
0.0,40.0,40.0,0.0,120.0,0.0,0.0,0.0,0.0,-107.0,0.0,-45.0,0.0,0.0,0.0,34.27253218749016,17.55503396713325,4.843634865402398,3.367438901964489,2.8718952296184677,2.4226200300057195,1.955115527716077,1.5094400909114618,1.1019895107679798,0.7660046419855524,0.5101820631885634,0.31777417632416877,0.17853681120827725,0.08771184625722436,0.03707593178119405,0.01350108556937577,0.0037497623558232873,7.180320143205689,5.684566998071512,5.116518613314674,4.571190234983677,3.963061145000351,3.3297962330406845,2.6872944454618723,2.0903359319216928,1.5722423388391722,1.1223914530929218,0.7388074810844729,0.43648284510856356,0.22786958264476348,0.10523593346878958,0.03986614557188649
0.0,41.0,41.0,0.0,120.0,0.0,0.0,0.0,0.0,-107.0,0.0,-45.0,0.0,0.0,0.0,34.27253218749016,17.55503396713325,4.8577308065155345,3.3911973552185475,2.8933849656619763,2.440783455676413,1.9694104266345218,1.5199552146661954,1.1091336880001026,0.7705557138021932,0.5131447545923679,0.32011226280765126,0.18062598087830942,0.08932593685814226,0.0380528781729648,0.01397227680087624,0.003920647886674764,7.192024438128106,5.709398692401193,5.141040594490489,4.593606594767486,3.9823598929428754,3.34547377333622,2.6991899065795013,2.0988373913289533,1.5784666770787925,1.128103913775234,0.7450206254125048,0.4424395767401551,0.23240292676282398,0.10802924950941135,0.04121419931101552
0.0,42.0,42.0,0.0,120.0,0.0,0.0,0.0,0.0,-107.0,0.0,-45.0,0.0,0.0,0.0,34.27253218749016,17.55503396713325,4.872318153329512,3.4152874669854403,2.9151171976957544,2.459135284703735,1.9838437864660803,1.530565022112839,1.1163365015402738,0.7751325745136396,0.5160774114996408,0.3223575958407208,0.18261694408988713,0.09088326947183464,0.0390096738310664,0.014440019442239407,0.004092490896353077,7.204152640783944,5.734533764252807,5.165780271421517,4.61620078639942,4.001802197203588,3.3612618693678624,2.7111640351478385,2.1073765859836158,1.584615323950427,1.1335579642647389,0.7508988691825849,0.4481465166100746,0.2368102475385901,0.11077906158997268,0.042556769018222605
0.0,43.0,43.0,0.0,120.0,0.0,0.0,0.0,0.0,-107.0,0.0,-45.0,0.0,0.0,0.0,34.27253218749016,17.55503396713325,4.887409969636686,3.4397116456644463,2.937094677481157,2.477677830003338,1.998417289294791,1.5412706338113313,1.1235986943276313,0.7797375462751048,0.5189880850157721,0.3245205960823277,0.1845153036042321,0.09238495417843554,0.039945979274525104,0.014903893926500373,0.004265102681941903,7.21671590939416,5.759972769476365,5.190739443244442,4.63897484779,4.021389958903579,3.3771621730195887,2.7232182405265637,2.115958270666442,1.5907072306066319,1.1387835835916331,0.756463536008885,0.45361135499895605,0.24109237344905524,0.11348418141434592,0.04389282713436216
0.0,44.0,44.0,0.0,120.0,0.0,0.0,0.0,0.0,-107.0,0.0,-45.0,0.0,0.0,0.0,34.27253218749016,17.55503396713325,4.903019427677025,3.464472346268771,2.959320210242283,2.496413436837434,2.0131326370284914,1.5520731804507977,1.1309209897896957,0.784372493913283,0.5218836764964566,0.3266108939980644,0.18632659650214778,0.09383220941721161,0.04086152987246969,0.0153635129597159,0.004438301483395187,7.229725390194999,5.785716222359348,5.215919910854001,4.661930801165876,4.041125061574583,3.3931763166056848,2.7353538697001043,2.1245862830800957,1.5967585868905654,1.1438082829733327,0.7617353588173568,0.4588419430888813,0.24525035871592432,0.11614358313270891,0.04522141035375983
0.0,45.0,45.0,0.0,120.0,0.0,0.0,0.0,0.0,-107.0,0.0,-45.0,0.0,0.0,0.0,34.27253218749016,17.55503396713325,4.919159793301149,3.489572075121537,2.9817966552269097,2.515344484092281,2.027991552692037,1.5629738022090325,1.138304101389511,0.7890389256447525,0.5247700793321527,0.3286373511663714,0.18805626663435054,0.0952263499165837,0.041756130410498624,0.015818520281544787,0.00461191259590768,7.243192213919635,5.811764638057553,5.241323527382147,4.685070703275469,4.061009372375983,3.409305877312107,2.747572240549703,2.1332637387316002,1.602783177638185,1.1486572120020186,0.7667344235924788,0.46384626147434854,0.24928546117523698,0.11875639265662025,0.04654161792006737
0.0,46.0,46.0,0.0,120.0,0.0,0.0,0.0,0.0,-107.0,0.0,-45.0,0.0,0.0,0.0,34.27253218749016,17.55503396713325,4.935844412335395,3.5150133955116014,3.0045269259012266,2.5344733835724167,2.0429957794085523,1.5739736496776233,1.1457487383763276,0.7937380738610428,0.5276523085589072,0.3306080878216286,0.18970964006889776,0.09656877521307411,0.042629650044070315,0.01626858940114738,0.004785768426611885,7.257127465935317,5.83811850663823,5.266952152076028,4.7083965995360035,4.081044741488657,3.4255524112713585,2.7598746345401595,2.1419931968975683,1.6087927016376375,1.1533532766572356,0.7714801208572775,0.4686323900912676,0.25319912238894343,0.12132187746073052,0.047852609132779944
0.0,47.0,47.0,0.0,120.0,0.0,0.0,0.0,0.0,-107.0,0.0,-45.0,0.0,0.0,0.0,34.27253218749016,17.55503396713325,4.953086695245476,3.5407989329768155,3.027513990397247,2.5538025803359594,2.0581470805168,1.5850738840375338,1.1532556094765805,0.7984709592337482,0.5305346182776274,0.33253051529533084,0.19129190357162326,0.09786095868053012,0.0434820176195085,0.016713422320817323,0.004959708513541158,7.271542167837815,5.8647783001961065,5.292807650606721,4.73191052441621,4.1012330024937524,3.4419174542897264,2.772262302747431,2.1507767870874894,1.6147970589663532,1.1579172650372418,0.7759911051915114,0.4732084793135642,0.25699294977058207,0.12383943688011391,0.04915360115369058
0.0,48.0,48.0,0.0,120.0,0.0,0.0,0.0,0.0,-107.0,0.0,-45.0,0.0,0.0,0.0,34.27253218749016,17.55503396713325,4.970900101039285,3.5669313805588403,3.0507608719714874,2.573334553061038,2.0734472397267143,1.5962756772375575,1.1608254251086738,0.8032384412362428,0.5334206070580023,0.3344113721534846,0.1928080861031517,0.09910443701771797,0.044313217338412134,0.017152748258269786,0.005133579508217927,7.286447258213254,5.891744480014062,5.318891895385019,4.755614501894965,4.121575972848323,3.4584025225870514,2.7847364696321026,2.159616308166891,1.6208046065593689,1.162367978244247,0.7802852627500297,0.4775827220858734,0.2606687005025117,0.1263085929046796,0.05044386678854509
0.0,49.0,49.0,0.0,120.0,0.0,0.0,0.0,0.0,-107.0,0.0,-45.0,0.0,0.0,0.0,34.27253218749016,17.55503396713325,4.9892981204439275,3.5934135039951696,3.0742706494778815,2.593071814442219,2.088898061310188,1.6075802121688045,1.1684588986630433,0.8080412576479861,0.5363133117833184,0.3362567629319057,0.19426304327640045,0.1003008001627078,0.04512328473834522,0.0175863223772067,0.00530723512686084,7.301853572594382,5.919017503706436,5.345206765879871,4.779510545985377,4.142075454442397,3.4750091135363497,2.7972983354252077,2.1685133054674357,1.6268223838708913,1.1667223638647335,0.7843796866374244,0.4817633270360853,0.26422826702814156,0.12872898147067058,0.051722732261451486
0.0,50.0,50.0,0.0,120.0,0.0,0.0,0.0,0.0,-107.0,0.0,-45.0,0.0,0.0,0.0,34.27253218749016,17.55503396713325,5.0082942584021275,3.620248146814169,3.0980464578579396,2.613016911615675,2.1045013703236353,1.618988682832541,1.17615674721057,0.8128800551999853,0.5392152905694098,0.3380721984929316,0.19566144467991942,0.10145168161911909,0.04591230296109013,0.01801392453459799,0.005480536074719018,7.317771822650645,5.94659783228322,5.3717541489368195,4.803600661314671,4.162733234222872,3.4917387063979453,2.8099490776950518,2.177469130323089,1.6328563107692966,1.1709956498159417,0.7882906598632755,0.48575849257197723,0.26767366391339564,0.131100344246728,0.05298957499671269
0.0,51.0,51.0,0.0,120.0,0.0,0.0,0.0,0.0,-107.0,0.0,-45.0,0.0,0.0,0.0,34.27253218749016,17.55503396713325,5.027902015943886,3.64743823529975,3.122091488651491,2.6331724266120125,2.1202590128590444,1.630502294501627,1.1839196918772377,0.817755413157367,0.5421286955092463,0.3398626371522173,0.1970077639387849,0.10255874919208703,0.04668039927932767,0.018435358051943882,0.005653349947530377,7.3342125746650195,5.974485937074458,5.398535939095811,4.8278868437516165,4.183551084871742,3.508592763047604,2.8226898524580517,2.186484985693883,1.6389113599634266,1.175201476660886,0.7920336454915291,0.4895763820095447,0.2710070158854751,0.13342252090935344,0.05424382142021593
0.0,52.0,52.0,0.0,120.0,0.0,0.0,0.0,0.0,-107.0,0.0,-45.0,0.0,0.0,0.0,34.27253218749016,17.55503396713325,5.048134871500762,3.674986783293606,3.1464089905312838,2.6535409768355764,2.1361728563203886,1.6421222638774742,1.1917484580365227,0.8226678613181215,0.5450553360644738,0.34163252584815973,0.1983062713567134,0.10362369614103337,0.047427741853185386,0.018850448516734546,0.005825551113687928,7.351186227364754,6.002682306456086,5.425554038909147,4.852371081074085,4.2045307655277355,3.525572728700822,2.835521795057189,2.1955619608682686,1.644991706318013,1.1793520268159665,0.7956232835091673,0.49322509980898316,0.27423054687325105,0.1356954418999584,0.05548494479036363
0.0,53.0,53.0,0.0,120.0,0.0,0.0,0.0,0.0,-107.0,0.0,-45.0,0.0,0.0,0.0,34.27253218749016,17.55503396713325,5.069006255278149,3.702896900674846,3.1710022761734535,2.6741252111432354,2.152244791451848,1.6538498187714195,1.19964377549824,0.8276178936286462,0.5479967339550565,0.3433858407462983,0.19956102896079056,0.10464823276235505,0.04815453668944789,0.019259042619218025,0.005997020571579021,7.368702990399861,6.031187463185954,5.452810357643752,4.8770553493922915,4.2256740243888995,3.5426800323434158,2.8484460209082685,2.204701057691189,1.6511008553931312,1.1834581493806848,0.7990733938724133,0.4967126690099464,0.27734656989151335,0.1379191216529174,0.0567124630796009
0.0,54.0,54.0,0.0,120.0,0.0,0.0,0.0,0.0,-107.0,0.0,-45.0,0.0,0.0,0.0,34.27253218749016,17.55503396713325,5.090529539650563,3.7311717920881717,3.195874713133086,2.6949278170541007,2.1684767300521255,1.665686198981001,1.2076063784456874,0.8326059784114719,0.5509541704029616,0.34512612678067955,0.2007758877548324,0.10563407841825219,0.048861024778228755,0.019661007028578405,0.006167645815834063,7.38677285995783,6.060001952386552,5.480306813473051,4.9019416213916465,4.246982596276141,3.5599160879946887,2.8614636262894364,2.213903210163249,1.6572417535035258,1.1875294795917692,0.8023969851446839,0.5000470099626468,0.28035747762997587,0.1400936522812993,0.057925936867231236
0.0,55.0,55.0,0.0,120.0,0.0,0.0,0.0,0.0,-107.0,0.0,-45.0,0.0,0.0,0.0,34.27253218749016,17.55503396713325,5.112718024843731,3.7598147572957883,3.2210297203749896,2.715951531094314,2.1848706095690944,1.6776326576110068,1.215637001669663,0.8376325678893582,0.5539287258900695,0.3468565359176059,0.2019544869413011,0.10658295403467075,0.049547479383852275,0.020056227311138486,0.006337320747336181,7.405405623933944,6.089126415865934,5.508045453075684,4.927032021120653,4.2684583340437445,3.5772822520033714,2.8745756207679514,2.2231693426759547,1.6634168661663415,1.1915745557857578,0.8056062675587555,0.5032359205003073,0.2832657336363061,0.142219197690692,0.059124968917116556
0.0,56.0,56.0,0.0,120.0,0.0,0.0,0.0,0.0,-107.0,0.0,-45.0,0.0,0.0,0.0,34.27253218749016,17.55503396713325,5.135584904721469,3.7888292036389926,3.2464707788914713,2.737199113529445,2.201428381316481,1.6896904583806203,1.2237363910896046,0.8426980984828707,0.5569213163858882,0.34857986300543176,0.20310025506323212,0.10749657505978938,0.05021420347137374,0.02044460689515748,0.006505945318238805,7.424610756727259,6.118561414006538,5.536028127863273,4.952328400175659,4.290102853229276,3.594779942584758,2.887783114926133,2.232500261503283,1.6696282992150653,1.1956009162349994,0.8087126724942328,0.5062870573943783,0.2860738639470679,0.1442959881671843,0.060309197772367346
0.0,57.0,57.0,0.0,120.0,0.0,0.0,0.0,0.0,-107.0,0.0,-45.0,0.0,0.0,0.0,34.27253218749016,17.55503396713325,5.1591432515024955,3.8182186472000934,3.2722014314727335,2.758673365507308,2.218152022838041,1.701860877411755,1.2319052953465164,0.8478029992710454,0.5599327209389935,0.35029858053502894,0.204216412557552,0.10837664494355644,0.05086152724837829,0.020826066079068062,0.006673425505255964,7.444397464441407,6.148307593874446,5.564256760139684,4.9778326848647785,4.311917828842272,3.612410541992738,2.9010871668145732,2.2418967613362417,1.6758778312178904,1.1996152071004114,0.811726872932225,0.5092079196112839,0.2887844491651469,0.14632431529985554,0.0614782994957049
0.0,58.0,58.0,0.0,120.0,0.0,0.0,0.0,0.0,-107.0,0.0,-45.0,0.0,0.0,0.0,34.27253218749016,17.55503396713325,5.18340599611449,3.8479867157215106,3.298225282458266,2.7803771280264367,2.2350435363861045,1.7141452033779283,1.2401444670349893,0.8529476943323089,0.5629636063932609,0.3520148708297108,0.20530597576828452,0.10922484911016206,0.05148980580976848,0.02120054108754434,0.006839673111318232,7.4647746514590105,6.178365669632814,5.5927333074420265,5.0035468305319,4.333904955645754,3.630175410845607,2.9144888037487067,2.2513596177219695,1.682166974273244,1.2036232740182917,0.814658808455897,0.5120058330377372,0.29140011684522077,0.14830452731829855,0.06263198530253965
0.0,59.0,59.0,0.0,120.0,0.0,0.0,0.0,0.0,-107.0,0.0,-45.0,0.0,0.0,0.0,34.27253218749016,17.55503396713325,5.2083859088435895,3.878137151441907,3.3245459979217715,2.8023132815019545,2.252104947991991,1.7265447375825262,1.2484546636280738,0.858132604430616,0.5660145480579368,0.3537306560510785,0.20637176212850816,0.11004284944455332,0.05209941687275471,0.021567983173795102,0.007004605570093515,7.485750890255662,6.208736409748943,5.621459737766672,5.029472789852856,4.35606592056914,3.648075898322718,2.9279890378657862,2.2608895819616115,1.6884970241290047,1.207630246920408,0.8175177127533688,0.5146879368468077,0.2939235341605698,0.15023702478485965,0.06376999940715668
0.0,60.0,60.0,0.0,120.0,0.0,0.0,0.0,0.0,-107.0,0.0,-45.0,0.0,0.0,0.0,34.27253218749016,17.55503396713325,5.234095580156239,3.9086738137925763,3.3511673064784016,2.824484746436397,2.2693383078791065,1.7390607941672602,1.2568366476107005,0.8633581485014117,0.5690860468125394,0.3554476260114093,0.20741639631402403,0.11083227929707154,0.05269075859247296,0.021928357767204854,0.007168145761243266,7.5073343983473455,6.239420640467337,5.650438029994714,5.055612513665854,4.378402403571118,3.666113342951033,2.9415888669589534,2.2704873842842987,1.6948690990935458,1.2116406186402502,0.8203121430098129,0.5172611715286621,0.2963574008141659,0.15212225661479203,0.06489211728451096
0.0,61.0,61.0,0.0,120.0,0.0,0.0,0.0,0.0,-107.0,0.0,-45.0,0.0,0.0,0.0,34.27253218749016,17.55503396713325,5.260547402147336,3.9396006817943676,3.3780930001310794,2.846894484113322,2.286745690889016,1.7516947003319305,1.2652911866221093,0.8686247446921546,0.5721785432907392,0.35716726376588664,0.2084423171948576,0.11159473900399472,0.05326424745110409,0.022281643665055317,0.007330221824667562,7.529533015896722,6.27041924875815,5.679670174341757,5.081967951809294,4.400916078507602,3.6842890734009965,2.955289275310972,2.280153736214855,1.701284172222853,1.2156583167233337,0.8230500108017923,0.5197322685737901,0.29870444216573305,0.15396071640148387,0.06599814399802457
0.0,62.0,62.0,0.0,120.0,0.0,0.0,0.0,0.0,-107.0,0.0,-45.0,0.0,0.0,0.0,34.27253218749016,17.55503396713325,5.287753550805596,3.9709218561647814,3.405326935155382,2.8695454973137533,2.304329196919938,1.7644477965653094,1.273819053604798,0.8739328110855409,0.5752924295848085,0.3588908690306114,0.20945178541612924,0.11233179191858295,0.05382031621538175,0.0226278322665522,0.007490766974832708,7.552354184195878,6.30173318474023,5.709158172831956,5.108541053964889,4.423608614003076,3.702604409289851,2.969091234523155,2.2898893323733476,1.7077430978312365,1.2196867687097082,0.8257386140299828,0.5221077417900147,0.30096740255874366,0.15575293902081017,0.06708791259442029
0.0,63.0,63.0,0.0,120.0,0.0,0.0,0.0,0.0,-107.0,0.0,-45.0,0.0,0.0,0.0,34.27253218749016,17.55503396713325,5.3157259692948795,4.002641561150533,3.4328730330221044,2.8924408310554903,2.322090951377201,1.7773214368867922,1.2824210269580611,0.8792827662005229,0.5784280588575615,0.3606195794994152,0.21044689145354312,0.11304496094308963,0.05435941195912616,0.02296692684701968,0.007649719316131331,7.575804925253246,6.333363463586912,5.738904039795141,5.135333770504042,4.446481674323767,3.7210606619903963,2.982995704335923,2.299694851880879,1.7142466332365422,1.223728961209539,0.8283846694706324,0.5243938802181656,0.30314903883982747,0.15749949748883746,0.06816128256627009
0.0,64.0,64.0,0.0,120.0,0.0,0.0,0.0,0.0,-107.0,0.0,-45.0,0.0,0.0,0.0,34.27253218749016,17.55503396713325,5.34447635245578,4.034764146106131,3.4607352813565226,2.9155835733553426,2.3400331056352344,1.7903169890982287,1.291097890694635,0.884675029340848,0.5815857531982701,0.3623543901529208,0.2114295640030792,0.11373572554839133,0.05488199414901212,0.02329894186991799,0.007807021660134511,7.599891822720032,6.365311166931375,5.768909802385229,5.16234805333536,4.469536920250905,3.7396591354429303,2.9970036334386356,2.309570959497639,1.720795456526214,1.2277874931295396,0.8309943455711823,0.5265967425967999,0.30525211406997743,0.15920100004775956,0.06921813838256062
0.0,65.0,65.0,0.0,120.0,0.0,0.0,0.0,0.0,-107.0,0.0,-45.0,0.0,0.0,0.0,34.27253218749016,17.55503396713325,5.374016132734693,4.067294086843999,3.488917734933313,2.9389768560141682,2.3581578375106065,1.8034358350453386,1.2998504345995543,0.8901100208415834,0.5847658100130398,0.36409617066804467,0.2124015785789697,0.11440551926443406,0.05538853279298875,0.02362390233415132,0.00796262134546475,7.624621004396297,6.397577443796706,5.799177501117277,5.189585856751054,4.492776009952496,3.7584011269678443,3.0111159602670785,2.3195183065826632,1.7273901810186496,1.2318646234314041,0.8335732951600543,0.5287221533134644,0.3072793914323331,0.16085808745586636,0.0702583880872293
0.0,66.0,66.0,0.0,120.0,0.0,0.0,0.0,0.0,-107.0,0.0,-45.0,0.0,0.0,0.0,34.27253218749016,17.55503396713325,5.404356469588544,4.100235988861279,3.5174245189197726,2.962623857644981,2.376467353471295,1.816679370950001,1.308679452404331,0.8955881628320481,0.5879685072142441,0.3658456810337234,0.21336456619665084,0.11505572762859399,0.05587950664968441,0.023941843154603498,0.00811647008481016,7.6499981334514136,6.430163528013593,5.82970921660851,5.2170491758112085,4.51620064700148,3.777287962988335,3.0253335887651405,2.3295375214532843,1.734031376993053,1.2359623104038455,0.8361266884431074,0.5307756997064266,0.309233628334371,0.16247143047446108,0.07128196269848437
0.0,67.0,67.0,0.0,120.0,0.0,0.0,0.0,0.0,-107.0,0.0,-45.0,0.0,0.0,0.0,34.27253218749016,17.55503396713325,5.435508238882262,4.133594588351173,3.5462598299928145,2.986527804592178,2.3949638892581633,1.8300490078003724,1.317585741896333,0.9011098793330151,0.5911941074221546,0.3676035855102868,0.21432002206911713,0.11568768655555405,0.05635540150416159,0.024252808572314277,0.008268523793894157,7.676028395272202,6.463070739449792,5.8605070719169206,5.2447400497279375,4.539812584443338,3.796321002214479,3.03965738745913,2.3396292094381437,1.7407195818575607,1.2400822494350987,0.838659244769568,0.5327627307563606,0.3111175707371526,0.16404172749960683,0.0722888149916042
0.0,68.0,68.0,0.0,120.0,0.0,0.0,0.0,0.0,-107.0,0.0,-45.0,0.0,0.0,0.0,34.27253218749016,17.55503396713325,5.4674820133464035,4.1673747406458,3.5754279241602434,3.010691958413423,2.413649699919587,1.8435461711127716,1.3265701170027064,0.9066755929549625,0.5944428611730495,0.36937046515587146,0.21526931428357365,0.11630268107114852,0.05681670852218268,0.02455685158908693,0.008418742277503652,7.7027164443970095,6.496300381213442,5.891573074517826,5.272660335342732,4.5636133401128935,3.815501425012148,3.054088341747417,2.3497940170947333,1.747455247247812,1.2442259273909402,0.8411752595414768,0.5346883574058474,0.3129339477815483,0.16556970223642697,0.07327891385743948
0.0,69.0,69.0,0.0,120.0,0.0,0.0,0.0,0.0,-107.0,0.0,-45.0,0.0,0.0,0.0,34.27253218749016,17.55503396713325,5.500288030424967,4.201581425606794,3.604933164562395,3.035119658776652,2.43252705297505,1.8571723089540493,1.3356333906194382,0.9122857297881374,0.5977150097191786,0.3711468287545704,0.21621369216383785,0.1169019445189185,0.05726392264346264,0.024854033434330434,0.008567089189920619,7.730066451946421,6.529853912957114,5.9229093634866485,5.300811981368834,4.587604570340801,3.834830511013384,3.068627357384383,2.3600325495053567,1.7542388244310543,1.248394625400679,0.8436786393411336,0.5365574531480723,0.31468546650564017,0.16705610171711507,0.07425224907833025
0.0,70.0,70.0,0.0,120.0,0.0,0.0,0.0,0.0,-107.0,0.0,-45.0,0.0,0.0,0.0,34.27253218749016,17.55503396713325,5.533936285341143,4.236219777002207,3.634779947183594,3.059814253084194,2.4515982770407474,1.870928873804196,1.344776384764134,0.9179407172945949,0.60101078710924,0.3729331226168756,0.21715429453656973,0.11748665804599157,0.05769754106715724,0.025144423049303904,0.008713531982120668,7.758082082619265,6.563732800784658,5.954518027476133,5.329196975307044,4.611787937510726,3.8543095350413736,3.0832753327279767,2.3703454026945687,1.7610707397099712,1.252589455171085,0.8461729287751665,0.5383746563522751,0.3163748069380267,0.16850169425223577,0.07520882783900716
0.0,71.0,71.0,0.0,120.0,0.0,0.0,0.0,0.0,-107.0,0.0,-45.0,0.0,0.0,0.0,34.27253218749016,17.55503396713325,5.5684364599912985,4.271295054908689,3.664972744156094,3.0847791440611907,2.4708657263706093,1.8848173352154232,1.3539999278507606,0.9236409847625796,0.604330421868681,0.3747297391533691,0.21809215770976775,0.1180579504291629,0.05811806180442734,0.025428096593435607,0.008858041615210473,7.7867664819191855,6.597938583289609,5.986401184111768,5.3578173098242585,4.636165103853665,3.873939771070375,3.0980331603283693,2.380733163577551,1.7679513986085214,1.2568113820120954,0.8486613380402244,0.5401443733541572,0.31800461743026065,0.16990726752016794,0.0761486738887691
0.0,72.0,72.0,0.0,120.0,0.0,0.0,0.0,0.0,-107.0,0.0,-45.0,0.0,0.0,0.0,34.27253218749016,17.55503396713325,5.603797919208757,4.306812647497888,3.695516111188946,3.110017792231854,2.4903317787458175,1.8988391810649667,1.3633048547065099,0.929386963396582,0.607674138335987,0.37653702440597797,0.2190282231446793,0.1186168981976349,0.05852598230503283,0.02570513696945776,0.009000592410423147,7.816122280175209,6.632472875495756,6.018560981569912,5.38667497875382,4.6607377343227405,3.8937224923063476,3.1129017278529627,2.3911964105516983,1.774881189081552,1.2610612450385918,0.851146769174905,0.5418707824023566,0.31957751027153597,0.1712736267354712,0.07707182660381719
0.0,73.0,73.0,0.0,120.0,0.0,0.0,0.0,0.0,-107.0,0.0,-45.0,0.0,0.0,0.0,34.27253218749016,17.55503396713325,5.640029727722144,4.342778076168525,3.726414680092309,3.135533708684848,2.509998842763264,1.9129959155445195,1.372692007262459,0.9351790863604611,0.6110421577043378,0.37835528464046225,0.21996334479398488,0.11916452602348458,0.058921798160043996,0.025975633365588748,0.009141161927551334,7.846151595886734,6.6673373548607735,6.050999585715615,5.415771985011867,4.685507497951063,3.913658971587186,3.127881918540715,2.4017357142709503,1.7818604840549683,1.2653397748167134,0.8536318409543435,0.5435578383616928,0.32109605759595217,0.172601592885706,0.0779783400539102
0.0,74.0,74.0,0.0,120.0,0.0,0.0,0.0,0.0,-107.0,0.0,-45.0,0.0,0.0,0.0,34.27253218749016,17.55503396713325,5.677140656971481,4.37919699634636,3.757673160049424,3.1613304560391904,2.529869358420842,1.9272890594667302,1.3821622347232008,0.9410177888805968,0.6144346988402105,0.38018479209179307,0.22089829608753256,0.1197018073513772,0.059306001882379854,0.026239680813226144,0.009279730826346113,7.876856041869964,6.7025337598700885,6.083719180701842,5.445110341409319,4.710476068588448,3.933750482113282,3.1429746118507813,2.4123516382714447,1.7888896435095372,1.2696476087178634,0.856118912401142,0.5452092780768962,0.3225627875906033,0.1738920010279423,0.07886828215666103
0.0,75.0,75.0,0.0,120.0,0.0,0.0,0.0,0.0,-107.0,0.0,-45.0,0.0,0.0,0.0,34.27253218749016,17.55503396713325,5.715139194739621,4.416075198370001,3.789296338946015,3.187411649436997,2.549945797706467,1.9417201505763375,1.3917163937364685,0.9469035083515258,0.6178519789242953,0.3820257899576666,0.2218337765503477,0.12022966524071763,0.05967908176627318,0.026497379758842872,0.009416282733045898,7.908236734661037,6.738063888613981,6.116721969585403,5.474692071449228,4.735645125609917,3.9539982981621864,3.1581806840908975,2.4230447395821533,1.7959690161743436,1.2739853042471125,0.8586101049003176,0.5468286263044997,0.323980181010513,0.17514569863774035,0.0797417338825129
0.0,76.0,76.0,0.0,120.0,0.0,0.0,0.0,0.0,-107.0,0.0,-45.0,0.0,0.0,0.0,34.27253218749016,17.55503396713325,5.754033557578376,4.453418608479233,3.8212890847689716,3.2137809575645595,2.570230665187831,1.9562907438666917,1.4013553485623937,0.9528366844435547,0.6212942139530291,0.3838784967253262,0.22277041804479594,0.12074897339402159,0.0600415208264467,0.02674883564899404,0.009550804111924847,7.940294307165545,6.773929597381766,6.150010174961573,5.504519210106495,4.761016354594817,3.9744036957866484,3.173501009025092,2.4338155693185626,1.8030989409127562,1.2783533505817837,0.8611073229235626,0.5484192021241345,0.3253506680043,0.1763635440049626,0.08059878850754475
0.0,77.0,77.0,0.0,120.0,0.0,0.0,0.0,0.0,-107.0,0.0,-45.0,0.0,0.0,0.0,34.27253218749016,17.55503396713325,5.79383168143498,4.491233279311298,3.8536563553376695,3.240442130201533,2.5907264968169095,1.9710024065341951,1.4110799728116723,0.9588177592253967,0.6247616190172657,0.38574310995081307,0.2237087906229785,0.1212605573491019,0.060393795816785154,0.026994158527499014,0.009683284138006064,7.973028933770094,6.810132822913016,6.183586066258653,5.534593812903267,4.786591425843876,3.994967962606901,3.1889364553062203,2.44466467428502,1.81027974762696,1.2827521785772,0.8636122733753478,0.5499841257455245,0.32667662525228436,0.1775464046718904,0.0814395510378859
0.0,78.0,78.0,0.0,120.0,0.0,0.0,0.0,0.0,-107.0,0.0,-45.0,0.0,0.0,0.0,34.27253218749016,17.55503396713325,5.834541257976233,4.529525404823317,3.886403202289419,3.2673989846163494,2.6114358552374117,1.9858567244172027,1.4208911476842083,0.9648471775631128,0.6282544086151962,0.3876198094647628,0.22464940801888197,0.121765195803987,0.060736376329927955,0.0272334626440703,0.009813714617352632,8.006440353374732,6.846675570586601,6.21745194036849,5.56491794070281,4.812372009593886,4.015692394933972,3.204487888382281,2.4555925968789603,1.817511758410098,1.2871821693035712,0.8661264836128674,0.5515263256286808,0.32796037341638246,0.17869515591103935,0.0822641374715352
0.0,79.0,79.0,0.0,120.0,0.0,0.0,0.0,0.0,-107.0,0.0,-45.0,0.0,0.0,0.0,34.27253218749016,17.55503396713325,5.876169845931038,4.568301353910275,3.9195347313983127,3.2946553017314306,2.6323613452121046,2.000855319693675,1.430789757235092,0.9709253868053995,0.6317727974229004,0.38950875996407386,0.22559273280947736,0.12226362204694519,0.06106972397800908,0.02746686607400042,0.009942089841233825,8.04052784271208,6.883559816802107,6.251610024160347,5.595493642284585,4.838359860814337,4.0365782605523535,3.2201561839929984,2.4665998716765545,1.8247952892174188,1.2916436612741147,0.8686513181749125,0.5530485458456054,0.3292041748981677,0.17981067924084887,0.08307267368794188
0.0,80.0,80.0,0.0,120.0,0.0,0.0,0.0,0.0,-107.0,0.0,-45.0,0.0,0.0,0.0,34.27253218749016,17.55503396713325,5.9187247591389935,4.6075676123646305,3.953056147802412,3.322214971400844,2.6535056035001268,2.015999817478111,1.4407766942154598,0.9770528387025105,0.6353170008689245,0.39141011282257754,0.22653918135034706,0.12275652546047831,0.06139429164846068,0.02769449035290028,0.010068406360956829,8.075290292398726,6.920787652734206,6.286062651553015,5.626323051229148,4.864556772517051,4.057626941710466,3.2359422715985726,2.4776869711855958,1.8321306389771361,1.2961369713550708,0.8711879898061322,0.5545533542403411,0.3304102319711202,0.18089386085492698,0.0838652977542
0.0,81.0,81.0,0.0,120.0,0.0,0.0,0.0,0.0,-107.0,0.0,-45.0,0.0,0.0,0.0,34.27253218749016,17.55503396713325,5.962213140616819,4.647330808286683,3.9869727449261108,3.3500819428850215,2.6748713050102944,2.0312918655469914,1.450852862978557,0.9832299859473175,0.6388872335276765,0.3933240096011969,0.22748912771340166,0.12324455321399304,0.061710522836440254,0.027916460107443836,0.010192663079685629,8.110726214291525,6.958361204759598,6.320812149659138,5.6574082689540575,4.890964474959711,4.078839734272946,3.2518470220248483,2.488854423709902,1.8395181110743977,1.3006623716323575,0.8737375824322481,0.5560431488410866,0.3315806850058596,0.18194559044943148,0.08464215476593843
0.0,82.0,82.0,0.0,120.0,0.0,0.0,0.0,0.0,-107.0,0.0,-45.0,0.0,0.0,0.0,34.27253218749016,17.55503396713325,6.006641989225604,4.687597713539085,4.02128990627009,3.378260225895835,2.6964611632905995,2.0467331344264,1.4610191795548217,0.9894572824294745,0.6424837092530438,0.395250583747183,0.22844290775901796,0.12372831192629125,0.0620188510543834,0.02813290270597813,0.01031486114491364,8.14683377022038,6.996282633114839,6.355860839231327,5.688751365309463,4.917584635979693,4.100217848135601,3.267871248045288,2.5001028139867207,1.8469580137769226,1.3052200940473038,0.8763010642587757,0.5575201655599854,0.33271761111943393,0.18296675984662145,0.08540339632361446
0.0,83.0,83.0,0.0,120.0,0.0,0.0,0.0,0.0,-107.0,0.0,-45.0,0.0,0.0,0.0,34.27253218749016,17.55503396713325,6.052018189926932,4.728375246066318,4.056013107041792,3.40675388983536,2.7182779267116786,2.0623253106689363,1.4712765657142561,0.9957351868035048,0.6461066432154142,0.39718996054358874,0.22940082334927092,0.12420836927926383,0.06231969931856975,0.028343947928009323,0.01043500368263592,8.183610807947503,7.0345541627461206,6.391211093190545,5.720354473667662,4.9444190055259165,4.121762588180492,3.2840158215042914,2.5114326662875857,1.8544506407998351,1.3098103621996813,0.878879291258479,0.5589864870936625,0.33382302323876367,0.18395826141991525,0.08614918430863279
0.0,84.0,84.0,0.0,120.0,0.0,0.0,0.0,0.0,-107.0,0.0,-45.0,0.0,0.0,0.0,34.27253218749016,17.55503396713325,6.098348542880427,4.769670471222305,4.091147916511615,3.4355670661783346,2.7403243813965643,2.078070100674263,1.481625952217847,1.0020641608171976,0.6497562510402883,0.39914225910874196,0.2303631455471412,0.12468525578719838,0.0626134797019558,0.028549727629910055,0.010553095786676864,8.2210548908176,7.073178066622349,6.426865308581991,5.752219745045095,4.971469344814163,4.143475265416678,3.300281615956304,2.5228445029033333,1.8619962816178726,1.3144333808662039,0.8814730223983565,0.5604440499747957,0.3348988692332777,0.18492098690898617,0.08687968830145382
0.0,85.0,85.0,0.0,120.0,0.0,0.0,0.0,0.0,-107.0,0.0,-45.0,0.0,0.0,0.0,34.27253218749016,17.55503396713325,6.145639771173194,4.81149060718628,4.12670003054316,3.464704004770662,2.762603387691549,2.093969190157087,1.4920682938803886,1.008444663916838,0.6534327507290779,0.4011075929842615,0.23133011785352225,0.12515946651464532,0.06290059295903049,0.028750375426382743,0.010669144728748466,8.259163383314903,7.11215672226837,6.462825956770895,5.7843493676161355,4.998737384034048,4.165357185255348,3.3166695204013212,2.534338840354768,1.8695952225493329,1.3190893388208362,0.884082929642637,0.5618946521461422,0.33594703136594883,0.1858558261587955,0.08759508541318885
0.0,86.0,86.0,0.0,120.0,0.0,0.0,0.0,0.0,-107.0,0.0,-45.0,0.0,0.0,0.0,34.27253218749016,17.55503396713325,6.193898614924442,4.853843030402383,4.162675218613474,3.494168960754934,2.785117794830445,2.1100243300225827,1.5026045403602197,1.014877164324799,0.6571363589062639,0.40308607201580854,0.23230195887232494,0.12563146284985707,0.06318142820899825,0.02894602637892288,0.010783159277460557,8.297933380415412,7.151492488845284,6.49909547076588,5.816745513267826,5.026224903613295,4.187409684474175,3.333180407646254,2.5459162000400646,1.8772477451510081,1.3237784113676383,0.8867096071300377,0.5633399603742925,0.3369693259995212,0.18676366589692034,0.08829555919781357
