Line_number,Fiducial,Easting,Northing,Height,Elevation,tx_pitch,tx_roll,tx_yaw,txrx_dx,txrx_dy,txrx_dz,rx_pitch,rx_roll,rx_yaw,PX,PZ,S0X_time_1.086e-05,S0X_time_3.256e-05,S0X_time_5.426e-05,S0X_time_8.680e-05,S0X_time_1.411e-04,S0X_time_2.279e-04,S0X_time_3.689e-04,S0X_time_5.860e-04,S0X_time_9.115e-04,S0X_time_1.411e-03,S0X_time_2.192e-03,S0X_time_3.418e-03,S0X_time_5.339e-03,S0X_time_8.301e-03,S0X_time_1.338e-02,S0Z_time_1.086e-05,S0Z_time_3.256e-05,S0Z_time_5.426e-05,S0Z_time_8.680e-05,S0Z_time_1.411e-04,S0Z_time_2.279e-04,S0Z_time_3.689e-04,S0Z_time_5.860e-04,S0Z_time_9.115e-04,S0Z_time_1.411e-03,S0Z_time_2.192e-03,S0Z_time_3.418e-03,S0Z_time_5.339e-03,S0Z_time_8.301e-03,S0Z_time_1.338e-02
0.0,0.0,0.0,0.0,120.0,0.0,-0.6006107859661425,0.5404942801895656,-0.026958505073061856,-107.0,0.0,-45.0,0.5519374456446491,0.15629578395061183,-0.30694838171875904,34.278640887730695,17.554526791089916,10.38467240623248,9.640151969584418,9.16853225371661,8.64674226837825,8.002018184226099,7.255398891837743,6.402438220765594,5.491628501749007,4.555426443722602,3.564487381912202,2.5382406462370386,1.589051885944075,0.8524896407132624,0.3891299705612656,0.1396307185841512,10.933150674680041,10.495311184180915,10.205663121452114,9.874583987372226,9.447841197113394,8.92699312723103,8.29272940211838,7.561708418970234,6.740683104136907,5.772188544429288,4.619677679940869,3.3543619697758076,2.156199340252606,1.2160323564510522,0.5661180434354299
0.0,1.0,1.0,0.0,120.0,0.0,-0.9759018373190473,0.8135696469190454,-0.3751651559209144,-107.0,0.0,-45.0,-0.456642840920362,-0.931185129702222,0.7511409765897061,34.278640887730695,17.554526791089916,10.3861566601737,9.64163194331198,9.170007961501936,8.648211609139238,8.003476994611528,7.256840693093313,6.403835114423422,5.492646686373559,4.5546814845461485,3.559990117707885,2.529798153529387,1.5791521216953692,0.8441795811207782,0.38384197362645145,0.13716665351184273,10.938317037609696,10.500467107230296,10.210808631000036,9.879713930938122,9.452945328213389,8.93205593768842,8.297713146538669,7.566315440718695,6.743508400513203,5.770473499025619,4.611516668116777,3.3411225079785476,2.141823912730944,1.2042793167689245,0.5588743956782186
0.0,2.0,2.0,0.0,120.0,0.0,0.16918519944847943,0.9805974121030814,0.09870426806424448,-107.0,0.0,-45.0,-0.2095170794314669,-0.34255303940871196,0.3406214042695026,34.278640887730695,17.554526791089916,10.387620393042988,9.643091437422669,9.171463231141075,8.649660573410108,8.004915534476346,7.258262342159038,6.405209555068673,5.493614828120846,4.553812421473808,3.555311361222586,2.521207107191949,1.5691908813022555,0.8358781233099389,0.37858854799397507,0.13473052316494252,10.943445373465519,10.505585028475043,10.215916164097193,9.884805936020683,9.458011586545851,8.937080946133873,8.302657373128277,7.570859366612414,6.746192114445429,5.768522093005497,4.603103354223251,3.3277062349613833,2.1273770048876597,1.192533307183557,0.551668236059694
0.0,3.0,3.0,0.0,120.0,0.0,-0.8854677898169232,0.14622731372845577,0.2953196317515341,-107.0,0.0,-45.0,-0.29520601649975187,-0.4269854436119267,0.7959766569684212,34.278640887730695,17.554526791089916,10.389064295746085,9.644531140516401,9.172898748956856,8.651089844019063,8.00633448105438,7.259664499953084,6.406561825312256,5.494530729643116,4.552812590610022,3.5504411745398086,2.5124564735964117,1.559158294736615,0.8275786386753998,0.3733663252474106,0.13232105808851113,10.94853703941111,10.510666301280391,10.220987070333575,9.889861346504903,9.463041306761212,8.942069467059092,8.30756310472759,7.575339105243047,6.748728783435912,5.7663252628101285,4.594427017459065,3.314102306669224,2.1128500230336162,1.1807891778537014,0.5444972877209808
0.0,4.0,4.0,0.0,120.0,0.0,0.6214419931426194,-0.6651344029130648,0.0056515905556866475,-107.0,0.0,-45.0,-0.7542288977824405,0.18377400981560688,-0.6022494905447515,34.278640887730695,17.554526791089916,10.390488998706262,9.645951680946665,9.174315141264046,8.65250004414112,8.007734452457354,7.261047767845029,6.407892105496597,5.495391968528876,4.551675190519534,3.5453699193390045,2.503535949236048,1.5490453383934033,0.8192751389470819,0.36817227565995764,0.1299371095150034,10.953593275448432,10.515712162221524,10.226022582879322,9.894881390401139,9.46803570850218,8.947022700431338,8.31243121855174,7.579753300517351,6.751112656614716,5.763873876744771,4.585477169027372,3.300300355231647,2.0982349116378494,1.1690421767620196,0.5373594690221255
0.0,5.0,5.0,0.0,120.0,0.0,0.0993893425189809,0.8013270539443134,-0.7033154190089279,-107.0,0.0,-45.0,0.8034014728845622,-0.49967468592495345,0.2856649718932074,34.278640887730695,17.554526791089916,10.391895076492128,9.647353631434447,9.175712978968365,8.653891741875483,8.009116012199282,7.262412691798228,6.4092004723494185,5.496195883310516,4.550393252252767,3.5400881978490335,2.4944358727146336,1.5388437485682553,0.8109622179450222,0.36300367988976007,0.12757763989221318,10.958615211450663,10.520723738089865,10.23102382546433,9.89986718678612,9.472995903273038,8.951941738260329,8.317262448528599,7.584100323431274,6.753337679895009,5.761158717222427,4.576243525588533,3.2862904526680454,2.083524117345531,1.1572879248383336,0.5302528818454486
0.0,6.0,6.0,0.0,120.0,0.0,-0.21088241297063592,-0.8245763183156689,0.5832495609995481,-107.0,0.0,-45.0,-0.29169843718570854,0.049840910433742724,0.8086593176528227,34.278640887730695,17.554526791089916,10.393283052049913,9.648737513286232,9.177092781769293,8.655265454427136,8.01047967332533,7.26375976605851,6.410486896804469,5.49693955995089,4.5489596141320545,3.5345868024816505,2.485147147526287,1.5285459448526617,0.802634999645307,0.3578581035337556,0.12524171428285255,10.963603873633753,10.525702052340362,10.235991818801264,9.904819752191797,9.47792290076332,8.95682757058948,8.322057386748629,7.588378263610151,6.755397482837236,5.7581704645245795,4.566715983553669,3.2720630766435654,2.0687105557638286,1.1455223931348246,0.5231758008253858
0.0,7.0,7.0,0.0,120.0,0.0,0.5968653553176255,-0.720990257435417,0.6473932024358482,-107.0,0.0,-45.0,0.5589402490092823,-0.6400520115089496,0.10864104270172414,34.278640887730695,17.554526791089916,10.394653401007627,9.650103800690829,9.17845502244859,8.656621652385187,8.011825902654888,7.26508943691194,6.4117512414857165,5.4976198190474586,4.547366900948048,3.5288566735040994,2.47566117499124,1.5181449627450754,0.7942890916415613,0.3527333738362339,0.12292849285716927,10.968560191874156,10.530648033425907,10.240927489936498,9.909740011482665,9.482817622255606,8.961681102677705,8.326816502382334,7.5925849488004316,6.757285409282078,5.7548997429543265,4.5568846741005755,3.2576091554092224,2.0537875961513494,1.1337418234758943,0.5161267079229571
0.0,8.0,8.0,0.0,120.0,0.0,0.5195770209342125,0.7296001373736949,0.6780304402704969,-107.0,0.0,-45.0,0.29887930907683646,-0.26746903538197064,-0.5015459788140113,34.278640887730695,17.554526791089916,10.396006553967283,9.651452922977843,9.17980012909443,8.657960761898881,8.013155122859876,7.266402104093046,6.412993255190935,5.498233200620259,4.545607503595716,3.5228888601458395,2.465969792820291,1.5076343924902569,0.7859205444616552,0.3476275602105081,0.12063722282635315,10.973485001211678,10.535562513196789,10.245831667547392,9.914628788505993,9.487680883532072,8.966503125168128,8.331540086827438,7.596717851258987,6.758994380609155,5.751336926208067,4.546739703199161,3.2429198090999645,2.038748988007533,1.1219428827462832,0.5091041511571617
0.0,9.0,9.0,0.0,120.0,0.0,-0.21267126781071788,0.20308290281417762,-0.4459367318513183,-107.0,0.0,-45.0,0.07042420733426002,0.9344644410795702,-0.48771174719058275,34.278640887730695,17.554526791089916,10.397342900978524,9.65278526909834,9.181128489588042,8.65928316917667,8.014467716964546,7.267698124662168,6.41421256952292,5.498775952021637,4.543673564887993,3.5166744910593764,2.4560652249527495,1.497008327262943,0.7775258140937735,0.3425389544857169,0.1183672328615984,10.978379050885337,10.540446238946261,10.250705096996658,9.919486825659742,9.492513421941121,8.971294352752075,8.336228305967357,7.600774160392588,6.76051700946244,5.747472302712375,4.536271361609155,3.2279865465168847,2.0235888798499118,1.110122475046611,0.5021068658620381
0.0,10.0,10.0,0.0,120.0,0.0,-0.1730845177585354,0.14141785746669155,0.5424192602753439,-107.0,0.0,-45.0,-0.9644599210793985,-0.38005104239234644,-0.2777078329432381,34.278640887730695,17.554526791089916,10.398662794151692,9.65410119021968,9.18244045417955,8.66058922303796,8.015764030837493,7.2689778146566075,6.41540869255188,5.49924401325414,4.54155696487434,3.510204746570913,2.445940035189201,1.4862613159584597,0.7691017292828428,0.33746605446599176,0.11611792685470251,10.983243007818684,10.54529987592018,10.255548441866763,9.924314783968816,9.497315894033724,8.976055417403535,8.34088118102702,7.604750745845916,6.7618455512149325,5.743296007845362,4.525470030345795,3.2128011682375424,2.008301781592147,1.0982777796219514,0.49513372576689724
0.0,11.0,11.0,0.0,120.0,0.0,-0.5111334783252941,-0.8645901813800265,0.4110892425948185,-107.0,0.0,-45.0,-0.3180750864575246,-0.7284391100858145,0.6652365590397147,34.278640887730695,17.554526791089916,10.399966550403555,9.655401002460149,9.183736338210633,8.661879237622568,8.017044375858877,7.270241450796911,6.416581001930644,5.499633002333829,4.539249308330841,3.5034708353351336,2.4355870870404264,1.4753883218428665,0.7606454621883684,0.33240754875417083,0.11388877846821568,10.988077460987057,10.550124011648434,10.260362288255518,9.929113247330811,9.502088879711401,8.98078687177581,8.345498585063826,7.608644145487192,6.762971894244627,5.738798012109356,4.514326159367287,3.19735574136432,1.992882542790902,1.086406237394827,0.4881837348630416
0.0,12.0,12.0,0.0,120.0,0.0,-0.9213514884463434,-0.2867593551644674,-0.31380315096928846,-107.0,0.0,-45.0,0.02774541378167661,-0.8851379932666668,0.5044997093617536,34.278640887730695,17.554526791089916,10.401254453996787,9.656684989418528,9.185016424633133,8.663153494898095,8.018309031388092,7.271489271825668,6.4177287369645075,5.499938200145048,4.536741913588346,3.4964639742135297,2.4249995085094556,1.4643846860907923,0.7521545022045361,0.32736230301839603,0.11167932614472204,10.992882925508214,10.554919160022772,10.265147148841027,9.933882726565944,9.506832886235115,8.985489192432706,8.350080238871044,7.612450553245015,6.763887551476458,5.733968111321503,4.502830249163837,3.1816425778544253,1.9773263331577149,1.0745055375418613,0.48125602074756674
0.0,13.0,13.0,0.0,120.0,0.0,-0.536324190981136,-0.9743191407639671,0.634694919156233,-107.0,0.0,-45.0,-0.8312737107026651,0.1951317129305361,0.3411036690397924,34.278640887730695,17.554526791089916,10.402526758885353,9.657953404510451,9.186280966335396,8.664412246976562,8.01955824704259,7.272721479460213,6.418850989576664,5.500154534742835,4.534025802470187,3.4891753708788125,2.414170661195169,1.4532460956648208,0.7436266326114619,0.32232934756047993,0.1094891685240394,10.99765984645537,10.559685765098344,10.26990346667156,9.93862366319362,9.511548351962428,8.990162782674306,8.354625705878153,7.616165806187159,6.7645836522146965,5.728795917422873,4.4909728335262304,3.1656542147295514,1.961628624889502,1.062573605240797,0.47434982846602447
0.0,14.0,14.0,0.0,120.0,0.0,-0.4332575983734268,0.9820614248522452,0.22264549926141375,-107.0,0.0,-45.0,-0.623954307249911,-0.022228816330045476,0.16061396096011116,34.278640887730695,17.554526791089916,10.403783690884683,9.659206473130501,9.187530188295076,8.665655718258789,8.02079224480604,7.273938238944535,6.419946694117095,5.500276565085568,4.531091691170847,3.4815962087362737,2.4030941131982813,1.4419685550626604,0.7350599097596668,0.31730786605312644,0.10731796022858438,11.002408602417177,10.564424204643103,10.274631618704023,9.943336432959084,9.516235649835977,8.994807974957391,8.359134386011915,7.619785370834089,6.765050934198707,5.723270849792888,4.478744463432799,3.149383396074613,1.9457851766982401,1.0506085904979856,0.46746451481266277
0.0,15.0,15.0,0.0,120.0,0.0,0.39314208408587414,-0.3109134768146633,0.296904050441096,-107.0,0.0,-45.0,-0.9301753653661531,-0.9432381758253618,0.8541350456459862,34.278640887730695,17.554526791089916,10.40502544968362,9.660444394656873,9.188764289575303,8.666884107423146,8.022011220981488,7.275139679179319,6.421014615958451,5.500298464192226,4.527929981941958,3.473717633814211,2.3917636153796336,1.430548361514258,0.7264526445234848,0.3122971853276205,0.10516540798136854,11.007129508826631,10.569134793456964,10.279331919113051,9.948021349131754,9.520895090644219,8.99942503290531,8.363605508477873,7.623304328707396,6.765279735828487,5.717382126964083,4.466135691989606,3.1328230567336566,1.9297920194281604,1.0386088579738557,0.4605995430504553
0.0,16.0,16.0,0.0,120.0,0.0,0.790180495939105,0.6019241802505262,-0.31193150399670877,-107.0,0.0,-45.0,-0.3456221550151777,-0.5834039355456015,-0.5478357339617481,34.278640887730695,17.554526791089916,10.406252210713351,9.661667344313724,9.189983445179166,8.668097589273383,8.023215348003584,7.276325892402248,6.422053338818633,5.500214001728227,4.524530755479192,3.4655307433271334,2.3801730805806414,1.418982083260994,0.7178033857885578,0.3072967661061043,0.10303126702472523,11.011822821078551,10.573817786480227,10.28400462238989,9.95267866559415,9.525526926072537,9.00401415289615,8.368038123417245,7.62671736111748,6.765259988517316,5.711118758638924,4.453137060357253,3.1159663076130246,1.9136454431553254,1.0265729777302113,0.4537544780164128
0.0,17.0,17.0,0.0,120.0,0.0,-0.4982433141461753,0.4030740424732344,-0.5366211888642363,-107.0,0.0,-45.0,0.11736569708745503,-0.5705444331166449,0.6647733397205449,34.278640887730695,17.554526791089916,10.407464126886905,9.662875474904787,9.191187807776105,8.669296316458682,8.0244047761216,7.277496933383684,6.423061250746125,5.500016526030883,4.520883763924043,3.457026575658498,2.3683165654690943,1.4072665405930675,0.7091109057646732,0.302306194583867,0.10091533781123463,11.01648873745339,10.578473381708902,10.288649926248636,9.957308579738722,9.530131351561371,9.008575465212537,8.372431092389778,7.630018733200089,6.764981209135798,5.704469537917943,4.439739084599467,3.0988064225044334,1.8973419856727618,1.0144997168296328,0.4469289815807579
0.0,18.0,18.0,0.0,120.0,0.0,0.8248116907480754,0.13896754091281505,0.7421698491577127,-107.0,0.0,-45.0,0.49574490147357086,0.24334711926347774,0.5310660193852967,34.278640887730695,17.554526791089916,10.408661330221602,9.664068918430486,9.192377509312351,8.670480421077844,8.025579634963481,7.278652818095183,6.4240365287006,5.4996989455927325,4.516978424410291,3.4481961015466043,2.3561882547191693,1.395398789360056,0.7003741869382836,0.2973251747768028,0.09881746294105834,11.02112740186345,10.583101722932872,10.293267974355821,9.961911235188156,9.534708508985627,9.013109034730356,8.376783077629561,7.633202277214578,6.764432492516428,5.697423033654378,4.425932243391572,3.0813368263453147,1.8808784222705504,1.0023880317228229,0.44012280843092016
0.0,19.0,19.0,0.0,120.0,0.0,-0.5456369971899213,0.3458837014030416,-0.597781574081846,-107.0,0.0,-45.0,0.14440179052444924,0.11186615015686763,-0.9073927827646373,34.278640887730695,17.554526791089916,10.409843933355388,9.665247787599357,9.193552662516252,8.671650016178024,8.026740034988993,7.2797935218002845,6.424977121658391,5.499253710026372,4.512803813096388,3.4390302162877653,2.3437824472754083,1.3833761067038424,0.6915924104994109,0.29235352155797373,0.09673752432251177,11.02573890643603,10.587702902311388,10.297858858897609,9.966486724353242,9.539258489168144,9.017614861117089,8.381092530016879,7.636261375120752,6.7636025039910805,5.689967582856406,4.411706966531542,3.063551084838462,1.8642517567281651,0.9902370613648579,0.433335802153881
0.0,20.0,20.0,0.0,120.0,0.0,-0.3739200705491057,-0.7686807581482953,0.03471857010387969,-107.0,0.0,-45.0,-0.8029920294403827,0.9771611090781029,0.6157114560943104,34.278640887730695,17.554526791089916,10.411012030967019,9.666412177243783,9.194713362308446,8.672805197157592,8.027886068838425,7.2809189765084295,6.425880732170024,5.49867279054009,4.508348659633476,3.4295197327975306,2.3310935444852303,1.3711959787934451,0.6827649460956675,0.28739115431476664,0.09467544053492988,11.030323293946708,10.592276962799016,10.302422622997758,9.971035090841056,9.543781334237917,9.0220928785039,8.385357675705622,7.639188940453773,6.762479471934238,5.682091283063327,4.397053624200666,3.0454428953587795,1.8474592134421153,0.978046121006032,0.42656789159248526
0.0,21.0,21.0,0.0,120.0,0.0,0.7553604568594809,0.1039886970069861,-0.9602527751551282,-107.0,0.0,-45.0,-0.30696283094856525,0.5691959066347423,-0.40997978019034886,34.278640887730695,17.554526791089916,10.412165701108984,9.667562165648746,9.195859687125571,8.673946043081413,8.029017812581003,7.282029067723456,6.426744796294594,5.497947659957947,4.503601342024635,3.4196553753928383,2.3181160399158274,1.3588560903677236,0.673891342781986,0.2824380911651487,0.09263116437489131,11.03488056011473,10.596823900433934,10.306959262998248,9.975556331725148,9.548277039842338,9.02654295458849,8.389576501343303,7.641977399520247,6.761051180284967,5.673781984626682,4.381962516927733,3.0270060790807922,1.830498230619028,0.9658146966073177,0.4198190874531992
0.0,22.0,22.0,0.0,120.0,0.0,-0.47159155939792496,-0.4015180497320501,-0.44579358061700347,-107.0,0.0,-45.0,0.688951835448989,-0.02525653908013803,0.9412581782979079,34.278640887730695,17.554526791089916,10.413305006461256,9.668697815801622,9.196991700165638,8.675072617916308,8.030135326865109,7.2831236304081255,6.427566461834568,5.49706927232298,4.498549881834554,3.409427774177962,2.304844510698047,1.3463543159155806,0.6649713210488524,0.27749444367735443,0.09060468056862071,11.03941065577145,10.601343666499476,10.31146873061343,9.980050399688109,9.552745557220316,9.030964889117628,8.39374673781735,7.644618671940833,6.7593049610186835,5.6650272828318515,4.366423866214788,3.0082345742662815,1.8133664544695265,0.9535424398344002,0.4130894791445889
0.0,23.0,23.0,0.0,120.0,0.0,-0.676384455400038,0.14456669946754097,-0.9764978554867589,-107.0,0.0,-45.0,-0.53621021135833,0.5106145363720791,0.9554083577012762,34.278640887730695,17.554526791089916,10.414429995513029,9.669819176570172,9.19810945056216,8.67618497169326,8.031238657969931,7.284202444075429,6.4283425647935735,5.496028042126007,4.493181939711153,3.398827459933362,2.2912736102635516,1.3336887123437728,0.6560047658240888,0.2725604120428512,0.08859600363503509,11.043913488911707,10.605836169568827,10.315950934967574,9.984517205046213,9.557186795141648,9.035358411690495,8.3978658424599,7.647104150567793,6.757227686536921,5.655814509799675,4.350427805790043,2.9891224306577677,1.796061734344596,0.941229163587845,0.40637923182738905
0.0,24.0,24.0,0.0,120.0,0.0,0.8346623417494634,-0.4565677435826836,-0.8904642242410421,-107.0,0.0,-45.0,0.4123565817829469,0.7090074127639809,-0.28841229039957894,34.278640887730695,17.554526791089916,10.415540703679088,9.670926283815211,9.19921297449368,8.677283141602702,8.032327838755357,7.285265226905872,6.429069603979649,5.494813823206699,4.487484811181,3.3878448594220205,2.2773980623625016,1.3208575130010327,0.6469917203545387,0.26763628065714407,0.08660517588523993,11.048388926637221,10.610301277441812,10.320405744524923,9.988956617664794,9.561600621715627,9.039723178814839,8.401930979641026,7.6494246808080195,6.754805761939959,5.646130726111556,4.333964373458287,2.969663804929361,1.7785821187607849,0.9288748380301375,0.3996885836583386
0.0,25.0,25.0,0.0,120.0,0.0,0.23768847679626748,-0.7881365835113874,-0.3111040234559692,-107.0,0.0,-45.0,-0.41805755681649104,0.5308910525469004,-0.7741982817272466,34.278640887730695,17.554526791089916,10.416637154356618,9.672019161443705,9.200302296234419,8.678367153028152,8.033402889503563,7.286311628777319,6.429743713677009,5.493415887376819,4.481445422679773,3.376470291040721,2.2632126562669383,1.3078591229427396,0.6379323808833636,0.2627224140672049,0.08463226554564497,11.05283679700011,10.61473881898197,10.324832988920253,9.993368468772076,9.565986866069156,9.044058770138268,8.405938999679444,7.6515705393843785,6.752025117141715,5.63596271210534,4.31702350352558,2.9498529571521503,1.7609258522656581,0.9164795870734093,0.3930178432113446
0.0,26.0,26.0,0.0,120.0,0.0,0.03104789235251615,-0.7494899161682329,0.10209177221412746,-107.0,0.0,-45.0,-0.004613120751972177,-0.36044175113735677,-0.08971961063295164,34.278640887730695,17.554526791089916,10.41771935992779,9.673097822407655,9.201377429151496,8.679437020523226,8.03446381864229,7.287341223080928,6.430360634311006,5.491822902819169,4.4750503277777,3.364693960755588,2.248712243081363,1.2946921153351982,0.6288270920476463,0.25781925324808497,0.08267736499293644,11.057256890754049,10.61914858586135,10.32923246069764,9.997752552678769,9.5703453198925,9.048364683767302,8.409886415999264,7.653531412569977,6.748871198781469,5.625296958792533,4.299595019780807,2.9296842482374705,1.7430913730996647,0.904043685294307,0.3863673870606616
0.0,27.0,27.0,0.0,120.0,0.0,0.529332702645553,-0.7275435299427342,0.5938929490218614,-107.0,0.0,-45.0,-0.1322263623358595,0.4579976307870606,0.2036240859565377,34.278640887730695,17.554526791089916,10.418787322713085,9.67416226965341,9.202438376653514,8.680492748736564,8.035510623335055,7.2883534971823325,6.430915681033349,5.490022912318236,4.468285703557197,3.3525059582726,2.233891733095901,1.2813552289107875,0.6196763429282899,0.2529273121746753,0.08074058909020317,11.061648963019769,10.623530334219682,10.333603916964021,10.002108628409783,9.574675738847008,9.052640330575386,8.413769380461245,7.655296373931439,6.745328961880163,5.614119658351854,4.2816686290218,2.9091521383264474,1.725077311614396,0.8915675552448664,0.3797376575117789
0.0,28.0,28.0,0.0,120.0,0.0,-0.8782121478492995,0.6006280622747644,0.6077545208770367,-107.0,0.0,-45.0,0.6157112273079839,-0.26392713580211247,0.534657854419083,34.278640887730695,17.554526791089916,10.419841035879484,9.675212497025791,9.203485133094807,8.681534333288521,8.036543289918592,7.28934784137218,6.431403710158271,5.488003311380716,4.461137347096896,3.339896253402988,2.21874609413008,1.2678473663963625,0.6104807636911402,0.2480471746574604,0.07882207361444366,11.066012734870887,10.627883786244054,10.337947080963753,10.0064364212539,9.578977843826001,9.056885027389686,8.417583656798028,7.656853861618,6.741382861182019,5.602416694156803,4.263233915119699,2.8882511860998274,1.70688248941141,0.8790517651304866,0.37312916046671113
0.0,29.0,29.0,0.0,120.0,0.0,-0.841532722386185,0.14448842634862902,-0.8811864612902467,-107.0,0.0,-45.0,-0.7343587765561761,-0.502744830552627,0.684640644260019,34.278640887730695,17.554526791089916,10.42088048430786,9.676248490130888,9.204517684639374,8.682561761603534,8.03756179416157,7.290323536134084,6.431819083385213,5.485750826305962,4.453590672012713,3.326854692594152,2.203270350826326,1.2541675938472863,0.6012411227640898,0.2431794914138758,0.07692197376647272,11.070347894845817,10.63220863167458,10.342261643579718,10.01073562423677,9.583251322055526,9.061097988934193,8.421324592084755,7.658191655233816,6.7370168421147625,5.590173630299952,4.24428033362028,2.8669760489874148,1.6885059191693919,0.8664970268281276,0.36654246341118507
0.0,30.0,30.0,0.0,120.0,0.0,-0.3091758804444322,0.1449815792679201,0.9428216370995297,-107.0,0.0,-45.0,0.43728360195958893,0.7007277227020261,0.04881155359677791,34.278640887730695,17.554526791089916,10.421905645422784,9.677270227161024,9.205536010087968,8.68357501370137,8.038566101311373,7.291279737541096,6.43215562974904,5.483251492266949,4.445630705002356,3.313370995604452,2.187459584861863,1.2403151408280522,0.5919583245000777,0.23832497734916758,0.0750404627550611,11.074654100390319,10.636504529240923,10.346547264765936,10.015005899522002,9.587495828016861,9.065278318393187,8.424987086178385,7.6592968523298435,6.7322143312928295,5.577375700579393,4.224797206886022,2.8453214842611816,1.6699468051303799,0.8539041942193728,0.35997819351205873
0.0,31.0,31.0,0.0,120.0,0.0,-0.10657094086545693,-0.4896581203831236,0.5118316233036273,-107.0,0.0,-45.0,-0.3688724038023907,0.8957076775529911,0.5652842116450043,34.278640887730695,17.554526791089916,10.42291648998848,9.67827767968519,9.206540081671612,8.684574062950492,8.03955616588732,7.292215460574334,6.432406605246926,5.480490631462334,4.4372420823354375,3.2994347523102543,2.171308936056891,1.2262894013882857,0.5826334072806929,0.23348440902280743,0.07317773044774757,11.078930979235665,10.640771108034352,10.350803574916354,10.01924687974489,9.591710984167046,9.06942499644585,8.42856555906355,7.660155844550834,6.726958226479734,5.564007796918372,4.204773719787868,2.8232823510011955,1.6512045442194363,0.8412742618150144,0.3534370358139245
0.0,32.0,32.0,0.0,120.0,0.0,-0.9964693528346331,0.6496297582702368,0.9732745960059146,-107.0,0.0,-45.0,-0.10003552917557723,-0.005674096451717459,-0.5936581413579094,34.278640887730695,17.554526791089916,10.423912982873615,9.679270813407811,9.207529865814339,8.685558876786217,8.040531931168296,7.293129560138421,6.432564650098866,5.477452831399127,4.428409046226888,3.2850354196413205,2.1548136043643,1.2120899357896233,0.5732675420188629,0.22865862227838002,0.07133398208144319,11.083178130716162,10.645007968819339,10.355030176173832,10.023458169282744,9.595896381426796,9.0735368686077,8.432053916046486,7.660754293469952,6.72123088591567,5.550054457192226,4.184198915960463,2.8008536129282513,1.6322787277744093,0.8286083636487589,0.3469197315245248
0.0,33.0,33.0,0.0,120.0,0.0,0.6063941669275619,-0.3745105652881482,-0.8359283171217646,-107.0,0.0,-45.0,-0.9337780376210076,0.8388076541062102,-0.7885287098746119,34.278640887730695,17.554526791089916,10.424895083787941,9.680249588898569,9.208505323867676,8.686529417396317,8.04149332831133,7.2940207095297,6.432621743609543,5.47412192336302,4.419115441026636,3.270162318649668,2.1379688527336764,1.1977164729453826,0.5638620310227878,0.22384851001652215,0.06950943702646045,11.087395127030206,10.649214685288685,10.35922664368343,10.027639345465953,9.600051579397753,9.077612630700052,8.435445510745,7.661077106139803,6.715014116907394,5.535499852442761,4.163061694639395,2.778030342101622,1.613169143865369,0.8159077724191368,0.34042707637915826
0.0,34.0,34.0,0.0,120.0,0.0,-0.6364790825767181,-0.3476565684635078,-0.8252029471254612,-107.0,0.0,-45.0,-0.15899158077114017,-0.35187243036061466,-0.30239766895674225,34.278640887730695,17.554526791089916,10.425862747993053,9.68121396229557,9.209466412819042,8.687485642376092,8.042440275023095,7.294887376093191,6.4325691566105725,5.47048096112956,4.409344709154369,3.254804631725447,2.1207700108485854,1.18316891354002,0.5544183071861807,0.21905502009199965,0.06770432759816264,11.091581514448237,10.653390805265685,10.363392526793321,10.031789959733173,9.604176106261583,9.08165081225234,8.438733105828518,7.661108410383554,6.708289163566767,5.52032777346429,4.141350808103666,2.7548077234847943,1.5938757801855266,0.803173898859763,0.3339599190747984
0.0,35.0,35.0,0.0,120.0,0.0,-0.23111068150248926,-0.9221056020565455,0.0068231480141569545,-107.0,0.0,-45.0,-0.9859687273936644,0.016607732415405474,0.9853415358109612,34.278640887730695,17.554526791089916,10.426815926989635,9.682163885984071,9.210413085975695,8.688427505354664,8.043372673690484,7.295727793784035,6.432397401475556,5.466512199964143,4.399079886703814,3.238951399981813,2.1032124797421385,1.1684473338006454,0.5449379334725297,0.21427915331738462,0.06591889791083126,11.095736814471419,10.657535851857089,10.36752735020712,10.035909538734492,9.608269458303186,9.08564975762667,8.441908831470963,7.660831529842304,6.70103669357458,5.504521616751512,4.119054859751533,2.7311810603867537,1.5743988274975822,0.7904082913188981,0.3275191597649771
0.0,36.0,36.0,0.0,120.0,0.0,0.24140345627633564,-0.17366542940624985,-0.19897265162966393,-107.0,0.0,-45.0,0.26917883258298136,-0.3111844793493834,0.7935838357580465,34.278640887730695,17.554526791089916,10.427754569182902,9.683099309252475,9.211345293625703,8.689354956593379,8.044290408856897,7.296539932329306,6.432096179714742,5.462197075951347,4.38830359863744,3.2225915208398392,2.0852917373014725,1.1535519898969222,0.5354226026631962,0.20952196155690037,0.06415340276886748,11.099860524944464,10.661649324560424,10.371630615091027,10.039997585385944,9.612331098987871,9.089607604637125,8.44496414148801,7.660228958786358,6.693236783835831,5.488064369805092,4.096162302842424,2.7071457807903645,1.5547386836215105,0.7776126355301739,0.3211057486070886
0.0,37.0,37.0,0.0,120.0,0.0,0.6523757944657025,-0.17366509535990193,0.9258975126130724,-107.0,0.0,-45.0,-0.7025593651911546,-0.9863715037169454,0.000114892969256708,34.278640887730695,17.554526791089916,10.428678620527776,9.684020178927032,9.212262983676467,8.69026794355631,8.045193343908693,7.29732146266506,6.431654327172513,5.457516185684982,4.376998053489291,3.2057137458530764,2.067003344676914,1.1384833229499525,0.5258741373409732,0.20478454589516126,0.06240810659076875,11.103952121126408,10.665730700329403,10.375701800139304,10.044053579878666,9.61636045750814,9.09352226041973,8.447889767140188,7.659282336686136,6.684868904882302,5.470938595796455,4.072661439942331,2.6826974445841936,1.5348959579512946,0.7647887545569847,0.3147206843539306
0.0,38.0,38.0,0.0,120.0,0.0,0.05964000659787283,-0.014223115945634524,-0.3933474875319698,-107.0,0.0,-45.0,0.8601188681682619,0.31646704353896404,-0.3694277063542144,34.278640887730695,17.554526791089916,10.42958802515461,9.684926439986064,9.213166102271032,8.69116641145143,8.04608131681055,7.298069718304325,6.431059756868112,5.452449266338555,4.365145037491378,3.188306678820776,2.0483429536167113,1.1232419646340235,0.5162944900820792,0.20006805486642956,0.06068328236177637,11.108011056723143,10.669779434601422,10.37974036260182,10.048076980646067,9.620356926699202,9.09739137429245,8.450675668595391,7.657972422525283,6.675911903868693,5.453126417600499,4.048540423115592,2.6578317517183208,1.5148714764897473,0.7519386088935531,0.3083650129817433
0.0,39.0,39.0,0.0,120.0,0.0,-0.2329192324886511,-0.45976468239439705,-0.2931492256534427,-107.0,0.0,-45.0,0.2624651335906967,-0.855124830800063,0.9118040273359926,34.278640887730695,17.554526791089916,10.430482725975807,9.685818036154114,9.214054594381398,8.692050303738855,8.046954134698316,7.298781652271719,6.430299399538817,5.446975176122049,4.352725908037613,3.1703587742478265,2.0293063147532955,1.1078287433585507,0.5066857438307011,0.19537368273086805,0.05897921061140129,11.112036764885858,10.67379496229128,10.383745739277442,10.052067225291312,9.624319860203201,9.10121230732789,8.453310984055676,7.656279068821108,6.666343985998508,5.434609501210997,4.023787254910548,2.632544551309453,1.4946662873914898,0.739064296706162,0.30203982634731863
0.0,40.0,40.0,0.0,120.0,0.0,0.463691806009652,-0.6763731457510445,-0.9695144363616444,-107.0,0.0,-45.0,0.39581915313662974,-0.5356188219923359,-0.6579184789444794,34.278640887730695,17.554526791089916,10.431362667191577,9.686694912382452,9.21492840627143,8.692919564473371,8.047811568937732,7.2994537909815,6.429359143572453,5.441071876424891,4.339721587150372,3.15185833595619,2.009889285200178,1.092244689071581,0.4970501141096338,0.19070266739032504,0.057296178393040145,11.116028634112181,10.67777667367876,10.387717322403136,10.056023706430691,9.628248543799689,9.104982073736947,8.455783952904154,7.654181174045844,6.656142678449951,5.415369034527477,3.9983898057831846,2.606831879767553,1.4742816519542326,0.7261680527282287,0.295746261916813
0.0,41.0,41.0,0.0,120.0,0.0,-0.08139721687575707,-0.09084517305438045,0.82690471796393,-107.0,0.0,-45.0,-0.3942740973799348,0.8315468338530205,-0.600859775075955,34.278640887730695,17.554526791089916,10.43222779513904,9.687557015710132,9.21578748637359,8.693774139098368,8.048653347153785,7.300082181679001,6.428223771899849,5.434716413885735,4.326112554481318,3.1327935176805317,1.9900878396505826,1.076491039849264,0.48738994876656355,0.186056289785998,0.055634478163393286,11.119986075679925,10.681723981857164,10.391654527086377,10.059945838958487,9.632142256728365,9.108697368177294,8.458081922884855,7.651656712080969,6.645284849691894,5.39538572000812,3.9723357752329442,2.580689897618677,1.4537190913511684,0.7132522523665028,0.28948549870665974
0.0,42.0,42.0,0.0,120.0,0.0,0.8952583671039935,-0.36407897677764733,0.48416507966500966,-107.0,0.0,-45.0,-0.6398955272902396,-0.891897791859493,-0.701381597425607,34.278640887730695,17.554526791089916,10.433078054115594,9.688404291060555,9.21663178105841,8.694613970050721,8.049479138123452,7.300662328982988,6.426876891578565,5.427884897599892,4.3118788349367,3.113152321785302,1.9698980842629608,1.060569255210355,0.4777077263484117,0.1814358715463301,0.05399440706341468,11.12390847233245,10.68563627140591,10.39555673998832,10.063833008700286,9.63600021372505,9.112354472455639,8.460191243227966,7.648682660887448,6.633746652637751,5.374639748422083,3.945612728363227,2.5541149599467365,1.4329803618864638,0.7003194095841092,0.28325875812756124
0.0,43.0,43.0,0.0,120.0,0.0,0.5130862046055409,-0.2543855580140526,-0.515344123719722,-107.0,0.0,-45.0,-0.994992428174968,-0.21825630554802355,-0.6000429107041649,34.278640887730695,17.554526791089916,10.433913392816374,9.68923668769007,9.217461241081532,8.69543900303683,8.05028854517469,7.301189136212501,6.42530087226033,5.420552486805199,4.29699999417868,3.092922604101065,1.9493162705785794,1.0444810227233505,0.46800605592170347,0.17684277119727349,0.052376267582807945,11.127795190159906,10.689512915455149,10.399423341561878,10.067684602284084,9.639821599486034,9.115949271492202,8.462097300319408,7.645235119589598,6.621503712308081,5.353111085499537,3.9182084971507956,2.5271040209447664,1.4120675127217528,0.6873718046991514,0.27706751676831626
0.0,44.0,44.0,0.0,120.0,0.0,-0.20199353802227837,-0.5302430930764652,-0.07436724536602468,-107.0,0.0,-45.0,-0.1378599545774737,-0.6249386826484411,-0.7727824343698737,34.278640887730695,17.554526791089916,10.434733755591884,9.690054150345993,9.218275812621927,8.696249177670765,8.051081081100639,7.301656824114108,6.423476766394212,5.412693361679108,4.281455116036405,3.0720920637849867,1.928338799268981,1.028228263177704,0.45828768615859056,0.1722783890705664,0.050780361469033836,11.131645569497339,10.693353250990446,10.403253665754567,10.071499943298537,9.64360545589358,9.11947703590692,8.463784189824064,7.641288862790908,6.608530466207009,5.330778537462102,3.8901099790021316,2.499653445625533,1.3909827569391937,0.6744126076696629,0.2709128602032321
0.0,45.0,45.0,0.0,120.0,0.0,-0.10999926007544358,-0.4028827066742422,-0.7477273238144178,-107.0,0.0,-45.0,0.9653551890656633,0.9589813904489932,0.00278155018327908,34.278640887730695,17.554526791089916,10.435539091979782,9.690856628871927,9.219075446925116,8.69704443685931,8.05185615918006,7.302058862580264,6.421384248706869,5.40428071600091,4.2652228017310305,3.0506482571451534,1.9069622447247219,1.0118131438380202,0.44855549843557335,0.1677441590967096,0.04920699389686869,11.1354589411182,10.697156610613428,10.407047047315569,10.075278362702013,9.647350779233854,9.122932535960278,8.465234923010176,7.63681773135909,6.59480076504566,5.307620645863303,3.8613043455622225,2.4717602198533246,1.36972861963827,0.6614447588017888,0.2647961250847311
0.0,46.0,46.0,0.0,120.0,0.0,0.6327407859133511,-0.2281687402635777,-0.7155603644849509,-107.0,0.0,-45.0,-0.7641575489639523,0.27585157215840694,0.24133614164475525,34.278640887730695,17.554526791089916,10.436329354321732,9.691644075783211,9.219860097788345,8.697824723706345,8.052613067908093,7.3023878820594685,6.419001540813171,5.3952867352991545,4.2482811528937425,3.028578597333016,1.885183367909503,0.9952380871344148,0.43881251033578494,0.16324154923666262,0.04765647087532875,11.139234622242684,10.700922313470555,10.410802807623035,10.079019176720283,9.651056471062708,9.126309923454535,8.466431272554367,7.631794464005238,6.580287631392778,5.283615369054202,3.8317786584526052,2.44342157685558,1.3483079012446206,0.6484713354784927,0.2587186875998405
0.0,47.0,47.0,0.0,120.0,0.0,-0.1660474761896258,0.32772479484745554,0.371359724612667,-107.0,0.0,-45.0,0.3758386236470328,-0.6462037151802331,0.05225085790211215,34.278640887730695,17.554526791089916,10.437104498160426,9.69241644665292,9.220629721869289,8.698589981062854,8.053350944346262,7.302635580279602,6.416305337963656,5.385682578010471,4.230607756991045,3.005870358881183,1.8629991336938025,0.9785057811485353,0.42906187669926193,0.1587720597526599,0.046129098301250886,11.14297191751623,10.704649666171939,10.414520255511928,10.082721687140362,9.654721321263601,9.12960266271861,8.467353703677487,7.626190662860295,6.564963219134685,5.258740058173087,3.8015198737530747,2.414635010027045,1.3267236862579304,0.6354955579007514,0.2526819592825012
0.0,48.0,48.0,0.0,120.0,0.0,0.37644541747710125,0.29237516901914606,-0.15552368745496392,-107.0,0.0,-45.0,-0.4138347194412917,0.2936748825846496,-0.9791194079007675,34.278640887730695,17.554526791089916,10.437864482626821,9.693173700491053,9.221384278972469,8.699340150749169,8.05406874243522,7.302792620828938,6.413270734962818,5.375438356025227,4.2121796715892605,2.9825106836483206,1.8404067296368996,0.9616191906322697,0.41930689061651155,0.1543372213979812,0.044625181039927804,11.146670120107302,10.708337963901988,10.418198688357263,10.086385181788861,9.658343988319263,9.132803456036413,8.467981304767376,7.619976758989764,6.548798772448676,5.232971437055183,3.7705148532854627,2.3853982923492665,1.3049793530618992,0.622520789903711,0.2466873856249845
0.0,49.0,49.0,0.0,120.0,0.0,-0.1520039617206621,0.8484750417801323,0.17807864363984205,-107.0,0.0,-45.0,0.1497766479608873,0.40972813024674304,0.5901535944637031,34.278640887730695,17.554526791089916,10.438609270763127,9.693915800063072,9.222123732258888,8.700075172278257,8.054765195416998,7.302848523155405,6.409871151434218,5.364523114273265,4.192973407412035,2.9584865882956985,1.8174035862558944,0.9445815685356567,0.4095509843765143,0.14993859354465852,0.04314502200924333,11.150328512869134,10.711986491599127,10.421837393222027,10.090008934832362,9.661922975790963,9.135904162415791,8.468291716403906,7.613121975596225,6.531764581328522,5.206285582152216,3.7387503775443545,2.3557094972413437,1.2830785841752927,0.6095505397542744,0.2407364446542855
0.0,50.0,50.0,0.0,120.0,0.0,0.4242356736056765,0.9839727014246169,-0.9702627390343337,-107.0,0.0,-45.0,-0.5965477770546934,-0.8703536950223767,-0.7731074066325512,34.278640887730695,17.554526791089916,10.439338829765035,9.69464271213178,9.222848048363554,8.700794980911642,8.055438771453051,7.302791543617697,6.406078256649868,5.352904809004709,4.1729649102184005,2.933784973485944,1.7939873988711525,0.9273964680356194,0.39979773034403104,0.14557776223999128,0.041688921266335964,11.153946369574998,10.715594525214895,10.4254356480806,10.09359220681933,9.665456604403026,9.138895709354813,8.468261058878674,7.605594288447966,6.513829933491908,5.178657902585281,3.7062131604182187,2.3255670209135713,1.2610253769360331,0.5965884609118384,0.23483064546824223
0.0,51.0,51.0,0.0,120.0,0.0,-0.16817773493049337,0.9671435727992324,-0.09180646730765774,-107.0,0.0,-45.0,-0.459249894072685,0.24899052861633053,-0.9923680337786407,34.278640887730695,17.554526791089916,10.440053131124026,9.695354407604265,9.223557197404274,8.701499504831629,8.056087621414985,7.302608547259425,6.401861894127147,5.340550284372913,4.152129541555273,2.908392635009786,1.7701561511253667,0.9100677550554784,0.39005084173960264,0.1412563381829879,0.04025717509583535,11.15752295623201,10.71916133305851,10.428992723125223,10.097134244350247,9.668942979048314,9.141767997274348,8.467863858280888,7.597360383006244,6.494963062512588,5.1500631204696745,3.6728898658612934,2.2949696062989555,1.2388240546089129,0.5836383527328435,0.2289715267263248
0.0,52.0,52.0,0.0,120.0,0.0,-0.4433564178249991,0.8618732388310963,-0.5128451461194101,-107.0,0.0,-45.0,0.6971516751397953,0.023076053285697284,0.5568216298817166,34.278640887730695,17.554526791089916,10.440752150649839,9.69605086156448,9.224251152864879,8.702188661155079,8.056709517709113,7.302284870027208,6.3971900061730596,5.327425246878912,4.130442058468049,2.8822962770628275,1.7459081402809347,0.8925996212634417,0.38031417329437284,0.13697595461232098,0.038850075098599085,11.161057532473079,10.722686177227336,10.43250788215747,10.100634279221225,9.672379949941451,9.144509796304135,8.467072971189102,7.588385607655456,6.4751310920352525,5.12047525166802,3.638767126696691,2.26391636864135,1.2164792779057507,0.570704161099211,0.22316065509011668
0.0,53.0,53.0,0.0,120.0,0.0,-0.5036598960789491,0.1792404748669323,0.18465567843647412,-107.0,0.0,-45.0,0.1906607925807191,-0.4283536606811771,-0.6541568648287948,34.278640887730695,17.554526791089916,10.441435868354072,9.696732053172736,9.224929891337872,8.702862350443665,8.057301782876573,7.301804171214428,6.392028558520229,5.313494237190292,4.107876592285939,2.855482527910136,1.7212420044068188,0.8749965975362023,0.3705917217502378,0.13273826509774048,0.03746790727968613,11.164549353018556,10.726168315115505,10.435980384059208,10.104091526833678,9.675765067049568,9.147108635131012,8.465859507962172,7.578633922367661,6.45429997594876,5.089867587146902,3.603831565753831,2.2324068228222433,1.1939960569043522,0.5577899789496981,0.21739962360852974
0.0,54.0,54.0,0.0,120.0,0.0,-0.3771872826692715,-0.733452909056667,-0.49213626892386375,-107.0,0.0,-45.0,-0.38687627567149896,-0.3007898637274915,-0.2174080390172366,34.278640887730695,17.554526791089916,10.442104268179563,9.697397965416828,9.225593392115362,8.70352044928099,8.057861206588914,7.301148275986848,6.386341465150152,5.298720598804611,4.084406626635139,2.827937958193043,1.6961567515717602,0.8572635678713455,0.36088762617432946,0.1285449412273494,0.03611095113406341,11.16799766918953,10.729607000983084,10.43940948432759,10.10750518359644,9.679095526826025,9.149550681645376,8.464192754561198,7.568067842058143,6.43243443441156,5.058212675133722,3.5680698195673672,2.2004409125114033,1.1713797633501128,0.5449000466925307,0.2116900500426458
0.0,55.0,55.0,0.0,120.0,0.0,-0.7917730685644944,-0.5934527580222546,-0.8844265612448614,-107.0,0.0,-45.0,-0.015403181579296543,-0.18228093244647225,0.15520662325366463,34.278640887730695,17.554526791089916,10.442757337568453,9.698048584707285,9.226241636624604,8.704162800387063,8.05838394953914,7.300297007935247,6.380090513336718,5.283066442990311,4.060004974873445,2.799649102148431,1.6706517911646173,0.8394057837299618,0.35120616805553456,0.12439767018351944,0.03477947872817557,11.171401730444456,10.733001487557376,10.442794436647173,10.110874422967978,9.682368110163825,9.151820615154586,8.462040092755146,7.556648373812337,6.409497885644387,5.025482304294912,3.5314685648925757,2.1680190412297375,1.148636143320681,0.5320387524768917,0.20603357512462672
0.0,56.0,56.0,0.0,120.0,0.0,-0.2164320083955411,0.9567348891053948,-0.5207841512313007,-107.0,0.0,-45.0,0.47776368446632644,0.0037374273479855447,0.4393937418144491,34.278640887730695,17.554526791089916,10.443395066874379,9.698683900321408,9.226874607714713,8.704789199621558,8.058865432611533,7.2992280117032715,6.373235288863865,5.266492609409026,4.0346437571835825,2.770602482026712,1.6447269674646567,0.8214288787878053,0.34155177114930063,0.12029815220043431,0.03347375377528697,11.174760785900101,10.736351027626576,10.446134494459397,10.114198389690166,9.685579110372528,9.153901489971307,8.4593669184641,7.544334947088954,6.385452373425279,4.991647488182527,3.4940145483200853,2.135142105415903,1.1257713302305343,0.5192106322999743,0.20043186074465075
0.0,57.0,57.0,0.0,120.0,0.0,-0.32554666742364735,-0.34307976248674943,-0.9649464513095425,-107.0,0.0,-45.0,-0.6361575719675867,0.6193038977381442,-0.5510527267684728,34.278640887730695,17.554526791089916,10.444017448642798,9.69930390371876,9.227492288814654,8.705399379086984,8.059300209605668,7.29791656585632,6.3657331012750085,5.248958621804925,4.008294377610521,2.74078463601042,1.618382595584934,0.8033388840703106,0.3319290010361009,0.1162480978964341,0.03219403070227544,11.178074085789667,10.739654875576834,10.44942891247705,10.117476191654282,9.688724249870672,9.155774590231047,8.456136557875523,7.531085335929962,6.36025849024351,4.956678451225762,3.4556946193018754,2.1018115295912385,1.1027918581487215,0.5064203699257027,0.1948865880587332
0.0,58.0,58.0,0.0,120.0,0.0,-0.8974232153772113,-0.3188481165497341,-0.6258352202028519,-107.0,0.0,-45.0,0.20470555505670962,-0.5524061684270971,-0.8156918684312155,34.278640887730695,17.554526791089916,10.44462447680764,9.699908587774608,9.228094662997446,8.705992985376326,8.059681821693887,7.2963353862878515,6.357538908896636,5.230422638142317,3.980927501379252,2.710182149950905,1.5916194999109108,0.7851422434429812,0.3223425643578437,0.11224922547416905,0.03094055370565403,11.18134088280703,10.742912288818804,10.45267694808016,10.120706888711066,9.691798584178505,9.157419275848476,8.452310180829649,7.516855572140448,6.333875296090231,4.920544616575332,3.416495766929062,2.0680293037210697,1.0797046753989523,0.4936727965904037,0.18939945550925583
0.0,59.0,59.0,0.0,120.0,0.0,-0.5119838866589577,0.05819855559366349,0.4274234835745898,-107.0,0.0,-45.0,-0.28058028296950943,0.7849517288736405,-0.397935598650748,34.278640887730695,17.554526791089916,10.445216145880792,9.700497946005742,9.228681711998625,8.706569551811718,8.06000263171053,7.294454420598757,6.3486052432414235,5.210841394583171,3.952513032884473,2.6787816932566892,1.5644390551550131,0.7668458294242837,0.312797307695524,0.10830325778117261,0.029713555795039308,11.184560433289015,10.74612252905098,10.455877862521431,10.123889477591122,9.694796391698775,9.158812819586045,8.447846710809458,7.501599848339791,6.306260232882663,4.883214596142573,3.376405160829262,2.0337980228733694,1.0565171584074164,0.4809728904694458,0.18397217674861427
0.0,60.0,60.0,0.0,120.0,0.0,-0.7381195616901572,-0.9939104874138476,0.7115732374113806,-107.0,0.0,-45.0,0.9987961654658744,-0.7737039108936812,0.5828835615915222,34.278640887730695,17.554526791089916,10.44579245024215,9.701071971894217,9.229253415243754,8.707128463284322,8.060253636309463,7.292240634029492,6.338882132235763,5.190170142725324,3.9230200948016045,2.6465700592848407,1.536843230148366,0.7484569592830653,0.3032982160500857,0.1044119192229231,0.02851325782317179,11.187731998201462,10.749284863319444,10.459030921865532,10.127022871938635,9.697711047693415,9.159930235283142,8.44270273069037,7.485270409735848,6.277369034538238,4.84465618321124,3.335410196577091,1.999120929279851,1.0332371257604342,0.46832577587786367,0.17860647845487923
0.0,61.0,61.0,0.0,120.0,0.0,0.02863728706915092,0.10493743763458196,0.5811139439138133,-107.0,0.0,-45.0,0.6668661680799997,-0.7447411451264017,-0.3134822784125837,34.278640887730695,17.554526791089916,10.446353383667015,9.701630658443802,9.229809748931453,8.707668912021939,8.060424253985797,7.289657787663128,6.328317021528482,5.168362579568929,3.8924170088293772,2.6135342106072645,1.508834634494713,0.7299834113760548,0.29385041088604236,0.1005769325196183,0.02733986750321969,11.190854843920299,10.752398564856962,10.46213539758672,10.130105876279561,9.70053488080657,9.160744097376194,8.436832383203942,7.467817433435753,6.247155632730341,4.804836348038603,3.2934985460359174,1.9640019569077756,1.009872852430044,0.4557367221756837,0.17330409802730137
0.0,62.0,62.0,0.0,120.0,0.0,0.3710313837174646,-0.7014065124148146,-0.5843494375074147,-107.0,0.0,-45.0,-0.009223170035624229,-0.6187968899370091,-0.6362031733898783,34.278640887730695,17.554526791089916,10.446898939249051,9.702173998126057,9.23035068518464,8.70818984226932,8.060502086939731,7.286666209740727,6.316854692918695,5.145370769744013,3.8606712786372657,2.579661329550025,1.4804165682224457,0.71143344167354,0.2844591476937933,0.09680001529727757,0.026193578416138428,11.19392824283777,10.755462913721528,10.465190566751739,10.13313715254259,9.703259010456367,9.161224351928746,8.43018726484813,7.449188894083292,6.2155720583702045,4.763721236903457,3.250658213074719,1.9284457786546112,0.9864330841221098,0.443211142346463,0.16806678114858037
0.0,63.0,63.0,0.0,120.0,0.0,0.2764142040102786,-0.11074288479468519,0.3044303871842191,-107.0,0.0,-45.0,-0.009536584224260958,-0.6769028840722882,0.8040249565454394,34.278640887730695,17.554526791089916,10.447429109884492,9.702701983381404,9.230876191209616,8.70868988145612,8.060472654766782,7.283222561022495,6.304437178687241,5.121145059616426,3.8277495756578315,2.5449388744378836,1.4515930745893748,0.6928158004117918,0.2751298130208508,0.09308287650332613,0.02507456901359,11.196951473875075,10.75847719730343,10.468195711714193,10.136115177523962,9.705873163423599,9.16133811947773,8.42271631173465,7.429330414602576,6.182568338867172,4.721276175103368,3.206877595134704,1.8924578562818621,0.9629270516962485,0.43075459121408444,0.16289627920095284
0.0,64.0,64.0,0.0,120.0,0.0,0.5599067588190905,-0.8275263883406565,-0.752644316330173,-107.0,0.0,-45.0,-0.2472382751363693,0.5096839638965298,-0.062909850569558,34.278640887730695,17.554526791089916,10.447943889467528,9.703214607826343,9.231386228272678,8.709167254936423,8.060319097989469,7.2792795951729445,6.291003670325435,5.095633982989459,3.7936177284346675,2.509354642022716,1.4223689962232615,0.6741397487994523,0.2658679209143778,0.08942721263723286,0.02398300162473336,11.199923823039336,10.761440710825346,10.47115011923288,10.139038189426905,9.708365468005896,9.161049490076214,8.414365675595606,7.408185100828609,6.148092391220579,4.6774656744536545,3.1621455511624887,1.8560444932079572,0.9393644855993167,0.41837276325926037,0.15779434652443802
0.0,65.0,65.0,0.0,120.0,0.0,-0.7598170629403884,-0.6268267856025647,-0.6549182903636883,-107.0,0.0,-45.0,0.5011164385072098,-0.34274647255191537,-0.17902560913767296,34.278640887730695,17.554526791089916,10.448443274902406,9.703711868275285,9.231880750099837,8.70961968080331,8.060021849502984,7.274785915125408,6.276490419825713,5.068784158236489,3.758240716316567,2.4728968366364086,1.3927500348157005,0.6554150756904729,0.2566791087078383,0.08583470378799635,0.022919021477873436,11.202844584217825,10.764352758013645,10.474053078883754,10.141904121304375,9.71072222418087,9.160319310958078,8.405078587873435,7.385693358811297,6.112089910989639,4.632253445899073,3.116451476487573,1.8192128902838542,0.9157556302423192,0.406071489993158,0.15276273750822172
0.0,66.0,66.0,0.0,120.0,0.0,0.9847411623339732,-0.24691938055062046,0.33239686775296184,-107.0,0.0,-45.0,-0.21297504010225854,-0.47555296652552936,0.7220438735149168,34.278640887730695,17.554526791089916,10.448927269060302,9.704193767701772,9.23235970009281,8.710044240680903,8.059558272152023,7.2696857262990635,6.2608306313099655,5.0405401767349876,3.7215826681921684,2.4355541464402304,1.3627428145011005,0.6366521142849172,0.247569132003876,0.0823070095257815,0.021882755703884153,11.205713056909019,10.767212648625105,10.476903877013543,10.14471051535568,9.712927644836403,9.159104963844822,8.394795206330775,7.361792691030357,6.074504255891932,4.585602418864586,3.0697853883648807,1.781971204501433,0.8921112577360581,0.3938567368961221,0.14780320354725937
0.0,67.0,67.0,0.0,120.0,0.0,-0.7624760134081667,0.05020919358461895,-0.11170383668035933,-107.0,0.0,-45.0,-0.6535304314194263,-0.2832288632097393,0.5961060217662648,34.278640887730695,17.554526791089916,10.449395914525025,9.704660348826113,9.232823035841935,8.710437250813126,8.0589022893352,7.263918614563042,6.243954364759017,5.010844501108966,3.683606874413166,2.3973158170217466,1.332354924926463,0.6178617583541777,0.2385438614209924,0.07884576749644497,0.020874310450431255,11.20852844557852,10.770019605120282,10.479701705611083,10.147454346583787,9.71496351805368,9.157360116262177,8.383452479800251,7.336417593700588,6.035276567509911,4.53747514465876,3.022138400162029,1.7443284798890042,0.868442345723787,0.38173491383080427,0.14291745269672745
0.0,68.0,68.0,0.0,120.0,0.0,0.9876509203793116,0.2590093985101658,-0.08014602787260028,-107.0,0.0,-45.0,-0.9043656197241714,-0.6031333831898382,0.004147341887986711,34.278640887730695,17.554526791089916,10.449849259456693,9.705111660609388,9.233270682823521,8.710794032864417,8.058023915473802,7.257419263617643,6.225788375051842,4.979637322193273,3.6442758006228964,2.3581717666779514,1.3015950222291186,0.599055478071132,0.22960927702304385,0.07545257868206805,0.019893775847385532,11.211290181359296,10.772773061274473,10.482445929687717,10.15013213824625,9.71680907594987,9.155034569688413,8.370983876793964,7.309498972524245,5.994344936428062,4.487832701231256,2.9735016747001817,1.7062951053555735,0.8447610843276879,0.36971194391351236,0.1381072546103255
0.0,69.0,69.0,0.0,120.0,0.0,-0.7557185036770642,0.9343252567593969,-0.3385878072511923,-107.0,0.0,-45.0,0.6334274455153581,0.6336704162182327,0.2184537680007228,34.278640887730695,17.554526791089916,10.45028736133839,9.70554776144325,9.233702517100118,8.71110867667181,8.056888778354095,7.250117195048603,6.206255948622165,4.946856410907073,3.603551094682381,2.31811267918809,1.270472909909198,0.5802453338566538,0.22077145415384805,0.07212901286392687,0.018941220120584166,11.21399762117826,10.775472382574867,10.48513581753339,10.152739585611908,9.718440485439967,9.15207394469512,8.357319255747656,7.28096420872115,5.95164495886425,4.436635815223506,2.923867629926236,1.6678825054544546,0.8210799439997664,0.3577941410541856,0.1333743347900923
0.0,70.0,70.0,0.0,120.0,0.0,0.20577138733795963,-0.788896271741923,-0.3079460555435751,-107.0,0.0,-45.0,-0.7256376137085965,0.17705629946647372,-0.43163212054917177,34.278640887730695,17.554526791089916,10.450710303128478,9.705968735439564,9.234118352746393,8.71137376905197,8.05545761892624,7.241936524444901,6.185276739930041,4.912436987837686,3.561393626964732,2.277130118394279,1.2389996085105217,0.561443991331974,0.2120365584067411,0.06887660064941395,0.018016690142605117,11.216650149315553,10.778116961104542,10.487770611858746,10.155271451556695,9.71983053887015,9.148419467725303,8.342384613989823,7.250736790055613,5.9071094222199125,4.383844612600032,2.873229750213384,1.629103317747142,0.7974119474612781,0.3459879633456086,0.1287203984316992
0.0,71.0,71.0,0.0,120.0,0.0,0.5572191311841765,-0.7855195062340627,-0.10468468489018523,-107.0,0.0,-45.0,-0.013782451511327398,-0.4406792630285896,-0.49742578551280703,34.278640887730695,17.554526791089916,10.451118197596374,9.706374696616281,9.234517904476888,8.711580053452211,8.053685739446468,7.232795700791133,6.162766569273124,4.876311575496538,3.517763534688841,2.2352166545529064,1.2071874400805742,0.5426647352510539,0.20341083592394338,0.06569682819181409,0.017120210726917266,11.219247184639123,10.780706221209451,10.490349509591935,10.157721349657722,9.720948251875697,9.14400771041203,8.32610180465586,7.218735981856526,5.860668144877975,4.32941864772145,2.821582692980129,1.5899714807696705,0.7737707108879646,0.3342999778531158,0.12414713009245262
0.0,72.0,72.0,0.0,120.0,0.0,0.712948564829792,-0.9959833598137557,0.7366786179892115,-107.0,0.0,-45.0,0.5822962565459766,0.9993018392176931,-0.5849948608206255,34.278640887730695,17.554526791089916,10.45151119054079,9.706765791705282,9.234900731873244,8.711716022958576,8.051522412229184,7.222607239315036,6.138637190394837,4.838409846634657,3.4726202815579725,2.1923660050353355,1.1750501167938545,0.5239214814011267,0.19490060277380425,0.0625911318767867,0.016251783922541105,11.221788190053369,10.783239627859645,10.492871634933595,10.160081489218246,9.721758436310575,9.138770326919364,8.308388228556996,7.184876491591754,5.81224783959478,4.273316977834747,2.768922435279779,1.5505023138712,0.7501704544507469,0.32273685348112013,0.11965618974285003
0.0,73.0,73.0,0.0,120.0,0.0,-0.011876903153634988,-0.44311071793867596,-0.697320070697449,-107.0,0.0,-45.0,0.6877964583701761,0.8384049711135151,0.029257402636651664,34.278640887730695,17.554526791089916,10.451889461266797,9.707142199688892,9.235266157539515,8.711767435529639,8.04891024868231,7.211277443292797,6.112796022460159,4.798658469408685,3.4259227349523362,2.148573191039826,1.1426028338635958,0.5052287866094454,0.1865122332583031,0.059560892808857784,0.01541138832439811,11.224272683021669,10.785716695744249,10.495335999574243,10.162342372333026,9.722221243215891,9.132633778449762,8.289156483184279,7.14906810765251,5.761771975452045,4.215498252674048,2.715246434649813,1.5107126006418927,0.726626011671188,0.31130535299828355,0.11524920870209793
0.0,74.0,74.0,0.0,120.0,0.0,-0.15782494566356764,0.6037340616674922,0.059145341559712516,-107.0,0.0,-45.0,0.7465434880271382,0.3831512966904811,0.8309350550899994,34.278640887730695,17.554526791089916,10.452253219135024,9.70750412642568,9.235613150232444,8.711716740122611,8.045784529359997,7.198706109372843,6.085145841219367,4.756980950742125,3.377629263627728,2.1038347123005754,1.1098623666623932,0.4866018564665636,0.17825214710443107,0.05660743109148163,0.014598978370035612,11.2267002459199,10.788136997662871,10.49774144428173,10.16449243502779,9.722291675377566,9.12551903992596,8.268313962158956,7.111215311297023,5.709160640088174,4.155920822041948,2.6605538054387794,1.4706206757089069,0.7031528374458832,0.3000123241547437,0.11092778546143406
0.0,75.0,75.0,0.0,120.0,0.0,0.3594963051014608,0.3365817523908723,-0.9885514095488854,-107.0,0.0,-45.0,-0.9807125864035473,-0.41223380627685313,-0.8633500702059913,34.278640887730695,17.554526791089916,10.45260269530129,9.707851792745464,9.235940162230788,8.711542402201498,8.04207249661747,7.184786209568496,6.055584424206693,4.713297479335762,3.327697859126842,2.0581487417535187,1.0768471718902117,0.4680565504289035,0.17012679545785486,0.053731999896195516,0.013814483585442716,11.229070534283395,10.79050016993202,10.50008655410921,10.16651762340227,9.72191906865409,9.117341281690187,8.24576239738893,7.07121686053004,5.65433040461271,4.094542864852805,2.6048455118924916,1.4302465145805474,0.6797670145927026,0.28886468981503,0.10669348138543226
0.0,76.0,76.0,0.0,120.0,0.0,-0.46094310409109185,0.6368279533449523,0.41303275661774275,-107.0,0.0,-45.0,-0.3928090881138655,-0.9303371675284449,0.9062943143721751,34.278640887730695,17.554526791089916,10.452938129466089,9.708185414668227,9.236244908429374,8.711218117589308,8.037692612578807,7.169403541748414,6.02400414517353,4.667524769914144,3.2760862842695606,2.011515341952467,1.0435774925358354,0.4496093840514283,0.16214264554650323,0.05093577932230793,0.013057807740262885,11.231383280401953,10.792805911678442,10.50236953732921,10.168400894777504,9.721046540798882,9.108009516562268,8.221397335060672,7.0289653444524465,5.597194194380092,4.031322543691385,2.548124579318148,1.3896118261664518,0.656485258747871,0.27786943702023215,0.10254781626186625
0.0,77.0,77.0,0.0,120.0,0.0,0.6193024056182832,0.9693680573163364,0.6495178966528188,-107.0,0.0,-45.0,0.027152060172706438,0.04423343238185118,0.5291110334659315,34.278640887730695,17.554526791089916,10.453259752592082,9.708505174915672,9.236524072897499,8.710711904892468,8.032553786499303,7.152436339300008,5.990291513699402,4.619575910471816,3.2227522521243697,1.9639367047600833,1.0100754662960576,0.43127752819401716,0.15430616382622495,0.04821987005875103,0.012328827879485518,11.233638289432175,10.795053974239792,10.504588056076836,10.170121633368414,9.71961040609005,9.097426199920593,8.195107535493525,6.98434670631071,5.537661169597371,3.9662181893873782,2.4903963246460212,1.3487401476268037,0.6333249213839663,0.2670336048855045,0.09849226364709333
