Line_number,Fiducial,Easting,Northing,Height,Elevation,tx_pitch,tx_roll,tx_yaw,txrx_dx,txrx_dy,txrx_dz,rx_pitch,rx_roll,rx_yaw,PX,PZ,S0X_time_1.086e-05,S0X_time_3.256e-05,S0X_time_5.426e-05,S0X_time_8.680e-05,S0X_time_1.411e-04,S0X_time_2.279e-04,S0X_time_3.689e-04,S0X_time_5.860e-04,S0X_time_9.115e-04,S0X_time_1.411e-03,S0X_time_2.192e-03,S0X_time_3.418e-03,S0X_time_5.339e-03,S0X_time_8.301e-03,S0X_time_1.338e-02,S0Z_time_1.086e-05,S0Z_time_3.256e-05,S0Z_time_5.426e-05,S0Z_time_8.680e-05,S0Z_time_1.411e-04,S0Z_time_2.279e-04,S0Z_time_3.689e-04,S0Z_time_5.860e-04,S0Z_time_9.115e-04,S0Z_time_1.411e-03,S0Z_time_2.192e-03,S0Z_time_3.418e-03,S0Z_time_5.339e-03,S0Z_time_8.301e-03,S0Z_time_1.338e-02
0.0,0.0,0.0,0.0,120.0,0.0,0.9762700785464951,8.890826839811503,-5.646123540176923,-107.5175190425104,0.0,-42.98874331853686,1.9668879429244388,-1.974809983927825,-1.8961917402018855,34.23589759221103,17.60751837456324,5.672766983293315,4.209545517855503,3.553460069927661,2.919324379907439,2.6292985196564596,2.1307036948122966,1.9848704952486818,1.7388287975683996,1.6208443702401691,1.2114792968456953,0.9442447637340698,0.7281874649736914,0.48817928688597495,0.3455407717981528,0.19878669515960007,6.923455312230191,6.130734819496316,5.322150671615272,4.428048075932613,4.3371760227670135,4.2851821993126595,3.7423577065613918,3.4024354984041842,2.7471882928079356,2.629169371427211,2.1845122642028993,1.808203480870897,1.397418421785185,0.9445568724517018,0.6959165334200076
0.0,1.0,1.0,0.0,120.0,0.0,4.30378732744839,-11.499601340391758,5.890304664463784,-107.97882985935877,0.0,-45.04459542645586,-0.10143045849373156,8.585828346054278,-1.2696513611925253,34.23589759221103,17.60751837456324,5.597611383091907,4.148640036141746,3.2614640747531847,3.0673157590131623,2.3751415634827486,2.0968789830948986,1.946614976609304,1.596441479135768,1.409874100997307,1.1411945000678265,1.0123088416119421,0.7386708116176832,0.5006183466382562,0.326438505653673,0.2148936942654537,7.776899807176536,6.3129268475663345,5.393740675690344,4.383314145992006,4.26861033873155,3.8132777857325575,3.6928031925800484,3.4003221992668182,2.791889613675515,2.5767736442286076,2.3127590704179064,1.670834025292773,1.45926377773029,0.9554609401411592,0.688286251895183
0.0,2.0,2.0,0.0,120.0,0.0,2.055267521432878,11.759701106129747,-3.6674448212255726,-107.43918952180215,0.0,-44.80493030284862,-0.6504480212743764,-8.007701395574573,0.24970442254264213,34.23589759221103,17.60751837456324,5.829434504350334,4.167727456327766,3.2616679040470253,2.760372452151918,2.349352258062766,2.174569336939482,1.9171323112457872,1.8254729886659755,1.4983400981425148,1.12927488197161,0.9346667747925602,0.7282700750834512,0.49152072818114884,0.3259594743823578,0.1975817725918231,7.971238861997418,5.9093552477127655,5.309075459111689,4.870805006679572,4.304321490257432,3.8970659701312154,3.44444731879066,3.3277022968469714,3.1335425892878375,2.5191182768094125,2.066561727026938,1.7624061673107998,1.2853755101307376,0.9454792758511518,0.6788293848384163
0.0,3.0,3.0,0.0,120.0,0.0,0.8976636599379368,23.109427255871914,-9.611889673210957,-106.81866157078218,0.0,-46.78156285570559,-3.968719772941621,8.90603066958159,2.5059502292898745,34.23589759221103,17.60751837456324,5.091439047473201,3.931599441078208,3.3380857580880137,2.6247929168257373,2.2598158654934566,2.0396601799214857,1.6824942661981723,1.5629036781932981,1.3256051421956792,1.12980227396721,0.9489122950127615,0.6811491804974211,0.4800597260793949,0.3224703879615819,0.19654357790293744,7.267666049687548,6.1485480835317015,5.479625387844121,4.409268655058469,4.369572880499354,3.992137469314144,3.334964790541078,3.0739496095859127,2.6531568644298784,2.506202417346633,1.9382760391294869,1.6483012473231387,1.2423669887156634,0.9703527005550981,0.6046688526880717
0.0,4.0,4.0,0.0,120.0,0.0,-1.5269040132219054,-12.562342824002098,-14.259638148260063,-107.50281670064254,0.0,-45.72904465879469,-1.9359603518935193,7.3897706109326435,-1.6649253420872467,34.23589759221103,17.60751837456324,6.250590957053214,3.9790228775694687,3.402982634147461,2.7614820267247717,2.250206880558359,1.943436643043881,1.869241501270701,1.510643366758839,1.3437315672628554,1.0533497494333814,0.8434036061189785,0.6750488583356029,0.4928925744312921,0.3104339474563685,0.16838613242445755,8.441304308104943,5.9318889250957865,4.981545883057264,5.325868763513402,4.058276147949438,3.4533568006391664,3.2647275021221156,3.1081600617253846,2.747787709729409,2.2731930756033827,2.1936497513800495,1.593975669606295,1.2001467137642667,0.9996914776545817,0.7049398691232028
0.0,5.0,5.0,0.0,120.0,0.0,2.917882261333123,3.8078667208918446,-12.982511056102542,-104.58754632045625,0.0,-44.80344259927122,-4.138668915683946,-0.916752061848964,4.241587666207636,34.23589759221103,17.60751837456324,5.635590490722096,3.8958770519559227,3.565683714014391,2.485625316723888,2.158010773297982,2.0825299731473317,1.7327333501908186,1.4895504087612892,1.3127942971896327,1.0609356341546514,0.7931742755862257,0.6861913829680698,0.4919790313147908,0.3112798689507443,0.18670777874850164,8.591581267610593,6.1255027551309595,5.331718534290841,4.782761708216103,4.402339558429201,3.9611826606341243,3.2761917915173946,3.040203332531086,2.4849504714140673,2.293106960522723,1.888594874958767,1.5260911247358868,1.3627733111588762,0.8994925720364958,0.6310168640125102
0.0,6.0,6.0,0.0,120.0,0.0,-1.2482557747461502,4.6020965635919495,5.381783204957021,-107.96050438163314,0.0,-44.645242306886786,-3.727825638718438,-3.465982364634799,3.623185468359024,34.23589759221103,17.60751837456324,5.998185329050181,4.472205098542773,3.4720965958890293,3.133483001242139,2.2546839051770573,1.965245184277366,1.7156346845710073,1.5757464219168578,1.2874746336109404,1.0350284577632536,0.7880928943711627,0.6353580928620763,0.48300184756774855,0.2932386202552957,0.1903696061128818,7.803359106712029,6.494659992657509,5.189800748876947,5.234128400201723,3.802082739586273,3.547556481474153,3.413274763229551,2.981261031903368,2.7278232641774913,2.2286143974401202,1.9282993085897484,1.5802763530491952,1.3329171452643402,0.9559884481521014,0.6673099656744701
0.0,7.0,7.0,0.0,120.0,0.0,7.835460015641594,3.6125952895436697,-1.389094663318641,-107.79311736270768,0.0,-44.383113445606725,-2.037540043878647,-5.345117414418863,-4.513097040244714,34.23589759221103,17.60751837456324,5.7103576447895925,4.413282598194034,3.4301016836646445,2.9284947146374023,2.455623249534039,1.8673708237341748,1.614669418133968,1.3673199681307084,1.212806340198523,0.9942233606538801,0.8230768884285977,0.6074692425333305,0.42880546835142413,0.3147138293862556,0.1656064880834307,7.892740122496102,6.113434153605042,5.611062076009465,4.997961767129788,3.9670143145514847,3.6407287746179127,3.231539472601019,2.7671820585839333,2.600284532750508,2.2752693847011507,1.939567043644207,1.535851693641171,1.219615647929022,0.8550696069859598,0.61925308749896
0.0,8.0,8.0,0.0,120.0,0.0,9.273255210020587,-13.845918367969084,1.0973763332616642,-109.28862004001454,0.0,-44.99137210108242,-2.2535417177667716,2.2892941295374865,-2.4635747574317723,34.23589759221103,17.60751837456324,6.0837982787533935,4.407666540798759,3.3226959987958615,2.739953928478169,2.2249176790265577,1.8747002194095912,1.6505441570786152,1.2638652019718786,1.186498656874387,0.9999509337210163,0.7467330611890244,0.651217881862995,0.4319298528120664,0.317637474329845,0.1645540995751245,7.3908230260487935,6.325007827679419,4.967588700755925,4.716805490597593,4.017041287298016,3.692050538031252,3.258352970134217,2.770304982719806,2.3821168583199412,2.3902953479612443,1.7909500243830125,1.4435858360121399,1.1277076155434635,0.946458956767714,0.6052892650494409
0.0,9.0,9.0,0.0,120.0,0.0,-2.3311696234844455,22.63745057584925,11.900138791210264,-106.74851558497846,0.0,-44.472995791545344,-4.037753241835181,-9.338508170489888,-0.5386448734079803,34.23589759221103,17.60751837456324,5.709737939849342,4.258508005252868,3.363210480782032,2.6235919270083707,2.2548095794571013,1.9150427003880872,1.6445942662774444,1.4084456403870322,1.182109690273829,0.8745774384026745,0.835107678882189,0.5929686557717135,0.4330507783699913,0.30323627164187084,0.19336665686796486,7.921331459633505,6.406191380516182,5.269697272790329,4.669537359476319,3.800522953671128,3.342317063863544,2.956001016091345,2.7561309520968638,2.604430638262341,2.504468910999771,1.8490415648107277,1.3953957877133487,1.2495712733361,0.8674296151975498,0.5922351665020567
0.0,10.0,10.0,0.0,120.0,0.0,5.834500761653292,-2.6437310691186333,14.71016842190113,-109.01640662779975,0.0,-44.54621808736431,1.4779555434877516,-9.687878711063435,-3.953721112575259,34.23589759221103,17.60751837456324,6.010335085048883,3.9763360090844633,3.441250444866753,2.696519609839341,2.1585933475661623,1.815665055729751,1.5334366461628974,1.3217221209026522,1.1446095380433106,0.9579091052832069,0.7088050602797559,0.5258592906325921,0.40787597573663203,0.25141871764095863,0.17089472693106553,8.14072271465602,6.475235783853305,5.157340407454764,4.458598567440433,4.011237421038471,3.3555479352825563,2.995249457592102,2.8093757931378436,2.307981658243585,2.0775189668807914,1.725997316946442,1.3938491688942902,1.1041700034245068,0.8980698438648339,0.6070939180551115
0.0,11.0,11.0,0.0,120.0,0.0,0.5778983950580887,17.32043362355639,-8.493090468045782,-107.5394546333745,0.0,-46.829740411004536,-7.770851697200007,-1.4240855500352438,-1.5152401096650294,34.23589759221103,17.60751837456324,5.699961921246791,4.200993274408786,3.1289670419103066,2.603503138223509,2.355900622829748,1.739670285430982,1.5467114065372651,1.2825176250437682,1.1187072362270514,0.9453238544749314,0.6885169118088958,0.555521329980288,0.4367849836347116,0.2574664278986235,0.15854914172548457,7.672234659326534,6.383913847798618,5.596996692182772,4.954213263069346,4.023506077565248,3.3736839999486756,3.183575351705382,2.773604121570052,2.2047833830036847,2.3460627686159876,1.9239197827506915,1.4337908715957857,1.1576257776414742,0.9130675766594872,0.5915935366180476
0.0,12.0,12.0,0.0,120.0,0.0,1.3608912218786458,9.973963765875219,4.892346093003024,-107.27567053456056,0.0,-44.96299427808985,-8.58261111125135,-8.638518520505595,2.4009752561768245,34.23589759221103,17.60751837456324,6.195015370337022,4.496352453575605,3.2414874853285034,2.61750661535486,2.204202498993067,1.7559137801311202,1.5244985390973156,1.2457357211063884,1.0552238619361252,0.7990968242477389,0.6700740959350093,0.5448987623005462,0.4103433307167988,0.2754913563990222,0.16177488773041968,7.702495429825321,6.382497217966394,5.486524576469697,4.9873694897148635,3.9357001419622963,3.0982719890557506,2.7592813095762594,2.8322429566981038,2.202825153962306,2.1223377875278575,1.7113478781712401,1.4090418123940631,1.1095992599290065,0.8948222479683033,0.5828393028912767
0.0,13.0,13.0,0.0,120.0,0.0,8.51193276585322,-10.128152457243317,-7.10032869788548,-107.7097279658469,0.0,-44.232097592267294,-6.157732519418353,-4.961180235078142,1.8051448114282582,34.23589759221103,17.60751837456324,5.98097039778142,3.9438638746736387,3.4573523562668536,2.7685545171411308,2.114465005224234,1.8054960875961406,1.4268298651438873,1.2413514326518127,1.1319788360097807,0.7991178603264645,0.6790063427421175,0.5721845452436387,0.4040399856838457,0.27262345554370737,0.17231111364707768,7.953072460855834,6.8452406162703445,5.58047704670927,4.718313552744085,3.9223521732330378,3.3438803857411847,2.733804843861091,2.68577712891047,2.2832642205985323,2.190860269042256,1.697605357170616,1.4267729405594733,1.1130028258555316,0.8019780587421805,0.6118949142550293
0.0,14.0,14.0,0.0,120.0,0.0,-8.579278836042262,15.68989098512386,-14.38047001602814,-105.26112732254549,0.0,-44.410120179265476,2.2143745740734966,-5.576781693078323,1.2238442856600482,34.23589759221103,17.60751837456324,6.5777531668030065,4.278673141985419,3.3774170327511603,2.647574996909377,1.8767157869350024,1.644171149846917,1.4085224834903547,1.2564994815276964,1.0676897284864628,0.8288946553619375,0.6690156470109258,0.5506019866641949,0.3710559652363072,0.246889700621862,0.17716948287934167,8.248353567734044,6.3492509496960565,5.325944382095443,4.196267872550005,3.992641587627496,3.132218548327851,2.5775177812444605,2.7434221877482456,2.330727504208036,1.8578884540705736,1.5715111990992716,1.433871936564329,1.0329184422421807,0.8714155269771829,0.5920553883523704
0.0,15.0,15.0,0.0,120.0,0.0,-8.257414005969185,-5.174712957650769,7.751359615084244,-106.0056056086845,0.0,-45.36385880997079,-1.6619363000163463,-4.9361761255429615,2.1052840272234565,34.23589759221103,17.60751837456324,6.181285101399104,4.3794160682210395,3.4694778412014133,2.8147461379817034,2.0138446071649376,1.6406239790154022,1.4121543609725749,1.196639074142527,0.9313686582983215,0.8048135046898757,0.6715361089006843,0.49551037471018167,0.4052121625678406,0.24390774606017074,0.15272629712702676,8.160042767222404,6.463043558081349,5.461398679817061,4.494359456914311,3.925436225988535,3.418975945841171,2.8853796017742908,2.400469360688273,2.4107531573492342,1.7948146433341976,1.5134011352015648,1.4158037503306535,1.0764062663170038,0.781290130490076,0.5317749263821162
0.0,16.0,16.0,0.0,120.0,0.0,-9.595632051193485,19.05515985555808,-5.399485475325964,-105.68086312369843,0.0,-45.80562650753937,-2.9073138717240328,-7.378895375694845,-2.9507631304029824,34.23589759221103,17.60751837456324,6.734704095195491,4.328260977094637,3.5364153912647343,2.7396838980211866,2.09429011243556,1.653778710565472,1.3806516437243448,1.1134057857139357,0.9531570783115132,0.7330688548426365,0.6201151104896631,0.5027306812046252,0.38124333121215126,0.25571474360853624,0.14753459632561763,7.376279610670992,5.486946078790026,5.831708534866069,4.53930266975343,3.7713523479856716,3.243485740125322,2.5822896313017583,2.413111797652296,2.399797513350373,1.9499901117938063,1.6455414362937029,1.2207614855332503,1.1673981769043187,0.7336400302797559,0.6156415585011763
0.0,17.0,17.0,0.0,120.0,0.0,6.65239691095876,4.063643631792935,-3.4960831748430614,-107.88241881854992,0.0,-46.11831192432163,2.86198514391897,-9.759275542046915,-1.583018851352679,34.23589759221103,17.60751837456324,5.40827027528072,4.617167725017721,3.7320201471784116,2.5869124759641897,2.0829824591791444,1.63188972819432,1.249620635510091,1.026047784323635,0.8799062864253825,0.8085668594088293,0.6287275585079839,0.46900774970052966,0.3716341777907612,0.24927433970032292,0.13919176486587087,7.4158165944478815,6.5541376914903395,5.377858875602896,4.707371366263684,4.154908529407249,3.2775200072294823,2.622016062594195,2.435244800976528,2.037709379505988,2.019586420741174,1.5432206359835816,1.3188933303238017,1.0467689833709568,0.7870847332700913,0.4918254995862832
0.0,18.0,18.0,0.0,120.0,0.0,5.563135018997009,19.086768092742638,2.649513406608172,-105.87140593548543,0.0,-45.13105401154141,6.807224605449177,-7.690314057225038,1.7624248227746282,34.23589759221103,17.60751837456324,5.623937673321669,4.226276545034882,3.5155549982915644,2.682492761958508,1.9334389459965844,1.460935370955124,1.251068908251381,1.0560306838525912,0.9452730540399347,0.7543323416010044,0.6365635054565189,0.4575940126363876,0.338624559545072,0.2303871950520282,0.1362490584515481,8.153118160590084,6.140764714549661,5.3946430010782205,4.674490359800175,3.5955330770479415,3.1222618080699673,2.608238303401379,2.3302036656688445,2.09693271970016,1.7616438052639827,1.543630043750805,1.3687777227362183,1.0129107870392753,0.815076398307687,0.5530701941659006
0.0,19.0,19.0,0.0,120.0,0.0,7.400242964936382,9.626579503888294,9.931453657085711,-106.50399905365603,0.0,-43.866920120440284,3.1616374432655436,2.3696051902549584,3.7923476303132713,34.23589759221103,17.60751837456324,6.312466673159948,4.166707350992439,3.4865661366029026,2.722592351272926,1.9618828828989026,1.4847310047409268,1.157232978565431,1.1377090735162563,0.8536193499640289,0.8017106855646429,0.587250294081894,0.4403711399480168,0.3493579188779122,0.22123476139696863,0.15203930120293496,7.789981364652731,6.5698857657284,5.282994812150352,4.895414800830699,3.9354432581474716,3.0076093106389243,3.0249821180900525,2.4020667306933885,2.3054871980384615,1.9493469815946773,1.5196850291824355,1.2358004884269793,0.9776527707472374,0.6853926791409273,0.5153679203187352
0.0,20.0,20.0,0.0,120.0,0.0,9.572366844655281,11.262713990982029,3.8694553077344622,-106.22859405132316,0.0,-46.9518041014816,-3.6273769501811026,9.485124256361004,0.436780538280952,34.23589759221103,17.60751837456324,6.166636465297785,4.67737540604744,3.34196035615681,2.8280799201104405,1.8913136712470524,1.4866682257027573,1.199728292349143,1.0522888617426702,0.8979569583362432,0.7680030236423521,0.6126613121392027,0.4585130655203684,0.33746226043991123,0.2526770464361123,0.13492331517353104,8.24535471239505,5.8482583150331395,5.6793076238361415,4.5945854532612245,3.8395830419074617,3.2973647477813794,2.660261196809145,2.4043150288607333,2.1829459719974826,1.8076177051919322,1.5976179549015685,1.2208787704807895,0.9822961902344705,0.7263768535509462,0.5585983558176465
0.0,21.0,21.0,0.0,120.0,0.0,5.983171284334471,0.06621909633511436,11.179519663421857,-105.97056117121723,0.0,-45.659891729729495,-1.1552288419403958,9.806900031217879,-2.173003490544634,34.23589759221103,17.60751837456324,6.232294210025625,4.245306242397646,3.511902860949873,2.854231261704133,2.00996351107077,1.4436796333956836,1.213888350409819,0.9068455466003077,0.8905133173918636,0.6980304285809104,0.560214676669227,0.4641528083519333,0.2957204069877021,0.25378700465829707,0.1329023811424843,7.74539314521323,6.773391495202571,5.77533483110994,5.29645960181827,3.7973140148370015,3.0979723339898184,2.414227383541432,2.228659371814284,1.9255843286493597,1.7031394162279891,1.3519839419190205,1.3243638598255272,0.8970001667769509,0.6279377130833736,0.487718630038228
0.0,22.0,22.0,0.0,120.0,0.0,-0.7704127549413631,22.804181736161198,-6.793738955530927,-107.90876324595905,0.0,-46.139802455426775,-2.746616480545509,-1.8189180925387678,-4.697647419940174,34.23589759221103,17.60751837456324,5.935245091632432,4.115164288461886,3.6854957966683615,2.698317354555261,2.0129322663076805,1.548555816170534,1.201711960234959,1.036543334950669,0.7882094713349895,0.67695913608824,0.581744499940538,0.37053909298305354,0.28920079810528726,0.22631751646763792,0.13051854809551586,8.34248104100798,6.719723404670016,5.255114212477335,4.8232550557228375,4.06891799880837,3.124313163720172,2.452390479206918,2.3309336144853283,2.0277897023122535,1.7599358094781308,1.5108087164330735,1.0182049651971152,0.9956040671272159,0.7940865769221531,0.527031077582869
0.0,23.0,23.0,0.0,120.0,0.0,5.610583525729108,7.199509961481873,8.941405017376912,-107.4243176209779,0.0,-44.2150424787595,-0.03234697964200972,-6.740911479067893,2.103368289742134,34.23589759221103,17.60751837456324,6.193684358735332,4.529655496276407,3.560980139038089,2.811109641909351,2.0078620573603083,1.4314307350089337,1.1046879389232234,0.9159129427523807,0.7586096083161716,0.6424270313014125,0.6011131459748795,0.44127523692964915,0.29749089285692426,0.20807911605194696,0.13606979208965242,7.723175812867073,6.494184479609524,5.821030596172315,4.728288680176896,3.903556224938904,3.224890608430681,2.516747264436175,2.230728760906478,1.9025262000939112,1.6817980673689843,1.4101010312418165,1.1500669383583197,0.9461682661420777,0.736141289254985,0.5120709061396014
0.0,24.0,24.0,0.0,120.0,0.0,-7.634511482621336,-3.807247572091015,-9.430921670821434,-106.13740398867155,0.0,-45.554309626571296,-3.8558617762891636,2.7752351473305854,-4.9211589649155965,34.23589759221103,17.60751837456324,6.302346529211034,4.225456276132415,3.2983328994945995,2.7844084357902346,2.0753421799425387,1.4811464465133855,1.223936084420488,0.9888767717661643,0.9093291561323784,0.6579421540948249,0.5071592161156262,0.3963984988941315,0.29242337469083035,0.21753478960337602,0.10367953954085632,8.528319923025567,6.408655502847748,5.546333055469456,4.490268689509408,3.818947395516495,3.0775311187613763,2.510387273829155,2.2043508262065634,1.8447431555167333,1.581206565015524,1.4490900767067956,1.168741026920603,0.9327928946982317,0.7438727398427082,0.47318194024205884
0.0,25.0,25.0,0.0,120.0,0.0,2.798420426550477,5.319660706396217,13.583749709158337,-109.65561909297493,0.0,-45.470637658154786,-6.816341968863283,-0.1938930690252576,-1.273209301790045,34.23589759221103,17.60751837456324,5.899559287599975,4.674933527530054,3.257032180966041,2.5532710685687894,2.0873628720909307,1.4844656512965109,1.133273298312467,0.9205105090424966,0.7810955157598203,0.6465312982444155,0.5629871363146723,0.39568291379040216,0.2939487391776267,0.23382329978522598,0.13035736329289882,8.911192594145119,6.4660953993945975,6.013459869727872,4.362723962659559,3.8733267406577623,2.821316165226315,2.6076876740448296,2.006399484541258,1.897365457392854,1.605431487943212,1.305316903727868,1.0497948358020714,0.8853679352447439,0.7582487766684518,0.48686209787149176
0.0,26.0,26.0,0.0,120.0,0.0,-7.132934251819072,-24.040340084533323,5.624648291634458,-105.48667191742679,0.0,-45.216949569936645,6.595593153815074,9.78819554568863,0.30537214562781756,34.23589759221103,17.60751837456324,6.46120538809492,4.396015811175189,3.6818157759204793,2.4874702039629253,1.9637904415303906,1.5272432353956342,1.1010096343782314,0.9017534884780937,0.7450758387795726,0.6736583354238793,0.5208159500537607,0.39723434908079913,0.30284984109319324,0.21125235429808922,0.13056884100483113,8.65324228626662,6.494448408211324,5.719415586530192,4.61377562519393,3.8762496278711325,3.2987498996767126,2.398793265955958,1.9870460091563245,1.9333457190378753,1.5898048285940092,1.3706635421108668,1.1234928501293786,0.8991919533754527,0.7154344175001053,0.46582633605598234
0.0,27.0,27.0,0.0,120.0,0.0,8.893378340991678,-9.921259166272534,-8.534769686593247,-106.44686793579241,0.0,-44.554606749105204,-1.6682219513737793,-8.693915856964395,4.22111461767193,34.23589759221103,17.60751837456324,5.87863583699516,4.437916580465524,3.2507473930291555,2.5552688157556194,2.1930180885031474,1.504198742976161,1.0937410655061601,0.9442167418233237,0.704599803538937,0.6100257816627579,0.5182331096502248,0.40780306455017606,0.29443097429312065,0.15990602477055846,0.11294262843248074,8.239208355431371,6.411641379462929,6.372105155756371,4.9992266217367725,3.959232148412513,2.8768136142051084,2.453174587356442,2.1039965805534027,1.9149691985254795,1.6458381782203955,1.4121545197679368,1.0559841715305354,0.9463644385043505,0.6258352150120206,0.46787136964470966
0.0,28.0,28.0,0.0,120.0,0.0,0.43696643500143395,8.008676874634254,13.421117714667727,-107.04570396066023,0.0,-45.39238899814964,-2.2452896958638315,5.664688766276262,-4.105054549670999,34.23589759221103,17.60751837456324,6.340289538628448,4.396378050205586,3.3651011440581193,2.6369306651637525,1.8491983179974236,1.479830196251642,1.1488470734027265,0.8653863389442504,0.713392453090554,0.5587588327396561,0.5146700553331721,0.4285084964074382,0.2468159500683437,0.17873920198321924,0.11462404439474792,7.834993046067489,6.616036023621404,6.123632514778081,5.029889318620526,3.9583189913211587,2.9303207993949525,2.3005151232757344,1.969226419632905,1.9230884636898116,1.5453200456868277,1.2902205511951363,1.080585419199331,0.9058121715405438,0.6193366423197038,0.5133795464897277
0.0,29.0,29.0,0.0,120.0,0.0,-1.7067612001895291,-10.496119639477797,6.925674203104734,-106.77949234424283,0.0,-48.04614305479993,4.1559465992456435,-4.232030053370122,-0.940576780317163,34.23589759221103,17.60751837456324,6.269652151640592,4.392024673601079,3.6309659049720326,2.7865751934401417,1.9719520186936013,1.4159069769790271,1.0178775917305272,0.882045662291539,0.6928263390589585,0.5625419815128978,0.4835957274820568,0.40044982648222577,0.2728406400419863,0.18203468290215422,0.1266389679581879,8.860471224303014,6.079129713821364,5.78697914110675,4.847986030841929,4.0864483309446,3.185835114071773,2.3962696445472167,1.853567649167388,1.8280028543394022,1.4608299672837461,1.2365144293535988,1.1367997505415686,0.8154254730501251,0.7049892600158363,0.47869820668523516
0.0,30.0,30.0,0.0,120.0,0.0,-4.70888775790746,5.900771449942077,-7.381750722149225,-108.02993528330897,0.0,-44.45668810861248,-2.444692681013628,-5.17162759846852,-4.756868002898422,34.23589759221103,17.60751837456324,6.3349471059235425,4.519077526774612,3.2682712354000607,2.51631995340572,2.0301814956643374,1.4694013999494588,1.0564604069294803,0.8012610811581578,0.6980213526715412,0.5772305212639918,0.443738408023718,0.38540357249654117,0.23770295584102163,0.19629481008215616,0.12432682765686412,8.501974588250917,6.238530402940352,5.71962875462527,5.332027418868539,3.9958600362827505,3.04570894531051,2.4666454282446937,2.0087450309917125,1.9212056869412428,1.5755954491044093,1.2726644832767686,1.070689054777574,0.8259743295176069,0.6886080963441913,0.42754860941813017
0.0,31.0,31.0,0.0,120.0,0.0,5.484673788684333,-3.5615649527116915,-8.600640678975541,-107.34994336458911,0.0,-44.560957042327956,5.021259688571217,3.2500914306535194,-1.5738901565840968,34.23589759221103,17.60751837456324,5.74803608718069,4.786902561471756,3.9539819340589797,2.833813974610575,2.0218649483612836,1.4705035654924392,1.0052094657588462,0.8287461199107774,0.6838200033345025,0.5861865539596374,0.41858740065372446,0.34524443014500367,0.2776612187489185,0.1741679501885478,0.10455639288935231,8.936698186029286,6.595035787119856,5.537856368702904,4.411661165150343,4.015354393885859,3.1329067983213577,2.349693579049638,1.8663153914183341,1.7021516711578755,1.4147060000581697,1.197717692180446,1.0351796496105596,0.7852695251107109,0.6464560141387348,0.47363311461922614
0.0,32.0,32.0,0.0,120.0,0.0,-0.876993355669029,-18.226296788877487,0.5460214179198974,-105.89971566177962,0.0,-45.21954102833121,-7.811911516776451,-5.078736300180711,1.2223105883979493,34.23589759221103,17.60751837456324,6.001147230902248,4.1652692543312,3.857203755031043,2.644134455962744,1.9460105797423677,1.4339549144864119,1.0596738094709572,0.7958935058970601,0.6842797441787914,0.5425995766206733,0.42415949648596557,0.3783199891556892,0.3006573818023205,0.20549004737198637,0.11722223049030925,8.868665149958076,6.7133685500879245,5.578831897990647,4.943409901767556,3.8620824212870626,2.874997179244219,2.263584008320368,2.0316896750194235,1.522766377276385,1.498479027022364,1.1355258868597224,0.9132916724725502,0.7401924916080596,0.6951426364384188,0.4473005008422913
0.0,33.0,33.0,0.0,120.0,0.0,1.3686789773729693,-10.085883702198462,-14.230118458364053,-105.70197802767377,0.0,-46.08403662067194,-2.029778230900966,3.317182351183753,-2.2093205177140165,34.23589759221103,17.60751837456324,6.305991291457292,4.80053996753442,3.7535870406830267,2.587199093584768,2.103699932717326,1.4280194274782372,0.9995112417483846,0.7934837051821491,0.6984289652318395,0.5165105412692647,0.448929351587315,0.3411305574118966,0.22198350793598906,0.16577649155765256,0.11595678366368117,8.66695523779444,6.940547595240549,5.898708436739972,4.643720447155705,4.23803255088094,3.054815812170471,2.2376066715375895,1.9129442145799698,1.729841201168995,1.4319554216772756,1.273728490929062,1.0660707387031614,0.8231296430542875,0.5922398777745682,0.44999074759046975
0.0,34.0,34.0,0.0,120.0,0.0,-9.624203991272896,3.498245535063244,-8.775897736766717,-104.30377594743642,0.0,-44.64821988931864,1.5883726774570361,0.34617034404577574,-2.9025005034436493,34.23589759221103,17.60751837456324,6.30750964837126,4.910746236001358,3.301284115367276,2.768875328902278,1.959187247252198,1.4355585152130783,0.8813766642012502,0.8242128915034855,0.6410740477287327,0.4775861174260303,0.42084145254173155,0.34663349773414254,0.22083935756065404,0.174223582182328,0.09811277754155062,7.927142677753676,6.631692615658042,5.792387382392888,4.7376073861570855,3.947706132149066,3.1450122465452535,2.3111910435667142,2.047256042835653,1.7518636665117275,1.3787298600134759,1.1608152695839644,0.908752357832852,0.789345860390157,0.6002356853715388,0.46036178362084057
0.0,35.0,35.0,0.0,120.0,0.0,2.352709941517542,4.543638062408661,-2.2594359374548123,-107.07392466628042,0.0,-44.62076446646441,5.228262520965156,-1.5182202312830135,-3.8429676667290638,34.23589759221103,17.60751837456324,5.831353584069611,4.440482619345386,3.7773662793900944,2.691737729990165,1.9441476632600967,1.3056569983509776,1.1321270846317644,0.7361251851378744,0.5841457130617309,0.4967736579548785,0.401980984406655,0.3220425623179665,0.25667340390426163,0.16674629242277234,0.09802715114558143,7.575929624950949,6.643434692002127,5.764042781714681,5.23518951452039,3.9199571239378557,3.0057175542545207,2.209237535095133,1.8602842499170964,1.5729517975349885,1.3617690097584947,1.1235089298406618,1.005612210762504,0.7772361774053839,0.5972966941269475,0.3933083881928996
0.0,36.0,36.0,0.0,120.0,0.0,2.2419144544484286,3.716262442478939,-3.7749005899732335,-107.658552966805,0.0,-45.47003288270088,-3.184835613752898,1.09375617322838,0.7714024402034179,34.23589759221103,17.60751837456324,6.478481822306382,4.623542815300547,3.45907993121877,2.939627279072137,1.8860228619449564,1.4052262446586494,0.9755186634141259,0.701776882551998,0.6212449233968491,0.5561030940106901,0.41326171346947005,0.31161504150155156,0.24556779103365478,0.16942701352128642,0.10831315481094225,8.00977098038758,7.122522934274515,5.895472943838655,4.744208115645462,3.8883343942812654,2.9087632853706413,2.250704471920502,1.8097782836059864,1.4955218027281565,1.420653839847101,1.145826982980343,0.9912708768807142,0.7447617466740891,0.5936432969503899,0.412753905687291
0.0,37.0,37.0,0.0,120.0,0.0,2.3386799374951384,7.660040992856679,-1.0927372690556787,-107.51423396594,0.0,-45.21673147057554,-3.0498003430852574,-4.258969601607405,1.95270005904686,34.23589759221103,17.60751837456324,6.565048345498978,4.467704115310505,3.4867214559339637,2.5757597407392554,2.0567998945286017,1.35468656513587,0.9804698902016802,0.7227865009142724,0.6336484818908535,0.5128402876891746,0.41341896919443877,0.3022472804767675,0.24121457420622458,0.189130546103965,0.095672576920544,8.26961641642808,6.11297801855243,6.180058685353893,4.786468559008206,4.070782836908424,2.7607610794303157,2.520720019061325,1.8184887918039212,1.6081337064847205,1.3565887810587607,1.1304084045470069,1.0317119404707014,0.6951782642483527,0.5969396321314908,0.44674391057539625
0.0,38.0,38.0,0.0,120.0,0.0,8.874961570292484,7.605163500084444,-6.671138811158043,-108.01804187528737,0.0,-45.930156502524326,1.3214227543400665,4.131494125459579,1.7195714059582237,34.23589759221103,17.60751837456324,6.341953155821401,4.5076167818912865,3.6016709706524668,2.6400985087650115,2.0362751928705194,1.4403491668365613,0.9772793267741248,0.7202189764462752,0.5756149830195008,0.4800300563667113,0.42337113599936815,0.2678255666760223,0.2297450736901291,0.15734305051174582,0.12281526862670482,8.236664698757474,7.171868564182279,5.172678856751985,5.006873897870506,3.9802001760970405,3.2341313473840057,2.1131183402113547,1.8199783700877354,1.5493576711601749,1.292921672733493,1.1979836497325942,0.9189350056236543,0.8295424896080372,0.6124702597964241,0.44225848788456157
0.0,39.0,39.0,0.0,120.0,0.0,3.636405982069668,-3.4290782283013037,2.6035303937450642,-107.07785475594085,0.0,-45.178589092087336,0.1625732658185175,-1.702862613328719,4.488610207205074,34.23589759221103,17.60751837456324,6.544164888719311,4.302889783205368,3.5574250419932314,2.90081030176189,2.1056434744198342,1.49597365427314,0.9437789560571673,0.6874427936394529,0.606602087916087,0.4560427866766658,0.4061275212619471,0.3244439592643922,0.23204290156732724,0.1540636007836615,0.10328126340984853,8.47302102886446,6.692472704097322,6.437663028169158,4.661573454468057,3.735642616891024,2.8770867851250714,2.2270711818142175,1.618086446191669,1.475562160936866,1.2634388189274355,1.1154312193813922,0.9412235086708038,0.6911087007325072,0.5995755748450797,0.45705625330566313
0.0,40.0,40.0,0.0,120.0,0.0,-2.80984198852428,19.82732979255315,10.915668177696944,-106.61726756998773,0.0,-46.55042934508349,-4.542587455736199,-2.789088790282155,-4.972967861064973,34.23589759221103,17.60751837456324,6.314133448898618,4.914443348085455,3.680628411589409,3.108178739262407,2.1548771268591698,1.2914594781326278,0.9616356151783388,0.7490715037259937,0.5698200966373573,0.4667542343662791,0.4066629203750016,0.28239382958782433,0.22072222295435293,0.1607211211528349,0.09691610070609091,8.235299153936497,6.962037577625328,5.937413326169111,4.716291699649484,3.7233240036791195,2.9079018425255687,2.2880248393371185,1.787377044498599,1.4413068444865562,1.2486250543577324,1.009375607574148,0.9273768054333681,0.727103540735209,0.5258509038026755,0.40997507477436756
0.0,41.0,41.0,0.0,120.0,0.0,-1.259360924013171,-6.621906497605174,-11.474044321139008,-107.03424228053196,0.0,-44.58268117896816,-5.753178934921145,6.573138291114756,1.47196653894036,34.23589759221103,17.60751837456324,6.82484422600928,4.396736772435637,3.8932968946927153,2.7866940984234483,2.0645914106677044,1.409419930542278,1.023767357780787,0.7058890267732613,0.523866720008067,0.4246337966243332,0.3374031185395412,0.2581606667637523,0.21699816128367985,0.14023560185509715,0.09846006630868123,7.967658543439482,6.456277792499377,5.6832310754009,5.09916259210765,4.133259400412628,3.0869549348908407,2.1679866010168243,1.8449042778727862,1.5375773859254558,1.2868952157506643,1.0448300485883595,0.9272440512925669,0.7343065190141651,0.46288097062742634,0.4192962758415683
0.0,42.0,42.0,0.0,120.0,0.0,3.9526239185452976,-3.2067537367186603,0.5213732146234253,-105.9036531543342,0.0,-45.94436849082429,-2.1759469850860005,8.499338239063842,1.0039223709763956,34.23589759221103,17.60751837456324,5.796153435626647,4.728378432082462,3.6327143490198037,3.0090784700097895,2.0382697144196227,1.3396569078992633,0.9424655309794574,0.7294100719621582,0.5489327683116242,0.44613019972731593,0.37927887831702733,0.28791598693752307,0.2121037070821735,0.16951411248512419,0.11727074607974618,8.52698652409228,6.6319889819363596,6.272173140977074,5.228397845729484,4.100222994902196,2.848794039593801,2.2918752183842774,1.7062670412519434,1.4557822764063406,1.2663507536924021,1.0676291177639576,0.8598391914670475,0.7556771629218159,0.498871429216197,0.4162257708159604
0.0,43.0,43.0,0.0,120.0,0.0,-8.795490567414603,19.596167750783607,-11.0379568096454,-107.23421580134453,0.0,-44.761896852167695,-2.090940644356654,-9.079853782254062,0.8873960997028814,34.23589759221103,17.60751837456324,5.8274984572766115,4.674691846265384,3.5062697008145634,2.9708828924747492,2.0615274543622686,1.4207479902944145,0.8953454641712525,0.6585272000882498,0.5443980389192807,0.4545497295707617,0.41800718968039496,0.28251133875602413,0.2233394805956047,0.12685245929548772,0.07975693282643373,8.140545753015363,6.337379501620294,6.281686820841743,4.8448690914205015,4.240575738884843,3.2638139625027067,2.2756791943417376,1.8038173814469658,1.4458886430091127,1.267212172739117,1.0725142901185871,0.863153096930722,0.7169655428065704,0.5928665275889479,0.41085189137086736
0.0,44.0,44.0,0.0,120.0,0.0,3.335334308913353,15.309699452304287,6.505790435777811,-107.34745065249857,0.0,-46.405962916267896,3.526307279090827,-5.34746014340469,4.627703198402424,34.23589759221103,17.60751837456324,6.544201114955134,4.62603905285455,3.4910573919795898,2.7049775670813445,2.0903346348066405,1.3064732694813326,0.9033841455453862,0.7193781962553856,0.5840464464535131,0.3906828886940621,0.38280845375770767,0.26927399089102866,0.20410123215852172,0.14398559556894935,0.10818301043828754,7.6349686887085975,6.90829144788852,5.581498722263728,5.098357930683011,4.281462384976205,3.041217780545798,2.30907894100791,1.7826826498872275,1.3750015027373284,1.3097792239329105,1.1215408517451706,0.8872944286267722,0.6913650398704105,0.5215785765139571,0.3756563799511832
0.0,45.0,45.0,0.0,120.0,0.0,3.412757392363188,10.194429177018314,-3.118208915781187,-107.58126847686032,0.0,-45.590057645869535,0.5669096436498249,-3.0296126101487353,-4.831283266299603,34.23589759221103,17.60751837456324,7.006378481806365,4.934085630555272,3.6742009862905998,2.6318337591942527,1.7675273970544587,1.3277289243068866,0.9302230313721764,0.7152177922103373,0.5012306775456699,0.4350992672426462,0.36873509007989363,0.2700002680981764,0.19836586112473,0.1253007254195275,0.07836996476386744,8.49039543672582,6.69902914581957,5.906104327181279,4.9552582915189385,4.1152113962318895,2.9256503894351433,2.224582924553663,1.9005206772970948,1.3592420970929069,1.1822702003958687,0.9857738029786004,0.8633724781037914,0.715834957978068,0.5136985656541156,0.3754780955216453
0.0,46.0,46.0,0.0,120.0,0.0,-5.792348778523182,-19.988655634384944,1.9626393557552682,-108.6326345262345,0.0,-45.110489405065934,2.2953543714352707,6.299329587404948,1.964824307014501,34.23589759221103,17.60751837456324,6.378388936153543,4.74080657652854,3.5574389566464215,2.8107519167443806,1.8190610146853559,1.3075983461503533,0.9275551028565426,0.689728105983493,0.519213046014579,0.38872713572781287,0.3067055963720529,0.26560006753988163,0.17184463306014314,0.15485771971804188,0.09257591855171227,7.662067189714616,6.4522587991606475,5.668527319016059,4.7846171443184025,3.6933040312337657,2.9161714204738534,2.181888344433287,1.661509445911886,1.4808728033838832,1.189438868054388,0.9508527961017965,0.8174596961004734,0.6387069024400629,0.5126372477387734,0.3999985896865793
0.0,47.0,47.0,0.0,120.0,0.0,-7.421474046902934,20.974130687233675,-9.50160491357764,-108.56776772430845,0.0,-46.660699811869264,-2.0108631525047973,9.70982855286595,3.136786497018635,34.23589759221103,17.60751837456324,6.565262190997613,5.1584391600851465,3.772328266615073,2.7396138042203844,2.1542866355678134,1.4843966074617931,0.9821557530346852,0.6135748495655063,0.4984008341815575,0.4332565146786414,0.2948007424060307,0.24888935724950986,0.17180457944076474,0.12560364182933945,0.07785353880691714,8.86862233085479,6.713012970774537,5.638652029944302,4.728903015141449,4.0278893456634055,3.052914704987438,2.409488015189981,1.7559197309946466,1.2850255494448783,1.1297899846526716,1.041876805526765,0.7936648599255034,0.7213361942599958,0.48350326545654787,0.38862669658616206
0.0,48.0,48.0,0.0,120.0,0.0,-3.691432981516323,10.712064977455569,-10.654567219698682,-108.17915793063769,0.0,-44.88485212685991,3.621854624013478,9.379434093407035,0.09807196621584158,34.23589759221103,17.60751837456324,6.218217784095158,4.520961383364384,3.915144974812427,2.8592521574855736,2.1592834320612666,1.4427324766447098,0.9629127984051018,0.6142873684097022,0.4882838369879389,0.4088777443211546,0.30535662940268743,0.2803774527633439,0.17809942102082155,0.13171992751013606,0.07653221427477992,7.464744901051806,7.4172885457784705,5.844374032994988,4.885530918733094,3.9680206798131645,3.2773337752927096,2.145582577448465,1.7611194269592334,1.3414250375693972,1.1166550987136803,1.0020257048641539,0.8500863310477412,0.6339273246442068,0.4863876106538413,0.3460271510403846
0.0,49.0,49.0,0.0,120.0,0.0,-2.725784581147548,24.942350328393324,-0.3583115805313639,-105.69857192833524,0.0,-45.37914756287992,5.070201686980976,8.098966910998538,-1.6603513040319084,34.23589759221103,17.60751837456324,6.8725927884068,4.515921271514783,3.3747145643372694,3.087950166143522,1.9356007504565804,1.4663633217427974,0.9331391299643884,0.6481297022438907,0.4707533922717892,0.3999234538574214,0.2833438111227226,0.2576947978500624,0.20921873110365086,0.14512938457076247,0.06272505539131504,7.963323842913611,6.754180345882242,6.060364081288369,4.980947941043217,3.917092180841454,3.1560777946536747,2.3852197924817204,1.6735360681468265,1.4068783294555962,0.9870602113552764,0.913730661987165,0.7839022347618667,0.6261734203202876,0.5104708112665692,0.38911144664718095
0.0,50.0,50.0,0.0,120.0,0.0,1.4039354083575937,-17.527584767100315,-4.331617864501332,-106.10473972711007,0.0,-46.74235619780923,-0.13037059858171207,-4.068874698719402,2.9084016322740496,34.23589759221103,17.60751837456324,6.693316049779712,4.51517916036737,3.443206222138244,2.971133696764703,1.890692155807507,1.4592445333071613,0.9132425640860572,0.5928545615345024,0.4865411539667539,0.38429663067547715,0.30911581689394574,0.2416662451299688,0.1889880877292023,0.14334010024648391,0.09224619175039743,8.814920923082644,6.815861874397772,6.407685037052409,5.1611818748436535,3.9150935610918167,2.9014836053435062,2.275549363930115,1.57356096634133,1.2767950472404304,1.1355620778769187,0.9170228555814224,0.7479057971595497,0.6330146568917644,0.49687748976959006,0.3584247555199173
0.0,51.0,51.0,0.0,120.0,0.0,-1.2279697307535926,18.406302868410712,13.212958357584391,-105.62503593360701,0.0,-46.30324275411232,-3.1164322428936106,9.840224868289482,-4.027570743675754,34.23589759221103,17.60751837456324,6.419110305726475,4.8707059562307,3.7999544530099336,2.864316543279611,2.346617132207311,1.4283917371827266,0.9739633861722279,0.6080692486247684,0.435901804025112,0.35982770003131503,0.29879380121399296,0.230277890076492,0.19900061377966302,0.12731887203801598,0.0904649605986576,8.385112226927077,6.695182715469515,5.950326664461998,5.4591192066125105,3.8779415204305194,3.1935206830570095,2.1354549054733063,1.637562029399056,1.3302527476898751,1.1260103868896685,1.0048348178067041,0.7732080777864261,0.597555007746221,0.5061475010835108,0.35083682221948054
0.0,52.0,52.0,0.0,120.0,0.0,9.767476761184525,-16.875353266181257,7.959757614208957,-108.3322116545945,0.0,-44.39487991591783,-2.2627105761068247,-5.011599178870975,-0.5796436227007469,34.23589759221103,17.60751837456324,6.635881584952429,4.654164463155945,3.3796719998261913,2.977178448163384,2.1537116165646077,1.4830927611263784,1.0038757445568953,0.5819150711454281,0.4780406768970482,0.37938657003738085,0.2902422895625577,0.2405363221290312,0.18353463956551347,0.1107469006865228,0.08651226388449018,8.032539908632298,6.632670925073074,5.421977634922612,4.918410963310891,4.000202529553815,3.165724450080401,2.2513676496368324,1.5389236269301148,1.3750651757515724,1.0869888379101595,0.9439153584657571,0.8031084066437979,0.66415335972407,0.5348028073007963,0.3528751832932239
0.0,53.0,53.0,0.0,120.0,0.0,-7.959103785039439,5.77797821419221,7.459908595516421,-108.96862468978603,0.0,-44.104444014448674,-0.5532249536261984,-7.881876902355356,0.19952374570838227,34.23589759221103,17.60751837456324,6.674787259271498,4.438658730039314,3.9520614187760037,2.736636298559789,1.9064307217612726,1.478485599694133,0.8925833794353915,0.6421088770517386,0.4683912312320866,0.3287719941194332,0.24194750072026058,0.21186662399102182,0.1733881024658604,0.10863637447319255,0.07426083354823981,7.818119952064992,6.927245574845482,5.988806726328253,4.9261009856824085,4.333080141786245,3.3182056755983163,2.315308932552094,1.5107801725727503,1.2321191826527145,1.1025285446406758,0.878778725502003,0.7348884977186299,0.638359755471552,0.48984150813136773,0.37779160503102616
0.0,54.0,54.0,0.0,120.0,0.0,-5.822464878103306,-18.809000857527924,12.111592192378005,-107.66005632013409,0.0,-45.131908639779965,3.3492860129399817,9.01905222110788,1.9395641093454756,34.23589759221103,17.60751837456324,6.445961426971659,5.0262239110540605,3.656432149604579,3.1352190483462117,2.1125275507460306,1.3591760725819537,0.8390709186981933,0.602010544105095,0.4449979775757086,0.3756022013131165,0.28499417269797117,0.21845713270379408,0.1854495739780241,0.11957563310089973,0.07394108160547802,8.690764474426004,6.712816746579506,6.16989645828543,4.9065366860161275,4.012740611032378,3.115778636708863,2.2094420400678993,1.6540382374289913,1.3472847702480026,1.0892610480523799,0.9182064959069184,0.719087008566101,0.6284801054042936,0.4878779690855824,0.36707572724918425
0.0,55.0,55.0,0.0,120.0,0.0,-6.773809642300074,17.40041146611172,-12.497326936739444,-106.82418104670397,0.0,-44.59523818795951,1.5860417620492306,-5.331594890638074,-4.091142679675905,34.23589759221103,17.60751837456324,6.362446365204457,4.672358702687915,3.888761439480539,2.8330655232213537,2.08191197296313,1.5623346846950545,1.007246074993663,0.6477396957523286,0.4687978202547569,0.3297631223215439,0.2910014232531845,0.21553380575558506,0.15203021820775603,0.11385927854685647,0.08111647463655523,8.230667521760717,6.704027988720288,6.221417214010159,5.104075029679614,4.113883054358397,3.1153990688686344,2.176048662781786,1.5349831089791222,1.3028049852935917,1.0266775363953642,0.792154725729885,0.7186593737487033,0.5584030312218055,0.48257664635495184,0.3529640241035676
0.0,56.0,56.0,0.0,120.0,0.0,3.0621665093079677,15.365947936250535,1.5657740976721968,-106.50130972509018,0.0,-44.77615643668709,-4.031107144201003,3.795365301555009,-2.7224049846213907,34.23589759221103,17.60751837456324,6.781873766391768,4.566358247156955,3.9158943369255783,2.97561684970001,2.0668825806450646,1.3932171024765092,0.9565374123537905,0.5880904932705541,0.44686524872356187,0.3665047557785464,0.3107936430642517,0.2434885700504921,0.17681382313551874,0.0990082256987178,0.07013841897926122,8.244328271334274,7.4777005333278,5.785685217302265,5.175508150651544,4.095188452463578,2.9584102927063953,2.2968602388511665,1.6765212326668204,1.1907438513757522,1.106759451343294,0.7781507271366939,0.7014444776747123,0.6159206365210863,0.428098142948536,0.34543945574244594
0.0,57.0,57.0,0.0,120.0,0.0,-4.934167949204358,3.4550369307296656,2.5342820686730647,-105.95202784403195,0.0,-44.670377017872255,-4.756154151066655,-8.832872820388227,-0.8969843730987437,34.23589759221103,17.60751837456324,6.202232445622064,4.712143846606021,3.347016634997867,2.811006340826732,1.9507946930816453,1.399416666503984,0.8943699507231596,0.5779167608949669,0.45320456693016914,0.3210421711505851,0.2826991107509956,0.2387614493027483,0.16317533949176025,0.10545616573122847,0.062173562311726126,8.189602628480634,7.162904153072601,6.053429367055328,5.325711605217662,4.24035000731615,3.1318681443503316,2.3086277529098203,1.7917797416094554,1.3524337188866702,1.0134541591686128,0.9048514721061482,0.7361639250176002,0.6130556111806633,0.4700689922258544,0.31464876095325717
0.0,58.0,58.0,0.0,120.0,0.0,-0.6737845428738751,-4.640835138700016,13.858091356416871,-106.71572032919278,0.0,-43.71401599291971,1.2257855830454583,4.614181982549523,1.2329467302013066,34.23589759221103,17.60751837456324,6.108778337180935,4.88078343425573,4.155719448795192,2.8269725960811534,2.0993849338738864,1.3560065375077353,0.9690692856568203,0.5223519312372193,0.37317509910652275,0.34109390090372393,0.2650412099289349,0.20192587469411566,0.1542096095771565,0.1214587335082636,0.0711254513899561,8.038716307567116,6.609884393199556,6.285313513166941,4.96310254065287,3.807248307326502,3.1319091509694825,2.3138576123130687,1.7432201332758268,1.2657392021291796,0.9832229706958477,0.870400226931764,0.7316370251472712,0.5690441784357015,0.4463056620597634,0.33581938767552066
0.0,59.0,59.0,0.0,120.0,0.0,-5.111488159967945,-21.541650227243096,-6.235574196223535,-105.25733121934437,0.0,-46.50699839821428,3.3208407127718473,7.6344042466767945,3.8696078121741753,34.23589759221103,17.60751837456324,6.639230143918943,4.81491006319703,3.6078100404022817,2.777683371931909,2.0346470822464013,1.4803238354535242,0.9256133443556758,0.6256718410873796,0.4184174902683101,0.30508753793855486,0.2815976261194135,0.20531073815929637,0.17344622290315878,0.12033460127035209,0.10139637809044638,8.426019652944744,7.2567899229674815,6.297849872463546,4.96482952223341,4.063832138883109,2.893232614117797,2.0826558930146617,1.6397172330770304,1.2926062022680482,1.0391054731502656,0.8533445142377122,0.7269715766811625,0.5449560268874698,0.4351451759219684,0.34155094940241115
0.0,60.0,60.0,0.0,120.0,0.0,-6.820608327089605,9.871438657228182,-7.7751366025365956,-107.22260568094832,0.0,-44.32353926763838,-3.9991504879055073,-4.5512620906807495,1.1882616824137653,34.23589759221103,17.60751837456324,6.822319190777377,4.715832946100732,4.062905734617441,2.7627046363609837,2.072959186322739,1.4157719938634183,0.9518669574444594,0.5895876394142531,0.38781024044439677,0.33279452204957055,0.27572831241125045,0.21321159107775162,0.161494418340863,0.08696523007148607,0.063002267594614,8.73972981190793,6.937198322007827,6.197983971120012,4.792149524942271,4.094746323326485,2.9101910111058786,2.038589976186879,1.6496800259561912,1.2864175133389733,1.0076031628339075,0.8264064784193069,0.6297220748913192,0.5858900144008846,0.4354390490910351,0.3619515298468591
0.0,61.0,61.0,0.0,120.0,0.0,-7.792497176713898,-2.3228658660965564,-11.991181732035066,-107.91307921804179,0.0,-45.38200895557782,2.8916808851067053,-2.418862078451429,-3.6653852906506557,34.23589759221103,17.60751837456324,7.008282704099858,4.297160905536488,3.9635660605058334,2.753132021147524,2.0515309621601534,1.4208353840279684,0.909123468826481,0.5991501953539904,0.38889905969371685,0.2948912318754595,0.26267137754212655,0.19811067358079093,0.15271239071526463,0.08117625760986127,0.0706091410386464,8.167368853730697,6.647729585021573,6.330266435887668,4.8450107435987535,3.890280649020326,3.082285295905273,2.314056625680669,1.5494819127965895,1.301917363895424,1.0575304906162868,0.7799055866033008,0.6685072411544265,0.5253943840592874,0.39004565645330547,0.32543246310882407
0.0,62.0,62.0,0.0,120.0,0.0,3.1265917893054684,11.102779973517393,-14.507111112255775,-108.68121821549443,0.0,-45.22425893425164,0.8518918630389611,-2.514076333581679,4.805801327872825,34.23589759221103,17.60751837456324,6.9541229644149665,5.26934243333886,3.6554180850192326,3.1656384270164923,2.281804955535225,1.4563086891384387,0.9421956927320658,0.6113533083757527,0.4547006188278476,0.32165520439780293,0.24696093182789206,0.18175813627993018,0.15190838462137538,0.12024730293802882,0.07459429965270648,8.228432366777133,7.012146668581431,6.022997869201063,5.203824613766823,3.7804483494967824,3.2271926351346356,2.3331363994989642,1.6550948667816756,1.2166240744516772,0.8834471675684955,0.8062364900762221,0.7059599662593484,0.5162712477046582,0.37785275736130314,0.2858051277081797
0.0,63.0,63.0,0.0,120.0,0.0,-7.236340973027724,18.31911629643146,12.885879503765715,-107.88897135809545,0.0,-45.302249730455074,-1.2982377443874609,4.975765150802662,3.7178573475549292,34.23589759221103,17.60751837456324,6.82875942560274,4.887421537600803,4.006100103660941,2.9649420040099224,1.9804224982108094,1.3847908855204067,0.9528207042515859,0.5858806533180886,0.4191455855398579,0.3158602838193669,0.2402107727269134,0.18875900883142382,0.1704357255919013,0.11077997694306725,0.06904313260234755,8.772048997599438,7.071355343693369,5.417622056198221,5.312814715961813,4.5084469703547425,3.023581207978337,2.4337623459149476,1.594961539729414,1.2271439330906762,1.016630190515709,0.7671440158862256,0.703250350536306,0.4993850724158808,0.39986032556679807,0.3008382338721117
0.0,64.0,64.0,0.0,120.0,0.0,-6.06835276639893,23.776075250144288,5.097496397727301,-106.75788203901487,0.0,-45.37514711666128,0.2162829921106879,-5.243855149219224,0.027207611453240688,34.23589759221103,17.60751837456324,6.961541718262438,4.726474545158141,3.5514932306408493,2.9471800755347584,2.061892250469766,1.501058952366623,0.8985635282349137,0.5814192002970128,0.3904863226274969,0.3110383693514212,0.23637121256537003,0.1928260406928869,0.10770693202298934,0.10507009842157869,0.07450165485012346,8.505256883267016,7.240282758987983,6.309034215281732,5.491492735516998,4.161457990195103,2.850384736508687,2.0100524578589622,1.4829250980630329,1.1993665950603598,0.9460385351956865,0.7985046432212393,0.6297955383768591,0.506775844687406,0.428954329525946,0.32147225640279
0.0,65.0,65.0,0.0,120.0,0.0,-2.6254965867807183,17.790167119630553,8.554587360694132,-107.88872025735364,0.0,-46.22619619178302,-2.410117501465482,-6.56293801904714,4.22347981796633,34.23589759221103,17.60751837456324,6.6669214601709035,4.809907987973975,3.9305412013240693,3.061403719140939,2.027311177436806,1.3974821272577675,0.8573139258164472,0.5613830161446318,0.41438763932010975,0.3084976278941744,0.21725235960743097,0.19226900424752802,0.14149062566818266,0.09597805789651472,0.05166915922718554,8.529833200317997,7.256684994285631,5.435462715316751,5.062177112764248,4.615966658144341,3.2656292508798814,2.303571704850443,1.5513029696119747,1.1533867296954594,0.9401441252918256,0.8425509433708214,0.6589787961122945,0.49651682632679606,0.43848328268767794,0.29982908214614085
0.0,66.0,66.0,0.0,120.0,0.0,6.419864596958703,-24.4142957907499,-6.548096827381528,-106.06325753646473,0.0,-44.8166608007424,0.14290102272594707,-1.0141670262452394,0.4138079375713577,34.23589759221103,17.60751837456324,7.343729274188242,4.692884439251517,3.666867478354621,3.0184411365108486,2.2620218946658297,1.5294850620704468,0.9236246225794091,0.544613802179298,0.3804822508516463,0.25616907547286577,0.2164107376638909,0.17890930963652388,0.14318104794973163,0.0962992292579017,0.06681958366229827,8.448452621680792,7.2943658212632005,5.83139482567538,5.391001760040877,4.5637911553618,3.2403524630222607,2.2167088490513045,1.5658474254661954,1.2611462028936251,0.880693807752435,0.7299533927003146,0.5956302501444755,0.4788200878942774,0.3815402088793405,0.31701507492248115
0.0,67.0,67.0,0.0,120.0,0.0,-8.057974484138775,-7.0010967760818055,2.592304985589802,-105.58767229396256,0.0,-43.329056967211145,1.7877218320551185,-3.9106318524536103,4.233060678891631,34.23589759221103,17.60751837456324,7.158394140710369,4.671662289935041,3.9094338704624705,3.112742150703121,2.17097321592163,1.3856686480666014,0.8474390898289925,0.6046688871461037,0.3994771307579662,0.3001558888547035,0.2094854043214475,0.18180497070924154,0.14404443422148144,0.1028778925453569,0.05760958949278839,9.07053303540943,6.504273876849702,6.40126587337625,5.46408988604544,4.491513215334867,3.1171042979723693,2.165769400189922,1.6723410185970682,1.1395243672029964,0.9280368877510724,0.7464247507801216,0.5968347995059101,0.5174165688419644,0.36891847808217065,0.30985264562677794
0.0,68.0,68.0,0.0,120.0,0.0,6.758898149976076,11.4995281212029,-13.081342016370566,-109.36958690522661,0.0,-45.056133020448755,5.868960523754922,6.783782445173049,3.298973686033431,34.23589759221103,17.60751837456324,6.470712220655652,4.4307456681942226,3.867894359868151,3.0699817513374414,2.2273374553358654,1.5193712701108135,0.8065028632115774,0.5409071533426854,0.38717557837334904,0.31315718046952307,0.2361220949527552,0.2027863683487811,0.126430432856189,0.10080850287353879,0.05241082569905058,8.472667903528546,6.795196451182953,5.933517277850845,5.090854407153591,4.172178349540865,3.1813241616823555,2.3460513536339596,1.617937076482786,1.1549811102505456,0.892533084795114,0.7379966148552882,0.6042827973712339,0.5157368736666429,0.4161586403082218,0.3192431754472793
0.0,69.0,69.0,0.0,120.0,0.0,-8.078031842120739,-16.418516136927973,-0.43117212196131227,-106.13594769950235,0.0,-45.001385042735095,3.221583805561882,-5.245163479687225,4.682864102942974,34.23589759221103,17.60751837456324,6.543067264004575,4.976222627706609,3.6145481597481663,3.0676433709152837,2.287113725852588,1.4507772565702488,0.9696230143513204,0.5354363666400787,0.36167022851996894,0.27886181464701054,0.23609846623172154,0.1663529017113639,0.12518783444176518,0.08352251720612017,0.06699908367384544,9.201810382116161,7.314613905346942,6.352755045799591,5.148687122964198,4.061616687795781,3.2921069819253,2.283515838337219,1.5914659938975129,1.2234276460796376,0.8995446564772099,0.7087709625430997,0.641102944498395,0.49821653340621286,0.3681357225957337,0.27150328301764415
0.0,70.0,70.0,0.0,120.0,0.0,9.529189300267916,1.0518303102064657,14.324854192333405,-109.23960405866174,0.0,-45.68729903715666,0.8591643286602448,0.04778914978522941,4.197828107781584,34.23589759221103,17.60751837456324,6.863080333913359,5.442836239339629,3.817771903427752,2.9667623501273854,2.340048511155852,1.460513068322323,0.851230460817921,0.5208892235037583,0.405407438315555,0.2894341671111024,0.22926314403730455,0.16859828407324187,0.1194482870525797,0.09165443388339092,0.06526207707794916,8.312038254328936,7.277917832116486,5.762054728208512,5.125217628738222,4.1446092938493395,3.0797166965683727,2.036899744490103,1.6410598843520705,1.1196433090030355,0.9622692257392815,0.719581656512525,0.5863825251126585,0.49242044674253427,0.41078476580817974,0.27859143756064836
0.0,71.0,71.0,0.0,120.0,0.0,-0.6269759670459685,-22.283100583037317,11.295157359497725,-106.59850094490972,0.0,-45.11747454641811,-3.5583269539152464,8.851671993958607,-4.639661825714305,34.23589759221103,17.60751837456324,7.193485204919727,5.235550157177047,4.096373934462123,3.270624365513175,2.319565641595553,1.5802012045130092,0.9971646733782186,0.5743665298112258,0.36580676984826,0.2332776721281431,0.19202066996275324,0.16021177242804227,0.12188647773726972,0.09098224563664724,0.050816855518491404,7.9963248529961275,7.0450552125257095,6.102069789676754,5.01040111010563,4.039326692983361,3.0457918672893323,2.2487497397254166,1.5348231116571818,1.2338530951890885,0.9038805858486604,0.6874020430263564,0.5875027968574819,0.45237258869441005,0.4051419146265501,0.31121289534043645
0.0,72.0,72.0,0.0,120.0,0.0,9.535221763806742,-15.000173755179997,-4.855231444894631,-105.77512943580635,0.0,-44.533833573965964,1.4258718236398389,2.6799539548932145,-3.2522799583906004,34.23589759221103,17.60751837456324,7.291223041552342,4.613815191480959,3.893312251133378,2.96933696585572,2.244167058819995,1.3956028606181001,0.8901012723274101,0.5543315057993959,0.37572231755244445,0.2823369372355408,0.20417706060082966,0.17313715815898453,0.135551109448678,0.08879401819443833,0.04701351468218949,8.19414296381177,7.313672890609347,6.024216385695861,4.782471769344579,4.332062389188605,3.2234339193376784,2.1358696639378167,1.6994231684805938,1.2038434271051957,0.8914881228750011,0.6682492783535966,0.5448644109853847,0.46997946250691985,0.3402148171486454,0.2901211484375144
0.0,73.0,73.0,0.0,120.0,0.0,2.0969103949009202,-24.0739102769693,13.847104636244957,-106.93514389365643,0.0,-45.370242440704345,-1.0061196762698534,7.345788109249295,-1.1086532289881426,34.23589759221103,17.60751837456324,6.391616668504119,4.9455134571608035,3.8630360250766547,3.1450959200374013,2.0838526634036314,1.493957845552423,0.8571042968076631,0.5903640882829084,0.3671354413121959,0.2752393698097912,0.18557877164844236,0.16804669615738524,0.12676402372328388,0.09449223409805634,0.0646381858025089,8.633748950786835,7.5573850229449775,6.13382947734746,5.04633962247845,4.19847109357691,3.055930218954877,2.2484042579706744,1.5894019617410917,1.1278230507924982,0.8868156327060202,0.7806043438538534,0.5999340281453452,0.5005175125764441,0.36269697277246954,0.2690739780586064
0.0,74.0,74.0,0.0,120.0,0.0,4.785271587966033,14.68488516787103,-8.048951205863865,-108.27968917320425,0.0,-45.453804041051995,3.0189036148678614,8.804193787095347,4.521426972954208,34.23589759221103,17.60751837456324,6.762174255440913,5.12568176596187,3.505406543182385,2.8854262346889064,2.2027310519518633,1.459744348986964,1.0185139913673542,0.5789395842475856,0.3527085805524013,0.23557937955708447,0.19746503246971045,0.1402162755103052,0.12683962125917417,0.09060099758528639,0.06384935573755943,9.6402879341175,6.804072080632408,6.133202384631971,4.930979827191649,4.201600018511843,3.471765415868918,2.371881653011892,1.5945672933901724,1.160532881157053,0.8161331260082939,0.6858711254961504,0.5777191063919405,0.4692838800083686,0.3361517802584586,0.2825722650065051
