Line_number,Fiducial,Easting,Northing,Height,Elevation,tx_pitch,tx_roll,tx_yaw,txrx_dx,txrx_dy,txrx_dz,rx_pitch,rx_roll,rx_yaw,PX,PZ,S0X_time_1.086e-05,S0X_time_3.256e-05,S0X_time_5.426e-05,S0X_time_8.680e-05,S0X_time_1.411e-04,S0X_time_2.279e-04,S0X_time_3.689e-04,S0X_time_5.860e-04,S0X_time_9.115e-04,S0X_time_1.411e-03,S0X_time_2.192e-03,S0X_time_3.418e-03,S0X_time_5.339e-03,S0X_time_8.301e-03,S0X_time_1.338e-02,S0Z_time_1.086e-05,S0Z_time_3.256e-05,S0Z_time_5.426e-05,S0Z_time_8.680e-05,S0Z_time_1.411e-04,S0Z_time_2.279e-04,S0Z_time_3.689e-04,S0Z_time_5.860e-04,S0Z_time_9.115e-04,S0Z_time_1.411e-03,S0Z_time_2.192e-03,S0Z_time_3.418e-03,S0Z_time_5.339e-03,S0Z_time_8.301e-03,S0Z_time_1.338e-02
0.0,0.0,0.0,0.0,120.0,0.0,0.0,0.0,0.0,-107.0,0.0,-45.0,0.0,0.0,0.0,34.27253218749016,17.55503396713325,5.81791632917486,3.33460217006107,2.2769133781657356,1.4447194982653886,0.9457293274047108,0.5266206664201941,0.28104776236707796,0.08435481844715667,0.049523611426124034,0.03257205621359813,0.011365928621213127,-0.025102817369675685,-0.008659642262761703,-0.004559244426943021,-0.06638065371413285,8.134954256103244,5.784485306507733,4.510163372181328,3.3681141865501996,2.375464289867935,1.601013119793482,1.0165478077171346,0.6747058402546113,0.39117167280209364,0.28191924613884634,0.13870221586623005,0.06895838144620685,0.003663995925810376,0.007030825597604595,0.049823638352945704
0.0,1.0,1.0,0.0,120.0,0.0,0.0,0.0,0.0,-107.0,0.0,-45.0,0.0,0.0,0.0,34.27253218749016,17.55503396713325,5.910185487168059,3.3373059940825205,2.2596882760973895,1.476942783141326,0.8471343637857931,0.5197491919171578,0.24824288299104583,0.10404432135872332,0.08127804689274608,0.03467953722656742,-0.03659921305433264,0.024738072655799196,-0.0015318986698523813,0.049412144352450095,-0.027038093566248412,8.11705811262616,5.750417297613506,4.503443215199357,3.34671130919517,2.332674449454669,1.5571036611594,0.9970454647931801,0.6538231403930695,0.4026719128881578,0.25379328351914754,0.14917829814666592,0.09399437392370547,0.047604518751577674,0.020406539387770588,-0.015717028551664684
0.0,2.0,2.0,0.0,120.0,0.0,0.0,0.0,0.0,-107.0,0.0,-45.0,0.0,0.0,0.0,34.27253218749016,17.55503396713325,5.877936181040233,3.403738642025107,2.261863746646821,1.4090843076344473,0.8390636725925492,0.5084156290667292,0.25865302608426705,0.14822365510825597,0.04867245737302682,0.07865108369315452,0.04640714185126074,-0.015746406997547778,-0.018056664983385227,-0.029793246789093127,0.050648284783538756,8.079541161815303,5.73659845320282,4.437341120490016,3.267952625406066,2.24384978505886,1.4959410957995007,0.9870618638662729,0.687780501394418,0.37982146944489187,0.254751446245997,0.15712948682612585,0.07050913138153589,0.037403527759072075,0.02017168662452348,0.015823139918591658
0.0,3.0,3.0,0.0,120.0,0.0,0.0,0.0,0.0,-107.0,0.0,-45.0,0.0,0.0,0.0,34.27253218749016,17.55503396713325,5.896299112154564,3.2649913471804326,2.2649165597055774,1.490306170571253,0.8047238250282929,0.4724365707758584,0.2625759380093349,0.11642819017668965,0.10317563870070942,0.061969260286382534,0.07157538811651054,0.01578529877626572,0.11280601234106469,0.004397794524320464,-0.007147450499610311,8.121206767386271,5.758167407045862,4.445418859968812,3.277560242513108,2.2462411336221813,1.47355555644319,0.9705344987806349,0.6057607346056585,0.38367501931224723,0.2137649866323522,0.14531644179107758,0.09087279153459671,0.030137760023856146,0.02733346709814776,0.004541837912217194
0.0,4.0,4.0,0.0,120.0,0.0,0.0,0.0,0.0,-107.0,0.0,-45.0,0.0,0.0,0.0,34.27253218749016,17.55503396713325,5.873773642426176,3.300115309673393,2.179652151818978,1.337071698018931,0.8024990698926311,0.389838606100268,0.23979605348702004,0.1599433334898641,0.042052099342789445,0.08371032588625178,-0.0006948391881046491,-0.0015141210250823323,0.0009648609128541054,0.013872244625770478,0.011495397532735355,8.146409140022216,5.738950200703799,4.468393754832983,3.235111190751378,2.167264892299155,1.4690914620904116,0.946727064081917,0.6722752345435419,0.37051402338407197,0.25534709932526606,0.14911145765875483,0.054718628994557594,0.03661272767061915,0.0022800077078022826,0.028625214286006003
0.0,5.0,5.0,0.0,120.0,0.0,0.0,0.0,0.0,-107.0,0.0,-45.0,0.0,0.0,0.0,34.27253218749016,17.55503396713325,5.769861625354662,3.2789463448790515,2.1625340298087505,1.3133098257717681,0.7711581471786466,0.41099858212857887,0.2805396116086447,0.08369425137872881,0.08366944785034457,0.018251508236464403,-0.015920629882669998,0.01571021172772795,-0.0006926761264405799,0.06092643530888426,-0.04445438590585435,8.132473104403756,5.762347179715757,4.4248386564770135,3.243591155937153,2.1695033908930688,1.4152975738962617,0.938118888069581,0.575229254284589,0.33705602312368355,0.2689644396452904,0.1269449948278674,0.10826515580675612,0.033465519440040024,0.04339751201955837,0.0027449924153126366
0.0,6.0,6.0,0.0,120.0,0.0,0.0,0.0,0.0,-107.0,0.0,-45.0,0.0,0.0,0.0,34.27253218749016,17.55503396713325,5.9320599647797225,3.348544440950482,2.271160361729034,1.3637944465898568,0.6973444944965507,0.34394036119179594,0.2516565772533395,0.13416598751323697,0.05221732637593545,0.09337319760926999,-0.046062519981184144,-0.002266275838141629,-0.006216784457847475,-0.016001100164798575,0.0044589813225441475,8.13645671712968,5.744483818667293,4.3981345176205044,3.178278450707801,2.118876068712492,1.4146812784872247,0.9174396160578542,0.5654614591899815,0.33608632268367905,0.23988208314011963,0.1422310515985159,0.07818717461973718,0.06117953848765868,0.06096398728951828,-0.009571686541685664
0.0,7.0,7.0,0.0,120.0,0.0,0.0,0.0,0.0,-107.0,0.0,-45.0,0.0,0.0,0.0,34.27253218749016,17.55503396713325,6.013241218068295,3.2953351256101167,2.226040322950506,1.3147394273988835,0.7319927876726151,0.4010937182804139,0.1554385643483379,0.13445856593689245,0.03888407982294749,0.053370650727723214,0.03389683104586637,0.030336942727303508,-0.03646838791549717,-0.013464165578763112,-0.014140970994549923,8.144616973231058,5.724399845898408,4.3341412533698636,3.1497423754388794,2.083622968870055,1.3989091025871272,0.8580703321608194,0.5534556472481562,0.34316427121710935,0.24422025173900871,0.11543431442320648,0.07645114424223978,0.06468057572648458,0.051971549001318715,0.017251991230594396
0.0,8.0,8.0,0.0,120.0,0.0,0.0,0.0,0.0,-107.0,0.0,-45.0,0.0,0.0,0.0,34.27253218749016,17.55503396713325,5.893326907509847,3.3133810421298393,2.134422773436535,1.3045230838899822,0.7434090166010386,0.3460707099240523,0.22871713608174507,0.22359661320699786,0.05712052272175237,0.007065192657115648,0.018342117029974722,0.003914919729396564,0.03351368387811598,-0.034701314468570416,-0.02352929922725995,8.119778841045528,5.719509996505723,4.343688801226372,3.0758369102305236,2.09882905178031,1.3858107444372072,0.8668282406054671,0.5190531482292617,0.3463801693358774,0.1892950691655595,0.1233447317756499,0.07982000522285906,0.07119723732771302,0.00032000136371307733,0.005440361521148565
0.0,9.0,9.0,0.0,120.0,0.0,0.0,0.0,0.0,-107.0,0.0,-45.0,0.0,0.0,0.0,34.27253218749016,17.55503396713325,5.993209413415857,3.309335147656013,2.1796930800687555,1.3292948065921522,0.7042204494987038,0.36479467548273276,0.16467231061135665,0.09576286376972142,0.050936461961816004,0.028590036585330006,0.055934069090366495,-0.09967728463736095,-0.03794807818270701,0.0004334168023307119,0.010184906463082906,8.106609355155339,5.6842389796402255,4.34495543378406,3.103100691752932,2.049276576457674,1.305599637952222,0.855722639319931,0.4680405352994352,0.3479414798601255,0.23100159624935115,0.14490153740206985,0.059603927263649735,0.012630466155253876,0.011786862765523057,0.01279107955358598
0.0,10.0,10.0,0.0,120.0,0.0,0.0,0.0,0.0,-107.0,0.0,-45.0,0.0,0.0,0.0,34.27253218749016,17.55503396713325,5.840287852934019,3.301743515871505,2.1097292605639426,1.2865917184641211,0.6417454317465923,0.3540660440295737,0.15228756910760585,0.16232124685767613,0.08129208584181019,0.014904481594904491,0.006785757930079616,0.07558224278624512,0.028171024617798645,-0.012382352275647875,-0.03702035901217207,8.049269897771199,5.708911405817293,4.290442640648772,3.114175604632582,2.0300427244120085,1.2832508108285332,0.8175102966188994,0.520542665297335,0.31589889639146007,0.2040908109357569,0.15155751500064277,0.06281938774319985,0.009521188437134821,-0.0071120537181764455,0.009866733128302468
0.0,11.0,11.0,0.0,120.0,0.0,0.0,0.0,0.0,-107.0,0.0,-45.0,0.0,0.0,0.0,34.27253218749016,17.55503396713325,5.874834472885743,3.2603614697398875,2.053846454097359,1.2675851284903248,0.6721909735883814,0.39171748234784154,0.20708026495427884,0.06156746535438966,0.011700570347394815,0.08828834923955045,0.018105867567516882,0.0014119110938929542,-0.017487346144263272,-0.014200438730892249,0.0012226815450834057,8.15434846835076,5.729158170725101,4.274444465869633,3.095936323633045,1.9726667254015924,1.2850461604563952,0.7952913021425072,0.5301302472591144,0.3309770413429258,0.21109189017877786,0.13268863405794615,0.11531240017860572,0.05393463284997302,0.02952928585823969,0.02028502060152574
0.0,12.0,12.0,0.0,120.0,0.0,0.0,0.0,0.0,-107.0,0.0,-45.0,0.0,0.0,0.0,34.27253218749016,17.55503396713325,5.863038885787133,3.304978617294163,2.107883498894908,1.2345019046848473,0.6122700631276764,0.3165471159125475,0.2108920997264624,0.08855953398401696,0.0701914850404814,0.01637296284814279,-0.046130907565698626,0.0018827230291722464,-0.05482750891681926,0.023903366437368765,0.0875608965800309,8.125193302545965,5.711666192232068,4.272451416732418,2.9847715874145946,1.9710478492316814,1.223137484636246,0.7475133515694982,0.505644979819711,0.32506777306797413,0.1787128278332893,0.1221595607055326,0.040861402258303064,0.08862607720235871,0.023903626947228633,-0.001592509523686383
0.0,13.0,13.0,0.0,120.0,0.0,0.0,0.0,0.0,-107.0,0.0,-45.0,0.0,0.0,0.0,34.27253218749016,17.55503396713325,5.872999234048694,3.2830141095276777,2.1034515991860654,1.1890658333119908,0.6670455028339436,0.332735906021854,0.23462181004528015,0.09405623156726377,0.03994760388126591,0.011353936724795101,-0.017631070430487318,-0.044327828000692834,-0.04148673601097117,0.019340557310341774,-0.015997199685685762,8.06615248845916,5.636492278735687,4.2509474374033065,3.029918412285538,1.9649703487700343,1.1872872649130304,0.7561513401226034,0.4737084587398211,0.3083595083799343,0.21019583537734124,0.11602323326672226,0.07276491116103558,0.01105580837487168,0.010002681492394326,0.030433689898117657
0.0,14.0,14.0,0.0,120.0,0.0,0.0,0.0,0.0,-107.0,0.0,-45.0,0.0,0.0,0.0,34.27253218749016,17.55503396713325,5.8915621782423555,3.3059458833146755,2.0457972917724856,1.2038067231058798,0.6655852960720069,0.28253183081260375,0.12426456399244767,0.05013060462157855,0.09616276543423777,-0.002293965122892039,0.023825198513913813,0.05024183111213164,-0.056764175234103695,0.013223850392189774,0.00572100564945793,8.140005954310077,5.696266635607007,4.177727468834758,2.976308403688623,1.867113868620803,1.2559589889567997,0.7333533835289939,0.45170593658854685,0.27134638946534984,0.19443000872015553,0.09171841781782923,0.08352592480747201,0.036792332632567835,0.027655410936550513,-0.00959589171953204
0.0,15.0,15.0,0.0,120.0,0.0,0.0,0.0,0.0,-107.0,0.0,-45.0,0.0,0.0,0.0,34.27253218749016,17.55503396713325,5.9015986501254645,3.2523779020711254,2.0799518272137485,1.1336884814897947,0.6184221322509346,0.29900152046954753,0.1993335180597137,0.05268093802295213,0.050627126142257506,0.0032883998842342874,0.041490686221371566,0.010633263139564485,-0.06199235156414195,0.05449234007342523,0.07681287128988445,8.128703861396593,5.674748272017992,4.191231221698782,2.9464341023162257,1.916130237759196,1.2075560987674416,0.7294058017566541,0.46656584290070746,0.2898241201724646,0.18402128650490848,0.1259260603511669,0.062041710753122745,0.04994245959640738,0.031225045277157044,0.0238564983370713
0.0,16.0,16.0,0.0,120.0,0.0,0.0,0.0,0.0,-107.0,0.0,-45.0,0.0,0.0,0.0,34.27253218749016,17.55503396713325,5.922006935785317,3.2753737969193075,2.0346408992673006,1.1944503538432878,0.6182044614476336,0.2673519909689198,0.14194274838984453,0.12741802933194787,0.08062678000810454,-0.01307416926591742,0.047252247858651675,0.09620589579939533,0.050597375022263386,-0.01680542298608888,0.02369232861759715,8.054658566105648,5.601441058217217,4.140714816959594,2.8908330668714615,1.8533688665161507,1.1351025834946729,0.7353526646610034,0.41912339237381907,0.2981753047009781,0.19188590483821397,0.1196058641140452,0.0647309646646658,0.0482045675882056,-0.0026199724288288317,0.015341100154250095
0.0,17.0,17.0,0.0,120.0,0.0,0.0,0.0,0.0,-107.0,0.0,-45.0,0.0,0.0,0.0,34.27253218749016,17.55503396713325,5.882358552333338,3.223532912053691,2.0240198307408854,1.1608587613574746,0.6136987364785393,0.3226874510436008,0.1651449661017515,0.09383596465751494,0.01702235482032527,0.029747825936764883,0.022065773452283798,-0.0023644236666064515,0.05024444383499605,-0.05813293631233035,0.022650498960036333,8.103589060973686,5.634171876218578,4.193904971560471,2.907324490558784,1.8325362557413258,1.1593295985941572,0.6701794974930964,0.40526571532702177,0.2733855042711253,0.18671611474522556,0.12866478348193003,0.05278357045969047,0.036763442059867285,0.023697101116358966,-0.014866153947368111
0.0,18.0,18.0,0.0,120.0,0.0,0.0,0.0,0.0,-107.0,0.0,-45.0,0.0,0.0,0.0,34.27253218749016,17.55503396713325,5.869554062825536,3.2164613032131624,2.051442467433891,1.1766809496244697,0.5858642343135082,0.32368727347641346,0.19188402899304183,0.0874622087925069,0.028318447075337035,0.016703236571384852,0.0058917409124533,0.0425540131897268,0.014877172499592414,9.104160373916157e-05,0.055270877927499816,8.059180811515724,5.599012125541189,4.1760348733711945,2.8956410995352484,1.786601759437712,1.0953668353525925,0.6975249232565174,0.4547769351872044,0.27866568269527453,0.21118208158148846,0.09983548569604175,0.06849457611512007,0.02422042363696017,0.015238815630749997,0.011095141896455154
0.0,19.0,19.0,0.0,120.0,0.0,0.0,0.0,0.0,-107.0,0.0,-45.0,0.0,0.0,0.0,34.27253218749016,17.55503396713325,5.8896995821780935,3.228657269601952,1.9805604428873047,1.1607447049295307,0.6686739539218634,0.35434966098972037,0.14578951195440418,0.11649166625493623,0.11066924768403058,0.10020638863017334,0.055957922933865076,0.009119635810592542,0.015354952469395448,-0.008479497733189874,-0.03213147329555249,8.112978056701817,5.655119773344728,4.140062378576047,2.8410366647744643,1.8036144129108516,1.0533022536758179,0.6967841490344867,0.3989935480223934,0.2825018535109198,0.19035641138608927,0.09942612656268252,0.07393624880232347,0.04450154196058669,0.0642959391806903,0.004300295104295256
0.0,20.0,20.0,0.0,120.0,0.0,0.0,0.0,0.0,-107.0,0.0,-45.0,0.0,0.0,0.0,34.27253218749016,17.55503396713325,5.7999893186501605,3.180424207816779,2.02551289318686,1.1638522933709838,0.5792258964108162,0.2775957876291477,0.17464736282441873,0.11134745249143421,0.008739061082538253,0.047795691900223314,-0.014409516647881936,0.017804015617319105,-0.008668324479959919,0.01573891556157134,0.03228188755191943,8.106213917901057,5.680166045238154,4.087724021130488,2.8375261162478527,1.786809820622442,1.065346734150504,0.6419234546788438,0.42125107876934664,0.27181252794519345,0.13788647054912317,0.15697040464436196,0.09887099444233158,-0.00048019824928069443,-0.020639141218971053,-0.014903585964586049
0.0,21.0,21.0,0.0,120.0,0.0,0.0,0.0,0.0,-107.0,0.0,-45.0,0.0,0.0,0.0,34.27253218749016,17.55503396713325,5.866155009725367,3.1978730000065037,1.9759729380947708,1.1819155576627038,0.5563629569859497,0.28527359832646165,0.16863148840114164,0.08199908496074948,-0.0072892749990675285,0.03580219513389625,0.044697934444742016,-0.03523205927578077,0.023312346070387714,0.05568802852693372,-0.030238284029217615,8.092101616547216,5.5584732779049855,4.121278554330035,2.807186957812212,1.7381813168105011,1.068789186674415,0.6647375069663397,0.40687553083780775,0.27239828522630577,0.18744990239343262,0.10961141050394227,0.057967060787282775,0.004608414071485219,-0.041525682695656346,0.023860071904162065
0.0,22.0,22.0,0.0,120.0,0.0,0.0,0.0,0.0,-107.0,0.0,-45.0,0.0,0.0,0.0,34.27253218749016,17.55503396713325,5.870463515057041,3.194663404507121,1.96617713790547,1.0518592345077804,0.6092887272643847,0.3478678524494622,0.09903196023507711,0.06517927137054975,-0.0401197887653072,-0.006020667829734649,0.027386280752024077,0.028668743214186596,-0.01564642629302991,-0.025037702975060343,0.01718702033949331,8.095635174758167,5.547566956245917,4.083897010730274,2.7590482379855263,1.747056372405983,0.9984535740294487,0.6247630663170565,0.3741737170961682,0.2390295066814156,0.18297289973524739,0.1127834214591241,0.08851953305240869,0.028221591816241773,0.04623230343737059,0.011977680297505795
0.0,23.0,23.0,0.0,120.0,0.0,0.0,0.0,0.0,-107.0,0.0,-45.0,0.0,0.0,0.0,34.27253218749016,17.55503396713325,5.8392333095166515,3.1105115971688018,1.9801614370974545,1.1181122815732076,0.5876926946699417,0.2611515800218906,0.14241902260104283,0.07428674239605947,0.03350492232877692,0.05220415785485309,0.021774194145784003,0.0068235586252101904,-0.03149822030776718,0.023498254882179794,-0.011351659819694097,8.091412895492907,5.5759388714747535,4.109379984368086,2.798011218878524,1.6832158281570786,0.9973895229017745,0.6290646559169266,0.38355813969424674,0.2543293471190693,0.11625991982644601,0.09838134230460459,0.07295178175637096,0.02401561604335356,0.011548519300007476,0.015406688164583762
0.0,24.0,24.0,0.0,120.0,0.0,0.0,0.0,0.0,-107.0,0.0,-45.0,0.0,0.0,0.0,34.27253218749016,17.55503396713325,5.855686852569188,3.1660760544412847,1.9306725248268783,1.0882416279228428,0.5143006789401913,0.2909257642809405,0.15843229380658855,0.07512501047096148,0.0699090921007719,0.022741356156183355,0.003992598838276013,0.05256326700149846,0.0003788400894616673,0.040065694044990836,0.029133449139505097,8.114599306377674,5.5712827136023995,4.042534899437462,2.751969138435649,1.682262704078695,0.9929280859318412,0.6108757855356162,0.34927378153635363,0.2553577724981465,0.15569217241149935,0.08008237107603286,0.044968007862292686,-0.00115418376887131,0.01604110071057553,0.02784078687998118
0.0,25.0,25.0,0.0,120.0,0.0,0.0,0.0,0.0,-107.0,0.0,-45.0,0.0,0.0,0.0,34.27253218749016,17.55503396713325,5.818459231017777,3.0947797983609138,1.9730805641039093,1.0164629730418067,0.5316025926986705,0.27649065140732615,0.12915135921092166,0.04760128143740517,0.07753714195002198,-0.05941526863023515,0.00983739698917464,0.0020100513305353,0.006084613040008206,-0.026401442187995464,-0.0448254199833704,8.061735414527622,5.546195710045388,4.033988649994148,2.7100912615499095,1.6369549617065773,0.9570007109278313,0.5906192478954133,0.343932506296488,0.22795103687039217,0.14041352632756984,0.11455374985342334,0.08509769777702167,0.07309280280506175,0.04700138542884803,0.006054021022324692
0.0,26.0,26.0,0.0,120.0,0.0,0.0,0.0,0.0,-107.0,0.0,-45.0,0.0,0.0,0.0,34.27253218749016,17.55503396713325,5.8529415249079335,3.0694116653158994,1.8411616364662495,1.0796658310411136,0.5801617992763237,0.30835196435138745,0.07531783338904754,0.074463256973018,0.00764927816922939,0.026905268030636437,-0.00024427374058462806,0.010893633649209148,-0.01867203105170636,-0.0312881298995137,0.031031955765216824,8.085278912879208,5.520202372950838,4.008229512735063,2.6717362647722394,1.6245134718622658,0.9476860777701783,0.5681231994537668,0.36985542204053445,0.2014456378570672,0.16639122284846403,0.0877491786076566,0.07029447292056291,0.039900389039151406,0.04135453639493422,0.005622128446044073
0.0,27.0,27.0,0.0,120.0,0.0,0.0,0.0,0.0,-107.0,0.0,-45.0,0.0,0.0,0.0,34.27253218749016,17.55503396713325,5.811417957894932,3.154467412283864,1.9386419214765294,1.0396551418519084,0.48518792366222946,0.2665098773862113,0.10960944629856913,0.09906544740607946,0.08079476069395722,0.026361057364201745,0.047290674587312946,0.0429697972121262,0.031172658578204483,-0.053423271407248854,-0.0038629017170283522,8.093032441680535,5.505358828209088,3.963481660870137,2.659194234773473,1.6341600589764254,0.954177766392466,0.5612122743145432,0.3589943303454331,0.25485936081028027,0.1368478332913125,0.07905480085810308,0.08595662887543772,0.02606406248027717,0.06062702481667094,0.04277653211729231
0.0,28.0,28.0,0.0,120.0,0.0,0.0,0.0,0.0,-107.0,0.0,-45.0,0.0,0.0,0.0,34.27253218749016,17.55503396713325,5.7662411729538965,3.006443692017961,1.8360055562139848,1.0487801429136958,0.4875580265569113,0.19090670973419616,0.059647511180124825,0.09468402597081943,0.04851710455811452,0.020691537729546735,0.009979524612575274,-0.011860387561776518,0.07264454758534561,-0.0081538265616202,0.03033732465196673,8.08065183189565,5.483208867134572,3.970138477494049,2.6527484897633613,1.5963902015823643,0.9520648125477654,0.562901058347171,0.3735934696981928,0.26383896662766365,0.11165861320611845,0.07873981121776263,0.028061349721299245,0.00277607028898608,-0.0055791291702765415,0.011475217521926031
0.0,29.0,29.0,0.0,120.0,0.0,0.0,0.0,0.0,-107.0,0.0,-45.0,0.0,0.0,0.0,34.27253218749016,17.55503396713325,5.864035168264131,3.1290503001603533,1.873851747553018,1.0284439531359262,0.5004940123772105,0.2642809584603145,0.06181892077383413,0.011420929655038575,0.02870884148441918,0.0009267941973621768,0.032893766605519154,-0.045446308801123755,-0.03231784739066411,0.03859723441743423,0.05302749144332057,8.103440524594458,5.524744640553397,3.9743066557897193,2.6514004609556014,1.5478775466458843,0.8951391531268845,0.5299569945714521,0.3296704894354278,0.19901257409272186,0.11599100557128991,0.09026219082078948,0.0727497875262037,0.026922165803521178,0.011274265972876462,0.0001837732057806702
0.0,30.0,30.0,0.0,120.0,0.0,0.0,0.0,0.0,-107.0,0.0,-45.0,0.0,0.0,0.0,34.27253218749016,17.55503396713325,5.855395008409321,3.0704864998221986,1.7761943196055703,1.1071000944368914,0.49440168385935684,0.23696623774834472,0.1220125581516441,0.0758694650151677,0.041473418028238236,0.03446447552638332,0.10274657265327856,-0.008071472381651523,-0.0026195923780777844,-0.028861579606314417,-0.02750899776674243,8.129032623878038,5.496769608706728,3.9438521651793574,2.6126678628103166,1.5590796757753294,0.8881526120884156,0.5342459772554864,0.3503283412556145,0.21086132723157372,0.15094780609450534,0.06575176801607227,0.03338657644994373,0.04016468442993709,0.012843818004628752,0.025703113732356467
0.0,31.0,31.0,0.0,120.0,0.0,0.0,0.0,0.0,-107.0,0.0,-45.0,0.0,0.0,0.0,34.27253218749016,17.55503396713325,5.827036773706015,3.1206644778378765,1.8678454780293703,1.0229337570445762,0.3843263450041103,0.24179252124333533,0.0862415983249385,0.053791344309119304,-0.006468954626407286,0.009597494760639244,0.02274972860905962,0.038228289283342765,-0.07637371626196535,-0.012812749154343375,-0.043474191222578756,8.05153233925634,5.4558621184133935,3.9375492115883968,2.5720476973839737,1.5270888704527978,0.8808835447900545,0.48038392530078716,0.3209746426712187,0.19101757928842317,0.13595446033201875,0.11577328425114283,0.059493831041575414,0.06763890801389354,-0.004488679247788181,0.021418896758446514
0.0,32.0,32.0,0.0,120.0,0.0,0.0,0.0,0.0,-107.0,0.0,-45.0,0.0,0.0,0.0,34.27253218749016,17.55503396713325,5.856831529536666,3.033575156526608,1.8802453224960172,1.0065543062991154,0.4108100202417248,0.19147480485957497,0.11205524412727719,0.09693673010264209,0.06871125326939342,0.016519351783395704,-0.02738114528589472,-0.057699081888202594,-0.018828500017188145,-0.01294625261201069,0.028727991987523252,8.094228646752907,5.482613874254365,3.9256084521030554,2.584307668379933,1.536013896397726,0.8965305754767074,0.5043744165080125,0.39036818516024097,0.2281486150910099,0.14598864492606442,0.10067035724802968,0.051386284466768184,0.026425829421133577,0.0068971018014249395,0.014853780742083426
0.0,33.0,33.0,0.0,120.0,0.0,0.0,0.0,0.0,-107.0,0.0,-45.0,0.0,0.0,0.0,34.27253218749016,17.55503396713325,5.804317004648724,3.0086120407214065,1.8061366219468886,0.9861720720268143,0.4254940892657102,0.1409966383863417,0.0993336858840657,0.027541042055155018,0.04971861168619409,0.019724589322639038,-0.015323149420446464,-0.01138117372359075,-0.03974581841472557,0.020942411304866036,-0.046587352008086294,8.098529081837004,5.430979580739178,3.858028289735625,2.5357918635318586,1.5058346614978928,0.8100837136001059,0.5407309654004528,0.3044831226554482,0.20004436695296102,0.14632833774554718,0.08319587341629826,0.09573602885507207,0.035668138448117885,-0.012968881429840876,-0.001520671747404008
0.0,34.0,34.0,0.0,120.0,0.0,0.0,0.0,0.0,-107.0,0.0,-45.0,0.0,0.0,0.0,34.27253218749016,17.55503396713325,5.874385201821597,2.9790687430987655,1.7744485285311773,1.0341823015072569,0.4582095904392702,0.14540755505784664,0.07818628349216156,0.06685110269453667,0.09639640915767611,-0.013146577989898121,0.010733961703983526,-0.003665275302022197,-0.032896303230319064,-0.043788682020489196,-0.05018779033118241,8.019840121470333,5.39737401056434,3.850288563476381,2.5312530895140855,1.4544238508922505,0.851848459251149,0.5261647136160494,0.3000347877928215,0.20881172465517053,0.15090251103595534,0.1259092348015832,0.08640537301800791,0.03313705955085321,0.0035738604120893,0.022982878071961137
0.0,35.0,35.0,0.0,120.0,0.0,0.0,0.0,0.0,-107.0,0.0,-45.0,0.0,0.0,0.0,34.27253218749016,17.55503396713325,5.857250317636497,2.9751576655594887,1.7645263644618108,0.8861171428057749,0.43904612977908386,0.17948282324288886,0.10253601661691937,0.0663377287036267,0.04719927744857214,0.05885394899280583,0.024764015589032115,0.007884240665488321,0.055836471148574214,-0.000654363676490357,-0.011600113797527371,8.076548506174285,5.388383938893977,3.8083614200316664,2.5332405825911986,1.4615592381454776,0.8662519475771016,0.5099236621702903,0.34037038154634214,0.1811194374381181,0.16928620651645593,0.054501733923112784,0.012423512278843113,0.038268902159416536,0.0017725766428546112,0.011680115079257728
0.0,36.0,36.0,0.0,120.0,0.0,0.0,0.0,0.0,-107.0,0.0,-45.0,0.0,0.0,0.0,34.27253218749016,17.55503396713325,5.870355182523,2.9976199227660123,1.783266906559334,0.9500575641224079,0.4690289800231818,0.14711215012847223,0.08746435981480497,0.07123578423574525,0.07325572110688272,0.02156459851375911,0.009090588936338961,0.00806083822836353,0.013868812068656956,-0.017489581597543827,-0.03386633041416477,8.065909709586748,5.394445256709677,3.7955748674450964,2.5054243125943856,1.472652834812515,0.8023987753052315,0.4742782137248177,0.2925938336812543,0.19811919765780478,0.129534787850133,0.09607866415433781,0.06553460467086812,0.032935021134788404,-0.00850411259565876,0.014838952922179606
0.0,37.0,37.0,0.0,120.0,0.0,0.0,0.0,0.0,-107.0,0.0,-45.0,0.0,0.0,0.0,34.27253218749016,17.55503396713325,5.814022394785266,2.952010736167969,1.7691487026276946,0.934128738745857,0.4770564821023539,0.1994869168504722,0.07337569708417664,0.10098116644384383,0.06585041550537724,8.383246246445805e-05,0.0025958124589073855,0.013246882410652375,0.014442667719180128,0.048693243084740816,0.013253585929259584,8.1239639699736,5.3565837513576575,3.792943518840104,2.488345754187916,1.414292735475451,0.8139656464022276,0.5049486110212149,0.3097957265094875,0.19211880912576557,0.12103379828208632,0.05271629058918158,0.050033964212776255,0.077270318427632,0.02085058209777499,0.024635567691352552
0.0,38.0,38.0,0.0,120.0,0.0,0.0,0.0,0.0,-107.0,0.0,-45.0,0.0,0.0,0.0,34.27253218749016,17.55503396713325,5.873531642291183,2.98328645839906,1.7239868035141823,0.9404932973419043,0.4659882264612211,0.17537031601192388,0.11503088218354643,0.06626330896972596,0.022377743535970086,-0.021547223879666833,0.046203281293990234,0.03844005430973853,0.009329804305280435,-0.012624866588557673,-0.053118842547336904,8.108401757260406,5.310628212624038,3.7471341885223044,2.4856729005998943,1.3976137083726838,0.7874045922607755,0.4336099112990608,0.27544853786576945,0.20878253028007096,0.133019452953555,0.1282225622037606,0.03432033059140115,0.02986946795893327,0.0144535337973399,-0.010438553690948179
0.0,39.0,39.0,0.0,120.0,0.0,0.0,0.0,0.0,-107.0,0.0,-45.0,0.0,0.0,0.0,34.27253218749016,17.55503396713325,5.833598363007133,2.951173114062163,1.6779134875076873,0.9452899064442505,0.3885869651875791,0.1741709278145967,0.057729961359709564,0.006947127209409702,-0.0106025095866574,0.03299677910365592,-0.018001595659283227,0.017430276344130226,0.01205693271280342,0.0310960035449181,-0.04608426803733,8.07912170702029,5.31123440795508,3.764940642522281,2.4383956866236094,1.4070942683831256,0.7799440346935331,0.40126486755456514,0.25421407268702767,0.20507482360367374,0.11271488493376457,0.10292914763639913,0.023738160339834127,0.04720150511895235,0.025552766714518692,0.02000862330009672
0.0,40.0,40.0,0.0,120.0,0.0,0.0,0.0,0.0,-107.0,0.0,-45.0,0.0,0.0,0.0,34.27253218749016,17.55503396713325,5.821560265521428,2.9022948916010005,1.6941454890159249,0.9228528514687883,0.37286282503877133,0.22383113983539002,0.12376525451032869,0.09589664867308212,0.05454499349416364,-0.03328900695106529,0.01672490780920615,0.03249550611021779,-0.01825555503193508,-0.03254572644533758,-0.048233560809212275,8.036773036974711,5.322688121536588,3.7262634547731346,2.4363250560056544,1.3754604676312443,0.7601768506599851,0.45303364373982863,0.2593689047185268,0.20815732690753058,0.14275113450898896,0.057496758171352996,0.05423718440391935,0.024109035047319555,0.020830314743982344,0.03157467086983565
0.0,41.0,41.0,0.0,120.0,0.0,0.0,0.0,0.0,-107.0,0.0,-45.0,0.0,0.0,0.0,34.27253218749016,17.55503396713325,5.779127104032069,2.8835241576428996,1.7293004318138612,0.7882570982590482,0.3992076212581791,0.1754140388809439,0.07633514495866447,0.060383968354282856,-0.004779757931239706,0.032776815780920565,-0.009200910575647345,-0.017457854781237965,-0.030113656240967433,-0.0239763485885201,0.00963252411905201,8.131701619035422,5.328865815797749,3.7330141013976412,2.332476526474433,1.3809446423006542,0.7369000410430907,0.44814840052110516,0.24159715452071717,0.19694783079341402,0.10578130000520977,0.05445869500240217,0.06545369367977813,0.06971193351493679,0.022360596319473257,0.021458108195179834
0.0,42.0,42.0,0.0,120.0,0.0,0.0,0.0,0.0,-107.0,0.0,-45.0,0.0,0.0,0.0,34.27253218749016,17.55503396713325,5.876545588555786,2.8396463903088596,1.6730517143009225,0.8204220041904056,0.37354862258271726,0.160173933034085,0.14998991924750255,0.05053024426719552,0.035759781339345785,-0.0019126713196214173,0.006523492379474454,0.026695697301054047,-0.003198895654285454,-0.009966770053286365,0.0005302805691688367,8.025230526494571,5.229398226594046,3.64464562042862,2.3617223225885677,1.3258536914322336,0.7310475205485992,0.4127717981556859,0.2554345475259035,0.17265098987962785,0.0803651331101015,0.07407348397839114,0.03217027457659506,0.013496315471844262,0.038912980725845925,0.021535098007223644
0.0,43.0,43.0,0.0,120.0,0.0,0.0,0.0,0.0,-107.0,0.0,-45.0,0.0,0.0,0.0,34.27253218749016,17.55503396713325,5.730165974687218,2.8579364760103907,1.6255413670421768,0.8994736359295785,0.3697045576531689,0.1923500021999361,0.07710785146548836,0.01943267735812033,0.01387056361415528,-0.052723775207911404,0.011078101216233722,0.015084346134129248,-0.007733854814455732,0.02298686551932982,0.024649762515468215,8.07445432919018,5.290707084951695,3.631413345414569,2.331913340230884,1.3169828748705001,0.7385902000871329,0.3906780051502278,0.24897632185562013,0.15672177584875366,0.11950694177933849,0.07499326249283939,0.03452081785389849,-0.03435745758223763,0.0016784071429655507,-0.037903569659301924
0.0,44.0,44.0,0.0,120.0,0.0,0.0,0.0,0.0,-107.0,0.0,-45.0,0.0,0.0,0.0,34.27253218749016,17.55503396713325,5.777361730465594,2.8472414105925283,1.6501296290891116,0.848374738320083,0.34881938327268874,0.1774539594349083,0.010097781304167136,0.015306121477871453,-0.047912393319187806,-0.016764802856385614,0.006525395506142122,-0.04410305415620382,0.0044725339518608565,-0.06282255557313904,-0.029963048120210473,8.020961231225549,5.284673918330384,3.59714549748025,2.302484049745899,1.3227012858558036,0.7399084510226194,0.38023459169247525,0.27062306151098786,0.16126179591116177,0.1026188905727167,0.09733964352208528,0.045911041950541395,0.022095038966161332,0.04909915236546495,0.013862701948913751
0.0,45.0,45.0,0.0,120.0,0.0,0.0,0.0,0.0,-107.0,0.0,-45.0,0.0,0.0,0.0,34.27253218749016,17.55503396713325,5.842382051077003,2.901701928698089,1.6497947360383016,0.8660128872544387,0.3351250110504645,0.15683029331192383,0.08910749951188612,0.08511615558455958,-0.033521976979277036,-0.018776691697757867,0.0825208544283115,0.010937022313648417,-0.00014670370089026703,7.133990394411586e-05,0.017925422893489203,8.067318313249297,5.2378724533739485,3.5849601964580975,2.3241645490909333,1.3153296307773268,0.6891849862273027,0.41229016007997704,0.26210264879155587,0.22181394854264985,0.13994075079067753,0.055714739066264465,0.02195531477620905,-0.025558337793546736,0.030048529164816123,-0.009010751711472913
0.0,46.0,46.0,0.0,120.0,0.0,0.0,0.0,0.0,-107.0,0.0,-45.0,0.0,0.0,0.0,34.27253218749016,17.55503396713325,5.783354209048273,2.825931685736474,1.5456990288625765,0.8398202968948104,0.3463508344558626,0.11855731198944777,0.08413683337187854,0.01972659599253172,0.004576614410390631,0.01742867447955269,0.010017379209838754,0.01099559910795702,0.04106874515208106,-0.028152337861767525,0.0010390110306496398,8.009541184390912,5.194775017074552,3.5995769222214595,2.2652525996748145,1.2839038532055729,0.7484239817469395,0.413756079222885,0.23390365115178996,0.1694487884632099,0.10295390341435479,0.06639432685246531,0.051269606428821723,0.02742793488234518,0.014830572475136958,0.034469625200829135
0.0,47.0,47.0,0.0,120.0,0.0,0.0,0.0,0.0,-107.0,0.0,-45.0,0.0,0.0,0.0,34.27253218749016,17.55503396713325,5.752523701426459,2.819198888537096,1.5784842916135349,0.8582494921308755,0.4255262815676274,0.12852431691774044,0.12358837322322994,0.0460509739732422,0.02700403457963702,0.02862076585972921,0.015828448334281077,-0.030272135779091873,-0.000431288600992515,-0.006882338553179859,-0.0066743996581839285,8.022679990698128,5.167375702842218,3.5574822967847264,2.234495306236668,1.284509839537295,0.7030109533467845,0.37875636324674006,0.24928689058560094,0.16235603122568826,0.11581968300620935,0.0671694291841908,0.05358516515710474,-0.008409760465834259,-0.00820616559180885,-0.0012839545459156238
0.0,48.0,48.0,0.0,120.0,0.0,0.0,0.0,0.0,-107.0,0.0,-45.0,0.0,0.0,0.0,34.27253218749016,17.55503396713325,5.702184787608849,2.7963122265089306,1.5384771330906755,0.7870221116439151,0.3493453244038325,0.17268604897103887,0.0881691968533802,0.04040217281973367,0.018848039917923685,0.008988304594275154,0.025987116337363825,0.06734172082704798,-0.03174599319852529,-0.006351075902144119,-0.05168551461613454,8.08562449959104,5.117361771954543,3.5515412297435143,2.1853255020843276,1.219886909069221,0.6704232366836876,0.34947826524013453,0.27382337232976806,0.15850655662146373,0.1550144333022449,0.07726442871625987,0.008234360727065931,-0.008874841796893483,0.02125293107310491,0.027761848173438713
0.0,49.0,49.0,0.0,120.0,0.0,0.0,0.0,0.0,-107.0,0.0,-45.0,0.0,0.0,0.0,34.27253218749016,17.55503396713325,5.726335310451837,2.7350147719797793,1.5338587313005005,0.7632071587263122,0.38501568176051093,0.19655596725058494,0.07769654235432127,-0.023963785583161513,0.006726948529257109,0.03708374823011091,0.006392141654887924,0.0027562625982989523,-0.02719122970797523,0.007342409478680065,0.05379903332313047,8.015320455448373,5.110606405620276,3.478867120137716,2.1714214466442403,1.246396801372045,0.6769740437663418,0.3870868519787658,0.23853874789882903,0.18412614550116743,0.13709123574263735,0.03850254596372429,0.03280401809342328,0.014643558540762054,0.02491261591811473,0.017696838263470502
0.0,50.0,50.0,0.0,120.0,0.0,0.0,0.0,0.0,-107.0,0.0,-45.0,0.0,0.0,0.0,34.27253218749016,17.55503396713325,5.720002053797322,2.6660313082072853,1.484143713321005,0.7000817793004015,0.31081049778361286,0.11710082086575056,0.08350096125806145,0.07109015085206909,0.022259369916040595,0.014038090413341864,0.08430891926821417,0.017908595021532733,0.005795540069710153,0.0459887725428479,0.0034247878300004146,8.015604145102282,5.090717791488373,3.4780906545402273,2.165179647057151,1.202128421838101,0.6277627189240813,0.38968752211242896,0.22488235958627184,0.15360056963863447,0.07678381499588942,0.06327664865754638,0.07454443884923055,0.03843412397245609,0.0008784787625778778,-0.0006112727161230371
0.0,51.0,51.0,0.0,120.0,0.0,0.0,0.0,0.0,-107.0,0.0,-45.0,0.0,0.0,0.0,34.27253218749016,17.55503396713325,5.732655140769272,2.71798741469133,1.5128162682780204,0.8149755071178273,0.3077148774058973,0.10704911929404276,0.022886617111590332,0.014163941251805999,0.10619507759762652,0.06108700421964201,0.03293767422162632,0.04064596876827395,-0.021054205265784085,-0.016152817328419444,0.04549607203124656,8.00674585298396,5.067171806184332,3.4765843015476454,2.1226244690951748,1.212053867051342,0.6452812614542142,0.3447403291897419,0.22429131262000127,0.16221720477074128,0.09333151229958206,0.08497649480256061,0.027181087153383604,0.033395225301461676,-0.012757832952837231,-0.0033564294550890144
0.0,52.0,52.0,0.0,120.0,0.0,0.0,0.0,0.0,-107.0,0.0,-45.0,0.0,0.0,0.0,34.27253218749016,17.55503396713325,5.740648495713243,2.6976045786277356,1.4506937242358693,0.8000991270101955,0.3508242661582951,0.1121837460825386,0.07976940345672612,-0.003173894575011077,0.08494771624434591,-0.014593740447607698,0.07105687446141136,0.04109829320636757,0.003947991703531677,-0.0703337748517806,-0.039795139008009205,7.991433132196672,5.041741326648621,3.4091240975914565,2.0859177081252724,1.2166674519086336,0.6300902735543483,0.35376737038305217,0.19299387914164248,0.16071983053901026,0.08428988510912601,0.05356785398988302,0.0419323324067446,0.05787286333762389,0.04809855115526021,-0.023788715701374745
0.0,53.0,53.0,0.0,120.0,0.0,0.0,0.0,0.0,-107.0,0.0,-45.0,0.0,0.0,0.0,34.27253218749016,17.55503396713325,5.732039771525912,2.710330851948166,1.5194533657867864,0.7455961531839619,0.3134038085352721,0.16692067454452664,0.10255212574074198,0.0759620453805454,-0.01015983982275908,-0.006147285326438573,-0.01103040696625555,0.006578012063720547,0.021638363547498162,0.02528783582970546,0.014665245386863186,7.998134015379721,5.023486044552901,3.403656681708689,2.1147398924951526,1.1754078162819628,0.6507542867835382,0.3378350739752809,0.2061226176353552,0.15482186179904522,0.09116514701102144,0.09169449245470529,0.004788661560545936,0.025785380318277436,0.016745648142562596,-0.01182769664363022
0.0,54.0,54.0,0.0,120.0,0.0,0.0,0.0,0.0,-107.0,0.0,-45.0,0.0,0.0,0.0,34.27253218749016,17.55503396713325,5.635224718161989,2.648905567903604,1.451125838497557,0.7589402458533879,0.33314779897023644,0.11982826616335104,0.07481830874798215,-0.007575866574417632,-0.003819865503809673,0.006292568794557474,0.07373177053522753,-0.04885057423245802,0.01843273674366002,0.020366976260962382,-0.06586379994430311,7.985694580631485,5.012114647963217,3.351951677824997,2.08512193176629,1.122107332864772,0.5563155048926454,0.27592499600536563,0.2047228286229772,0.1522153836930044,0.0903662841039829,0.07279972828512761,0.05738335957073393,0.04882550314733769,0.018186293249486406,0.04950470611050819
0.0,55.0,55.0,0.0,120.0,0.0,0.0,0.0,0.0,-107.0,0.0,-45.0,0.0,0.0,0.0,34.27253218749016,17.55503396713325,5.752757348603453,2.6816475987710993,1.3903677543172293,0.7122396513074746,0.27830888446024715,0.17135188913933,0.03909239227221771,0.04509933138162775,0.00885643084961355,0.015597443314105237,-0.006216102302427608,0.006353136619385936,0.037400411431838525,0.024919899845423255,-0.06403631755745685,7.9454256632795035,4.984182584335724,3.321949921669679,2.0940446241899964,1.1174802810281041,0.5736333717416621,0.34121488408685063,0.1984442890827495,0.12642546267840366,0.087970112400317,0.08203971334315555,0.046696304813066185,0.04253006223617199,-0.007113471855874638,0.02812120390610629
0.0,56.0,56.0,0.0,120.0,0.0,0.0,0.0,0.0,-107.0,0.0,-45.0,0.0,0.0,0.0,34.27253218749016,17.55503396713325,5.696359699411824,2.6037648256150945,1.3766330018479376,0.7519451153896746,0.3033017226976037,0.13964867297862232,0.011018647255646885,0.0324469676304387,-0.01604592039322443,0.026435085661605323,0.00036273808084986373,-0.08937128469069168,-0.05782853408211063,-0.000295553628942022,0.001980753092687173,7.955354933624523,4.9239186663727645,3.3003542415495652,2.0099830918774737,1.1066095328575392,0.6077721492634935,0.31895365244335916,0.1927093647064919,0.14453915485574792,0.138120189599412,0.035576040389355856,0.06974418374302112,0.039902438313937666,0.04021206669837594,0.03625308844778385
0.0,57.0,57.0,0.0,120.0,0.0,0.0,0.0,0.0,-107.0,0.0,-45.0,0.0,0.0,0.0,34.27253218749016,17.55503396713325,5.684400886978608,2.624451513352689,1.4061499287518824,0.6285692185211503,0.27232313002429714,0.1432104399850099,0.08512482479344083,0.0108974792589526,-0.026489574391825213,0.03811342463632311,0.047276140501872115,0.009518002478435409,0.0097776173445639,-0.0024602608085485915,-0.02749486289881001,7.949478372865202,4.923095098282201,3.2477781664918526,2.0424103228870787,1.0857654694326675,0.5214817669651124,0.33963020310886854,0.1760949364961124,0.11700998677326344,0.07995164261016191,0.05804321460836419,0.04160638683792397,-0.008199053714834832,0.01384874562479314,0.009586735376878704
0.0,58.0,58.0,0.0,120.0,0.0,0.0,0.0,0.0,-107.0,0.0,-45.0,0.0,0.0,0.0,34.27253218749016,17.55503396713325,5.608503598716224,2.554390529221731,1.4314816875363507,0.6902083145286658,0.3374015508842496,0.14189800243397807,0.08221981473774059,-0.0449928707193489,0.04919696310212974,-0.003022020913971305,0.0004904430185692851,0.004120561751682012,0.0036229536470238754,0.032783055039308874,0.0037143983405608172,8.002176810535191,4.888608853105006,3.2427272488170935,2.024984985498788,1.06136859775306,0.5404100439472187,0.36530856448279014,0.1906701095479482,0.1340928894496038,0.12857878381725107,0.061042686576632706,0.016562528049696247,-0.009081262142277485,0.011114895781277914,0.0357585235057604
0.0,59.0,59.0,0.0,120.0,0.0,0.0,0.0,0.0,-107.0,0.0,-45.0,0.0,0.0,0.0,34.27253218749016,17.55503396713325,5.657108517626978,2.5095532619211065,1.3433485327189039,0.6631021665484674,0.2927603758338405,0.11079578149123329,0.01905095300638312,0.0349717462065518,-0.0058172361803563825,-0.009600663220342467,0.010147690250324169,0.000509910697960139,-0.01641396320326916,-0.043798529624720875,-0.04411619880538207,7.929092865262587,4.851692961852408,3.2187320294696944,1.9414206505117106,1.0585697808089347,0.535426061722566,0.29118939791758613,0.21087983596827997,0.14297066814002285,0.08336529547850863,0.08012005255016524,0.06368017849502708,0.00044641265578383715,0.026830022719176182,0.03655057705066852
0.0,60.0,60.0,0.0,120.0,0.0,0.0,0.0,0.0,-107.0,0.0,-45.0,0.0,0.0,0.0,34.27253218749016,17.55503396713325,5.639909548033131,2.5002845071582547,1.3151102008776567,0.6935574158902359,0.2937120811331047,0.14706053976078026,0.01695214157708215,0.010174351584053866,0.002658322131931007,0.03197559956164005,0.006569910335800236,-0.028537798358466305,0.0036292840743365994,-0.005514416819784182,0.010465431774478413,7.8973293649579155,4.856535729339243,3.16455608081348,1.9293308498333959,1.0828224343836659,0.5274580377306243,0.3049548931045178,0.21889894879752997,0.1592468289367226,0.101070866959668,0.03776582890528536,-0.0072287772197027825,0.05121224057166189,-0.005120530552276872,-0.02202182592099241
0.0,61.0,61.0,0.0,120.0,0.0,0.0,0.0,0.0,-107.0,0.0,-45.0,0.0,0.0,0.0,34.27253218749016,17.55503396713325,5.721442709083356,2.425593581959574,1.3296136590588565,0.5870858362155268,0.2839751715902376,0.11128745324490887,0.08309479270014056,0.025873888002215267,0.01788630604668942,-0.009757600875166056,0.00034339919890953585,0.03198095833397529,-0.08287591180378405,-0.031386824892614754,-0.022519306921786535,7.953984971447977,4.771052584741027,3.1473712540122714,1.9159066591287248,1.0639705291726222,0.5110417703424872,0.26771202389704696,0.1768131748611849,0.1710384755433188,0.09781196035960464,0.060131357722279406,0.04186191528725642,0.006216080596195165,-0.008986044028699803,0.021668353655243403
0.0,62.0,62.0,0.0,120.0,0.0,0.0,0.0,0.0,-107.0,0.0,-45.0,0.0,0.0,0.0,34.27253218749016,17.55503396713325,5.680845796664085,2.4941657351944504,1.3066414935051407,0.5942550971150239,0.24601406349547905,0.16761784872931096,-0.05701560614331352,0.08772863622877876,0.011159862023210076,-0.003135546617292803,0.010995023275106788,-0.004561428623262774,-0.08860438498972556,-0.020919985682038962,0.02658817430902651,7.933448028683977,4.730581345461158,3.1086100800540986,1.8527380884720477,1.0066977299351818,0.5487702101176923,0.28918521098837374,0.17415037292460675,0.09073818308537407,0.09135535514115499,0.04408070185171545,0.03290213906172181,0.0041341537707737415,-0.012606361562028467,0.003545007525308125
0.0,63.0,63.0,0.0,120.0,0.0,0.0,0.0,0.0,-107.0,0.0,-45.0,0.0,0.0,0.0,34.27253218749016,17.55503396713325,5.579373356936225,2.496145942246754,1.2293738537724337,0.5929196962025283,0.23343367633575754,0.044217493295141484,0.06335160600856429,-0.06684408394744626,-0.006470063109693072,0.022121091990814263,0.044733615303050485,-0.05034205412405772,-0.008866082533656514,-0.010353238234215228,0.04657974125740681,7.926908631740508,4.70009925449865,3.0607628471120147,1.8441810988313874,0.9364785005721877,0.5237983560175157,0.30040908879971473,0.20460647227495007,0.10813394556583109,0.12960724515751626,0.029174364621112704,0.009761223383351149,0.047136608602895924,-0.0064862592216861775,0.007239227868025001
0.0,64.0,64.0,0.0,120.0,0.0,0.0,0.0,0.0,-107.0,0.0,-45.0,0.0,0.0,0.0,34.27253218749016,17.55503396713325,5.598209753625747,2.4297219962289573,1.2829913892642983,0.5852993563913231,0.245416914182542,-0.0011326357143576493,0.06157135303300651,-0.07478435040237913,0.025387131637000654,0.01799990361457922,0.056473079105611716,0.059518237482657506,0.03222562451038897,0.0335175522489241,0.011938812797790497,7.855612839410043,4.6626319647545005,3.033415919188771,1.871355731707199,0.982334076907776,0.5009304637195109,0.2766291583567573,0.18277109481283463,0.11718420217864964,0.09874599044959884,0.02686517256472544,0.01944994692718739,-0.019222548486267737,0.02261969773182325,0.02122371957579388
0.0,65.0,65.0,0.0,120.0,0.0,0.0,0.0,0.0,-107.0,0.0,-45.0,0.0,0.0,0.0,34.27253218749016,17.55503396713325,5.603502243305806,2.382896534493857,1.2886377125042445,0.5673678914303474,0.2235922474112745,0.14276503250617384,-0.04979519747557257,0.08241768634602722,0.06664004345578992,0.037319187953727684,0.011719895963183314,0.032705802564283015,-0.05709457881089864,0.011728782642471217,0.04852778980373963,7.88064180926633,4.640666549129947,3.0177741712300117,1.7944014221371332,0.9454238666448158,0.4759527198349042,0.29312083668714406,0.15509118153302026,0.09350389811826668,0.10351518083606456,0.03539492026505042,0.016827213787958224,0.02558670016707703,-0.014915389458836623,0.029275363083332517
0.0,66.0,66.0,0.0,120.0,0.0,0.0,0.0,0.0,-107.0,0.0,-45.0,0.0,0.0,0.0,34.27253218749016,17.55503396713325,5.552689040323888,2.4309989147728657,1.2158022563723876,0.5736949895185558,0.17502128883144444,0.11211847581509311,0.0906057093226798,0.005294050939307904,0.05233025961632754,0.01492389642986549,-0.025388164244594235,0.02004267131061179,0.01151257959818088,-0.02650780171359364,0.062074286890342084,7.849134534728227,4.6232245830774845,2.98021605969698,1.796493011386108,0.9604118805531647,0.48578623536945204,0.29750270592325134,0.16785957472407845,0.13163464443305192,0.09745552381706674,0.0879187749263001,0.009230008025425316,0.008865467081494263,0.026366078218726448,0.01315727819280986
0.0,67.0,67.0,0.0,120.0,0.0,0.0,0.0,0.0,-107.0,0.0,-45.0,0.0,0.0,0.0,34.27253218749016,17.55503396713325,5.50277718486609,2.328249141257479,1.1784051367024373,0.5156684768346346,0.2965022181569643,0.0519848462151856,0.0296371190385883,0.010726328952801895,0.03233198322108481,-0.051075328188916545,-0.009260465975723595,0.020768739467032945,-0.0007825804624754442,-0.00763405067399099,0.0069265642226224965,7.854027339742523,4.569281702706363,2.919250436133919,1.7456885637629962,0.918066488590281,0.4723508157709444,0.2597275189141823,0.13027137904082328,0.09267595411845414,0.08799438248081999,0.04968535676161776,-0.0022713586274317465,0.042489297497294395,-0.016442594910279232,0.02422600861334371
0.0,68.0,68.0,0.0,120.0,0.0,0.0,0.0,0.0,-107.0,0.0,-45.0,0.0,0.0,0.0,34.27253218749016,17.55503396713325,5.533592939777011,2.2609042750697768,1.13828871939122,0.5549080744181913,0.29426222283394704,0.12175122779452346,0.0032592462681381787,0.05365259577710793,-0.061452802126255104,0.017854828037315425,0.004177334545455314,0.03177540941046619,0.04182937636907471,0.09111231251598702,-0.10226448526692433,7.778639314275778,4.567292691321271,2.9315945850121734,1.7483374505320388,0.858516399860929,0.5076808313382243,0.2586906414685093,0.20872227169025498,0.11265755000623869,0.09048674555891255,0.0739580654153587,0.02739617881152341,-0.025457077761876327,0.024877923264282446,0.006061745634002358
0.0,69.0,69.0,0.0,120.0,0.0,0.0,0.0,0.0,-107.0,0.0,-45.0,0.0,0.0,0.0,34.27253218749016,17.55503396713325,5.531421773662296,2.2709335112094635,1.1696805364731069,0.5615898009039089,0.20982137963334793,0.04087339951416758,-0.005827898164865002,0.05072643283225402,0.01182427545732776,-0.035955725321403016,0.06617626862809974,0.04426831486731987,-0.053500857716520724,0.030326653918820216,-0.04291193457822302,7.746806967276276,4.486775725461712,2.8589267598642656,1.6796573307897682,0.8951781531017567,0.46593761843024617,0.23709318378093108,0.16046633564463703,0.10068122132649927,0.04235303760539974,0.05294505818131681,0.013511059377230138,0.02897616658443599,-0.0019831125959491862,-0.004276765042064613
0.0,70.0,70.0,0.0,120.0,0.0,0.0,0.0,0.0,-107.0,0.0,-45.0,0.0,0.0,0.0,34.27253218749016,17.55503396713325,5.443805892624181,2.1941758964256493,1.119870467658698,0.45677022359710867,0.23154629485406897,0.028241217702032625,0.027413185650637703,0.06425418544902181,0.02437069679064201,0.0033943673039166893,-0.05021709245649241,0.013336099750924054,0.002115115192786188,-0.07786283566487083,0.0366165368498598,7.795096282618242,4.489367509326624,2.8346487358286585,1.7104580561210783,0.8932569494276151,0.44183729424751983,0.24593914847017878,0.15779617633350057,0.10067135211617026,0.11252581632660288,0.04488061858854687,0.026762438455494548,0.02117602772464594,0.046244598764708614,0.02388524986960936
0.0,71.0,71.0,0.0,120.0,0.0,0.0,0.0,0.0,-107.0,0.0,-45.0,0.0,0.0,0.0,34.27253218749016,17.55503396713325,5.459122635926395,2.1993972001193716,1.10855074095489,0.5027849688346823,0.24156593894723893,0.06773196263914642,0.013014667280311438,0.019553373562703584,0.001379615433536185,-0.047981818919371436,-0.01689920130941349,0.021665061088397178,-0.04288711908190717,0.023897669235738505,0.00893033220253687,7.793023307957765,4.435020412145369,2.7839971552253937,1.6390966788022752,0.8623886034644132,0.4329806021454236,0.25769211726691627,0.15746937468674893,0.08654679732728518,0.050369029401615015,0.044708689940573865,0.015343783549870347,0.05795974476891248,-0.007845229490146911,0.03899242469552447
0.0,72.0,72.0,0.0,120.0,0.0,0.0,0.0,0.0,-107.0,0.0,-45.0,0.0,0.0,0.0,34.27253218749016,17.55503396713325,5.440230007945823,2.2282331340376857,1.1132706530547734,0.5545937057338574,0.15959641940367295,0.026167245446128203,0.05392369118621092,-0.018633634030438065,0.036709960355109136,0.024553939571887076,-0.00022124706700276005,0.031098364866936602,-0.023000702732587638,0.03558824439691838,-0.030734278701634983,7.763197478770096,4.385663446703055,2.7018969899154746,1.590145767118777,0.8532291429369953,0.47451433182290126,0.22881987644246463,0.16995569264548774,0.12629926404859598,0.08959634691304641,0.024462647688886376,0.05799473672151235,-0.019525616894289916,0.027217228955195932,-0.01620147928490617
0.0,73.0,73.0,0.0,120.0,0.0,0.0,0.0,0.0,-107.0,0.0,-45.0,0.0,0.0,0.0,34.27253218749016,17.55503396713325,5.391842957304234,2.174388888319554,1.11998314437966,0.5065318727205013,0.21639949345992002,0.08185817744214047,-0.019955964071897536,0.006578652495848294,0.04476190864096358,-0.006305966488245895,0.021955065862994685,-0.0513932048731325,0.014930574018460515,-0.03207956433404264,0.026691159508881453,7.6854110097980355,4.349510157382974,2.7084211500795323,1.6397820772061298,0.8373432890444453,0.4908544433706189,0.2610424731808799,0.12291660584147726,0.11617548672947475,0.040066325440098895,0.06097422011296595,0.0326963007563196,-0.019550942369534845,0.02448199915407266,-0.021076760591634408
0.0,74.0,74.0,0.0,120.0,0.0,0.0,0.0,0.0,-107.0,0.0,-45.0,0.0,0.0,0.0,34.27253218749016,17.55503396713325,5.339470877326857,2.0923873417114236,1.0457491109693642,0.5211633402697942,0.19135660392190781,0.1019576025343802,0.020538098377781547,0.058032753854343345,0.00023631869250507163,0.04684305685741895,0.03881119002851326,-0.020069188812070635,-0.06301406503276201,-0.029411398393271133,0.017036962965880777,7.64550823084906,4.287541113758613,2.6970760984111757,1.5546520680984555,0.8035804640356196,0.42067095287085876,0.2296675195507495,0.17774104250636655,0.12257359203578613,0.08575155470641667,0.04708659944933098,0.04349009482194013,0.003424068846783472,-0.018058911434153453,-0.004371967972227057
0.0,75.0,75.0,0.0,120.0,0.0,0.0,0.0,0.0,-107.0,0.0,-45.0,0.0,0.0,0.0,34.27253218749016,17.55503396713325,5.330198793001992,2.0641598729911674,1.0264649744504015,0.48570716756587995,0.1456716357494265,0.14888102470800124,0.05669486110876408,0.04546530333342858,0.01738470953929739,-0.007775745704045715,0.03502022085973176,-0.052793035400046186,0.08110005955186156,-0.045913599671154624,0.059941422112150304,7.671035307212542,4.229052913688987,2.6050607267915877,1.5421623522733745,0.806328551583606,0.41431934864662734,0.1939360896924927,0.1587471718950996,0.08417467738369039,0.0779511654735959,0.03746703033133683,0.04354446287234849,0.0399556449478429,0.016999880304936685,0.01623533894264044
0.0,76.0,76.0,0.0,120.0,0.0,0.0,0.0,0.0,-107.0,0.0,-45.0,0.0,0.0,0.0,34.27253218749016,17.55503396713325,5.345656919411656,2.0261116530060255,1.030886695280477,0.4451622391828659,0.19912046701924294,0.16909370033687715,-0.03241575088379525,0.06908077908235241,0.0014854646664595357,-0.054495904933859585,0.01657330082380395,-0.0329901076795417,0.07216942452372585,0.01990497861551792,0.023536805272620604,7.638784903729115,4.192164026181538,2.6086971947407824,1.4994248022512005,0.8046532310917727,0.45511438592246345,0.19938289348342225,0.15593607604577836,0.08319975681741458,0.07038992306360968,0.06341860630022589,0.056815919740756726,0.024725644254546923,0.011872911133666125,-0.043121273588852684
0.0,77.0,77.0,0.0,120.0,0.0,0.0,0.0,0.0,-107.0,0.0,-45.0,0.0,0.0,0.0,34.27253218749016,17.55503396713325,5.280468725260779,1.9891460868868345,1.0146345143799749,0.4592537513357523,0.2055455372434172,0.06905697777700541,0.03728020762280085,0.0418372924762757,-0.05466292242641877,-0.0013025714017116281,0.03582431185446173,0.025733603569885462,0.02512660375504882,0.020804617957326892,-0.011197699336098208,7.5845623673866625,4.167073488004264,2.5871323154960937,1.5081269669107853,0.7928962792393411,0.3788680249669315,0.2089351535483061,0.17336595237685487,0.09831967623489016,0.0853240562933684,0.06652109242017609,0.010959650909303002,0.01497998479784994,0.032827627129010856,-0.0004959222720253001
0.0,78.0,78.0,0.0,120.0,0.0,0.0,0.0,0.0,-107.0,0.0,-45.0,0.0,0.0,0.0,34.27253218749016,17.55503396713325,5.225270799277594,1.9618114287470496,1.0480756968599096,0.4655178879027008,0.18706172337460064,0.05538040551445009,0.12799826557004224,0.027173114672666043,-0.021970855994794786,0.0024228602155407716,-0.026918603569182832,0.028262264102444454,-0.009865401557317747,-0.0026121672052274473,0.02363275713657983,7.564396735613333,4.1464146485776325,2.534485351790049,1.4512614806582842,0.7489171120556597,0.36599247382948447,0.226364673616779,0.133441859537804,0.10062849171952894,0.0846511544098265,0.04041648771276738,0.01842120828555799,0.01792698898845929,0.02553585246187184,-0.025578200886143865
0.0,79.0,79.0,0.0,120.0,0.0,0.0,0.0,0.0,-107.0,0.0,-45.0,0.0,0.0,0.0,34.27253218749016,17.55503396713325,5.1894567394135,1.9306657050637515,0.9808677585445371,0.45093290213302,0.1442316481062818,0.06780933446259835,-0.017974432789676614,0.039734643203728076,-0.03194722717404022,-0.009609654226701975,0.04427665741021615,0.020149487068394818,0.015640554387074276,0.019463006166396256,0.07732671742035903,7.59599797266608,4.098815607135147,2.500726726545613,1.474243785979696,0.7207170244850378,0.36181347636348754,0.18629549739457124,0.15907133351569427,0.08771401737550738,0.06604267911755583,0.010456840148826523,0.027409265509107855,-0.016001032030933098,-0.023138126596306464,-0.021611461778622186
0.0,80.0,80.0,0.0,120.0,0.0,0.0,0.0,0.0,-107.0,0.0,-45.0,0.0,0.0,0.0,34.27253218749016,17.55503396713325,5.181416190975205,1.95361941921103,0.8869204801159097,0.39550836342972856,0.11154797301169912,0.08991337676135244,-0.005740111833904542,0.033643200393852074,0.0006437746157295626,0.05719177640895897,0.03721385790002035,0.06563939723424214,-0.027562546278882397,0.02918000157163499,0.00029445643583291724,7.527452993947958,4.037673526640893,2.439705996598491,1.4482851566597876,0.7145798627245602,0.4150313542121995,0.21864621704580023,0.13212079355321368,0.10753616217764377,0.12013252554093624,0.026774008899132486,0.026609755129968476,-0.02691036513592749,-0.03032891069543557,0.015451797326808547
0.0,81.0,81.0,0.0,120.0,0.0,0.0,0.0,0.0,-107.0,0.0,-45.0,0.0,0.0,0.0,34.27253218749016,17.55503396713325,5.122848194467213,1.8263538766826724,0.8650012120590996,0.3964621598963498,0.116976137232714,0.06330701900589748,0.03854828696447549,0.032268836468329606,0.030736393096627797,-0.0057789500408718325,0.011573708072316117,-0.022784560103498327,-0.023069293474832196,-0.01616006096900358,0.037052944529506755,7.455937899319024,3.916710666076011,2.429383557313492,1.3720771923814883,0.7690163878687086,0.3548980182445957,0.2019530800966275,0.0957138708278962,0.09142735288881432,0.07357032679713126,0.060725746573587217,0.04629972682099211,0.015777933664065536,0.037694287779156496,0.011011890714464505
0.0,82.0,82.0,0.0,120.0,0.0,0.0,0.0,0.0,-107.0,0.0,-45.0,0.0,0.0,0.0,34.27253218749016,17.55503396713325,5.140636161753731,1.8316622323667864,0.8736434309036172,0.3894309199019027,0.17961740640293167,0.09435718567733507,0.05781247119023816,0.023332055441847688,0.01697674354196766,-0.004816547955316538,0.024086288344204204,-0.053348670828998405,-0.05319252645671428,-0.011578891060205867,0.04010062758013804,7.469592283815829,3.894025549265047,2.3545492822072656,1.3556573534120406,0.7206566945335334,0.39468555759014895,0.2126395544774374,0.09966228975769818,0.09439997055814751,0.07140479383503487,0.04764574837923035,0.03251044361771547,0.009934081018552596,-0.011360617519918216,0.04407528456538233
0.0,83.0,83.0,0.0,120.0,0.0,0.0,0.0,0.0,-107.0,0.0,-45.0,0.0,0.0,0.0,34.27253218749016,17.55503396713325,5.0192547644978305,1.848042436358012,0.8468612958530656,0.3950908253195167,0.18358276210411986,0.10455648309069243,0.0031844288565086587,0.030829747752604976,-0.0010383160503250454,-0.05548598067913529,-0.03859415858103973,-0.007170982028426382,0.04404782787562394,-0.03445679560008049,0.0058004715903641904,7.396004379132222,3.8597123953252304,2.31831076453178,1.3219161253089144,0.6993505540992201,0.35067655838704853,0.21342003275948562,0.08596290212992944,0.05310397168238528,0.06453986750027778,0.017730006510553373,0.05443698879183044,0.012720185122873772,-0.011892321682500252,-0.014742856060218022
