Line_number,Fiducial,Easting,Northing,Height,Elevation,tx_pitch,tx_roll,tx_yaw,txrx_dx,txrx_dy,txrx_dz,rx_pitch,rx_roll,rx_yaw,PX,PZ,S0X_time_1.086e-05,S0X_time_3.256e-05,S0X_time_5.426e-05,S0X_time_8.680e-05,S0X_time_1.411e-04,S0X_time_2.279e-04,S0X_time_3.689e-04,S0X_time_5.860e-04,S0X_time_9.115e-04,S0X_time_1.411e-03,S0X_time_2.192e-03,S0X_time_3.418e-03,S0X_time_5.339e-03,S0X_time_8.301e-03,S0X_time_1.338e-02,S0Z_time_1.086e-05,S0Z_time_3.256e-05,S0Z_time_5.426e-05,S0Z_time_8.680e-05,S0Z_time_1.411e-04,S0Z_time_2.279e-04,S0Z_time_3.689e-04,S0Z_time_5.860e-04,S0Z_time_9.115e-04,S0Z_time_1.411e-03,S0Z_time_2.192e-03,S0Z_time_3.418e-03,S0Z_time_5.339e-03,S0Z_time_8.301e-03,S0Z_time_1.338e-02
0.0,0.0,0.0,0.0,120.0,0.0,-0.6006107859661425,0.5404942801895656,-0.026958505073061856,-107.0,0.0,-45.0,0.5519374456446491,0.15629578395061183,-0.30694838171875904,34.278640887730695,17.554526791089916,10.38467240623248,9.640151969584418,9.16853225371661,8.64674226837825,8.0020181842261,7.255398891837743,6.402438220765594,5.491628501749007,4.555426443722603,3.564487381912202,2.5382406462370377,1.589051885944075,0.8524896407132624,0.38912997056126564,0.1396307185841513,10.933150674680041,10.495311184180919,10.205663121452114,9.874583987372226,9.447841197113394,8.92699312723103,8.29272940211838,7.561708418970234,6.740683104136907,5.772188544429288,4.619677679940869,3.354361969775807,2.1561993402526056,1.216032356451052,0.5661180434354304
0.0,1.0,1.0,0.0,120.0,0.0,-0.9759018373190473,0.8135696469190454,-0.3751651559209144,-107.0,0.0,-45.0,-0.456642840920362,-0.931185129702222,0.7511409765897061,34.278640887730695,17.554526791089916,10.3861566601737,9.64163194331198,9.170007961501936,8.648211609139238,8.00347699461153,7.256840693093313,6.403835114423423,5.492646686373559,4.5546814845461485,3.5599901177078848,2.529798153529387,1.5791521216953692,0.8441795811207783,0.3838419736264513,0.1371666535118427,10.938317037609696,10.500467107230296,10.210808631000036,9.87971393093812,9.452945328213392,8.932055937688421,8.297713146538667,7.566315440718692,6.743508400513202,5.77047349902562,4.611516668116776,3.341122507978547,2.141823912730944,1.2042793167689243,0.5588743956782185
0.0,2.0,2.0,0.0,120.0,0.0,0.16918519944847943,0.9805974121030814,0.09870426806424448,-107.0,0.0,-45.0,-0.2095170794314669,-0.34255303940871196,0.3406214042695026,34.278640887730695,17.554526791089916,10.387620393042988,9.643091437422669,9.171463231141077,8.649660573410108,8.004915534476346,7.258262342159038,6.405209555068672,5.493614828120846,4.553812421473808,3.5553113612225866,2.521207107191949,1.5691908813022555,0.8358781233099386,0.378588547993975,0.13473052316494247,10.943445373465519,10.505585028475043,10.215916164097193,9.884805936020681,9.45801158654585,8.937080946133873,8.302657373128275,7.570859366612414,6.74619211444543,5.768522093005496,4.603103354223252,3.3277062349613833,2.1273770048876606,1.192533307183557,0.5516682360596938
0.0,3.0,3.0,0.0,120.0,0.0,-0.8854677898169232,0.14622731372845577,0.2953196317515341,-107.0,0.0,-45.0,-0.29520601649975187,-0.4269854436119267,0.7959766569684212,34.278640887730695,17.554526791089916,10.389064295746085,9.644531140516401,9.172898748956856,8.651089844019063,8.00633448105438,7.259664499953084,6.406561825312256,5.494530729643116,4.552812590610022,3.5504411745398086,2.512456473596412,1.559158294736615,0.8275786386753999,0.3733663252474109,0.13232105808851102,10.94853703941111,10.510666301280391,10.220987070333575,9.889861346504903,9.463041306761212,8.942069467059092,8.30756310472759,7.575339105243047,6.748728783435912,5.7663252628101285,4.594427017459065,3.3141023066692243,2.1128500230336167,1.1807891778537014,0.5444972877209805
0.0,4.0,4.0,0.0,120.0,0.0,0.6214419931426194,-0.6651344029130648,0.0056515905556866475,-107.0,0.0,-45.0,-0.7542288977824405,0.18377400981560688,-0.6022494905447515,34.278640887730695,17.554526791089916,10.39048899870626,9.645951680946665,9.174315141264046,8.65250004414112,8.007734452457353,7.261047767845029,6.407892105496597,5.495391968528876,4.551675190519534,3.545369919339004,2.503535949236048,1.5490453383934033,0.8192751389470818,0.3681722756599575,0.12993710951500334,10.953593275448432,10.515712162221524,10.226022582879322,9.894881390401139,9.46803570850218,8.947022700431338,8.31243121855174,7.579753300517351,6.751112656614716,5.763873876744771,4.585477169027372,3.3003003552316468,2.098234911637849,1.1690421767620196,0.5373594690221258
0.0,5.0,5.0,0.0,120.0,0.0,0.0993893425189809,0.8013270539443134,-0.7033154190089279,-107.0,0.0,-45.0,0.8034014728845622,-0.49967468592495345,0.2856649718932074,34.278640887730695,17.554526791089916,10.391895076492128,9.647353631434447,9.175712978968365,8.653891741875482,8.009116012199282,7.262412691798227,6.4092004723494185,5.4961958833105165,4.550393252252768,3.5400881978490335,2.4944358727146336,1.538843748568255,0.8109622179450219,0.3630036798897601,0.12757763989221324,10.958615211450663,10.520723738089865,10.23102382546433,9.89986718678612,9.472995903273036,8.951941738260329,8.317262448528599,7.584100323431272,6.753337679895011,5.761158717222427,4.576243525588533,3.2862904526680454,2.083524117345531,1.1572879248383332,0.5302528818454485
0.0,6.0,6.0,0.0,120.0,0.0,-0.21088241297063592,-0.8245763183156689,0.5832495609995481,-107.0,0.0,-45.0,-0.29169843718570854,0.049840910433742724,0.8086593176528227,34.278640887730695,17.554526791089916,10.393283052049911,9.648737513286232,9.177092781769293,8.655265454427136,8.01047967332533,7.26375976605851,6.410486896804469,5.4969395599508895,4.548959614132055,3.5345868024816496,2.4851471475262863,1.5285459448526617,0.8026349996453072,0.35785810353375563,0.12524171428285258,10.963603873633753,10.525702052340362,10.235991818801264,9.904819752191797,9.47792290076332,8.95682757058948,8.322057386748627,7.588378263610151,6.755397482837236,5.758170464524581,4.566715983553668,3.272063076643565,2.0687105557638286,1.1455223931348246,0.5231758008253861
0.0,7.0,7.0,0.0,120.0,0.0,0.5968653553176255,-0.720990257435417,0.6473932024358482,-107.0,0.0,-45.0,0.5589402490092823,-0.6400520115089496,0.10864104270172414,34.278640887730695,17.554526791089916,10.394653401007627,9.650103800690829,9.178455022448588,8.656621652385187,8.011825902654888,7.265089436911938,6.4117512414857165,5.4976198190474586,4.547366900948048,3.5288566735040994,2.4756611749912394,1.5181449627450752,0.7942890916415614,0.3527333738362336,0.12292849285716943,10.968560191874156,10.530648033425907,10.240927489936498,9.909740011482665,9.482817622255602,8.961681102677705,8.326816502382332,7.5925849488004316,6.757285409282078,5.754899742954326,4.5568846741005755,3.257609155409222,2.0537875961513485,1.133741823475894,0.5161267079229575
0.0,8.0,8.0,0.0,120.0,0.0,0.5195770209342125,0.7296001373736949,0.6780304402704969,-107.0,0.0,-45.0,0.29887930907683646,-0.26746903538197064,-0.5015459788140113,34.278640887730695,17.554526791089916,10.396006553967283,9.651452922977843,9.17980012909443,8.657960761898881,8.013155122859876,7.266402104093047,6.412993255190933,5.49823320062026,4.545607503595715,3.5228888601458395,2.4659697928202906,1.5076343924902567,0.7859205444616553,0.3476275602105083,0.12063722282635306,10.973485001211674,10.535562513196789,10.245831667547392,9.914628788505993,9.487680883532072,8.966503125168128,8.33154008682744,7.596717851258987,6.758994380609155,5.751336926208067,4.546739703199162,3.2429198090999645,2.038748988007533,1.1219428827462832,0.5091041511571615
0.0,9.0,9.0,0.0,120.0,0.0,-0.21267126781071788,0.20308290281417762,-0.4459367318513183,-107.0,0.0,-45.0,0.07042420733426002,0.9344644410795702,-0.48771174719058275,34.278640887730695,17.554526791089916,10.397342900978524,9.65278526909834,9.18112848958804,8.65928316917667,8.014467716964546,7.267698124662166,6.41421256952292,5.498775952021636,4.5436735648879925,3.5166744910593764,2.4560652249527495,1.4970083272629435,0.7775258140937735,0.3425389544857171,0.11836723286159853,10.978379050885337,10.540446238946261,10.250705096996654,9.919486825659742,9.492513421941124,8.971294352752075,8.336228305967355,7.600774160392588,6.760517009462441,5.747472302712375,4.536271361609155,3.2279865465168855,2.023588879849912,1.1101224750466112,0.5021068658620381
0.0,10.0,10.0,0.0,120.0,0.0,-0.1730845177585354,0.14141785746669155,0.5424192602753439,-107.0,0.0,-45.0,-0.9644599210793985,-0.38005104239234644,-0.2777078329432381,34.278640887730695,17.554526791089916,10.39866279415169,9.654101190219679,9.18244045417955,8.66058922303796,8.015764030837493,7.268977814656606,6.415408692551879,5.49924401325414,4.54155696487434,3.510204746570913,2.4459400351892007,1.4862613159584597,0.7691017292828427,0.3374660544659918,0.11611792685470244,10.983243007818682,10.54529987592018,10.255548441866765,9.924314783968814,9.497315894033724,8.976055417403536,8.34088118102702,7.604750745845916,6.7618455512149325,5.743296007845362,4.525470030345795,3.212801168237543,2.008301781592147,1.0982777796219514,0.4951337257668974
0.0,11.0,11.0,0.0,120.0,0.0,-0.5111334783252941,-0.8645901813800265,0.4110892425948185,-107.0,0.0,-45.0,-0.3180750864575246,-0.7284391100858145,0.6652365590397147,34.278640887730695,17.554526791089916,10.399966550403555,9.655401002460149,9.183736338210633,8.661879237622568,8.017044375858879,7.27024145079691,6.416581001930644,5.499633002333829,4.53924930833084,3.503470835335133,2.4355870870404264,1.4753883218428667,0.7606454621883685,0.3324075487541709,0.1138887784682156,10.988077460987059,10.550124011648434,10.260362288255518,9.929113247330811,9.502088879711401,8.98078687177581,8.345498585063826,7.608644145487192,6.762971894244629,5.738798012109356,4.514326159367287,3.1973557413643205,1.9928825427909016,1.086406237394827,0.4881837348630415
0.0,12.0,12.0,0.0,120.0,0.0,-0.9213514884463434,-0.2867593551644674,-0.31380315096928846,-107.0,0.0,-45.0,0.02774541378167661,-0.8851379932666668,0.5044997093617536,34.278640887730695,17.554526791089916,10.401254453996787,9.656684989418528,9.185016424633133,8.663153494898095,8.018309031388092,7.271489271825667,6.4177287369645075,5.499938200145048,4.536741913588346,3.4964639742135293,2.4249995085094556,1.4643846860907923,0.7521545022045361,0.327362303018396,0.11167932614472206,10.992882925508214,10.55491916002277,10.265147148841027,9.933882726565944,9.506832886235115,8.985489192432706,8.350080238871044,7.612450553245013,6.763887551476458,5.733968111321503,4.502830249163837,3.181642577854425,1.9773263331577156,1.0745055375418613,0.48125602074756674
0.0,13.0,13.0,0.0,120.0,0.0,-0.536324190981136,-0.9743191407639671,0.634694919156233,-107.0,0.0,-45.0,-0.8312737107026651,0.1951317129305361,0.3411036690397924,34.278640887730695,17.554526791089916,10.402526758885353,9.657953404510451,9.186280966335396,8.664412246976564,8.01955824704259,7.272721479460213,6.418850989576664,5.500154534742835,4.534025802470186,3.489175370878812,2.4141706611951688,1.4532460956648203,0.7436266326114618,0.3223293475604797,0.10948916852403932,10.99765984645537,10.559685765098344,10.26990346667156,9.93862366319362,9.511548351962427,8.990162782674307,8.354625705878153,7.616165806187159,6.7645836522146965,5.728795917422875,4.4909728335262304,3.165654214729552,1.961628624889502,1.062573605240797,0.4743498284660244
0.0,14.0,14.0,0.0,120.0,0.0,-0.4332575983734268,0.9820614248522452,0.22264549926141375,-107.0,0.0,-45.0,-0.623954307249911,-0.022228816330045476,0.16061396096011116,34.278640887730695,17.554526791089916,10.403783690884683,9.659206473130503,9.187530188295076,8.665655718258789,8.02079224480604,7.273938238944536,6.419946694117095,5.500276565085567,4.531091691170847,3.4815962087362733,2.4030941131982813,1.4419685550626604,0.7350599097596666,0.31730786605312633,0.10731796022858422,11.002408602417177,10.564424204643103,10.274631618704023,9.943336432959084,9.516235649835977,8.99480797495739,8.359134386011915,7.619785370834089,6.765050934198707,5.723270849792887,4.478744463432798,3.149383396074613,1.9457851766982404,1.0506085904979856,0.4674645148126628
0.0,15.0,15.0,0.0,120.0,0.0,0.39314208408587414,-0.3109134768146633,0.296904050441096,-107.0,0.0,-45.0,-0.9301753653661531,-0.9432381758253618,0.8541350456459862,34.278640887730695,17.554526791089916,10.40502544968362,9.660444394656873,9.188764289575303,8.666884107423146,8.022011220981488,7.275139679179319,6.421014615958451,5.500298464192226,4.527929981941959,3.4737176338142106,2.3917636153796336,1.4305483615142582,0.7264526445234845,0.3122971853276206,0.10516540798136852,11.00712950882663,10.56913479345696,10.27933191911305,9.948021349131754,9.520895090644217,8.999425032905311,8.363605508477873,7.623304328707396,6.765279735828487,5.717382126964084,4.466135691989606,3.1328230567336566,1.92979201942816,1.0386088579738555,0.4605995430504553
0.0,16.0,16.0,0.0,120.0,0.0,0.790180495939105,0.6019241802505262,-0.31193150399670877,-107.0,0.0,-45.0,-0.3456221550151777,-0.5834039355456015,-0.5478357339617481,34.278640887730695,17.554526791089916,10.406252210713351,9.66166734431372,9.189983445179166,8.668097589273383,8.023215348003582,7.276325892402245,6.422053338818633,5.500214001728227,4.52453075547919,3.4655307433271334,2.3801730805806414,1.418982083260994,0.7178033857885578,0.30729676610610446,0.10303126702472533,11.01182282107855,10.573817786480227,10.284004622389888,9.95267866559415,9.525526926072537,9.004014152896152,8.368038123417245,7.626717361117481,6.765259988517316,5.711118758638924,4.453137060357255,3.115966307613025,1.9136454431553256,1.0265729777302113,0.45375447801641267
0.0,17.0,17.0,0.0,120.0,0.0,-0.4982433141461753,0.4030740424732344,-0.5366211888642363,-107.0,0.0,-45.0,0.11736569708745503,-0.5705444331166449,0.6647733397205449,34.278640887730695,17.554526791089916,10.407464126886902,9.662875474904787,9.191187807776105,8.669296316458682,8.0244047761216,7.277496933383685,6.423061250746125,5.500016526030884,4.520883763924043,3.457026575658498,2.3683165654690943,1.407266540593068,0.7091109057646733,0.3023061945838669,0.10091533781123466,11.01648873745339,10.578473381708902,10.288649926248636,9.957308579738722,9.530131351561373,9.008575465212537,8.372431092389778,7.630018733200089,6.764981209135796,5.704469537917943,4.439739084599468,3.0988064225044334,1.8973419856727625,1.0144997168296326,0.4469289815807576
0.0,18.0,18.0,0.0,120.0,0.0,0.8248116907480754,0.13896754091281505,0.7421698491577127,-107.0,0.0,-45.0,0.49574490147357086,0.24334711926347774,0.5310660193852967,34.278640887730695,17.554526791089916,10.408661330221602,9.664068918430486,9.192377509312351,8.670480421077844,8.025579634963481,7.278652818095183,6.4240365287006,5.4996989455927325,4.516978424410292,3.4481961015466034,2.3561882547191693,1.3953987893600561,0.7003741869382838,0.29732517477680287,0.09881746294105831,11.021127401863447,10.58310172293287,10.293267974355821,9.961911235188156,9.534708508985627,9.013109034730356,8.376783077629561,7.633202277214578,6.764432492516428,5.697423033654378,4.425932243391572,3.0813368263453143,1.8808784222705501,1.0023880317228224,0.4401228084309201
0.0,19.0,19.0,0.0,120.0,0.0,-0.5456369971899213,0.3458837014030416,-0.597781574081846,-107.0,0.0,-45.0,0.14440179052444924,0.11186615015686763,-0.9073927827646373,34.278640887730695,17.554526791089916,10.409843933355388,9.665247787599357,9.193552662516252,8.671650016178026,8.026740034988993,7.2797935218002845,6.424977121658391,5.499253710026372,4.512803813096388,3.4390302162877653,2.343782447275408,1.3833761067038424,0.6915924104994112,0.2923535215579739,0.09673752432251187,11.02573890643603,10.587702902311388,10.297858858897609,9.966486724353242,9.539258489168144,9.017614861117087,8.381092530016879,7.636261375120751,6.7636025039910805,5.689967582856406,4.411706966531542,3.063551084838461,1.8642517567281651,0.9902370613648577,0.43333580215388107
0.0,20.0,20.0,0.0,120.0,0.0,-0.3739200705491057,-0.7686807581482953,0.03471857010387969,-107.0,0.0,-45.0,-0.8029920294403827,0.9771611090781029,0.6157114560943104,34.278640887730695,17.554526791089916,10.411012030967019,9.666412177243783,9.194713362308446,8.672805197157592,8.027886068838427,7.2809189765084295,6.425880732170024,5.49867279054009,4.508348659633476,3.4295197327975306,2.3310935444852303,1.3711959787934456,0.6827649460956676,0.28739115431476664,0.09467544053492982,11.030323293946708,10.592276962799016,10.30242262299776,9.971035090841056,9.543781334237917,9.0220928785039,8.385357675705622,7.639188940453773,6.762479471934236,5.682091283063326,4.397053624200666,3.045442895358778,1.8474592134421155,0.978046121006032,0.4265678915924849
0.0,21.0,21.0,0.0,120.0,0.0,0.7553604568594809,0.1039886970069861,-0.9602527751551282,-107.0,0.0,-45.0,-0.30696283094856525,0.5691959066347423,-0.40997978019034886,34.278640887730695,17.554526791089916,10.412165701108984,9.667562165648746,9.195859687125571,8.673946043081413,8.029017812581003,7.282029067723456,6.426744796294592,5.497947659957947,4.503601342024635,3.419655375392837,2.3181160399158274,1.3588560903677234,0.673891342781986,0.28243809116514884,0.09263116437489155,11.03488056011473,10.596823900433934,10.306959262998248,9.975556331725148,9.548277039842338,9.02654295458849,8.389576501343301,7.641977399520247,6.761051180284966,5.673781984626683,4.381962516927733,3.0270060790807922,1.8304982306190278,0.9658146966073179,0.4198190874531993
0.0,22.0,22.0,0.0,120.0,0.0,-0.47159155939792496,-0.4015180497320501,-0.44579358061700347,-107.0,0.0,-45.0,0.688951835448989,-0.02525653908013803,0.9412581782979079,34.278640887730695,17.554526791089916,10.413305006461256,9.668697815801622,9.196991700165638,8.675072617916307,8.030135326865109,7.2831236304081255,6.4275664618345685,5.49706927232298,4.498549881834554,3.409427774177962,2.304844510698047,1.3463543159155806,0.6649713210488527,0.2774944436773543,0.09060468056862064,11.03941065577145,10.601343666499476,10.311468730613429,9.980050399688109,9.552745557220316,9.030964889117628,8.393746737817352,7.644618671940833,6.7593049610186835,5.6650272828318515,4.366423866214788,3.0082345742662815,1.8133664544695272,0.9535424398344,0.4130894791445888
0.0,23.0,23.0,0.0,120.0,0.0,-0.676384455400038,0.14456669946754097,-0.9764978554867589,-107.0,0.0,-45.0,-0.53621021135833,0.5106145363720791,0.9554083577012762,34.278640887730695,17.554526791089916,10.414429995513029,9.669819176570172,9.19810945056216,8.676184971693258,8.031238657969931,7.2842024440754285,6.4283425647935735,5.496028042126007,4.493181939711154,3.398827459933362,2.2912736102635516,1.3336887123437726,0.6560047658240887,0.2725604120428511,0.08859600363503502,11.043913488911707,10.605836169568827,10.315950934967574,9.984517205046211,9.557186795141646,9.035358411690495,8.3978658424599,7.647104150567793,6.757227686536921,5.655814509799673,4.350427805790043,2.9891224306577673,1.7960617343445957,0.9412291635878447,0.4063792318273896
0.0,24.0,24.0,0.0,120.0,0.0,0.8346623417494634,-0.4565677435826836,-0.8904642242410421,-107.0,0.0,-45.0,0.4123565817829469,0.7090074127639809,-0.28841229039957894,34.278640887730695,17.554526791089916,10.415540703679088,9.67092628381521,9.19921297449368,8.677283141602702,8.032327838755357,7.285265226905871,6.4290696039796495,5.494813823206698,4.487484811181,3.387844859422021,2.2773980623625016,1.3208575130010327,0.6469917203545383,0.26763628065714384,0.08660517588523989,11.048388926637221,10.610301277441812,10.320405744524923,9.988956617664794,9.561600621715627,9.03972317881484,8.401930979641023,7.6494246808080195,6.754805761939959,5.646130726111556,4.3339643734582864,2.96966380492936,1.7785821187607844,0.9288748380301375,0.399688583658339
0.0,25.0,25.0,0.0,120.0,0.0,0.23768847679626748,-0.7881365835113874,-0.3111040234559692,-107.0,0.0,-45.0,-0.41805755681649104,0.5308910525469004,-0.7741982817272466,34.278640887730695,17.554526791089916,10.416637154356616,9.672019161443705,9.200302296234419,8.678367153028152,8.033402889503563,7.286311628777319,6.429743713677012,5.493415887376818,4.481445422679773,3.3764702910407207,2.2632126562669383,1.3078591229427394,0.6379323808833636,0.2627224140672048,0.08463226554564508,11.052836797000111,10.61473881898197,10.324832988920253,9.993368468772076,9.565986866069158,9.044058770138268,8.405938999679446,7.651570539384377,6.752025117141716,5.63596271210534,4.317023503525579,2.9498529571521512,1.7609258522656586,0.9164795870734093,0.39301784321134464
0.0,26.0,26.0,0.0,120.0,0.0,0.03104789235251615,-0.7494899161682329,0.10209177221412746,-107.0,0.0,-45.0,-0.004613120751972177,-0.36044175113735677,-0.08971961063295164,34.278640887730695,17.554526791089916,10.41771935992779,9.673097822407655,9.201377429151496,8.679437020523226,8.03446381864229,7.287341223080928,6.430360634311007,5.491822902819169,4.4750503277777,3.3646939607555884,2.248712243081363,1.2946921153351982,0.6288270920476464,0.2578192532480849,0.0826773649929365,11.05725689075405,10.619148585861346,10.32923246069764,9.997752552678769,9.5703453198925,9.048364683767304,8.409886415999264,7.653531412569979,6.748871198781469,5.625296958792534,4.299595019780806,2.9296842482374705,1.743091373099665,0.904043685294307,0.3863673870606616
0.0,27.0,27.0,0.0,120.0,0.0,0.529332702645553,-0.7275435299427342,0.5938929490218614,-107.0,0.0,-45.0,-0.1322263623358595,0.4579976307870606,0.2036240859565377,34.278640887730695,17.554526791089916,10.41878732271308,9.674162269653413,9.202438376653514,8.680492748736564,8.035510623335055,7.2883534971823325,6.430915681033349,5.490022912318236,4.468285703557198,3.3525059582726,2.2338917330959003,1.2813552289107875,0.61967634292829,0.2529273121746753,0.08074058909020315,11.061648963019769,10.623530334219682,10.333603916964021,10.002108628409783,9.574675738847008,9.052640330575386,8.413769380461243,7.655296373931439,6.745328961880163,5.614119658351854,4.2816686290218,2.909152138326447,1.7250773116143958,0.8915675552448661,0.37973765751177885
0.0,28.0,28.0,0.0,120.0,0.0,-0.8782121478492995,0.6006280622747644,0.6077545208770367,-107.0,0.0,-45.0,0.6157112273079839,-0.26392713580211247,0.534657854419083,34.278640887730695,17.554526791089916,10.419841035879484,9.675212497025791,9.203485133094805,8.681534333288521,8.036543289918592,7.28934784137218,6.431403710158273,5.488003311380716,4.461137347096896,3.3398962534029875,2.21874609413008,1.2678473663963623,0.6104807636911401,0.24804717465746032,0.07882207361444363,11.066012734870887,10.627883786244054,10.337947080963753,10.0064364212539,9.578977843826001,9.056885027389685,8.417583656798028,7.656853861618,6.741382861182019,5.602416694156803,4.263233915119697,2.888251186099826,1.7068824894114099,0.8790517651304868,0.3731291604667111
0.0,29.0,29.0,0.0,120.0,0.0,-0.841532722386185,0.14448842634862902,-0.8811864612902467,-107.0,0.0,-45.0,-0.7343587765561761,-0.502744830552627,0.684640644260019,34.278640887730695,17.554526791089916,10.420880484307862,9.676248490130888,9.204517684639374,8.682561761603534,8.037561794161572,7.290323536134083,6.431819083385213,5.485750826305962,4.453590672012713,3.326854692594152,2.203270350826326,1.2541675938472863,0.6012411227640898,0.2431794914138757,0.07692197376647282,11.070347894845817,10.63220863167458,10.342261643579718,10.010735624236771,9.583251322055524,9.061097988934193,8.421324592084753,7.658191655233816,6.7370168421147625,5.590173630299952,4.24428033362028,2.8669760489874148,1.6885059191693919,0.8664970268281276,0.36654246341118524
0.0,30.0,30.0,0.0,120.0,0.0,-0.3091758804444322,0.1449815792679201,0.9428216370995297,-107.0,0.0,-45.0,0.43728360195958893,0.7007277227020261,0.04881155359677791,34.278640887730695,17.554526791089916,10.421905645422784,9.677270227161024,9.205536010087968,8.68357501370137,8.038566101311375,7.291279737541096,6.43215562974904,5.483251492266949,4.445630705002355,3.313370995604452,2.187459584861863,1.2403151408280522,0.5919583245000777,0.2383249773491675,0.07504046275506102,11.074654100390319,10.636504529240923,10.346547264765938,10.015005899522002,9.587495828016861,9.065278318393188,8.424987086178385,7.6592968523298435,6.7322143312928295,5.577375700579392,4.224797206886022,2.8453214842611816,1.6699468051303799,0.8539041942193728,0.3599781935120587
0.0,31.0,31.0,0.0,120.0,0.0,-0.10657094086545693,-0.4896581203831236,0.5118316233036273,-107.0,0.0,-45.0,-0.3688724038023907,0.8957076775529911,0.5652842116450043,34.278640887730695,17.554526791089916,10.422916489988479,9.67827767968519,9.206540081671612,8.68457406295049,8.039556165887321,7.292215460574333,6.432406605246925,5.480490631462334,4.437242082335438,3.2994347523102543,2.17130893605689,1.2262894013882857,0.5826334072806927,0.23348440902280737,0.07317773044774759,11.078930979235663,10.640771108034352,10.350803574916352,10.01924687974489,9.591710984167046,9.06942499644585,8.42856555906355,7.660155844550833,6.726958226479734,5.564007796918372,4.204773719787868,2.823282351001196,1.651204544219437,0.8412742618150144,0.3534370358139245
0.0,32.0,32.0,0.0,120.0,0.0,-0.9964693528346331,0.6496297582702368,0.9732745960059146,-107.0,0.0,-45.0,-0.10003552917557723,-0.005674096451717459,-0.5936581413579094,34.278640887730695,17.554526791089916,10.423912982873613,9.67927081340781,9.207529865814339,8.685558876786217,8.040531931168294,7.293129560138418,6.432564650098864,5.477452831399127,4.4284090462268875,3.2850354196413196,2.1548136043643,1.2120899357896229,0.5732675420188628,0.22865862227837994,0.07133398208144323,11.083178130716162,10.645007968819339,10.355030176173832,10.023458169282744,9.595896381426796,9.0735368686077,8.432053916046486,7.660754293469952,6.72123088591567,5.5500544571922275,4.184198915960464,2.8008536129282513,1.6322787277744089,0.8286083636487586,0.34691973152452477
0.0,33.0,33.0,0.0,120.0,0.0,0.6063941669275619,-0.3745105652881482,-0.8359283171217646,-107.0,0.0,-45.0,-0.9337780376210076,0.8388076541062102,-0.7885287098746119,34.278640887730695,17.554526791089916,10.424895083787941,9.680249588898569,9.208505323867676,8.686529417396317,8.04149332831133,7.294020709529698,6.432621743609542,5.47412192336302,4.419115441026635,3.2701623186496676,2.1379688527336764,1.197716472945382,0.5638620310227876,0.22384851001652212,0.06950943702646048,11.087395127030206,10.649214685288687,10.359226643683428,10.027639345465953,9.600051579397753,9.077612630700052,8.435445510744998,7.661077106139805,6.715014116907394,5.535499852442761,4.163061694639395,2.778030342101622,1.6131691438653692,0.8159077724191364,0.3404270763791583
0.0,34.0,34.0,0.0,120.0,0.0,-0.6364790825767181,-0.3476565684635078,-0.8252029471254612,-107.0,0.0,-45.0,-0.15899158077114017,-0.35187243036061466,-0.30239766895674225,34.278640887730695,17.554526791089916,10.425862747993055,9.68121396229557,9.209466412819042,8.687485642376092,8.042440275023093,7.2948873760931905,6.432569156610572,5.47048096112956,4.409344709154369,3.254804631725447,2.1207700108485854,1.1831689135400199,0.5544183071861806,0.2190550200919996,0.06770432759816258,11.091581514448237,10.653390805265685,10.36339252679332,10.031789959733173,9.604176106261585,9.08165081225234,8.438733105828518,7.661108410383555,6.708289163566767,5.52032777346429,4.141350808103665,2.7548077234847943,1.5938757801855261,0.8031738988597628,0.33395991907479805
0.0,35.0,35.0,0.0,120.0,0.0,-0.23111068150248926,-0.9221056020565455,0.0068231480141569545,-107.0,0.0,-45.0,-0.9859687273936644,0.016607732415405474,0.9853415358109612,34.278640887730695,17.554526791089916,10.426815926989633,9.68216388598407,9.210413085975697,8.688427505354664,8.043372673690486,7.295727793784035,6.432397401475556,5.466512199964143,4.399079886703814,3.238951399981813,2.1032124797421394,1.1684473338006454,0.5449379334725298,0.21427915331738456,0.06591889791083129,11.095736814471419,10.657535851857089,10.367527350207117,10.035909538734492,9.608269458303186,9.08564975762667,8.441908831470963,7.660831529842304,6.70103669357458,5.504521616751512,4.119054859751533,2.7311810603867537,1.574398827497582,0.7904082913188982,0.3275191597649772
0.0,36.0,36.0,0.0,120.0,0.0,0.24140345627633564,-0.17366542940624985,-0.19897265162966393,-107.0,0.0,-45.0,0.26917883258298136,-0.3111844793493834,0.7935838357580465,34.278640887730695,17.554526791089916,10.427754569182902,9.683099309252475,9.211345293625703,8.689354956593379,8.044290408856897,7.2965399323293045,6.432096179714741,5.462197075951347,4.388303598637439,3.2225915208398384,2.0852917373014725,1.1535519898969224,0.5354226026631964,0.20952196155690028,0.06415340276886738,11.099860524944464,10.661649324560424,10.371630615091027,10.039997585385944,9.612331098987875,9.089607604637125,8.44496414148801,7.660228958786358,6.693236783835831,5.488064369805092,4.096162302842424,2.7071457807903645,1.55473868362151,0.7776126355301736,0.3211057486070887
0.0,37.0,37.0,0.0,120.0,0.0,0.6523757944657025,-0.17366509535990193,0.9258975126130724,-107.0,0.0,-45.0,-0.7025593651911546,-0.9863715037169454,0.000114892969256708,34.278640887730695,17.554526791089916,10.428678620527776,9.684020178927032,9.212262983676467,8.69026794355631,8.045193343908693,7.29732146266506,6.431654327172514,5.457516185684982,4.376998053489291,3.205713745853076,2.067003344676914,1.1384833229499525,0.5258741373409732,0.20478454589516135,0.06240810659076866,11.103952121126408,10.665730700329403,10.375701800139304,10.044053579878666,9.61636045750814,9.093522260419729,8.447889767140188,7.659282336686137,6.684868904882302,5.470938595796453,4.072661439942331,2.6826974445841922,1.5348959579512944,0.7647887545569846,0.31472068435393047
0.0,38.0,38.0,0.0,120.0,0.0,0.05964000659787283,-0.014223115945634524,-0.3933474875319698,-107.0,0.0,-45.0,0.8601188681682619,0.31646704353896404,-0.3694277063542144,34.278640887730695,17.554526791089916,10.42958802515461,9.684926439986064,9.213166102271032,8.69116641145143,8.046081316810549,7.298069718304326,6.431059756868111,5.452449266338554,4.365145037491378,3.188306678820776,2.0483429536167113,1.1232419646340233,0.5162944900820791,0.20006805486642976,0.06068328236177637,11.108011056723141,10.669779434601422,10.379740362601822,10.048076980646067,9.620356926699202,9.09739137429245,8.45067566859539,7.657972422525283,6.675911903868693,5.453126417600499,4.0485404231155915,2.6578317517183208,1.5148714764897473,0.7519386088935531,0.30836501298174307
0.0,39.0,39.0,0.0,120.0,0.0,-0.2329192324886511,-0.45976468239439705,-0.2931492256534427,-107.0,0.0,-45.0,0.2624651335906967,-0.855124830800063,0.9118040273359926,34.278640887730695,17.554526791089916,10.430482725975809,9.685818036154116,9.214054594381395,8.692050303738855,8.046954134698312,7.298781652271719,6.430299399538816,5.446975176122047,4.352725908037612,3.1703587742478256,2.0293063147532955,1.1078287433585507,0.506685743830701,0.19537368273086805,0.05897921061140135,11.112036764885858,10.673794962291282,10.383745739277442,10.052067225291312,9.624319860203201,9.10121230732789,8.453310984055676,7.65627906882111,6.666343985998508,5.434609501210997,4.023787254910547,2.632544551309453,1.4946662873914895,0.7390642967061615,0.3020398263473184
0.0,40.0,40.0,0.0,120.0,0.0,0.463691806009652,-0.6763731457510445,-0.9695144363616444,-107.0,0.0,-45.0,0.39581915313662974,-0.5356188219923359,-0.6579184789444794,34.278640887730695,17.554526791089916,10.431362667191577,9.686694912382452,9.21492840627143,8.692919564473371,8.047811568937732,7.2994537909815,6.429359143572453,5.441071876424891,4.339721587150372,3.15185833595619,2.009889285200178,1.092244689071581,0.49705011410963384,0.19070266739032507,0.0572961783930402,11.116028634112178,10.67777667367876,10.387717322403136,10.056023706430691,9.628248543799689,9.104982073736947,8.455783952904154,7.654181174045843,6.656142678449951,5.415369034527477,3.998389805783184,2.6068318797675527,1.4742816519542326,0.726168052728229,0.2957462619168131
0.0,41.0,41.0,0.0,120.0,0.0,-0.08139721687575707,-0.09084517305438045,0.82690471796393,-107.0,0.0,-45.0,-0.3942740973799348,0.8315468338530205,-0.600859775075955,34.278640887730695,17.554526791089916,10.43222779513904,9.687557015710132,9.21578748637359,8.693774139098368,8.048653347153785,7.3000821816790005,6.42822377189985,5.434716413885735,4.326112554481318,3.1327935176805317,1.9900878396505826,1.0764910398492642,0.4873899487665637,0.18605628978599806,0.05563447816339317,11.119986075679925,10.681723981857164,10.391654527086377,10.05994583895849,9.632142256728365,9.108697368177294,8.458081922884855,7.651656712080969,6.645284849691896,5.39538572000812,3.9723357752329442,2.580689897618677,1.4537190913511686,0.7132522523665026,0.28948549870665946
0.0,42.0,42.0,0.0,120.0,0.0,0.8952583671039935,-0.36407897677764733,0.48416507966500966,-107.0,0.0,-45.0,-0.6398955272902396,-0.891897791859493,-0.701381597425607,34.278640887730695,17.554526791089916,10.433078054115592,9.688404291060555,9.21663178105841,8.694613970050721,8.049479138123452,7.3006623289829875,6.426876891578565,5.427884897599893,4.3118788349367,3.113152321785302,1.9698980842629596,1.0605692552103545,0.47770772634841174,0.1814358715463302,0.053994407063414615,11.12390847233245,10.68563627140591,10.39555673998832,10.063833008700286,9.63600021372505,9.11235447245564,8.460191243227966,7.648682660887448,6.633746652637751,5.374639748422083,3.9456127283632267,2.554114959946736,1.4329803618864634,0.7003194095841092,0.2832587581275616
0.0,43.0,43.0,0.0,120.0,0.0,0.5130862046055409,-0.2543855580140526,-0.515344123719722,-107.0,0.0,-45.0,-0.994992428174968,-0.21825630554802355,-0.6000429107041649,34.278640887730695,17.554526791089916,10.433913392816375,9.689236687690071,9.217461241081532,8.69543900303683,8.05028854517469,7.301189136212501,6.42530087226033,5.420552486805199,4.296999994178679,3.092922604101065,1.9493162705785794,1.04448102272335,0.46800605592170347,0.17684277119727349,0.052376267582807896,11.127795190159901,10.689512915455149,10.399423341561876,10.067684602284084,9.639821599486034,9.1159492714922,8.462097300319408,7.645235119589598,6.621503712308081,5.353111085499537,3.918208497150795,2.5271040209447664,1.412067512721753,0.6873718046991513,0.2770675167683161
0.0,44.0,44.0,0.0,120.0,0.0,-0.20199353802227837,-0.5302430930764652,-0.07436724536602468,-107.0,0.0,-45.0,-0.1378599545774737,-0.6249386826484411,-0.7727824343698737,34.278640887730695,17.554526791089916,10.434733755591884,9.690054150345992,9.218275812621927,8.696249177670765,8.051081081100639,7.301656824114108,6.423476766394211,5.412693361679108,4.281455116036406,3.0720920637849867,1.928338799268981,1.0282282631777038,0.458287686158591,0.1722783890705664,0.050780361469033954,11.131645569497339,10.693353250990448,10.403253665754566,10.071499943298537,9.64360545589358,9.11947703590692,8.463784189824066,7.641288862790908,6.608530466207009,5.330778537462102,3.8901099790021316,2.4996534456255333,1.3909827569391933,0.6744126076696632,0.2709128602032322
0.0,45.0,45.0,0.0,120.0,0.0,-0.10999926007544358,-0.4028827066742422,-0.7477273238144178,-107.0,0.0,-45.0,0.9653551890656633,0.9589813904489932,0.00278155018327908,34.278640887730695,17.554526791089916,10.43553909197978,9.690856628871927,9.219075446925116,8.69704443685931,8.051856159180058,7.302058862580263,6.421384248706869,5.404280716000909,4.2652228017310305,3.0506482571451534,1.9069622447247219,1.01181314383802,0.44855549843557335,0.1677441590967097,0.04920699389686871,11.1354589411182,10.697156610613428,10.407047047315569,10.075278362702013,9.647350779233852,9.122932535960278,8.465234923010176,7.63681773135909,6.594800765045658,5.307620645863302,3.861304345562223,2.4717602198533246,1.36972861963827,0.6614447588017887,0.2647961250847311
0.0,46.0,46.0,0.0,120.0,0.0,0.6327407859133511,-0.2281687402635777,-0.7155603644849509,-107.0,0.0,-45.0,-0.7641575489639523,0.27585157215840694,0.24133614164475525,34.278640887730695,17.554526791089916,10.43632935432173,9.691644075783211,9.219860097788345,8.697824723706345,8.052613067908093,7.302387882059468,6.419001540813171,5.3952867352991545,4.2482811528937425,3.0285785973330155,1.8851833679095031,0.9952380871344145,0.43881251033578494,0.16324154923666254,0.047656470875328816,11.139234622242684,10.700922313470556,10.410802807623035,10.079019176720283,9.651056471062708,9.126309923454535,8.466431272554367,7.631794464005238,6.580287631392778,5.283615369054202,3.8317786584526043,2.44342157685558,1.3483079012446206,0.6484713354784928,0.2587186875998406
0.0,47.0,47.0,0.0,120.0,0.0,-0.1660474761896258,0.32772479484745554,0.371359724612667,-107.0,0.0,-45.0,0.3758386236470328,-0.6462037151802331,0.05225085790211215,34.278640887730695,17.554526791089916,10.437104498160426,9.69241644665292,9.220629721869289,8.698589981062852,8.053350944346262,7.302635580279602,6.416305337963656,5.38568257801047,4.230607756991045,3.0058703588811824,1.8629991336938032,0.9785057811485353,0.4290618766992618,0.15877205975265984,0.04612909830125079,11.14297191751623,10.704649666171937,10.414520255511926,10.082721687140362,9.654721321263601,9.12960266271861,8.467353703677487,7.626190662860295,6.564963219134685,5.258740058173087,3.8015198737530747,2.414635010027045,1.3267236862579306,0.6354955579007509,0.2526819592825013
0.0,48.0,48.0,0.0,120.0,0.0,0.37644541747710125,0.29237516901914606,-0.15552368745496392,-107.0,0.0,-45.0,-0.4138347194412917,0.2936748825846496,-0.9791194079007675,34.278640887730695,17.554526791089916,10.437864482626821,9.693173700491052,9.221384278972469,8.69934015074917,8.05406874243522,7.3027926208289395,6.413270734962818,5.375438356025227,4.212179671589261,2.98251068364832,1.8404067296368996,0.9616191906322695,0.41930689061651144,0.15433722139798114,0.04462518103992777,11.146670120107302,10.708337963901988,10.418198688357263,10.086385181788861,9.658343988319263,9.132803456036415,8.467981304767376,7.619976758989764,6.548798772448679,5.232971437055183,3.7705148532854627,2.3853982923492665,1.3049793530618992,0.6225207899037111,0.24668738562498446
0.0,49.0,49.0,0.0,120.0,0.0,-0.1520039617206621,0.8484750417801323,0.17807864363984205,-107.0,0.0,-45.0,0.1497766479608873,0.40972813024674304,0.5901535944637031,34.278640887730695,17.554526791089916,10.438609270763127,9.693915800063074,9.222123732258888,8.700075172278257,8.054765195416996,7.302848523155405,6.409871151434218,5.364523114273263,4.192973407412035,2.9584865882956977,1.8174035862558946,0.9445815685356567,0.40955098437651455,0.1499385935446584,0.043145022009243285,11.150328512869132,10.711986491599127,10.421837393222027,10.090008934832362,9.661922975790963,9.135904162415791,8.468291716403906,7.613121975596225,6.531764581328522,5.2062855821522165,3.7387503775443545,2.3557094972413437,1.2830785841752925,0.6095505397542748,0.24073644465428548
0.0,50.0,50.0,0.0,120.0,0.0,0.4242356736056765,0.9839727014246169,-0.9702627390343337,-107.0,0.0,-45.0,-0.5965477770546934,-0.8703536950223767,-0.7731074066325512,34.278640887730695,17.554526791089916,10.439338829765036,9.694642712131781,9.222848048363554,8.700794980911642,8.055438771453051,7.302791543617697,6.406078256649868,5.352904809004708,4.1729649102184005,2.9337849734859436,1.7939873988711525,0.9273964680356193,0.39979773034403093,0.14557776223999125,0.04168892126633592,11.153946369574998,10.715594525214895,10.425435648080597,10.09359220681933,9.665456604403026,9.138895709354813,8.468261058878674,7.605594288447964,6.513829933491907,5.17865790258528,3.7062131604182187,2.3255670209135713,1.2610253769360327,0.5965884609118384,0.234830645468242
0.0,51.0,51.0,0.0,120.0,0.0,-0.16817773493049337,0.9671435727992324,-0.09180646730765774,-107.0,0.0,-45.0,-0.459249894072685,0.24899052861633053,-0.9923680337786407,34.278640887730695,17.554526791089916,10.440053131124026,9.695354407604263,9.223557197404274,8.701499504831629,8.056087621414985,7.302608547259425,6.401861894127147,5.340550284372913,4.152129541555273,2.908392635009786,1.7701561511253672,0.9100677550554784,0.39005084173960264,0.14125633818298788,0.04025717509583527,11.15752295623201,10.71916133305851,10.428992723125223,10.097134244350247,9.668942979048314,9.14176799727435,8.467863858280888,7.597360383006243,6.494963062512588,5.150063120469674,3.672889865861294,2.2949696062989546,1.238824054608913,0.5836383527328435,0.22897152672632476
0.0,52.0,52.0,0.0,120.0,0.0,-0.4433564178249991,0.8618732388310963,-0.5128451461194101,-107.0,0.0,-45.0,0.6971516751397953,0.023076053285697284,0.5568216298817166,34.278640887730695,17.554526791089916,10.440752150649839,9.69605086156448,9.224251152864879,8.702188661155079,8.056709517709113,7.302284870027209,6.39719000617306,5.327425246878912,4.130442058468049,2.8822962770628284,1.7459081402809347,0.8925996212634421,0.3803141732943728,0.1369759546123208,0.038850075098599064,11.161057532473079,10.722686177227336,10.43250788215747,10.100634279221225,9.672379949941451,9.144509796304133,8.467072971189102,7.588385607655456,6.4751310920352525,5.120475251668019,3.638767126696691,2.2639163686413495,1.2164792779057503,0.5707041610992111,0.22316065509011668
0.0,53.0,53.0,0.0,120.0,0.0,-0.5036598960789491,0.1792404748669323,0.18465567843647412,-107.0,0.0,-45.0,0.1906607925807191,-0.4283536606811771,-0.6541568648287948,34.278640887730695,17.554526791089916,10.441435868354072,9.696732053172735,9.224929891337872,8.702862350443663,8.057301782876571,7.301804171214427,6.392028558520229,5.313494237190292,4.1078765922859395,2.855482527910136,1.7212420044068188,0.8749965975362023,0.37059172175023775,0.1327382650977405,0.037467907279686095,11.164549353018558,10.726168315115505,10.435980384059208,10.104091526833676,9.675765067049568,9.147108635131012,8.465859507962172,7.578633922367661,6.45429997594876,5.089867587146902,3.603831565753831,2.232406822822243,1.1939960569043524,0.5577899789496982,0.21739962360853
0.0,54.0,54.0,0.0,120.0,0.0,-0.3771872826692715,-0.733452909056667,-0.49213626892386375,-107.0,0.0,-45.0,-0.38687627567149896,-0.3007898637274915,-0.2174080390172366,34.278640887730695,17.554526791089916,10.442104268179563,9.697397965416826,9.225593392115362,8.70352044928099,8.057861206588916,7.301148275986848,6.386341465150152,5.2987205988046115,4.084406626635139,2.827937958193042,1.6961567515717597,0.8572635678713452,0.3608876261743293,0.1285449412273495,0.036110951134063506,11.16799766918953,10.729607000983084,10.43940948432759,10.10750518359644,9.679095526826023,9.149550681645374,8.464192754561198,7.568067842058143,6.432434434411559,5.058212675133723,3.568069819567367,2.2004409125114037,1.171379763350113,0.5449000466925307,0.21169005004264577
0.0,55.0,55.0,0.0,120.0,0.0,-0.7917730685644944,-0.5934527580222546,-0.8844265612448614,-107.0,0.0,-45.0,-0.015403181579296543,-0.18228093244647225,0.15520662325366463,34.278640887730695,17.554526791089916,10.442757337568453,9.698048584707285,9.226241636624604,8.704162800387063,8.05838394953914,7.300297007935248,6.380090513336718,5.283066442990311,4.060004974873446,2.799649102148431,1.670651791164617,0.8394057837299616,0.3512061680555346,0.12439767018351953,0.034779478728175495,11.171401730444456,10.733001487557377,10.442794436647173,10.110874422967978,9.682368110163825,9.151820615154586,8.462040092755146,7.556648373812335,6.409497885644386,5.025482304294912,3.531468564892576,2.1680190412297375,1.148636143320681,0.532038752476892,0.20603357512462683
0.0,56.0,56.0,0.0,120.0,0.0,-0.2164320083955411,0.9567348891053948,-0.5207841512313007,-107.0,0.0,-45.0,0.47776368446632644,0.0037374273479855447,0.4393937418144491,34.278640887730695,17.554526791089916,10.443395066874377,9.69868390032141,9.226874607714713,8.704789199621558,8.058865432611531,7.2992280117032715,6.373235288863865,5.266492609409025,4.0346437571835825,2.770602482026712,1.6447269674646565,0.8214288787878052,0.34155177114930046,0.1202981522004342,0.03347375377528697,11.174760785900101,10.736351027626576,10.446134494459397,10.114198389690166,9.685579110372526,9.153901489971307,8.459366918464102,7.544334947088956,6.385452373425281,4.991647488182528,3.4940145483200853,2.1351421054159037,1.125771330230535,0.5192106322999746,0.2004318607446507
0.0,57.0,57.0,0.0,120.0,0.0,-0.32554666742364735,-0.34307976248674943,-0.9649464513095425,-107.0,0.0,-45.0,-0.6361575719675867,0.6193038977381442,-0.5510527267684728,34.278640887730695,17.554526791089916,10.444017448642798,9.699303903718759,9.227492288814654,8.705399379086984,8.059300209605668,7.29791656585632,6.365733101275008,5.248958621804925,4.008294377610521,2.74078463601042,1.6183825955849342,0.8033388840703105,0.3319290010361006,0.11624809789643388,0.0321940307022755,11.178074085789667,10.739654875576834,10.449428912477048,10.117476191654282,9.688724249870672,9.155774590231047,8.456136557875523,7.531085335929962,6.360258490243508,4.956678451225762,3.455694619301875,2.1018115295912385,1.102791858148722,0.5064203699257026,0.19488658805873324
0.0,58.0,58.0,0.0,120.0,0.0,-0.8974232153772113,-0.3188481165497341,-0.6258352202028519,-107.0,0.0,-45.0,0.20470555505670962,-0.5524061684270971,-0.8156918684312155,34.278640887730695,17.554526791089916,10.444624476807643,9.699908587774608,9.228094662997446,8.705992985376326,8.059681821693887,7.296335386287851,6.357538908896636,5.230422638142317,3.980927501379251,2.710182149950905,1.5916194999109108,0.7851422434429809,0.3223425643578436,0.112249225474169,0.03094055370565414,11.181340882807028,10.742912288818806,10.45267694808016,10.120706888711066,9.691798584178505,9.157419275848476,8.452310180829649,7.516855572140448,6.333875296090231,4.920544616575332,3.416495766929062,2.0680293037210693,1.079704675398952,0.49367279659040364,0.18939945550925597
0.0,59.0,59.0,0.0,120.0,0.0,-0.5119838866589577,0.05819855559366349,0.4274234835745898,-107.0,0.0,-45.0,-0.28058028296950943,0.7849517288736405,-0.397935598650748,34.278640887730695,17.554526791089916,10.44521614588079,9.700497946005742,9.228681711998625,8.706569551811718,8.060002631710528,7.294454420598757,6.348605243241423,5.210841394583171,3.952513032884473,2.6787816932566897,1.5644390551550127,0.7668458294242838,0.31279730769552394,0.10830325778117264,0.0297135557950393,11.184560433289015,10.74612252905098,10.455877862521435,10.123889477591124,9.694796391698775,9.158812819586046,8.447846710809458,7.501599848339791,6.306260232882663,4.883214596142573,3.376405160829262,2.0337980228733694,1.0565171584074162,0.48097289046944536,0.18397217674861424
0.0,60.0,60.0,0.0,120.0,0.0,-0.7381195616901572,-0.9939104874138476,0.7115732374113806,-107.0,0.0,-45.0,0.9987961654658744,-0.7737039108936812,0.5828835615915222,34.278640887730695,17.554526791089916,10.44579245024215,9.701071971894217,9.229253415243756,8.70712846328432,8.060253636309463,7.2922406340294925,6.338882132235763,5.190170142725324,3.923020094801605,2.6465700592848407,1.5368432301483657,0.7484569592830652,0.3032982160500857,0.10441191922292316,0.028513257823171788,11.187731998201462,10.749284863319444,10.459030921865528,10.127022871938635,9.697711047693415,9.15993023528314,8.442702730690366,7.485270409735848,6.277369034538238,4.84465618321124,3.335410196577091,1.999120929279851,1.033237125760434,0.46832577587786367,0.1786064784548793
0.0,61.0,61.0,0.0,120.0,0.0,0.02863728706915092,0.10493743763458196,0.5811139439138133,-107.0,0.0,-45.0,0.6668661680799997,-0.7447411451264017,-0.3134822784125837,34.278640887730695,17.554526791089916,10.446353383667015,9.7016306584438,9.229809748931453,8.707668912021939,8.060424253985797,7.289657787663128,6.328317021528482,5.168362579568928,3.892417008829376,2.6135342106072645,1.5088346344947128,0.7299834113760545,0.29385041088604236,0.10057693251961841,0.02733986750321968,11.190854843920299,10.752398564856962,10.46213539758672,10.130105876279561,9.70053488080657,9.160744097376194,8.436832383203942,7.467817433435754,6.247155632730341,4.804836348038605,3.293498546035917,1.9640019569077756,1.009872852430044,0.45573672217568356,0.17330409802730137
0.0,62.0,62.0,0.0,120.0,0.0,0.3710313837174646,-0.7014065124148146,-0.5843494375074147,-107.0,0.0,-45.0,-0.009223170035624229,-0.6187968899370091,-0.6362031733898783,34.278640887730695,17.554526791089916,10.446898939249051,9.702173998126057,9.230350685184641,8.70818984226932,8.060502086939733,7.286666209740727,6.316854692918695,5.145370769744013,3.8606712786372657,2.579661329550025,1.4804165682224457,0.7114334416735397,0.2844591476937933,0.09680001529727748,0.02619357841613841,11.193928242837769,10.755462913721528,10.465190566751739,10.133137152542593,9.703259010456367,9.161224351928748,8.430187264848128,7.449188894083292,6.215572058370205,4.763721236903457,3.2506582130747197,1.9284457786546112,0.9864330841221097,0.443211142346463,0.16806678114858023
0.0,63.0,63.0,0.0,120.0,0.0,0.2764142040102786,-0.11074288479468519,0.3044303871842191,-107.0,0.0,-45.0,-0.009536584224260958,-0.6769028840722882,0.8040249565454394,34.278640887730695,17.554526791089916,10.447429109884492,9.702701983381406,9.230876191209616,8.708689881456118,8.060472654766782,7.283222561022495,6.304437178687241,5.121145059616426,3.8277495756578324,2.5449388744378836,1.4515930745893755,0.6928158004117918,0.27512981302085066,0.09308287650332603,0.025074569013589995,11.196951473875076,10.758477197303426,10.468195711714193,10.13611517752396,9.705873163423595,9.16133811947773,8.42271631173465,7.429330414602576,6.182568338867171,4.721276175103368,3.206877595134704,1.8924578562818621,0.9629270516962483,0.4307545912140843,0.1628962792009531
0.0,64.0,64.0,0.0,120.0,0.0,0.5599067588190905,-0.8275263883406565,-0.752644316330173,-107.0,0.0,-45.0,-0.2472382751363693,0.5096839638965298,-0.062909850569558,34.278640887730695,17.554526791089916,10.447943889467528,9.703214607826343,9.231386228272676,8.709167254936423,8.060319097989469,7.279279595172946,6.291003670325435,5.095633982989459,3.7936177284346675,2.509354642022716,1.422368996223262,0.6741397487994524,0.2658679209143778,0.0894272126372328,0.023983001624733186,11.199923823039336,10.761440710825346,10.47115011923288,10.139038189426902,9.708365468005896,9.161049490076214,8.414365675595608,7.408185100828608,6.148092391220578,4.677465674453654,3.1621455511624887,1.8560444932079572,0.9393644855993166,0.4183727632592604,0.1577943465244379
0.0,65.0,65.0,0.0,120.0,0.0,-0.7598170629403884,-0.6268267856025647,-0.6549182903636883,-107.0,0.0,-45.0,0.5011164385072098,-0.34274647255191537,-0.17902560913767296,34.278640887730695,17.554526791089916,10.448443274902408,9.703711868275283,9.231880750099837,8.70961968080331,8.060021849502984,7.274785915125408,6.276490419825713,5.068784158236489,3.758240716316567,2.4728968366364095,1.392750034815701,0.6554150756904731,0.2566791087078382,0.08583470378799622,0.022919021477873457,11.202844584217825,10.764352758013645,10.474053078883752,10.141904121304375,9.71072222418087,9.160319310958078,8.405078587873435,7.385693358811294,6.112089910989639,4.632253445899074,3.116451476487573,1.819212890283854,0.9157556302423191,0.4060714899931579,0.1527627375082219
0.0,66.0,66.0,0.0,120.0,0.0,0.9847411623339732,-0.24691938055062046,0.33239686775296184,-107.0,0.0,-45.0,-0.21297504010225854,-0.47555296652552936,0.7220438735149168,34.278640887730695,17.554526791089916,10.448927269060304,9.70419376770177,9.23235970009281,8.710044240680903,8.059558272152023,7.2696857262990635,6.2608306313099655,5.0405401767349876,3.7215826681921684,2.43555414644023,1.3627428145011007,0.6366521142849173,0.24756913200387592,0.08230700952578143,0.021882755703884184,11.205713056909017,10.767212648625106,10.476903877013545,10.14471051535568,9.712927644836403,9.159104963844822,8.394795206330773,7.361792691030357,6.074504255891932,4.585602418864586,3.0697853883648807,1.7819712045014326,0.8921112577360585,0.39385673689612216,0.14780320354725926
0.0,67.0,67.0,0.0,120.0,0.0,-0.7624760134081667,0.05020919358461895,-0.11170383668035933,-107.0,0.0,-45.0,-0.6535304314194263,-0.2832288632097393,0.5961060217662648,34.278640887730695,17.554526791089916,10.449395914525025,9.704660348826112,9.232823035841935,8.710437250813124,8.0589022893352,7.263918614563042,6.243954364759016,5.010844501108966,3.6836068744131656,2.3973158170217466,1.332354924926463,0.6178617583541776,0.23854386142099232,0.07884576749644498,0.020874310450431276,11.20852844557852,10.770019605120286,10.479701705611083,10.147454346583789,9.714963518053679,9.157360116262177,8.383452479800251,7.336417593700588,6.035276567509911,4.537475144658759,3.0221384001620275,1.7443284798890037,0.8684423457237873,0.38173491383080405,0.14291745269672754
0.0,68.0,68.0,0.0,120.0,0.0,0.9876509203793116,0.2590093985101658,-0.08014602787260028,-107.0,0.0,-45.0,-0.9043656197241714,-0.6031333831898382,0.004147341887986711,34.278640887730695,17.554526791089916,10.449849259456691,9.705111660609388,9.233270682823521,8.710794032864417,8.058023915473804,7.257419263617643,6.225788375051842,4.979637322193273,3.644275800622897,2.3581717666779505,1.3015950222291182,0.599055478071132,0.22960927702304373,0.07545257868206795,0.019893775847385456,11.211290181359296,10.772773061274473,10.482445929687717,10.15013213824625,9.716809075949872,9.155034569688413,8.370983876793964,7.309498972524245,5.994344936428062,4.487832701231255,2.973501674700181,1.7062951053555735,0.844761084327688,0.36971194391351214,0.13810725461032541
0.0,69.0,69.0,0.0,120.0,0.0,-0.7557185036770642,0.9343252567593969,-0.3385878072511923,-107.0,0.0,-45.0,0.6334274455153581,0.6336704162182327,0.2184537680007228,34.278640887730695,17.554526791089916,10.45028736133839,9.70554776144325,9.23370251710012,8.71110867667181,8.056888778354095,7.2501171950486025,6.206255948622166,4.946856410907073,3.603551094682381,2.31811267918809,1.270472909909198,0.5802453338566539,0.22077145415384802,0.07212901286392683,0.018941220120584225,11.213997621178262,10.775472382574867,10.48513581753339,10.15273958561191,9.718440485439967,9.15207394469512,8.357319255747656,7.28096420872115,5.95164495886425,4.436635815223507,2.923867629926237,1.6678825054544553,0.8210799439997662,0.35779414105418555,0.13337433479009236
0.0,70.0,70.0,0.0,120.0,0.0,0.20577138733795963,-0.788896271741923,-0.3079460555435751,-107.0,0.0,-45.0,-0.7256376137085965,0.17705629946647372,-0.43163212054917177,34.278640887730695,17.554526791089916,10.450710303128478,9.705968735439564,9.234118352746394,8.71137376905197,8.05545761892624,7.241936524444901,6.185276739930041,4.912436987837686,3.561393626964732,2.2771301183942785,1.2389996085105213,0.561443991331974,0.21203655840674127,0.0688766006494139,0.018016690142605065,11.216650149315553,10.778116961104542,10.487770611858746,10.155271451556695,9.71983053887015,9.148419467725303,8.342384613989825,7.250736790055613,5.9071094222199125,4.383844612600032,2.873229750213384,1.6291033177471421,0.7974119474612779,0.34598796334560894,0.12872039843169905
0.0,71.0,71.0,0.0,120.0,0.0,0.5572191311841765,-0.7855195062340627,-0.10468468489018523,-107.0,0.0,-45.0,-0.013782451511327398,-0.4406792630285896,-0.49742578551280703,34.278640887730695,17.554526791089916,10.451118197596374,9.706374696616281,9.234517904476888,8.711580053452211,8.053685739446468,7.232795700791133,6.162766569273124,4.876311575496537,3.5177635346888416,2.2352166545529064,1.2071874400805742,0.5426647352510539,0.2034108359239434,0.06569682819181412,0.017120210726917266,11.219247184639123,10.780706221209451,10.490349509591935,10.157721349657722,9.720948251875697,9.14400771041203,8.32610180465586,7.218735981856526,5.860668144877975,4.32941864772145,2.8215826929801295,1.589971480769671,0.7737707108879642,0.33429997785311577,0.12414713009245257
0.0,72.0,72.0,0.0,120.0,0.0,0.712948564829792,-0.9959833598137557,0.7366786179892115,-107.0,0.0,-45.0,0.5822962565459766,0.9993018392176931,-0.5849948608206255,34.278640887730695,17.554526791089916,10.45151119054079,9.706765791705282,9.234900731873244,8.711716022958576,8.051522412229184,7.222607239315036,6.138637190394836,4.838409846634657,3.4726202815579725,2.192366005035336,1.1750501167938543,0.5239214814011267,0.19490060277380414,0.0625911318767867,0.016251783922541133,11.22178819005337,10.783239627859643,10.492871634933595,10.160081489218246,9.721758436310575,9.138770326919364,8.308388228556996,7.184876491591754,5.81224783959478,4.273316977834747,2.7689224352797788,1.5505023138711997,0.750170454450747,0.32273685348111997,0.11965618974284997
0.0,73.0,73.0,0.0,120.0,0.0,-0.011876903153634988,-0.44311071793867596,-0.697320070697449,-107.0,0.0,-45.0,0.6877964583701761,0.8384049711135151,0.029257402636651664,34.278640887730695,17.554526791089916,10.451889461266797,9.707142199688892,9.235266157539515,8.711767435529639,8.04891024868231,7.211277443292796,6.1127960224601585,4.798658469408685,3.425922734952336,2.148573191039826,1.1426028338635958,0.5052287866094453,0.18651223325830316,0.059560892808857846,0.01541138832439811,11.224272683021669,10.785716695744249,10.495335999574243,10.162342372333026,9.722221243215891,9.132633778449762,8.289156483184279,7.14906810765251,5.761771975452044,4.215498252674048,2.7152464346498126,1.5107126006418927,0.726626011671188,0.3113053529982836,0.11524920870209794
0.0,74.0,74.0,0.0,120.0,0.0,-0.15782494566356764,0.6037340616674922,0.059145341559712516,-107.0,0.0,-45.0,0.7465434880271382,0.3831512966904811,0.8309350550899994,34.278640887730695,17.554526791089916,10.452253219135025,9.70750412642568,9.235613150232444,8.711716740122613,8.045784529359997,7.198706109372843,6.085145841219366,4.756980950742124,3.377629263627728,2.1038347123005754,1.1098623666623932,0.4866018564665634,0.17825214710443113,0.056607431091481634,0.014598978370035662,11.2267002459199,10.788136997662871,10.497741444281727,10.16449243502779,9.722291675377567,9.12551903992596,8.268313962158956,7.111215311297023,5.7091606400881725,4.155920822041948,2.6605538054387794,1.4706206757089069,0.7031528374458833,0.30001232415474377,0.11092778546143402
0.0,75.0,75.0,0.0,120.0,0.0,0.3594963051014608,0.3365817523908723,-0.9885514095488854,-107.0,0.0,-45.0,-0.9807125864035473,-0.41223380627685313,-0.8633500702059913,34.278640887730695,17.554526791089916,10.45260269530129,9.707851792745467,9.235940162230788,8.711542402201498,8.04207249661747,7.184786209568497,6.055584424206693,4.713297479335761,3.3276978591268414,2.0581487417535187,1.076847171890212,0.4680565504289032,0.17012679545785472,0.05373199989619556,0.013814483585442674,11.229070534283395,10.790500169932018,10.50008655410921,10.16651762340227,9.72191906865409,9.117341281690187,8.24576239738893,7.07121686053004,5.65433040461271,4.094542864852805,2.604845511892491,1.4302465145805474,0.6797670145927023,0.2888646898150298,0.10669348138543239
0.0,76.0,76.0,0.0,120.0,0.0,-0.46094310409109185,0.6368279533449523,0.41303275661774275,-107.0,0.0,-45.0,-0.3928090881138655,-0.9303371675284449,0.9062943143721751,34.278640887730695,17.554526791089916,10.452938129466089,9.708185414668229,9.236244908429374,8.711218117589308,8.037692612578807,7.169403541748415,6.02400414517353,4.667524769914146,3.2760862842695606,2.011515341952467,1.0435774925358356,0.44960938405142836,0.1621426455465033,0.05093577932230796,0.013057807740262875,11.231383280401953,10.792805911678442,10.50236953732921,10.168400894777504,9.721046540798884,9.108009516562266,8.221397335060672,7.028965344452445,5.597194194380092,4.031322543691385,2.548124579318148,1.389611826166452,0.656485258747871,0.2778694370202321,0.10254781626186629
0.0,77.0,77.0,0.0,120.0,0.0,0.6193024056182832,0.9693680573163364,0.6495178966528188,-107.0,0.0,-45.0,0.027152060172706438,0.04423343238185118,0.5291110334659315,34.278640887730695,17.554526791089916,10.453259752592082,9.708505174915672,9.236524072897497,8.710711904892468,8.032553786499303,7.152436339300008,5.990291513699402,4.619575910471816,3.222752252124369,1.9639367047600833,1.0100754662960578,0.4312775281940172,0.15430616382622503,0.04821987005875103,0.012328827879485508,11.233638289432175,10.795053974239792,10.504588056076836,10.170121633368414,9.719610406090052,9.097426199920593,8.195107535493525,6.98434670631071,5.53766116959737,3.966218189387378,2.4903963246460212,1.348740147626804,0.6333249213839663,0.26703360488550437,0.09849226364709329
