Line_number,Fiducial,Easting,Northing,Height,Elevation,tx_pitch,tx_roll,tx_yaw,txrx_dx,txrx_dy,txrx_dz,rx_pitch,rx_roll,rx_yaw,PX,PZ,S0X_time_1.086e-05,S0X_time_3.256e-05,S0X_time_5.426e-05,S0X_time_8.680e-05,S0X_time_1.411e-04,S0X_time_2.279e-04,S0X_time_3.689e-04,S0X_time_5.860e-04,S0X_time_9.115e-04,S0X_time_1.411e-03,S0X_time_2.192e-03,S0X_time_3.418e-03,S0X_time_5.339e-03,S0X_time_8.301e-03,S0X_time_1.338e-02,S0Z_time_1.086e-05,S0Z_time_3.256e-05,S0Z_time_5.426e-05,S0Z_time_8.680e-05,S0Z_time_1.411e-04,S0Z_time_2.279e-04,S0Z_time_3.689e-04,S0Z_time_5.860e-04,S0Z_time_9.115e-04,S0Z_time_1.411e-03,S0Z_time_2.192e-03,S0Z_time_3.418e-03,S0Z_time_5.339e-03,S0Z_time_8.301e-03,S0Z_time_1.338e-02
0.0,0.0,0.0,0.0,120.0,0.0,0.0,0.0,0.0,-107.0,0.0,-45.0,0.0,0.0,0.0,34.27253218749016,17.55503396713325,4.420383105289358,2.5362381432241667,2.0333290387666683,1.788257160220493,1.5858615896238861,1.355853134710788,1.2504102409680184,1.1741327673637036,0.9256288767525375,0.8042986454842471,0.6372790646811728,0.5202500749540181,0.29003758608311225,0.2037632183789283,0.15581000054681204,6.513230130674758,4.476095887035462,3.815391697925705,3.403778393479265,3.0584894675268615,2.8206849674123653,2.555216473684295,2.3220044260894124,2.1232295582884695,1.8754683499559845,1.5673662696188335,1.3093871059207185,0.9878250552164575,0.7849338825059055,0.5763362734001491
0.0,1.0,1.0,0.0,120.0,0.0,0.0,0.0,0.0,-107.0,0.0,-45.0,0.0,0.0,0.0,34.27253218749016,17.55503396713325,4.468371964908902,2.56866235780319,2.079296913274686,1.7436987927676426,1.5017554064064387,1.2612902552316676,1.222975152350544,1.0399443764929022,0.8760008083570014,0.7163916752379226,0.5951238076107589,0.4900663415426678,0.3732290847278537,0.19893399738523812,0.10944777167302705,6.56029716415491,4.527068412275727,3.8948223804506297,3.416209442682818,3.053922760292085,2.705935516642557,2.5208608026161117,2.250585917857559,2.0367587135435725,1.789457401885186,1.5142853399756582,1.2486779606247633,1.0197948134640815,0.7774782074118345,0.4966156897788624
0.0,2.0,2.0,0.0,120.0,0.0,0.0,0.0,0.0,-107.0,0.0,-45.0,0.0,0.0,0.0,34.27253218749016,17.55503396713325,4.3858524655267805,2.544648805676255,2.0743076941213716,1.7251910743681438,1.4923333646543717,1.2553737612870701,1.1543350306051934,1.0215957014991655,0.8333249121868553,0.7631105868658605,0.5684444193905277,0.4226242719668068,0.32329264269500013,0.2562860719446256,0.08064380399395955,6.514293540894906,4.532418895941976,3.912411247520423,3.4197376939983535,3.0170966249166415,2.68174121936499,2.39427852883614,2.221695618795363,1.954281579108261,1.7012729231921537,1.4484368379270134,1.2301679167149886,0.9613221760951915,0.7860715365881961,0.5096366441619753
0.0,3.0,3.0,0.0,120.0,0.0,0.0,0.0,0.0,-107.0,0.0,-45.0,0.0,0.0,0.0,34.27253218749016,17.55503396713325,4.411084450806635,2.5967147221091107,2.131305144687069,1.6936474784013404,1.4552352795165862,1.2222924302915161,1.0489560780074378,0.8977882955901111,0.7429557085649149,0.6936704598912472,0.5180285609299231,0.38015259208397817,0.278720214726472,0.1954378894713424,0.1378506099668075,6.552326262012035,4.527432858628557,3.9197050893504723,3.413597779361265,2.9141831396314832,2.632586661372738,2.3752563583322512,2.110902266349961,1.8633857738416404,1.6485666587294525,1.3820999808058914,1.1621347042667693,0.9173586001426397,0.6894928062460077,0.5126462640741706
0.0,4.0,4.0,0.0,120.0,0.0,0.0,0.0,0.0,-107.0,0.0,-45.0,0.0,0.0,0.0,34.27253218749016,17.55503396713325,4.573376276941062,2.6788476143530042,2.1389693360881528,1.8178224900757876,1.492570765419561,1.1843345902350246,1.046291350882001,0.8256070038178098,0.7242318300414026,0.6417285795877492,0.4979744229344096,0.462040402321121,0.31631816682070557,0.1898790776195678,0.1117962143986901,6.553824681884409,4.550889964283033,3.9743705630115387,3.4350148395498663,3.008587112292405,2.5925765633208497,2.2923669107399816,2.0097130063712862,1.8155756248215036,1.6416637895051336,1.3479218182147232,1.1312360782021973,0.9284641926122963,0.7021200000779738,0.49878070329039603
0.0,5.0,5.0,0.0,120.0,0.0,0.0,0.0,0.0,-107.0,0.0,-45.0,0.0,0.0,0.0,34.27253218749016,17.55503396713325,4.434402801034176,2.581960275066145,2.1612259263703906,1.7799481770841963,1.45925898233352,1.1965705842233638,0.9633632535248262,0.8591549281830186,0.7868094653287275,0.5653829840598253,0.47144386667712584,0.3776271640360713,0.3213267618797291,0.1522798305716002,0.08542605741697204,6.50511257013318,4.592118191154243,4.00506292448829,3.5184028616174623,3.0106217696858604,2.5615903219266527,2.251428731090908,1.977576828937441,1.70673329366299,1.505387300963236,1.3440343613458872,1.0928279379581016,0.8364452082490664,0.682131081731747,0.4983626371390421
0.0,6.0,6.0,0.0,120.0,0.0,0.0,0.0,0.0,-107.0,0.0,-45.0,0.0,0.0,0.0,34.27253218749016,17.55503396713325,4.46482279097185,2.6736876882609715,2.033887607539771,1.8488849198415926,1.5084788875232895,1.1341946009434754,0.9709088573107169,0.7945312354083475,0.6819274670309025,0.5584878522179815,0.41695260116388655,0.4310757665419757,0.25632756187930955,0.19123357802335772,0.08286116223807882,6.549009592331376,4.639198954024339,4.029876649860916,3.5402837282948565,3.0424014271344073,2.5596063130674107,2.186940676562134,1.9366404768404257,1.67983839427129,1.5003441018058183,1.2740791722381788,1.0744391195445255,0.8527057904939049,0.6214622060039504,0.4438481454880675
0.0,7.0,7.0,0.0,120.0,0.0,0.0,0.0,0.0,-107.0,0.0,-45.0,0.0,0.0,0.0,34.27253218749016,17.55503396713325,4.51907071583438,2.739058342539446,2.143938629787063,1.8282087733176668,1.4825520069207934,1.1120320325168938,0.9556737923340733,0.7736344771362621,0.5786738176449834,0.607168296623354,0.4126737300404142,0.2990372592134407,0.27140511929433564,0.2001308468719112,0.1417735334330828,6.579981945336754,4.654311282901468,4.027563652561035,3.514769105966686,3.0600270068661395,2.559074304046039,2.1634741273413844,1.8279548209907228,1.6387531342782877,1.413667676049952,1.2195679822119165,1.0096349506481297,0.8016822608159965,0.6448577959225346,0.4590488174046672
0.0,8.0,8.0,0.0,120.0,0.0,0.0,0.0,0.0,-107.0,0.0,-45.0,0.0,0.0,0.0,34.27253218749016,17.55503396713325,4.54211570789546,2.63118588731444,2.187449379792875,1.841513920471254,1.466481845691963,1.1631657642160866,0.8766905897265711,0.7245164613605088,0.5680930053208693,0.490609841380421,0.4495224503949882,0.32267978372640177,0.3000225335259981,0.15110669676403612,0.11521346161186984,6.5712292216820005,4.745265626673206,4.069344367588229,3.593455451239297,3.0651438713398123,2.5512717265291944,2.1157205199547797,1.8362313305284805,1.5832290018159885,1.3833355057088543,1.1975892151311969,0.9830634625822037,0.7939057052532823,0.6092379654848827,0.4058415773332793
0.0,9.0,9.0,0.0,120.0,0.0,0.0,0.0,0.0,-107.0,0.0,-45.0,0.0,0.0,0.0,34.27253218749016,17.55503396713325,4.560121997610174,2.7452529832808734,2.186612915833404,1.8781121905709224,1.4680806578199714,1.1390558047329518,0.9071491238289258,0.7927173787066794,0.6423753809843239,0.5226419914356193,0.36332468146535796,0.40916126542238535,0.2667526402526583,0.08066827242606271,0.12138484592218032,6.603789926599976,4.716007477731147,4.111678002379505,3.5787023119907184,3.120936860416931,2.577691286228607,2.1529047452730814,1.8288699045691885,1.5363584140007238,1.323963574359904,1.16992433795688,0.9802368126479671,0.7315346020187203,0.6313021255158793,0.4202366617079569
0.0,10.0,10.0,0.0,120.0,0.0,0.0,0.0,0.0,-107.0,0.0,-45.0,0.0,0.0,0.0,34.27253218749016,17.55503396713325,4.538825639020851,2.7390119188426434,2.2107810108055226,1.8422106993151122,1.4267653999818295,1.1274570026824418,0.8431927744814484,0.7106265442194318,0.6312886870856071,0.47840224871818826,0.40011735734333276,0.33084088296848757,0.24997694674292406,0.14546854060029651,0.050063175910568504,6.618380076829463,4.732816817127192,4.1084892373508035,3.6367534952251783,3.0943235566722693,2.599471260312297,2.104577358510675,1.7492704492760671,1.5536039251408749,1.304932521694692,1.1215130866493903,0.8961013676248382,0.7297925978950163,0.5856081304128591,0.4471862487859359
0.0,11.0,11.0,0.0,120.0,0.0,0.0,0.0,0.0,-107.0,0.0,-45.0,0.0,0.0,0.0,34.27253218749016,17.55503396713325,4.4887847634822435,2.703610991014102,2.2650419369931285,1.8332290262072708,1.5165884653277442,1.1734319764685788,0.9188291075892858,0.745131439466707,0.5817195769678365,0.487001215514247,0.37316365801400014,0.27661330189007555,0.14352648082602043,0.12117443479591788,0.10732607966695994,6.5986859823977735,4.7627993595591365,4.147931455555945,3.630505665116111,3.114069706150777,2.616714210367399,2.139588118763294,1.7034093433016233,1.4761765117748464,1.2873748306580595,1.0698059939955238,0.8938816564129812,0.6833546305130397,0.5442286286358814,0.44174815725768096
0.0,12.0,12.0,0.0,120.0,0.0,0.0,0.0,0.0,-107.0,0.0,-45.0,0.0,0.0,0.0,34.27253218749016,17.55503396713325,4.493531560309008,2.6965982732454927,2.289657023982961,1.937127646287147,1.5756191067927154,1.163563384720637,0.8969966903366399,0.6998896606014553,0.5665655195111833,0.42183728931556463,0.41829270661897855,0.25264508628805216,0.23309745612597693,0.14670154983871977,0.07469579618404176,6.638271883707179,4.767430979614602,4.174591073648568,3.6575214710556017,3.1658988292489854,2.6002353375020495,2.1062489180705257,1.7397342606940982,1.4464211734824537,1.2015471112856448,1.022923935979045,0.860153819085402,0.6818847953563185,0.5548101053639503,0.37586370846887607
0.0,13.0,13.0,0.0,120.0,0.0,0.0,0.0,0.0,-107.0,0.0,-45.0,0.0,0.0,0.0,34.27253218749016,17.55503396713325,4.493695972862055,2.731133947104526,2.317618935747447,1.941723030004415,1.4810568417222043,1.2141573612386858,0.9196564908002796,0.6070599520986687,0.5014690317370629,0.47744672900454704,0.37804285868692855,0.2672114684195064,0.21734505723548642,0.21856163961115796,0.11086147102823973,6.635400783139202,4.841909042080825,4.191858326488074,3.732976190929268,3.189233064686409,2.6553738893595957,2.159734525270994,1.6822452340055556,1.4203854113922247,1.2438831263534507,1.0344253463500979,0.8424670558451026,0.6518367334907029,0.5258606102097924,0.3624851529726129
0.0,14.0,14.0,0.0,120.0,0.0,0.0,0.0,0.0,-107.0,0.0,-45.0,0.0,0.0,0.0,34.27253218749016,17.55503396713325,4.480921697549286,2.8107387445955734,2.3227235388952483,1.910194852216976,1.5721603055003541,1.1810867284074031,0.9545648075765845,0.6598411878820467,0.5704729681761764,0.38026678931831087,0.3501821518124745,0.32268122439243196,0.20117360279488705,0.17788141056561596,0.026488095705808734,6.699617157847143,4.83382394599459,4.259770388465929,3.7566695584808434,3.1444654675287884,2.6435273022201073,2.1166143224494443,1.7089100221857472,1.3556596696601637,1.1479496135392233,1.0064337580373357,0.8179079280470213,0.6309411757464385,0.5036047236699277,0.3954010708997601
0.0,15.0,15.0,0.0,120.0,0.0,0.0,0.0,0.0,-107.0,0.0,-45.0,0.0,0.0,0.0,34.27253218749016,17.55503396713325,4.473519995443443,2.798395088551124,2.3296893863000325,1.9629428821173442,1.5896825131430712,1.280569467785511,0.9116940335893753,0.633150227912632,0.5465233878944631,0.3646220210596438,0.3310650960362392,0.30265811975300777,0.22305010868409997,0.16104574381013773,0.005582591926582253,6.690402864383069,4.843750479373735,4.301166355627048,3.7826466396331404,3.2283891740206903,2.692066950820465,2.126628957428214,1.7136567433183747,1.3808997975700952,1.108268161278666,0.9652397566848994,0.8060148459749221,0.6613525840082498,0.5063269517377965,0.3839193138511906
0.0,16.0,16.0,0.0,120.0,0.0,0.0,0.0,0.0,-107.0,0.0,-45.0,0.0,0.0,0.0,34.27253218749016,17.55503396713325,4.485611761638014,2.8105130408186225,2.3514120106523566,1.9596127709170148,1.5808429823048469,1.1976383429901796,0.9221363361133071,0.6139148123766158,0.49448980822852995,0.38589492111651696,0.30859078291016784,0.20149958171554186,0.22771324696192183,0.11863896469885071,0.03138718905446391,6.727014361055872,4.883973165123021,4.293627881758183,3.7864812747887178,3.2557190342385294,2.6925072488935458,2.1351738455342013,1.6647007730526406,1.3688534138820954,1.0876348559788256,0.956897098895974,0.7478612609004508,0.5995569165518954,0.46062911554479324,0.32432171210437427
0.0,17.0,17.0,0.0,120.0,0.0,0.0,0.0,0.0,-107.0,0.0,-45.0,0.0,0.0,0.0,34.27253218749016,17.55503396713325,4.532367257477158,2.8325967044273503,2.2859840769160447,1.8955180756408279,1.5707468180620225,1.2622441246723104,0.8514613122898191,0.6447355052520973,0.533276585984669,0.3233391882818475,0.2763486115086298,0.19995209677824852,0.20263067668247298,0.13909299237757933,0.10308608077275558,6.78488936474406,4.9507251660829565,4.321051095835465,3.810323247884258,3.235910092136187,2.674209480942816,2.164475507515049,1.6671665799643847,1.362285910876729,1.0816253651038563,0.896230072801786,0.7137993689245208,0.6460348022742323,0.4849279523400128,0.32935428055487154
0.0,18.0,18.0,0.0,120.0,0.0,0.0,0.0,0.0,-107.0,0.0,-45.0,0.0,0.0,0.0,34.27253218749016,17.55503396713325,4.577832202551384,2.913839206785129,2.358319914472418,2.07749312832775,1.5723673943515428,1.2329546376645086,0.843940242248427,0.5528013292786671,0.5103341494169261,0.36428348716848313,0.21890040189771529,0.1588507718580384,0.2055041440878579,0.11246299938015764,0.1298854925595104,6.747293010325796,4.933563356730007,4.351742637936023,3.828083752530221,3.296619879043317,2.7332202228870126,2.1986091952787628,1.6947403416086666,1.3557217362801217,1.0994107547400191,0.8907333973218141,0.6988993646638805,0.5808974883238996,0.41560486001378594,0.3102477824954422
0.0,19.0,19.0,0.0,120.0,0.0,0.0,0.0,0.0,-107.0,0.0,-45.0,0.0,0.0,0.0,34.27253218749016,17.55503396713325,4.609520922427637,2.900660659367058,2.412557885113193,2.0099373329484966,1.5969687689868175,1.2308415042587106,0.946756205577208,0.6633687951557806,0.4169771668666451,0.3589786399044702,0.2775556658828899,0.2703959637769214,0.09414646550550095,0.0853852984486328,0.11074393112005336,6.712663913976266,5.021222799120289,4.349182944846651,3.8685351309429783,3.3314584370982123,2.775742160273869,2.2105284044880253,1.6921499770308455,1.349268207172508,1.0452130399053503,0.8545935971808138,0.7179912432859932,0.6010489969182735,0.43951264796474715,0.3087180371865347
0.0,20.0,20.0,0.0,120.0,0.0,0.0,0.0,0.0,-107.0,0.0,-45.0,0.0,0.0,0.0,34.27253218749016,17.55503396713325,4.6373469723295795,2.8514225553903505,2.5022060355962754,2.000548283924001,1.6626157374751962,1.2950809596641004,0.9465766425902847,0.6549389845440756,0.463922938514239,0.2829958804248922,0.2351571790615968,0.2292585645208782,0.1763065974773139,0.07219701765593167,0.08559795960219434,6.761617760885013,5.030994672877454,4.395408035020291,3.8813878628089116,3.319864517091754,2.752401744434183,2.218069369075613,1.692501734668812,1.3466846440651397,1.0325093860555337,0.8803152964365952,0.6990157675756267,0.5592005692450924,0.4083668919033645,0.3266520982476191
0.0,21.0,21.0,0.0,120.0,0.0,0.0,0.0,0.0,-107.0,0.0,-45.0,0.0,0.0,0.0,34.27253218749016,17.55503396713325,4.59875848792445,2.9446562794167264,2.4308265467345858,1.9992960902698267,1.6624900580627948,1.2762521115111045,0.9333813269028208,0.6851562061432336,0.4237910985987668,0.24893348122091974,0.2726177567249236,0.21055436944549688,0.12951618378696886,0.11222329403163843,0.032743779251215216,6.710551694467068,4.969707810634017,4.434230577734348,3.9538544958478035,3.356252134901238,2.815246866496832,2.2116541807750107,1.7142439442338688,1.3364514279897461,1.0355759406304348,0.817559445898864,0.6541796565307357,0.5373115044438014,0.44708802307146445,0.27860944161157974
0.0,22.0,22.0,0.0,120.0,0.0,0.0,0.0,0.0,-107.0,0.0,-45.0,0.0,0.0,0.0,34.27253218749016,17.55503396713325,4.640534217032084,2.9507464889795667,2.432272959880056,2.0707080293677897,1.658116089729276,1.2462193778117423,0.9114737228974062,0.6043185898567222,0.3794177108538435,0.3346505860044217,0.2857098109597903,0.24842302389350074,0.10136697990001506,0.18025516645565628,0.12369285637784627,6.817879680776303,5.018616570243769,4.4466304787984665,3.899059278702284,3.393705131994286,2.8074725346299325,2.2449970418282694,1.7051252634567449,1.3314809594359418,1.0284421130745283,0.7881288697560301,0.6555371505977726,0.5316354693993857,0.4540762123912869,0.3065548729194334
0.0,23.0,23.0,0.0,120.0,0.0,0.0,0.0,0.0,-107.0,0.0,-45.0,0.0,0.0,0.0,34.27253218749016,17.55503396713325,4.576571786271516,2.947252048944871,2.4876057253550226,2.083136800132862,1.6100696915102388,1.2798658466203816,0.9130622548682197,0.6438239584992307,0.5306409713347833,0.29298080326013315,0.29298252933361474,0.2249237838392804,0.16159120642087466,0.09910728695160531,0.08996081328035008,6.779916244438799,5.050730439206336,4.469425786242214,3.979058704929357,3.4076548285529213,2.8314485276972796,2.2900668280434817,1.7173503389388163,1.332272181726625,0.9995627934039788,0.7633683505422172,0.6104329352530736,0.5018520026646001,0.41446050822200897,0.31095373422435846
0.0,24.0,24.0,0.0,120.0,0.0,0.0,0.0,0.0,-107.0,0.0,-45.0,0.0,0.0,0.0,34.27253218749016,17.55503396713325,4.614165176588132,3.0037830260158365,2.5111201631830866,2.095170808643054,1.7256351959407703,1.34732061177406,0.9838086474265814,0.6455116100726497,0.4724987261476382,0.24065795969786596,0.24130831013176204,0.18993197813951807,0.13766914115770573,0.08765401026227435,0.11143183300478988,6.802028498692209,5.087228157794294,4.50945899693697,4.023678760455381,3.429144050682829,2.8378283676987985,2.271443370485742,1.7816073999308504,1.3102626494096847,1.0160047404231178,0.778004105704443,0.6205879931498716,0.487773775185704,0.365302243849995,0.2880584548888185
0.0,25.0,25.0,0.0,120.0,0.0,0.0,0.0,0.0,-107.0,0.0,-45.0,0.0,0.0,0.0,34.27253218749016,17.55503396713325,4.662531784172827,3.061486729945598,2.5447346587242325,2.0909847989352124,1.7353809504680564,1.3305823682731233,1.0055246946151286,0.7374238556673932,0.49550435360372513,0.2995891983105514,0.22249017636033885,0.2132647355106719,0.1093348770560797,0.08747756816060015,0.08516910864075275,6.84597701988565,5.122737766233551,4.470900223410121,4.032756636236687,3.452091420585893,2.8547402057561677,2.290945753122725,1.7791600197897488,1.294106579633365,1.0303639868573757,0.7925908271433608,0.6328632233330888,0.47029427907810323,0.37639447670938464,0.2755530013843052
0.0,26.0,26.0,0.0,120.0,0.0,0.0,0.0,0.0,-107.0,0.0,-45.0,0.0,0.0,0.0,34.27253218749016,17.55503396713325,4.64311708302699,3.018171046623436,2.535133278658192,2.132476618285063,1.7131518127370726,1.3343281986126847,0.900133874471656,0.6826093785613975,0.5131067967716273,0.3492765017878936,0.1884644838398277,0.2038843893633553,0.20657291252704213,0.08077910133587696,0.08639611447281897,6.891802055132393,5.169711218883351,4.609075954687093,4.023693158061642,3.488589793816255,2.9069823243162407,2.319825971369317,1.7829600344292629,1.325800820128891,0.9615663854297679,0.783050413366998,0.6079763162827693,0.4509921708705617,0.38878575827536066,0.2889070037013826
0.0,27.0,27.0,0.0,120.0,0.0,0.0,0.0,0.0,-107.0,0.0,-45.0,0.0,0.0,0.0,34.27253218749016,17.55503396713325,4.67487376402918,3.0302271715846603,2.6302617814254643,2.1783044576614197,1.7052761765250515,1.2773572431681928,0.9405859193560225,0.5819607912232106,0.44198797987641014,0.31179481553534544,0.17400632716933426,0.14123002462570444,0.17588247989762323,0.09058408803698001,0.11403705138279277,6.83766124422563,5.165577264873066,4.543105641492722,4.094364170737119,3.532685494959232,2.9098760473602776,2.3162531680520058,1.795114136054772,1.310351835229271,0.9689128310905329,0.7565514347451279,0.5746480228800752,0.47820976109653107,0.34427349900888055,0.3029043417709986
0.0,28.0,28.0,0.0,120.0,0.0,0.0,0.0,0.0,-107.0,0.0,-45.0,0.0,0.0,0.0,34.27253218749016,17.55503396713325,4.689979313476275,3.065073526468003,2.5534570842399065,2.1333985869262886,1.715260597435551,1.2922596376049353,1.0264423158999274,0.6862990416383666,0.4916116044797679,0.3679028120221288,0.2608993700709903,0.1727126696254616,0.10087877107548111,0.11109568856943217,0.06434214394189619,6.848559740318724,5.183664682884996,4.652519024049321,4.138743091863955,3.523004611123416,2.927714344254573,2.355885988580744,1.774470353480767,1.345079696788726,1.0207998263107114,0.7314394842686937,0.5767599918984365,0.4971067062433515,0.3474686524507338,0.26782109211587685
0.0,29.0,29.0,0.0,120.0,0.0,0.0,0.0,0.0,-107.0,0.0,-45.0,0.0,0.0,0.0,34.27253218749016,17.55503396713325,4.63563440179278,3.0563669972124794,2.5540761735842237,2.303078381376501,1.7849252660774344,1.3549530049278509,0.9453227832915623,0.6113731344676646,0.46263827015605596,0.29721470695902535,0.2275917627558669,0.1771808762277933,0.1488753959747103,0.07980401321331393,0.07752090959064456,6.857679939485386,5.201941604511902,4.644764969901788,4.147432252594476,3.56747753115179,2.9577004281126364,2.3637073919975182,1.8370748543772732,1.2977489189627613,0.9536103302467941,0.7319585143310091,0.5805531087587911,0.439959107303996,0.3664729551048396,0.19523258239367886
0.0,30.0,30.0,0.0,120.0,0.0,0.0,0.0,0.0,-107.0,0.0,-45.0,0.0,0.0,0.0,34.27253218749016,17.55503396713325,4.59007099963064,3.083222508867663,2.730721456736598,2.2088128653029715,1.6927004761920816,1.3540440633112105,1.0152061780968258,0.7188143331234997,0.4726928990879929,0.2923297180920663,0.23035783797850612,0.1898587809404793,0.08865709252739892,0.07434621856126467,0.04845580196995159,6.835879242417667,5.218586918357017,4.622914261261217,4.156692624356041,3.569032570597451,2.969998601103241,2.3719150695590185,1.8249106090443263,1.3291939270074289,1.0055752121002093,0.6906153213908642,0.5552402380833381,0.43284950458743676,0.357501236265911,0.24278951637489957
0.0,31.0,31.0,0.0,120.0,0.0,0.0,0.0,0.0,-107.0,0.0,-45.0,0.0,0.0,0.0,34.27253218749016,17.55503396713325,4.73928628925069,3.118127851218305,2.6442008250065325,2.2207922506000024,1.8181930233595216,1.4103704553140988,0.9776909323840701,0.6365970007116509,0.4215804942387146,0.3057732196939722,0.20181323429850284,0.14932765928403388,0.07923540588386771,0.10523989286032823,0.04543308581551767,6.851225619066053,5.281833756152067,4.722420804708267,4.18423321084846,3.602599961062781,3.0032599877512953,2.3648270762453265,1.860157674360407,1.343849535279408,1.0118800982053686,0.7066745260896405,0.5669308090254324,0.43090831866129053,0.33402303631732144,0.22789285863711087
0.0,32.0,32.0,0.0,120.0,0.0,0.0,0.0,0.0,-107.0,0.0,-45.0,0.0,0.0,0.0,34.27253218749016,17.55503396713325,4.7563518791745,3.165796626321309,2.6653103431867446,2.290516480877746,1.8094822399660326,1.4721402686000142,1.045677200012537,0.6813778732933987,0.5093899916354518,0.3011900101468811,0.2723796600079936,0.14364563046131198,0.09956488601780122,0.07752861455971355,0.06477414881448053,6.950814321884508,5.312706390962361,4.733886686347744,4.194668522240097,3.641664207884704,3.0047627387747107,2.378484746759762,1.8169471353358824,1.3482380608547921,0.9779112602620982,0.7358620165397984,0.5251839582883551,0.44257858806195427,0.2898350745462842,0.2982433768634439
0.0,33.0,33.0,0.0,120.0,0.0,0.0,0.0,0.0,-107.0,0.0,-45.0,0.0,0.0,0.0,34.27253218749016,17.55503396713325,4.654699046226081,3.179546930773765,2.681225165078107,2.23216363290633,1.8461861992924553,1.4399558226726283,1.0094278571287552,0.7432370798435248,0.46449937718333106,0.25978560559280783,0.19404740962485162,0.11826334485765964,0.1161873058184075,0.057474118497269314,0.046186510094860286,6.8934190914201245,5.36011847970046,4.755568552842147,4.206617833055997,3.709454362506337,3.004394918092911,2.4333641548152083,1.8019737194745018,1.3731774859111592,0.9861714466322363,0.7030193893149573,0.5003183682973549,0.3904375818332409,0.3005041146955764,0.2124449423975811
0.0,34.0,34.0,0.0,120.0,0.0,0.0,0.0,0.0,-107.0,0.0,-45.0,0.0,0.0,0.0,34.27253218749016,17.55503396713325,4.692812283016479,3.2506908607537635,2.725822980038981,2.3312900557461016,1.7976319445048308,1.3952040599838584,0.9592265759935669,0.6601334230505871,0.4541434559009461,0.28308433434021846,0.2592266564328918,0.13826303273986493,0.08713089370410204,0.08646136040811139,0.04845395191642062,6.907422572467136,5.344376193437231,4.8276521612113035,4.291275704940917,3.6755119145557487,3.081616866714292,2.4757809898589014,1.8533899344499645,1.3785678663459835,0.9889898426971959,0.6867125942197255,0.5316619800464331,0.37645680187708414,0.31307414222214014,0.22662316794163578
0.0,35.0,35.0,0.0,120.0,0.0,0.0,0.0,0.0,-107.0,0.0,-45.0,0.0,0.0,0.0,34.27253218749016,17.55503396713325,4.761370202706409,3.1642824366660567,2.711702214797749,2.3706875326530032,1.8446034474035613,1.425008223627408,1.0067407074294636,0.7108957322641185,0.48147981865505496,0.28123151617053443,0.1836293903110532,0.12547745087534007,0.1048214805996016,0.1087441707397756,0.02192403926014637,6.972853535421021,5.408965819597331,4.827021958134008,4.312060491093018,3.695000471783549,3.079958973911439,2.4501071118311986,1.8698643007212865,1.378219689742024,0.9462769186616597,0.7142782119391871,0.5083742552490209,0.3620193663893288,0.32502174060738254,0.20684124775881343
0.0,36.0,36.0,0.0,120.0,0.0,0.0,0.0,0.0,-107.0,0.0,-45.0,0.0,0.0,0.0,34.27253218749016,17.55503396713325,4.791791210144822,3.2115396832618743,2.790468365484968,2.3896686657441464,1.8039495895325668,1.4240270057473348,1.07504506053361,0.7248271357829,0.480814859522924,0.3323040210856913,0.16234428254312086,0.08236815165154308,0.0657539202411877,0.11416642685347242,0.01721590130925108,6.923991969494066,5.4460992889494495,4.835921330308417,4.3005751939518495,3.6822437242395214,3.1097815861901257,2.483380943277638,1.8761474457295477,1.3650395542074576,0.9487917483229033,0.7110382132958109,0.5645705985447806,0.3947845972175303,0.3111001158512895,0.22591212679704448
0.0,37.0,37.0,0.0,120.0,0.0,0.0,0.0,0.0,-107.0,0.0,-45.0,0.0,0.0,0.0,34.27253218749016,17.55503396713325,4.784371017450151,3.254998140466406,2.7863125483393256,2.3046098501455803,1.8321764540744243,1.4489541683661271,1.0511114033414932,0.676609796655523,0.45336151066535646,0.28682119794638755,0.21555865004945368,0.13223590019967116,0.0831831886963579,0.006398868272731395,0.053403840850880346,6.994642241463141,5.501154461929286,4.888358545066326,4.360851366820515,3.761863989116503,3.074225083023669,2.483524476358152,1.8973402355835385,1.3900554882255447,1.012398378657172,0.7319354888071454,0.48350076999873864,0.37608706379425483,0.3012104044828151,0.20179172099058182
0.0,38.0,38.0,0.0,120.0,0.0,0.0,0.0,0.0,-107.0,0.0,-45.0,0.0,0.0,0.0,34.27253218749016,17.55503396713325,4.69771472897273,3.2795020705737037,2.753862538751664,2.2795727249410014,1.9283635255426268,1.5174038031600678,1.0750845879210174,0.7405298536605769,0.49254622601793974,0.29756464248786346,0.2046731450720252,0.11949896569923517,0.059820352673631554,0.10852975281394538,0.06951949495626901,7.0673535345604845,5.452050207050032,4.869066964356794,4.397616167907818,3.7601122695090403,3.1690159024901785,2.5490421454997487,1.8827307411544962,1.3901404100760053,0.9611103841215175,0.6922682501805396,0.4826488467472332,0.3316895738954551,0.28854509686553165,0.2410112369024857
0.0,39.0,39.0,0.0,120.0,0.0,0.0,0.0,0.0,-107.0,0.0,-45.0,0.0,0.0,0.0,34.27253218749016,17.55503396713325,4.758518940097915,3.3609854438258995,2.845768954373501,2.3702801631276387,1.8690004013258579,1.449728777584199,1.1425111100030574,0.7162408030147456,0.5007046441895862,0.2913935799384017,0.14748350178079742,0.14722877628491077,0.14465252362447578,0.09914585473778179,0.09949731524578759,7.014542563000149,5.501698725305409,4.947350699215716,4.385385169665592,3.774164445059493,3.119010607062748,2.542125366860837,1.9274270992742302,1.3826282003847694,0.9625396656304093,0.7328888855921695,0.516365548175171,0.37510319974696105,0.24976964500520749,0.2040520339186709
0.0,40.0,40.0,0.0,120.0,0.0,0.0,0.0,0.0,-107.0,0.0,-45.0,0.0,0.0,0.0,34.27253218749016,17.55503396713325,4.770563943870643,3.3221104801645196,2.8325013922617748,2.3638340410472876,1.871345171155091,1.5064516550596323,1.0807295367779652,0.7561726699126587,0.5246552576830161,0.3427146224129452,0.24700765949357542,0.15392403594617327,0.0995481907398015,0.04404633939607033,-0.00648803719511324,7.042299626880406,5.523089673818624,5.013139235346207,4.404943382149129,3.8163194858751175,3.1833373155918316,2.5005496485079464,1.9215242723696424,1.383158079323921,1.012944295417875,0.6983965045837629,0.5050279948004098,0.34579596528821455,0.25308791515743007,0.19873066382530818
0.0,41.0,41.0,0.0,120.0,0.0,0.0,0.0,0.0,-107.0,0.0,-45.0,0.0,0.0,0.0,34.27253218749016,17.55503396713325,4.844478460344615,3.3185255243055365,2.8781924082777692,2.429637044617281,1.9706539329200585,1.476727947905226,1.0827599390292177,0.786627863459874,0.4608057694072952,0.3024279802163283,0.2588670397392634,0.12967834146932547,0.1152016876976909,0.06830272165403985,0.07554073814125277,7.055379652735357,5.554015687233356,4.985319311908106,4.438412784893769,3.8489915056171515,3.197025760023852,2.5502828625254548,1.9531500234509778,1.4424484619290217,1.0460868757080453,0.6745274294309003,0.5083971604880811,0.34676673248661893,0.26333258880621535,0.19841937384280384
0.0,42.0,42.0,0.0,120.0,0.0,0.0,0.0,0.0,-107.0,0.0,-45.0,0.0,0.0,0.0,34.27253218749016,17.55503396713325,4.787917693956918,3.3611406850594365,2.8807057829507663,2.407101978779647,2.0041181998431306,1.470696913864554,1.0813928103064687,0.724515499404606,0.5355851471537275,0.2563044699951652,0.20067559523459058,0.16050174828987115,0.13024676880718203,0.06234990892060365,0.10061362291777418,7.032645419327921,5.574696482339036,5.006611537193024,4.47718225816707,3.8052215341359794,3.2388284367817266,2.5952135568721224,1.9572746244787715,1.473459017360686,1.0297415345318084,0.673989924190749,0.46720761795468346,0.3399701111794929,0.27248927232438575,0.21757773357759608
0.0,43.0,43.0,0.0,120.0,0.0,0.0,0.0,0.0,-107.0,0.0,-45.0,0.0,0.0,0.0,34.27253218749016,17.55503396713325,4.886514163233883,3.3870047826482357,2.913238515929908,2.4258793210255725,2.0304272181136933,1.498787303738821,1.0932278983817567,0.741754590777367,0.44925056630758764,0.30385949311948063,0.21518590821236278,0.1095254068657789,0.017799552002264914,0.046981932265889766,0.01137773473829316,7.0765192675426105,5.643385203175218,5.031506550290998,4.493726771838599,3.8813012719443685,3.202309284972909,2.5908856438201604,1.969578188738355,1.4334972151997594,0.993282847930283,0.6950630506230481,0.49656863549743196,0.3564314475567546,0.23584185225095378,0.18674951316839852
0.0,44.0,44.0,0.0,120.0,0.0,0.0,0.0,0.0,-107.0,0.0,-45.0,0.0,0.0,0.0,34.27253218749016,17.55503396713325,4.894288421857471,3.4840713562164347,2.990624032941475,2.477370401634574,2.0267690140387833,1.4722774928865194,1.1228068001846871,0.8163373549122986,0.49506178173524135,0.3584743757212968,0.2344585853002153,0.1371281122588702,0.1366986745824253,0.0426774081475211,0.027862264003526323,7.133509681965467,5.65818796095469,5.046839144960714,4.5251578921008395,3.9763461005738647,3.199835696607795,2.6293742646328595,1.9771282777501704,1.4756827372539776,1.0463174445331567,0.6681894265598941,0.4431671491987827,0.3230298062603207,0.25420993010016535,0.15478400045228105
0.0,45.0,45.0,0.0,120.0,0.0,0.0,0.0,0.0,-107.0,0.0,-45.0,0.0,0.0,0.0,34.27253218749016,17.55503396713325,4.919331575323922,3.486343676971553,2.9668548508761963,2.497474009700776,1.9513464580890405,1.5247224143795857,1.1136354637152932,0.7916067632162341,0.5048121096786347,0.37077069778072613,0.20792705053154972,0.11531385252098966,0.0909278810083417,0.11032920301217329,-0.005534389331989159,7.099594593305193,5.668959838108489,5.090598859676959,4.527644859740776,3.9421134923629357,3.265211222209901,2.628893591830159,1.9906053807527244,1.4451218498890925,1.0602400801228025,0.737636730071592,0.47907409811945056,0.3484586737210742,0.2887383412332722,0.1975795066792845
0.0,46.0,46.0,0.0,120.0,0.0,0.0,0.0,0.0,-107.0,0.0,-45.0,0.0,0.0,0.0,34.27253218749016,17.55503396713325,4.957607425446628,3.5173774498546155,3.0302191000480763,2.5207367698840635,2.0287061199497143,1.571291259114098,1.0701060526978992,0.7363544074855102,0.5533129350940287,0.36354382242280114,0.20102354800682895,0.07782872691155546,0.11671408880831917,0.0535444127912901,-0.007987554872253555,7.143965363994249,5.73129740617713,5.159311268160879,4.570838458016585,3.938669203654314,3.2649477276180163,2.665998198939466,2.0182394909162236,1.5172002339430528,1.0343101925453813,0.7376581886959395,0.4335140277944345,0.33691089963470905,0.2305727433650977,0.17064829373175888
0.0,47.0,47.0,0.0,120.0,0.0,0.0,0.0,0.0,-107.0,0.0,-45.0,0.0,0.0,0.0,34.27253218749016,17.55503396713325,4.873844879310061,3.4903623905809344,3.0769863240301576,2.5071356535850233,2.0744733733328014,1.4868292710767617,1.2194376024546294,0.7733976168203252,0.540353481820412,0.35876312891689754,0.1648257190061268,0.12685742124702673,0.062039649265453196,0.024733789803712446,-0.022120151867696683,7.142448197016585,5.757882672450061,5.190223622694202,4.611471768581796,3.985298156364006,3.323439032177842,2.6295861568035295,1.9908741247699915,1.4790870434381442,1.011012363477306,0.7206892052545621,0.5241392325666622,0.3513013928672844,0.23786341005789574,0.18050204558925767
0.0,48.0,48.0,0.0,120.0,0.0,0.0,0.0,0.0,-107.0,0.0,-45.0,0.0,0.0,0.0,34.27253218749016,17.55503396713325,4.993796276797956,3.518948580189836,3.031732281356914,2.4654581170806273,2.006781979461465,1.5507936374734876,1.1605863779515853,0.7512175783962802,0.5330795748306412,0.32212882998151915,0.2535362702313671,0.07170122177075311,-0.002466452932201449,-0.03986278720390418,0.02730061403320801,7.195094731130904,5.773882909825348,5.213034630752807,4.631806950880728,4.004910451179251,3.300084314621454,2.707651120814662,2.049031952340007,1.4715181208177541,1.0091332926881693,0.7168048203801975,0.4673519408452986,0.320406755110224,0.27037360354185835,0.1649561921733173
0.0,49.0,49.0,0.0,120.0,0.0,0.0,0.0,0.0,-107.0,0.0,-45.0,0.0,0.0,0.0,34.27253218749016,17.55503396713325,4.9310389098875715,3.598564022324921,3.0744511723618437,2.5198356085025684,2.0955801154123863,1.6580809015901163,1.1327670909394372,0.7626282235906402,0.48728301261674273,0.34839033423276733,0.2187234729049638,0.0697375799900593,0.11071310081037908,0.09342667804877501,0.0425402905925515,7.123056565334506,5.820481266836418,5.184640141896816,4.678951913249062,4.047903419986756,3.3790597148847654,2.617913938337837,2.0338443679669167,1.5264889403404711,1.0564213233380095,0.6750317386824592,0.459402275440744,0.32318084299800437,0.20013578465476511,0.20990212390367408
0.0,50.0,50.0,0.0,120.0,0.0,0.0,0.0,0.0,-107.0,0.0,-45.0,0.0,0.0,0.0,34.27253218749016,17.55503396713325,5.018675533422594,3.6033799695630564,3.046551011863029,2.5782015762870363,2.056904465048233,1.5590451256489146,1.1592064970884546,0.8312744693915284,0.5104642402156115,0.30428301806225294,0.1934777678471619,0.1377833996551458,0.049460901748050574,-0.003734737953230975,0.06532131729917301,7.164869273183246,5.844823616245205,5.253628463852966,4.665542493790479,4.081128265518638,3.400148858956967,2.7081974474106607,2.0726758048589873,1.5297148579746347,1.0429207317310065,0.6986052795374487,0.43305275136586685,0.3266157927684422,0.2632451284078805,0.16279805039565626
0.0,51.0,51.0,0.0,120.0,0.0,0.0,0.0,0.0,-107.0,0.0,-45.0,0.0,0.0,0.0,34.27253218749016,17.55503396713325,5.015522660360087,3.604262620529287,3.0816074952159265,2.597999006152018,2.042461411819062,1.651468930451784,1.161917621017145,0.8319657946115359,0.5320160373765064,0.2919011846273461,0.17608891337855884,0.05145677824356371,0.0960281707084333,0.050228142641517946,0.001986527585602728,7.180700931839994,5.847111864845358,5.257919926304502,4.719010238028932,4.04558844541994,3.4455506376737963,2.7337725717670316,2.0664769672122842,1.4951820277487988,1.0682489735437293,0.6714334833527841,0.4903806975738563,0.3345564363641111,0.2602574738477205,0.15626020562216555
0.0,52.0,52.0,0.0,120.0,0.0,0.0,0.0,0.0,-107.0,0.0,-45.0,0.0,0.0,0.0,34.27253218749016,17.55503396713325,5.059696758641406,3.7084260626369687,3.107980685822389,2.6038192478970337,2.1662876526638395,1.6263484703981799,1.1864411528632155,0.7984323867668753,0.4787159612489137,0.3635528324690163,0.11456725578602218,0.14475430364149688,0.056449321283513806,0.03754008805910195,0.010417212454277007,7.256501409438928,5.9043010785408505,5.357764439843986,4.738770705211709,4.091152657531868,3.408304707689544,2.72931101107868,2.0770087329583027,1.5631350025040551,1.1069712940268115,0.6753676322342078,0.4400262834498236,0.29367899741749925,0.2404404836503458,0.1463872984207358
0.0,53.0,53.0,0.0,120.0,0.0,0.0,0.0,0.0,-107.0,0.0,-45.0,0.0,0.0,0.0,34.27253218749016,17.55503396713325,5.070854755893979,3.73652969804656,3.180449361018639,2.6130212249302844,2.085779439543859,1.5326739178389057,1.1973964281918223,0.760944647481125,0.5295412358042871,0.33373242179394585,0.14144146989852907,0.1424648519997072,0.028206133569713472,0.021941818307755087,-0.01376542240645703,7.264184548130306,5.907982936534186,5.405147057183664,4.755122839712043,4.124525823069045,3.430346620645604,2.7636458957720897,2.0995704560311537,1.5139343315644693,1.087655397436212,0.7296130001809082,0.440302066768538,0.290948459080872,0.20955926085256496,0.16794382434705996
0.0,54.0,54.0,0.0,120.0,0.0,0.0,0.0,0.0,-107.0,0.0,-45.0,0.0,0.0,0.0,34.27253218749016,17.55503396713325,5.055791850140076,3.621704726347318,3.1460105669602325,2.7187803975205296,2.1726072402571477,1.670369564229594,1.1856376708036573,0.8930860092179849,0.5290038300713944,0.3189358424748811,0.1726510908583441,0.093585621319052,0.09325205345657242,-0.03281055257766384,-0.014528618650430272,7.322388193900799,5.937015150948464,5.348720514067142,4.795097083180348,4.1260215790103905,3.464411636538539,2.7311663323015307,2.145867903981406,1.5263703896440184,1.0877998555258614,0.7247205373757846,0.47317209258491133,0.30978681027363564,0.22044773586712285,0.15842367521637551
0.0,55.0,55.0,0.0,120.0,0.0,0.0,0.0,0.0,-107.0,0.0,-45.0,0.0,0.0,0.0,34.27253218749016,17.55503396713325,5.146765647978831,3.7353585324545437,3.2393287229436143,2.668163567824101,2.165368580250908,1.6533670163756113,1.2336641732011617,0.7968427696876814,0.5097126717909021,0.3237427285072344,0.18988025742643094,0.031671528944412344,0.033129828140079004,0.08195671976048123,0.018498470292391343,7.2991542523294255,6.00444378871319,5.422318394070844,4.871200047578203,4.184428480744585,3.4672583352058326,2.7764925890859002,2.1416175838828213,1.58610082756763,1.0762178872120067,0.7414776123308005,0.5061353091216338,0.30556881951515236,0.2180896467593773,0.13784185348554615
0.0,56.0,56.0,0.0,120.0,0.0,0.0,0.0,0.0,-107.0,0.0,-45.0,0.0,0.0,0.0,34.27253218749016,17.55503396713325,5.073136905539236,3.770416861516996,3.25851842734267,2.706790250815702,2.224876868387729,1.705185117576162,1.1914081592910388,0.8511082517477317,0.5338721996784199,0.3348995896135177,0.2305438975371036,0.19615840518832356,0.013000439745770705,0.02907118579057226,0.06905964404293136,7.321288789513739,6.0106874635960725,5.482280902894869,4.854212212437109,4.212909504864001,3.490859838695834,2.7549577357702884,2.124582588541709,1.5889558469277674,1.1065611550741368,0.7133966657329661,0.5131286884349504,0.31011815740193804,0.1942141198384937,0.18235103838678055
0.0,57.0,57.0,0.0,120.0,0.0,0.0,0.0,0.0,-107.0,0.0,-45.0,0.0,0.0,0.0,34.27253218749016,17.55503396713325,5.178476830721632,3.7776725107180327,3.2796026920513763,2.771056540026895,2.2176075727994413,1.6885870712727882,1.1478657252888937,0.8178809373897113,0.5402291430974827,0.31233221446015913,0.17952268849898143,0.13315565513718106,0.04488600881324835,-0.021072809617911824,0.0038726589924804287,7.33601844034883,6.050375930270912,5.439023580308554,4.876344803333497,4.1967014353409136,3.5375169437313763,2.803029320306451,2.160962908269967,1.5889087678613762,1.0805425095575263,0.733388320468674,0.5055317539275204,0.27196163757364583,0.23286842635904512,0.15464791501007685
0.0,58.0,58.0,0.0,120.0,0.0,0.0,0.0,0.0,-107.0,0.0,-45.0,0.0,0.0,0.0,34.27253218749016,17.55503396713325,5.10363962566843,3.8530971413454522,3.319931050971138,2.7603329107252503,2.2291406140510097,1.7653408091339176,1.2000227586087735,0.9030399641406447,0.6059202382392981,0.2873793984387643,0.19791195519665342,0.11017255472344528,0.10920943416052867,0.08190169808321987,0.08055813544592444,7.329512997752537,6.1237412758724385,5.51654916878417,4.86636007929,4.275465841734075,3.512829866570806,2.841849362412433,2.1473575755082313,1.5871485388110946,1.1247549983062213,0.7335288964515703,0.43979692389951774,0.31136445145281066,0.18612877380390108,0.1617690546094502
0.0,59.0,59.0,0.0,120.0,0.0,0.0,0.0,0.0,-107.0,0.0,-45.0,0.0,0.0,0.0,34.27253218749016,17.55503396713325,5.139760581954193,3.866536041971513,3.3217169998998677,2.8633086246148545,2.160858180314408,1.721427595420672,1.184437508223372,0.8589249931635777,0.5451877267617764,0.36585473866894574,0.24586148059862684,0.09558446707626923,0.06139895257585201,0.07166057226546624,0.0062575183102284715,7.408803869677432,6.142790876657645,5.505699739349439,4.902953525451078,4.272398080265222,3.581156744694296,2.804807934260386,2.1841878222082616,1.592579344699698,1.117614213447691,0.7641537456197274,0.4749481885840538,0.2855993468450635,0.2080522136647463,0.14315125466603457
0.0,60.0,60.0,0.0,120.0,0.0,0.0,0.0,0.0,-107.0,0.0,-45.0,0.0,0.0,0.0,34.27253218749016,17.55503396713325,5.205917534636444,3.939065627069562,3.308828122888127,2.7771171412608666,2.2623673313633526,1.746676909467207,1.2353814326278856,0.8014925570962029,0.556869715169971,0.42832276008998665,0.21600844441765166,0.04768677860851927,0.026977824885497458,0.041711192702119995,0.0444644230493217,7.402931188448217,6.211143788874317,5.5790392424012705,4.978741088443978,4.324141404392765,3.586741292634784,2.810293924329718,2.1762377677385993,1.595438777774974,1.1203131851753683,0.7482047771193634,0.4879961461253375,0.2863591097646428,0.19006119660175488,0.144313710809728
0.0,61.0,61.0,0.0,120.0,0.0,0.0,0.0,0.0,-107.0,0.0,-45.0,0.0,0.0,0.0,34.27253218749016,17.55503396713325,5.26814789394134,3.9454976850728336,3.385640641885095,2.8739294831985367,2.256883669939496,1.7780262914906706,1.2618357833094027,0.8586046975870683,0.6225296405666568,0.3304199706766127,0.16864188481679365,0.16119969350960367,0.0593945375153002,0.07772792756202948,0.03877358625199448,7.398718139461228,6.195220704638318,5.613196945410908,4.997515933919357,4.333690420053984,3.6303491803528,2.907121551281053,2.215596672422214,1.599809249170129,1.1367530659715257,0.7342321572353394,0.464731302459838,0.2918675530103413,0.2031620913676531,0.14857736817794326
0.0,62.0,62.0,0.0,120.0,0.0,0.0,0.0,0.0,-107.0,0.0,-45.0,0.0,0.0,0.0,34.27253218749016,17.55503396713325,5.357985535576499,3.9652347077567107,3.459957912945701,2.8534760299364192,2.3182318708922423,1.7355151796101491,1.259730217290716,0.8320888356691158,0.5854723800736663,0.31575504149975,0.1867388547313179,0.11628572397306235,0.07639883105972364,0.0561738513861393,0.006740505957536273,7.434933062495344,6.1620681858726964,5.606038670388207,5.011891267270734,4.326448761162366,3.602283782720407,2.8998120233688134,2.2034988183458712,1.6245735480348293,1.123092459304705,0.7888633092450464,0.47015736387443857,0.25138269158864013,0.18602290674876387,0.11389853507382101
0.0,63.0,63.0,0.0,120.0,0.0,0.0,0.0,0.0,-107.0,0.0,-45.0,0.0,0.0,0.0,34.27253218749016,17.55503396713325,5.242918680732252,4.006056333871095,3.5116476819268287,2.830386060581375,2.291003249529481,1.7326225488907407,1.186631272523392,0.9067136355276868,0.5288115630401783,0.3741670812486686,0.2465653638567441,0.10418071526750115,0.022162474636824865,-0.06315113578184234,0.04726550307887095,7.557421974886059,6.2439927959047425,5.673486552328948,5.048027735454547,4.353974680186279,3.6805743122998384,2.9094400762448513,2.2223786226373745,1.6394560791126402,1.1493518867446912,0.722736187085316,0.4740134730305254,0.337222000718536,0.21754282214128193,0.12814806174245516
0.0,64.0,64.0,0.0,120.0,0.0,0.0,0.0,0.0,-107.0,0.0,-45.0,0.0,0.0,0.0,34.27253218749016,17.55503396713325,5.337885802613102,4.070563558342442,3.45927473968028,2.9981244089060115,2.338329857405179,1.7850307635076934,1.2362234502353129,0.8084862482478763,0.6050504993187469,0.3340057135605828,0.17194140521708123,0.12926187267160977,0.037818645795886695,0.06168977955033808,0.03167240138452389,7.507689792109939,6.297160930407972,5.655651447764008,5.098513919937122,4.381801778120204,3.6637087607214744,2.950847969700253,2.2350797320947877,1.6308732592657338,1.1745657661924263,0.7606081697861821,0.505047297606761,0.2844935653154194,0.19281689391915144,0.11744862156395744
0.0,65.0,65.0,0.0,120.0,0.0,0.0,0.0,0.0,-107.0,0.0,-45.0,0.0,0.0,0.0,34.27253218749016,17.55503396713325,5.305363481435758,4.059720727022821,3.4501586795246277,2.89601178416785,2.3493072669635664,1.749289649129546,1.2828119319933466,0.8567655717068029,0.6383514557228999,0.32007417553246237,0.15145918142738002,0.08906758673912857,0.06539526910363884,0.00393694724759211,0.0024662488312301827,7.51687277421366,6.302590382038576,5.735435521547114,5.139546707663802,4.430013858111273,3.7089945281625765,2.936511873889875,2.261440653084216,1.663495106078429,1.158716425270061,0.712913029717588,0.47755251099678436,0.31960268979550704,0.1805736266257511,0.17471483110230296
0.0,66.0,66.0,0.0,120.0,0.0,0.0,0.0,0.0,-107.0,0.0,-45.0,0.0,0.0,0.0,34.27253218749016,17.55503396713325,5.424831509986745,4.147385911427418,3.573402974160727,2.8671681784915815,2.399597569681495,1.81246411309275,1.339312636105263,0.9182683657331546,0.5535263004270613,0.31680053596934094,0.16584468745536324,0.11560579576903793,0.02585388119058045,0.0007293181772169144,-5.19503672234585e-05,7.588862005558348,6.338730838032503,5.786768494088464,5.126958864093642,4.4798856768759805,3.6823042295744632,2.950214183036282,2.2613615400706077,1.6417895588976419,1.149304278734405,0.7749965505791567,0.472974619432874,0.287803866702627,0.18737819589827606,0.13853167689405108
0.0,67.0,67.0,0.0,120.0,0.0,0.0,0.0,0.0,-107.0,0.0,-45.0,0.0,0.0,0.0,34.27253218749016,17.55503396713325,5.387617184858829,4.1870470984528145,3.458643048318353,2.9748616868691338,2.3760723336995464,1.8034037913649665,1.2520760176983334,0.9109642176475703,0.5168722923919312,0.3738957308505531,0.19937096635242477,0.0902994659724009,0.013125069349841895,0.008745872482404934,-0.06333003290035966,7.625253660150513,6.398878441848239,5.805962603912647,5.146251617994255,4.457053645211098,3.7426970974176843,2.9770383303348424,2.296574107594678,1.6817798427778081,1.1790767106718425,0.7767143099912687,0.5149147289859535,0.289615386591574,0.18124124800864969,0.1333089701576756
0.0,68.0,68.0,0.0,120.0,0.0,0.0,0.0,0.0,-107.0,0.0,-45.0,0.0,0.0,0.0,34.27253218749016,17.55503396713325,5.453161265755296,4.1448376140011325,3.59743410201471,3.013038570454159,2.3815280165948276,1.9125587252849543,1.2925862499017438,0.9158112229997354,0.5506044974129632,0.33727716623017573,0.19148663759589088,0.17761820333316364,0.06313012032370965,0.04125617185197909,-0.030716132026667106,7.643437664575515,6.403304572457776,5.808336568875702,5.218324000080694,4.486198946194427,3.7863462436518924,3.018594850651807,2.287970288361307,1.6827991786274479,1.173914820633874,0.7847714608853983,0.49688578379292875,0.29439628143136914,0.16904508762418172,0.13686102141678072
0.0,69.0,69.0,0.0,120.0,0.0,0.0,0.0,0.0,-107.0,0.0,-45.0,0.0,0.0,0.0,34.27253218749016,17.55503396713325,5.495259874414227,4.162179910622108,3.5904404712134075,2.990915555707955,2.443371694505865,1.8508193264443171,1.3302628897623037,0.9268524658341772,0.6659670260778037,0.3605907384669778,0.22678915514795628,0.15001580015565455,0.0557545470501235,0.06655014703518548,0.06631129134051561,7.66702590392034,6.5420997055636745,5.813922530598429,5.217634839488307,4.49510741091694,3.7990573860563197,3.0114553482635196,2.27894808074301,1.7079774178098264,1.1776877643156516,0.8387207003961291,0.47809325886497894,0.32303087291068716,0.17123706325399968,0.1412889550802728
0.0,70.0,70.0,0.0,120.0,0.0,0.0,0.0,0.0,-107.0,0.0,-45.0,0.0,0.0,0.0,34.27253218749016,17.55503396713325,5.5033675200908085,4.17203988036037,3.541681137814777,3.0367535364400404,2.477448556699197,1.860512859834946,1.2799201683864914,0.9582938003555354,0.6048144005397594,0.38984015207714945,0.2228114431467588,0.20303536094861652,0.06557740211130562,0.004783465665866751,0.059633546848473176,7.636299367158312,6.510156993508204,5.883346422565214,5.300651326983626,4.551565850791842,3.77453790957364,3.0249431528966433,2.27851967223808,1.7403890859883013,1.1852322932371746,0.8007984919169675,0.477504714745658,0.3094593671816448,0.1897077253050666,0.16907483693183684
0.0,71.0,71.0,0.0,120.0,0.0,0.0,0.0,0.0,-107.0,0.0,-45.0,0.0,0.0,0.0,34.27253218749016,17.55503396713325,5.495898696360423,4.243145416498778,3.633275689388078,3.025158612713786,2.454399938813601,1.90568335152029,1.3152818515662705,0.9117178132973605,0.6096045566395957,0.3835165128298013,0.18890746656401278,0.024089677253668132,0.0427982448811988,0.10828735547282009,-0.013728163047148592,7.698410262704475,6.544205535404852,5.927392491242824,5.281015648953334,4.576482602769573,3.810551745824749,3.047267631997675,2.3311015084159314,1.683601075642654,1.211754651577281,0.7851933907849798,0.479440470704468,0.3226070002612284,0.18993378652768908,0.11947085277974585
0.0,72.0,72.0,0.0,120.0,0.0,0.0,0.0,0.0,-107.0,0.0,-45.0,0.0,0.0,0.0,34.27253218749016,17.55503396713325,5.581744623658761,4.316945332092155,3.691627950477739,3.1253400025641134,2.4088836565397886,1.930600489763752,1.3490469019472708,0.9388397163898939,0.6479343846983125,0.4155981187604821,0.15900329836521124,0.14880113514405455,0.06852151492202763,0.07044309362402526,-0.03716503304189086,7.731481823454276,6.582202170634204,5.937863019953042,5.319575880091476,4.638652029043942,3.890485175061416,3.050895245060489,2.355291639859946,1.7206007897650244,1.2232890889058585,0.8055308013169067,0.4687733134637157,0.3281720651015273,0.17150192987106935,0.09829234234576123
0.0,73.0,73.0,0.0,120.0,0.0,0.0,0.0,0.0,-107.0,0.0,-45.0,0.0,0.0,0.0,34.27253218749016,17.55503396713325,5.679009874099972,4.318454048970654,3.7490621609355435,3.1460290978191097,2.4621486413782585,1.8414905516441396,1.4277458811149704,0.950144348373783,0.65416850942869,0.361216087605803,0.25527637993070934,0.17457066012855463,0.049909834832161985,0.023135118184812523,0.022962356622440724,7.789991015691004,6.541031209156979,5.970915653000833,5.367749431206671,4.63755791694077,3.86450013272198,3.065196222539226,2.2992001635701618,1.728446043936938,1.2134712130894847,0.7784243613785911,0.5050234444403583,0.3066983490663411,0.1774090327874517,0.12180984572231689
0.0,74.0,74.0,0.0,120.0,0.0,0.0,0.0,0.0,-107.0,0.0,-45.0,0.0,0.0,0.0,34.27253218749016,17.55503396713325,5.701524129108575,4.380612852173988,3.710288989824169,3.2122801585087486,2.5642451655653495,1.8858969955314353,1.344895445585659,0.907211759724359,0.6256130346603438,0.3946853034413672,0.23266178038833124,0.13881582647686194,0.012418775844676717,0.012305595206842237,-0.049822651221432146,7.847015078645296,6.676533751173251,6.059209499429136,5.3815636289314766,4.66547902372744,3.889670004174127,3.1251386211990937,2.314468986619257,1.7512531902816313,1.2074650953399837,0.7945162891749488,0.5132063853131578,0.3109301462882453,0.17015572331477544,0.13418086390249784
0.0,75.0,75.0,0.0,120.0,0.0,0.0,0.0,0.0,-107.0,0.0,-45.0,0.0,0.0,0.0,34.27253218749016,17.55503396713325,5.7219264918371975,4.472613422631993,3.7891621349579854,3.2080886423407278,2.4827504901962802,1.9144269567491095,1.3452780730288618,0.935009770310224,0.6705656101227921,0.3091384403782659,0.2012059130567847,0.11186230196303595,0.04064681972871458,0.08253630997701691,0.05953205441648314,7.885175198878625,6.6785963525742575,6.062600696513719,5.436744739847397,4.687745837420212,3.882476397228565,3.124014241847822,2.3224413912461994,1.7675855352493384,1.2591253664940685,0.813932627029127,0.5207444087476675,0.30176970017478066,0.16553625243973086,0.15042957458089395
0.0,76.0,76.0,0.0,120.0,0.0,0.0,0.0,0.0,-107.0,0.0,-45.0,0.0,0.0,0.0,34.27253218749016,17.55503396713325,5.707714619056779,4.533161500069192,3.797535063128987,3.206578575768676,2.560790572101261,1.9621913124720844,1.3700327245150647,0.9310097009120198,0.6561648124408214,0.3220374068151718,0.18881854660341968,0.0818981703329383,0.05514534626648781,0.034575074149412056,0.011223315805005605,7.898971138193092,6.7500502525774255,6.12146958352255,5.4505785875460235,4.7170976426994615,3.9034402805417012,3.154793327021221,2.3877157232343604,1.69762401733118,1.219495200945793,0.7905422926660954,0.5254264078517187,0.29040244217579797,0.172552097751515,0.11020044774852143
0.0,77.0,77.0,0.0,120.0,0.0,0.0,0.0,0.0,-107.0,0.0,-45.0,0.0,0.0,0.0,34.27253218749016,17.55503396713325,5.711307144825763,4.422734396241258,3.8654912509518002,3.1997116832848995,2.626469790943829,1.921941840472201,1.404113983213008,0.9370413064250591,0.5732849326043801,0.3816750827246435,0.19124353495958216,0.11483042934272968,0.07484724306347469,-0.0001778963466559022,0.10760766337233843,7.908975922158796,6.783611586656539,6.13382350846392,5.48914747763947,4.743093293563826,3.9295466330375186,3.139701707408794,2.396698563313399,1.76509283043845,1.2248327825948608,0.813496544153126,0.47917261147900464,0.2975770383921015,0.1737874418012434,0.12067266145913239
0.0,78.0,78.0,0.0,120.0,0.0,0.0,0.0,0.0,-107.0,0.0,-45.0,0.0,0.0,0.0,34.27253218749016,17.55503396713325,5.841153422508421,4.520988743226931,3.947630192327123,3.2053498938105336,2.6482946056294185,1.9955187090244029,1.4119007226343199,0.8857504435743765,0.6359033671578588,0.3650460483860438,0.22439866526987234,0.06386504565491613,0.038007782000752555,0.02790285043020866,0.06796703058618687,7.948627636512289,6.749363297786033,6.178913953346571,5.55740812597615,4.758774586848862,3.951227735814805,3.1656400561853415,2.3763595020469173,1.7735399532534408,1.2359242613256356,0.8126290322941048,0.5044818543375044,0.29016500784436133,0.17499172362130605,0.1030753038403131
0.0,79.0,79.0,0.0,120.0,0.0,0.0,0.0,0.0,-107.0,0.0,-45.0,0.0,0.0,0.0,34.27253218749016,17.55503396713325,5.878572466565602,4.562410054514607,3.891448338866637,3.3065448653558582,2.641931539791804,2.05917834604664,1.4557889332140181,0.9615306135908616,0.5844793763508265,0.39013632068606985,0.1740330965815231,0.13956943337234548,0.04789383431882079,0.07563113185022302,-0.021362049461396252,7.994860883034439,6.844857282591214,6.190781827048746,5.587059868650966,4.864910837379737,4.017228676141826,3.1561915434973202,2.39634777384359,1.7722075136806184,1.2418213057388212,0.8122374144737134,0.4827196744675027,0.3162408670132428,0.17515198338692345,0.12412524234014873
0.0,80.0,80.0,0.0,120.0,0.0,0.0,0.0,0.0,-107.0,0.0,-45.0,0.0,0.0,0.0,34.27253218749016,17.55503396713325,6.012836488741628,4.523231763120448,3.9419402286178946,3.3160649012928785,2.645276109500508,2.005109512589099,1.4411396771861376,0.9264218597743148,0.6265237087053154,0.36399436276497027,0.17877927801828714,0.1036761359408614,-0.007441040157153349,-0.06257716246128969,0.02489360966580955,8.019139357424589,6.883765679059775,6.263361970900319,5.618730743353954,4.83926633348671,4.0313540064185265,3.1925054897630605,2.4651663943932847,1.7694352833616982,1.242503614895473,0.7973612461581858,0.5211764681795983,0.2947364412108887,0.19348017832002845,0.12282571253010045
0.0,81.0,81.0,0.0,120.0,0.0,0.0,0.0,0.0,-107.0,0.0,-45.0,0.0,0.0,0.0,34.27253218749016,17.55503396713325,6.039559624441862,4.601933170316501,3.983454830827796,3.3365790384744796,2.719589536504327,2.013227432198272,1.3944917677835666,0.9137783055324313,0.6321328185673056,0.43158206860744547,0.21435456525734903,0.14562405241984655,0.05687769993303807,0.0044376397096237835,0.0618208205910267,8.00783878575553,6.903012534778797,6.284217773811713,5.591256687862467,4.8575640875170905,4.060482644677072,3.206389681007122,2.439520911784977,1.788013234943007,1.2429249611046376,0.8276528569278874,0.5070817137731416,0.30258291702671486,0.24006781619860668,0.0986715925486894
0.0,82.0,82.0,0.0,120.0,0.0,0.0,0.0,0.0,-107.0,0.0,-45.0,0.0,0.0,0.0,34.27253218749016,17.55503396713325,6.0084580455630805,4.685287035310071,4.094033619762109,3.3317461446049808,2.687109701562832,2.0118811568166337,1.4626492287091468,1.0190728704349459,0.6071941700652663,0.37911344714485706,0.251379646684009,0.11726306340842332,0.06170121146281387,0.002550567200715153,0.07194313790934759,8.095361396017537,6.949218071899343,6.308466061575056,5.674353699332939,4.907323627551178,4.055910605150451,3.227993548059979,2.471393384347796,1.8104609176936137,1.280924703885162,0.8579629690112243,0.5047064216671043,0.3031988792264946,0.18356507656639673,0.10468350348850737
0.0,83.0,83.0,0.0,120.0,0.0,0.0,0.0,0.0,-107.0,0.0,-45.0,0.0,0.0,0.0,34.27253218749016,17.55503396713325,5.950353087988122,4.688398383053979,4.016114806679182,3.4086987928449592,2.727699695193632,2.066303386190139,1.474123903344955,0.9543518457611763,0.5847517463710635,0.4188617768310962,0.16823257183803986,0.18901211994158648,0.07034816315772244,0.03521324604068653,0.031161593962270567,8.132722252569154,7.016191871445221,6.349705415544865,5.660610982785171,4.917493668200013,4.150187198941228,3.2189798154467897,2.467277085622645,1.8450134291505313,1.2588221148222778,0.8675502271677602,0.54397098075214,0.30929937132644225,0.18082187647241954,0.13402245629922738
0.0,84.0,84.0,0.0,120.0,0.0,0.0,0.0,0.0,-107.0,0.0,-45.0,0.0,0.0,0.0,34.27253218749016,17.55503396713325,6.058482351219179,4.793384221470472,4.140023032189802,3.476856221693533,2.7718607029346587,2.0335353892065706,1.4998082071359247,0.9922029090918204,0.6035929887200191,0.3867065970929176,0.17102756962379262,0.1120331925466297,0.05548720654765598,0.05042623995777135,0.0554166056311929,8.145149632124276,7.000696014145485,6.33603551058546,5.7374212331922605,4.917470591327397,4.092884331556917,3.262162984684118,2.485292761941094,1.8394313618326086,1.2280844119963001,0.8377486912648181,0.49673634257093674,0.34589768173020957,0.19558339226208196,0.12085231209372191
0.0,85.0,85.0,0.0,120.0,0.0,0.0,0.0,0.0,-107.0,0.0,-45.0,0.0,0.0,0.0,34.27253218749016,17.55503396713325,6.22991274046509,4.7985595097374985,4.155633214255739,3.4000987352013277,2.763425665771245,2.1737010482592076,1.5037639780858423,0.9735325179655684,0.6105287863204232,0.3365687592284388,0.24046323091182753,0.15032907130155482,0.06471593458100794,0.0015253917185063318,0.025449131797149915,8.204804393308024,7.110305781390656,6.416839473688612,5.726295033884205,4.949721758111254,4.139459192657865,3.251757396216677,2.513723786474111,1.8269164771975883,1.2835697733916485,0.8431374715438814,0.5739928021312718,0.3074156568353379,0.20213536837242757,0.1643828310292843
0.0,86.0,86.0,0.0,120.0,0.0,0.0,0.0,0.0,-107.0,0.0,-45.0,0.0,0.0,0.0,34.27253218749016,17.55503396713325,6.205090515522563,4.922448460307663,4.159866030720248,3.5188895037497967,2.7555570544701746,2.0608671304578845,1.4594640693101129,1.0072116905724025,0.6608453651637565,0.3554763650743957,0.17541788923765825,0.051658432315180025,0.13728363447186184,0.03469065604589777,-0.06103965130338693,8.264088012858094,7.113527912298311,6.428762996988034,5.813161395379958,4.98081717251568,4.154422591391876,3.292152864796058,2.512339488585899,1.8649796656024238,1.3011678937355335,0.8400714627991229,0.5616342027573169,0.34478617493371366,0.1533298094912224,0.08852541632525633
0.0,87.0,87.0,0.0,120.0,0.0,0.0,0.0,0.0,-107.0,0.0,-45.0,0.0,0.0,0.0,34.27253218749016,17.55503396713325,6.210939492760792,4.952508008746358,4.185279884422303,3.4949096819662766,2.800075965801741,2.1111990502688287,1.5008740431825065,0.9751497090682312,0.6251571114208434,0.3887367843140164,0.2769554736849147,0.1670327687491156,0.09363778768959094,0.04387788495544503,-0.07807896029922892,8.35549448699895,7.189371831277334,6.493511560503859,5.800145829016274,5.026158144138723,4.178078826587634,3.300400523708768,2.558817197914295,1.8363166059902012,1.2993577599759645,0.827654848662556,0.5248080536625597,0.3361558224431851,0.1851475849984182,0.09898124958552534
