Line_number,Fiducial,Easting,Northing,Height,Elevation,tx_pitch,tx_roll,tx_yaw,txrx_dx,txrx_dy,txrx_dz,rx_pitch,rx_roll,rx_yaw,PX,PZ,S0X_time_1.086e-05,S0X_time_3.256e-05,S0X_time_5.426e-05,S0X_time_8.680e-05,S0X_time_1.411e-04,S0X_time_2.279e-04,S0X_time_3.689e-04,S0X_time_5.860e-04,S0X_time_9.115e-04,S0X_time_1.411e-03,S0X_time_2.192e-03,S0X_time_3.418e-03,S0X_time_5.339e-03,S0X_time_8.301e-03,S0X_time_1.338e-02,S0Z_time_1.086e-05,S0Z_time_3.256e-05,S0Z_time_5.426e-05,S0Z_time_8.680e-05,S0Z_time_1.411e-04,S0Z_time_2.279e-04,S0Z_time_3.689e-04,S0Z_time_5.860e-04,S0Z_time_9.115e-04,S0Z_time_1.411e-03,S0Z_time_2.192e-03,S0Z_time_3.418e-03,S0Z_time_5.339e-03,S0Z_time_8.301e-03,S0Z_time_1.338e-02
0.0,0.0,0.0,0.0,120.0,0.0,0.0,0.0,0.0,-107.0,0.0,-45.0,0.0,0.0,0.0,34.27253218749016,17.55503396713325,1.690626529270874,1.4524386626162775,1.4143186437128379,1.3999916738095577,1.2639385812672297,1.237932838677472,1.174434759151213,0.9297311392395211,0.9205291526653101,0.7096681895196073,0.5281618988346432,0.46666741239926696,0.33221692857727997,0.25177133413337194,0.15429850115498933,3.2391654745738516,3.028142560257091,2.92643267263376,2.8154595613829105,2.6820104670455702,2.568267992452373,2.4129093381867293,2.1918817211272157,1.9920805618926174,1.7345509204229312,1.5063831140504518,1.2238380315574466,0.9955851591345634,0.7614337508930514,0.4987587823572316
0.0,1.0,1.0,0.0,120.0,0.0,0.0,0.0,0.0,-107.0,0.0,-45.0,0.0,0.0,0.0,34.27253218749016,17.55503396713325,1.603288701080185,1.4647678080131408,1.3362482698687526,1.318589782825874,1.2497461957164446,1.126001942099389,0.998535348683724,0.9335550626432185,0.8213454210816146,0.6123865534461563,0.5838069595723427,0.4385058443332148,0.322310179810882,0.2804065074933558,0.18008711164615737,3.2032858811328966,2.89750536841499,2.7705242377241537,2.6736410004720144,2.5734808238735836,2.3819576633505806,2.3060913726774874,2.049938717153605,1.86200137497594,1.6706101775737705,1.381216392426655,1.2002121722518002,0.9666784850923944,0.7298402254488582,0.5686353649100078
0.0,2.0,2.0,0.0,120.0,0.0,0.0,0.0,0.0,-107.0,0.0,-45.0,0.0,0.0,0.0,34.27253218749016,17.55503396713325,1.5697143847763073,1.3081083074471425,1.2586821718542087,1.227544103385328,1.117292252649833,1.0651958475895529,0.9757077801904408,0.915397252379558,0.8055143961334333,0.6285366308159054,0.5062449108403609,0.4622621818151422,0.24876008745544792,0.19262997863655823,0.1689340250448661,3.0869949003438415,2.7205887965173767,2.6474907888917283,2.544642311719813,2.4421508434876276,2.3269449402363,2.1499663620317793,1.9714036882591677,1.791535277021341,1.604325057929931,1.3947315175622998,1.1819260488187895,0.9184812717688311,0.6874608956633785,0.45850856127308404
0.0,3.0,3.0,0.0,120.0,0.0,0.0,0.0,0.0,-107.0,0.0,-45.0,0.0,0.0,0.0,34.27253218749016,17.55503396713325,1.5334217890803525,1.2000197602942555,1.2278205773456754,1.1467040572936702,0.9804045587215874,1.0138381321087202,0.8945934947527762,0.8743094643930551,0.6691540689993128,0.5284280249945335,0.4850125665792753,0.43454661834972064,0.2616397135931649,0.2650080982845053,0.10394472045141236,3.1205165337841954,2.58796607540303,2.4958977620263716,2.4125501084285212,2.315840891992038,2.1642321134653586,2.0330340624244467,1.896954393276906,1.6964659063545258,1.5523755686646108,1.350900952258732,1.0917209512582822,0.8873757165426339,0.7064049141385973,0.4957684849041458
0.0,4.0,4.0,0.0,120.0,0.0,0.0,0.0,0.0,-107.0,0.0,-45.0,0.0,0.0,0.0,34.27253218749016,17.55503396713325,1.533462043175472,1.2159617049921878,1.1767898810637638,1.0297776650535448,1.0281370651718071,0.9060160965045603,0.9199775159245338,0.7338508131089024,0.7041242842079293,0.588913153095509,0.48729805424480566,0.36075618918431096,0.29658847008462885,0.16946960736431343,0.07143909074290669,3.062429158720362,2.5067619906524103,2.393060262598428,2.321497186666123,2.208847918153934,2.0630716918390752,1.9700153270566862,1.88164674473447,1.6578780683879992,1.4800753461800127,1.2666986201751984,1.0583589008165148,0.8473378820207942,0.6501383546467432,0.4707394384938915
0.0,5.0,5.0,0.0,120.0,0.0,0.0,0.0,0.0,-107.0,0.0,-45.0,0.0,0.0,0.0,34.27253218749016,17.55503396713325,1.5287945573207011,1.1394534065968156,1.0516099901714835,1.01404590408491,0.8970283910968073,0.8755237260124333,0.8323786067390235,0.7099992373739976,0.5476431629464945,0.5242742610038462,0.4731119575033557,0.3755998200657316,0.21537279192239603,0.19252274034316422,0.16616370864858435,3.114194731911748,2.4137670817047097,2.2842151074578196,2.236011145304875,2.1005260881669874,2.0163644280572774,1.9125481829311353,1.7112866665406918,1.5790059648254908,1.3589312519006487,1.2216679322523574,0.9779184918852503,0.826910831476916,0.6370192369976139,0.44669806408577967
0.0,6.0,6.0,0.0,120.0,0.0,0.0,0.0,0.0,-107.0,0.0,-45.0,0.0,0.0,0.0,34.27253218749016,17.55503396713325,1.5970244137096419,1.1261188368398376,1.0085286917922849,0.9107640805592963,0.8355468898247226,0.7718562466169309,0.7434193030962369,0.6528802774574117,0.5835511778819272,0.4103465546880338,0.39120335386922844,0.3114209520484832,0.17674442534342327,0.1571108455478123,0.06475332082299867,3.0631417815574817,2.3246180524825992,2.167321373151771,2.1401406701250547,2.0490213500551513,1.8889994600305997,1.794674892377894,1.6249264577579228,1.474452485825659,1.336608678351143,1.1615230444797395,0.948340414202282,0.789032293567125,0.5904645387328774,0.4379412454801694
0.0,7.0,7.0,0.0,120.0,0.0,0.0,0.0,0.0,-107.0,0.0,-45.0,0.0,0.0,0.0,34.27253218749016,17.55503396713325,1.5189442106394018,0.9745532902329066,1.0106117565344273,0.8912082007403059,0.8552259237077162,0.7429369382227742,0.7389784746155681,0.6508198874702908,0.6045855213573473,0.46579998431660496,0.4226670940868632,0.3152340579746191,0.25396835003431745,0.22390556567600267,0.07911294265416857,3.036961511850295,2.2827987484838808,2.126358098317296,2.016423741949891,1.9104349433196623,1.801258116307054,1.7003465954668968,1.5748093618092227,1.403211504446919,1.2988300318211616,1.1051570953648526,0.9399272829953329,0.7344650297879209,0.5715887416948264,0.41920773469542766
0.0,8.0,8.0,0.0,120.0,0.0,0.0,0.0,0.0,-107.0,0.0,-45.0,0.0,0.0,0.0,34.27253218749016,17.55503396713325,1.5666505095431529,0.9357155667212171,0.8947941624501234,0.8703441297312374,0.7247928788414166,0.8039211022820698,0.587339211879928,0.5888710442692932,0.6000036960792098,0.47640215469480873,0.33084248950028217,0.2969395346885493,0.24329838873646067,0.1772023629083408,0.08523165812088873,3.133170680039631,2.2561147383612044,2.062537596609474,1.9601894279723893,1.8329349851529273,1.7827007430780069,1.6616362730348992,1.484110530314697,1.3614109659223,1.223651724275637,1.076564891791611,0.8907807408151045,0.7290048990285927,0.5642591657087586,0.40370787205694497
0.0,9.0,9.0,0.0,120.0,0.0,0.0,0.0,0.0,-107.0,0.0,-45.0,0.0,0.0,0.0,34.27253218749016,17.55503396713325,1.6108237364965188,0.96728050792023,0.8357086874723936,0.7444432214488841,0.7449180653976778,0.6741036458963903,0.5840390680792252,0.5100114956854542,0.463693349507369,0.45587127690565393,0.315389043714177,0.27766500150653506,0.2281198496646022,0.12222012911718319,0.1648346806452322,3.101541987201262,2.204059459345073,1.9662432034956092,1.8698592606076931,1.73270631418588,1.6846424215038123,1.5449622814336061,1.4542769369100201,1.3288065400563567,1.1922442171734486,1.0014578585046525,0.8637265258409201,0.700797545145755,0.5345838643490416,0.44212943397504983
0.0,10.0,10.0,0.0,120.0,0.0,0.0,0.0,0.0,-107.0,0.0,-45.0,0.0,0.0,0.0,34.27253218749016,17.55503396713325,1.4963704949700125,0.9214247007528625,0.7734420515612482,0.6602213836953048,0.678690306224354,0.6386327675678214,0.6167776866807556,0.5477567883164759,0.48576885283718135,0.43518188459023266,0.3172725513706856,0.2583514025723043,0.2304651661927268,0.12951330408360132,0.12296648897888807,3.1410892123653804,2.1603485481362323,1.910971416080312,1.7985147511397905,1.6783806755715638,1.6010240286051183,1.5098969711233488,1.3950149420364701,1.3082372992754112,1.1435448812471587,0.9766458896864021,0.8238913026198375,0.6904407143407832,0.5226638026713298,0.38761515043936756
0.0,11.0,11.0,0.0,120.0,0.0,0.0,0.0,0.0,-107.0,0.0,-45.0,0.0,0.0,0.0,34.27253218749016,17.55503396713325,1.6162416036099425,0.9241216898751138,0.7603129111241959,0.6857710764499155,0.625253551194596,0.6180404567197868,0.5687251949044623,0.5482822890639679,0.4551539883934657,0.456719853984561,0.29971532251126914,0.3364453993157409,0.22281654345862648,0.15275883762972944,0.09646520559810456,3.1738084587546482,2.150088525566773,1.834121048479274,1.701324642845787,1.6144269787434655,1.5268250470148579,1.451283813541539,1.3413856329428138,1.2383001965682348,1.077752434757707,0.9481858802188639,0.805304470146627,0.607445480390661,0.5114377819426817,0.37340481697525624
0.0,12.0,12.0,0.0,120.0,0.0,0.0,0.0,0.0,-107.0,0.0,-45.0,0.0,0.0,0.0,34.27253218749016,17.55503396713325,1.6616764674922846,0.9301781446559073,0.7081289181862171,0.666755575174566,0.6466334676595148,0.5516806205690502,0.5484923480212205,0.43386563506882286,0.41657265154548434,0.29291308138586813,0.35013052994473726,0.23118858328582598,0.19880061472948948,0.10841978780384723,0.06939525831254842,3.1742356261043922,2.1564344383384397,1.8180870594368728,1.6935570112809106,1.5780955255761835,1.4492014151685497,1.3628310488755662,1.247775979827661,1.1854278621625123,1.0130737858001753,0.9184732568885784,0.7869919712371453,0.6203176288344232,0.46078048821781653,0.38291700473449136
0.0,13.0,13.0,0.0,120.0,0.0,0.0,0.0,0.0,-107.0,0.0,-45.0,0.0,0.0,0.0,34.27253218749016,17.55503396713325,1.6818671396496419,0.908985365026204,0.7333782419884359,0.5854558313833199,0.5771944479611615,0.5825863035846521,0.4051636953008085,0.4409591599666361,0.3725173925509267,0.3943718879759449,0.27571317467812956,0.23907820930775317,0.2289954851455767,0.12616936543268809,0.13363643968258765,3.248535966891762,2.1728332685541503,1.8258110419163358,1.6024753782096368,1.4875061463353925,1.4368952503108097,1.2929739707503909,1.1862822953900005,1.1206861670048898,1.0378185164098241,0.906668760404583,0.748662164733569,0.6232669474419195,0.4469750844005129,0.31015420362902
0.0,14.0,14.0,0.0,120.0,0.0,0.0,0.0,0.0,-107.0,0.0,-45.0,0.0,0.0,0.0,34.27253218749016,17.55503396713325,1.5996659174318104,0.9492746009949802,0.668506372300583,0.5148771605388911,0.5387950382868563,0.5276082084325009,0.5080758762810853,0.4968483955932636,0.336715322801876,0.31430260874194516,0.31344139735675025,0.20716693234117606,0.10630500949572162,0.08904989384373718,0.04513425575371996,3.2823898971724983,2.1706484509983595,1.7626510911301454,1.583145691003571,1.443446821873663,1.3426268495957185,1.2674203616629536,1.1452991572482516,1.0507994934896299,0.9303482619252345,0.8552291053162734,0.6878509885887222,0.5898181925392744,0.47140168487586126,0.34246720678656967
0.0,15.0,15.0,0.0,120.0,0.0,0.0,0.0,0.0,-107.0,0.0,-45.0,0.0,0.0,0.0,34.27253218749016,17.55503396713325,1.6196265663948208,0.8944309937469674,0.6923493255544665,0.5555830877225969,0.5015923027085218,0.47884555495270176,0.41649184706515363,0.3741261905017752,0.3890200623203871,0.38355377783833744,0.31792899624219173,0.20539401258278897,0.17524754874634574,0.13713832718301094,0.12004555245406426,3.281925688685396,2.136550074687189,1.7371029113207686,1.5392192814403691,1.3871892276229005,1.3019332769678826,1.170338064954346,1.1129191991444685,1.034681458948995,0.9296940994881117,0.8094542154133056,0.6878248935645137,0.5554448522348394,0.42636905798036545,0.34433650306130453
0.0,16.0,16.0,0.0,120.0,0.0,0.0,0.0,0.0,-107.0,0.0,-45.0,0.0,0.0,0.0,34.27253218749016,17.55503396713325,1.7163024989096989,0.9478453887457196,0.6829811935807485,0.5345841813853042,0.426285907971387,0.4574863559457513,0.37738357445183374,0.3128216290362761,0.38609347767997343,0.2922312564223276,0.25772006212306664,0.19004892474788748,0.13720109276309334,0.09767583326391392,0.047045759182624394,3.359401709275794,2.15911350502737,1.709918016466982,1.4967631348283033,1.3278878217366838,1.2143159059352964,1.1815806341446013,1.057016825439334,1.0127247293399246,0.8912914842202126,0.770449846818516,0.6510519867858223,0.572393624101643,0.44245002401580275,0.33397350070261866
0.0,17.0,17.0,0.0,120.0,0.0,0.0,0.0,0.0,-107.0,0.0,-45.0,0.0,0.0,0.0,34.27253218749016,17.55503396713325,1.6859406741974978,0.9531684123409307,0.6108736286570834,0.5718325584119196,0.4631785116968241,0.4328825585240061,0.3879136007328896,0.309703840149084,0.3242769057857713,0.3119641882097848,0.264457562296553,0.2264733486840804,0.176369767849336,0.11531107539207462,0.03041262937197582,3.3747671059653466,2.207634473903186,1.7054403019656053,1.4511075769215702,1.2992300930905578,1.2007704591560064,1.1565321509867603,1.0255143411919327,0.9654138172409192,0.8634194070323783,0.7744022831319631,0.6730444839989386,0.5101468976009229,0.39931684178392857,0.33017787289546996
0.0,18.0,18.0,0.0,120.0,0.0,0.0,0.0,0.0,-107.0,0.0,-45.0,0.0,0.0,0.0,34.27253218749016,17.55503396713325,1.6993792336424065,0.9425994737193688,0.5908874136360431,0.49452308661452565,0.4619151227759293,0.4374985456339855,0.37184705302474746,0.3410707512308715,0.32910852227076676,0.27298540007238214,0.16442605687507109,0.1930753590626053,0.1125306040193978,0.05519498356900093,0.08832817112191488,3.404251189560997,2.222998661969206,1.7668477240772484,1.440039902558298,1.2680157536005874,1.157252052332074,1.0811428050677552,0.9972427414801529,0.89476770641567,0.8557848570376256,0.7377424883357205,0.6224828041630613,0.5389016889040358,0.3950966993374559,0.31959814709131645
0.0,19.0,19.0,0.0,120.0,0.0,0.0,0.0,0.0,-107.0,0.0,-45.0,0.0,0.0,0.0,34.27253218749016,17.55503396713325,1.7038412073041074,0.8994241344366887,0.5861489244289606,0.5092535232107026,0.41357686256510445,0.3744923974905825,0.34610293414147775,0.3147116255322205,0.37384129459629256,0.2515437274123608,0.20168836081993716,0.17281125433513378,0.12415248407408085,0.10622323370546405,0.05323449469181036,3.3884574077995286,2.256995531191606,1.738918787354917,1.403044818249552,1.2142647536228899,1.1374109703903135,1.0240347240180903,0.9390981591951798,0.8708426386133077,0.7936714721181576,0.720272596168171,0.6219471045417508,0.4903438588230781,0.39653438200965485,0.3284507923373949
0.0,20.0,20.0,0.0,120.0,0.0,0.0,0.0,0.0,-107.0,0.0,-45.0,0.0,0.0,0.0,34.27253218749016,17.55503396713325,1.6741297014415903,0.9632855330153159,0.6289744250009393,0.4735942295467851,0.4430342918219522,0.37004227706717807,0.3634365028607677,0.3298004504823173,0.2375755405984794,0.258149364203895,0.1985133759842693,0.1743808023270898,0.15513729334551554,0.12457885824945132,0.06615647214640191,3.445786830382197,2.252081845123479,1.701400095145997,1.3937777987482218,1.1525220206373203,1.0563842554913108,1.0142119347280663,0.9817299241549371,0.8388877393455438,0.7543428447605494,0.6822369812330066,0.5761563161811913,0.4762691336149793,0.407867849685706,0.30144742192096147
0.0,21.0,21.0,0.0,120.0,0.0,0.0,0.0,0.0,-107.0,0.0,-45.0,0.0,0.0,0.0,34.27253218749016,17.55503396713325,1.7939665712478392,0.9535749103929156,0.7115243818834734,0.43265702044180593,0.37987109475091063,0.34464916747504926,0.3349347566566642,0.28970939229715303,0.20717920863091538,0.3361866662923757,0.2630944188638168,0.1378472045158208,0.15039713856639475,0.08501615508847166,0.04447664282382208,3.447899885246843,2.245410645299617,1.7372405657085859,1.422298574758434,1.176979514573006,1.0201759116033688,0.9663923227508414,0.8599526327548982,0.8230597311195176,0.7253141054535719,0.6619267023515403,0.5859560291595716,0.4369295224963844,0.3625086255856334,0.2805801494745765
0.0,22.0,22.0,0.0,120.0,0.0,0.0,0.0,0.0,-107.0,0.0,-45.0,0.0,0.0,0.0,34.27253218749016,17.55503396713325,1.7131393632845475,0.9633901894882388,0.6511329690413916,0.4375962280750014,0.3676026330661625,0.3202596973293239,0.2736467252341511,0.2672308357855931,0.22772803670268107,0.1841762422517407,0.10211912858252598,0.1457778363312421,0.0846282757579834,0.09344766737017594,0.05557937415888681,3.488817906552742,2.266603104518995,1.7033774934838262,1.3831292960764867,1.119780131581913,0.995062994025906,0.9181185982949623,0.8646114266736419,0.7712229954030314,0.6937949570301662,0.5935771691291327,0.5699806653245109,0.4792578036419697,0.358743756394419,0.2874375701653143
0.0,23.0,23.0,0.0,120.0,0.0,0.0,0.0,0.0,-107.0,0.0,-45.0,0.0,0.0,0.0,34.27253218749016,17.55503396713325,1.7194489282332854,0.9902344699876502,0.6356871312894822,0.5067379533227782,0.3330913590456327,0.3559945958332771,0.24366547589089022,0.2701846224290654,0.18064291392317866,0.18573720082189182,0.0982515825825086,0.04904913176260378,0.14161064073688678,0.09172602583344186,0.08925416808975914,3.5021309757935,2.2481507962117306,1.7509710928231739,1.3300539706346308,1.1226867869419888,0.9727013165617011,0.9135227892361452,0.811280268763107,0.7557108197900351,0.6833872039774215,0.6041739952070055,0.5019596965582536,0.4261340217779891,0.35486342093645545,0.27148863978995935
0.0,24.0,24.0,0.0,120.0,0.0,0.0,0.0,0.0,-107.0,0.0,-45.0,0.0,0.0,0.0,34.27253218749016,17.55503396713325,1.819744338222254,0.9501552204451615,0.6821439505235871,0.48256700502813527,0.34776331388663617,0.30127511564423665,0.2629208120129839,0.20465251543369145,0.20876712729995683,0.17756957877554208,0.13047447392068395,0.1404860857586948,0.14461207540152937,0.10752893195111737,0.024669406230770304,3.5337035240467527,2.303187782668556,1.7468689782560722,1.3732857007743837,1.0876905915098878,0.9827829853091644,0.8333011398000371,0.8066045089663955,0.7410181589183944,0.6339709934413174,0.5651713758810403,0.5184750373972862,0.42920841429999995,0.32462514207508475,0.2716576933108396
0.0,25.0,25.0,0.0,120.0,0.0,0.0,0.0,0.0,-107.0,0.0,-45.0,0.0,0.0,0.0,34.27253218749016,17.55503396713325,1.841828439218931,1.0091359210685564,0.6299147322667921,0.49468546190795504,0.3375021129994402,0.30998808032362035,0.22449810774186052,0.17658658404871358,0.2968664581159571,0.19417131703711746,0.1428772620205808,0.0691615058161279,0.10115075892172157,0.04260498642812046,0.08660771291732813,3.558320035802551,2.3414728211385403,1.7088195723050856,1.3720639582772893,1.0641202736825113,0.9152573756344232,0.8826579341428051,0.7888264158776959,0.7048897796105067,0.6134205803895039,0.5133008350355429,0.4683607208953976,0.40111614066380674,0.3618559085308234,0.1970746727513493
0.0,26.0,26.0,0.0,120.0,0.0,0.0,0.0,0.0,-107.0,0.0,-45.0,0.0,0.0,0.0,34.27253218749016,17.55503396713325,1.8385263953975233,1.0254674542774673,0.6588880155590852,0.4755413353977838,0.30263326437047144,0.2952919179791287,0.2198124565778815,0.23151386129760917,0.2357551201759043,0.299499039291099,0.15118233539104364,0.1171016939594633,0.03646102468412982,0.031648777637116626,0.05347100978144057,3.6183583541083237,2.3785944663954415,1.7823686600134754,1.3597781461896026,1.0449800660397346,0.9254805870511558,0.796988272571237,0.7812361923647344,0.7150515092456406,0.6239371300703179,0.5195529175433462,0.4833737873073579,0.3932805622819101,0.2918074576622251,0.2517823628961667
0.0,27.0,27.0,0.0,120.0,0.0,0.0,0.0,0.0,-107.0,0.0,-45.0,0.0,0.0,0.0,34.27253218749016,17.55503396713325,1.7942914478473622,0.9940645530947878,0.6773749911342947,0.4949269743652355,0.3135188225833545,0.2835738598998515,0.2482436003358366,0.19805715442730423,0.22976877320142017,0.15956073578278618,0.1972575030979859,0.17351319602987808,0.10431324065271683,0.12153197490884703,0.024968797698295127,3.6627256333005804,2.385169591307517,1.7996385322943045,1.340123753864991,1.015116833318085,0.8849698635253584,0.8045211711851494,0.7719261769246283,0.671360447231693,0.6110957339733252,0.5769481263184258,0.45254910850306784,0.36908811391366114,0.31664792849507206,0.23956118853932
0.0,28.0,28.0,0.0,120.0,0.0,0.0,0.0,0.0,-107.0,0.0,-45.0,0.0,0.0,0.0,34.27253218749016,17.55503396713325,1.8773004147144783,0.9791730851822776,0.6950847644689209,0.4814842185695497,0.2422531859935049,0.21248349928643218,0.23190891212703033,0.26634816016665025,0.1243460105614407,0.1343785482012296,0.11828413685558227,0.09829170585563884,0.1420128180036829,0.02601682929363848,-0.0030628313003275426,3.6817279347693637,2.345140540955511,1.802982456328456,1.4032694389239802,1.0035241862141326,0.8149960332649837,0.7729195335261897,0.6781500064134788,0.6380779263975356,0.5765349588412338,0.5031334474960047,0.46028510545801277,0.37404903370190135,0.25127773774454115,0.279246406777305
0.0,29.0,29.0,0.0,120.0,0.0,0.0,0.0,0.0,-107.0,0.0,-45.0,0.0,0.0,0.0,34.27253218749016,17.55503396713325,1.8450368173056744,1.06199999615925,0.6739975983468616,0.394133786024662,0.30138367742424277,0.24896499831235408,0.19149464633366808,0.1562489303140547,0.1486638615457543,0.1373233858357653,0.13628361605887118,0.13469208169885097,0.13108034640179245,0.11892218621476827,0.06879502804697891,3.6838947424710295,2.395920210700225,1.7930732936881633,1.3690515641034835,1.0190495493571927,0.8209199929766311,0.7387399291278013,0.6727673511265864,0.6286197311966212,0.5441209051230975,0.5308275228828966,0.4247021690089263,0.3613229231539458,0.2945279700539257,0.19371494836334072
0.0,30.0,30.0,0.0,120.0,0.0,0.0,0.0,0.0,-107.0,0.0,-45.0,0.0,0.0,0.0,34.27253218749016,17.55503396713325,1.9396669879135706,0.9689904997191965,0.6953539348655614,0.4743571029211506,0.29344745479373074,0.2139783120782086,0.19520975671198404,0.16980494569090318,0.18644754453239418,0.16012120088171947,0.15800310804349296,0.1506274978453069,0.08206098732154786,0.08160434084263132,0.00447687555711275,3.7070819686167042,2.3809629790650972,1.833716016657132,1.3345553243003514,1.0549642155314893,0.7983218473617705,0.7191985116029097,0.6526901916235724,0.6005743351320261,0.5479346943857245,0.4850395902528187,0.4417974144999148,0.33119805643278794,0.2828748234171829,0.20998257161834644
0.0,31.0,31.0,0.0,120.0,0.0,0.0,0.0,0.0,-107.0,0.0,-45.0,0.0,0.0,0.0,34.27253218749016,17.55503396713325,1.9492073723025818,1.0301879671708867,0.6836429288579536,0.47300128849051504,0.29329700666544356,0.2475971818784093,0.21827990729445565,0.19780758527567216,0.1332371619250009,0.15635395803370297,0.09454162110507897,0.1290258426593459,0.11804575004967255,0.05421264298404485,0.021096063770593674,3.765156477976405,2.388966533608592,1.804968951116607,1.3861681942404276,0.9794870089690444,0.7955988795033229,0.660628068855615,0.623460262131394,0.6082315542356369,0.5269915559797437,0.48272115711738744,0.4086221881730943,0.335958362666186,0.2856680506513195,0.2364477135061197
0.0,32.0,32.0,0.0,120.0,0.0,0.0,0.0,0.0,-107.0,0.0,-45.0,0.0,0.0,0.0,34.27253218749016,17.55503396713325,1.9652444339034445,1.0669053068137022,0.8070377263419121,0.47160260915211294,0.36423902488688864,0.1962638149476163,0.20186167828860344,0.11203337801973298,0.117040650283611,0.13340391286936137,0.03567272720363948,0.10718833130323521,0.053051456841377756,0.04967522282007419,0.05746671617002288,3.793110953307009,2.482715906108284,1.8618546263806626,1.3367673591868605,1.0029678619278173,0.7649911099499632,0.7000005158088609,0.6041290980474296,0.5701818816030799,0.4870291947121726,0.426867132246648,0.38030623755560766,0.28505167401288173,0.23857642982904315,0.19187527945586794
0.0,33.0,33.0,0.0,120.0,0.0,0.0,0.0,0.0,-107.0,0.0,-45.0,0.0,0.0,0.0,34.27253218749016,17.55503396713325,2.0118097017564835,1.100112252744945,0.7055346558167448,0.466888142597927,0.3339439177157753,0.2315803172169238,0.1827818050467534,0.14729492168824504,0.12249772858649678,0.17848102269729865,0.08579357245723673,0.11540472481416286,0.08994229269777418,0.03058028311122599,0.08591278198679472,3.826143892354867,2.502333757699643,1.88739457828983,1.4164782134694498,1.0061166890301716,0.8004604102443905,0.6488852183343508,0.5738668490214907,0.5571491124881172,0.5245150064881071,0.418822968064062,0.4137230503514462,0.3129371198900955,0.26999737139635877,0.22627773529730996
0.0,34.0,34.0,0.0,120.0,0.0,0.0,0.0,0.0,-107.0,0.0,-45.0,0.0,0.0,0.0,34.27253218749016,17.55503396713325,1.949143992160042,1.0668549345089262,0.6834523255931071,0.4781061132989684,0.31934805527026416,0.2466428141365462,0.22838827271248446,0.19692966678296173,0.12240085677330273,0.1921368218218522,0.16787746448813076,0.07054587484798944,0.11386085656655909,0.06951454903360614,0.06622180910016696,3.8454014446140823,2.4943638954888256,1.8646851259901394,1.381092877119334,0.9690455130141091,0.7511445680447049,0.6353739438679951,0.5582948685855955,0.5221732814268613,0.47473121971771315,0.4267633410871872,0.3632754009338959,0.28516833723733775,0.25777298072339516,0.18967822137265591
0.0,35.0,35.0,0.0,120.0,0.0,0.0,0.0,0.0,-107.0,0.0,-45.0,0.0,0.0,0.0,34.27253218749016,17.55503396713325,1.9851371917146843,0.9976964397217707,0.6948187539987346,0.4148985381362127,0.27861124375131174,0.26062925218529,0.14914275006487954,0.16344437685204516,0.13094821636171336,0.055406239740313945,0.04452981849184575,0.13191098923718114,0.055723165499546284,0.09046833420876718,-0.02582831495557627,3.898771310385851,2.530602881984854,1.912128846086359,1.3868098898380063,1.0004026570574047,0.7785954285023168,0.6277949093184519,0.5476641143400688,0.5176965665370109,0.4750217717032138,0.4104402684941299,0.34668076823534244,0.2497290742916005,0.2949381512935476,0.1544946294525784
0.0,36.0,36.0,0.0,120.0,0.0,0.0,0.0,0.0,-107.0,0.0,-45.0,0.0,0.0,0.0,34.27253218749016,17.55503396713325,2.000019000607664,1.113583492818398,0.7709470131919391,0.42230776207948495,0.28163003048541035,0.16561253531161085,0.1843889136218256,0.2015842583475432,0.1551438736352735,0.0784439047689238,0.03334097791998927,0.08531898745630388,0.07669265464362769,0.006976854699784492,0.05894174467955027,3.909031838966137,2.5354174618220284,1.9038924726828697,1.415731954308574,0.9685371267792708,0.7380475261030788,0.5757048895406813,0.5411882966063765,0.504790678338968,0.44541623226041605,0.40627281367423673,0.33981792327405863,0.23610035182134356,0.2190644206802354,0.18952020720175017
0.0,37.0,37.0,0.0,120.0,0.0,0.0,0.0,0.0,-107.0,0.0,-45.0,0.0,0.0,0.0,34.27253218749016,17.55503396713325,2.0831200297533896,1.0809486641624337,0.7231026913344029,0.46102179886877526,0.283315995559959,0.23765866267475536,0.12425575461816207,0.1156302320789073,0.12406453183422016,0.17206562326842934,0.09240659058665358,0.0761999341336328,0.04112780289170069,0.027391525452883096,-0.05329495137848725,3.929136535622005,2.519242194262709,1.9284901221389144,1.434067236235614,0.9577512103861279,0.7447559171807467,0.5754135044403154,0.5340853329278408,0.44088418846772637,0.4249346578341344,0.3830991253646145,0.330283316203941,0.30374017894998473,0.2517972354775014,0.1961037774244628
0.0,38.0,38.0,0.0,120.0,0.0,0.0,0.0,0.0,-107.0,0.0,-45.0,0.0,0.0,0.0,34.27253218749016,17.55503396713325,2.0441893849732944,1.1247724513700026,0.6577699086605413,0.5006437261263926,0.28401436013359366,0.15278276391967538,0.22663666688956807,0.18290084969741538,0.1284833151206145,0.13022665445943749,0.14039792478622437,0.03344163054026651,0.02226162696417462,0.038089769783768095,0.014217722407780464,3.95534826326311,2.5734371755589884,1.947614252702691,1.4427714964011782,1.0266270302938942,0.6980262486572407,0.5780302227427638,0.5271152503319405,0.46985016026057713,0.40441301284853803,0.35404243599713675,0.3581908096489055,0.31206290157231237,0.2406868664467208,0.19030381222904513
0.0,39.0,39.0,0.0,120.0,0.0,0.0,0.0,0.0,-107.0,0.0,-45.0,0.0,0.0,0.0,34.27253218749016,17.55503396713325,2.0095273873924615,1.1318988169485724,0.7409533154432852,0.4784627144377749,0.23342430800505415,0.24029330947351096,0.14024477599514282,0.13435512817247916,0.12049567376251297,0.09717186503169829,0.0848480685833704,0.10316722694922109,0.1267337338310878,0.06650046939820344,0.08417604540534733,3.961882967142193,2.60977413352774,1.9554857440693694,1.4621790712817722,1.0170551117301794,0.6694007497188124,0.5556339623007593,0.46658308001989784,0.44322122333315156,0.4152261955479774,0.4348069912331421,0.3115360090255765,0.2922045583856429,0.24095328570888552,0.16828001192398184
0.0,40.0,40.0,0.0,120.0,0.0,0.0,0.0,0.0,-107.0,0.0,-45.0,0.0,0.0,0.0,34.27253218749016,17.55503396713325,2.104581354821052,1.0885857063054702,0.759834489856146,0.5058752256109774,0.32950134127590575,0.1915246216100627,0.13795777551208166,0.08474136055653897,0.09213784789301165,0.14985843845839625,0.12479387038820897,0.06358075963296635,0.07472042724216017,0.09424257946320257,0.014054596575929976,3.9966687472560274,2.6077190352968413,1.9599598070605038,1.422680171222925,1.005040186330324,0.7109557328802322,0.5478041070799538,0.4892228300536593,0.43301190317016885,0.407197079628529,0.386999617007297,0.3241437086229804,0.2775821043498702,0.22264789638517818,0.14544189248031814
0.0,41.0,41.0,0.0,120.0,0.0,0.0,0.0,0.0,-107.0,0.0,-45.0,0.0,0.0,0.0,34.27253218749016,17.55503396713325,2.0869237048382576,1.1586812195823462,0.7854530505781112,0.5004231191698328,0.35307609371281495,0.23217162770062671,0.11495181262126396,0.1205190237667531,0.12240689297750781,0.13999618848573459,0.10686013155628928,0.08299168982348687,0.08718631959096923,0.012396634715264102,0.040329506692680914,4.02043572615094,2.610783311110335,1.9663516510520114,1.478087273377069,0.9783690578666564,0.6947816325060033,0.5718838797593968,0.4849341667903832,0.4420409613005381,0.38709919782156804,0.3333481804088927,0.30732360164407535,0.28597705419971675,0.11908674387969936,0.1607158870492337
0.0,42.0,42.0,0.0,120.0,0.0,0.0,0.0,0.0,-107.0,0.0,-45.0,0.0,0.0,0.0,34.27253218749016,17.55503396713325,2.1089604336738557,1.115778576465174,0.8122708818619658,0.5146915658976967,0.2827397146181883,0.17837202227267074,0.12169462364103499,0.09633977995006479,0.10657215090718504,0.054640893768414314,0.08910204416746839,0.06503579108058197,0.05622194348752508,0.053233662078409294,-0.003660715265671532,4.021977542274284,2.5824418741476998,1.9992553694992845,1.4669005848337913,1.0451050787987142,0.6710216606338095,0.5538632494804325,0.4655091268750408,0.36477058040050797,0.38016006367896754,0.32286681268712497,0.2992568295670577,0.26515139971745405,0.19585514651923844,0.1715286562885912
0.0,43.0,43.0,0.0,120.0,0.0,0.0,0.0,0.0,-107.0,0.0,-45.0,0.0,0.0,0.0,34.27253218749016,17.55503396713325,2.098095524765889,1.1750613606456324,0.7679073134083854,0.5544214776037368,0.2658980200846114,0.22179609164533262,0.12352214310305971,0.12786829194142496,0.07499657227789622,0.05847897960151499,0.06579259668541541,0.09559720478798107,0.04301883634863773,0.04450281312811991,0.018707802751496284,4.072489879860696,2.6637730519879206,2.001902227035095,1.5077317968454764,1.0234146456038593,0.6792620360267465,0.5466434639842319,0.4462381107174227,0.3781281914775422,0.329840907396614,0.25179767132559466,0.24009296207915262,0.2790465130120062,0.20346281353074394,0.15534775553356345
0.0,44.0,44.0,0.0,120.0,0.0,0.0,0.0,0.0,-107.0,0.0,-45.0,0.0,0.0,0.0,34.27253218749016,17.55503396713325,2.1800328252108083,1.199511491057201,0.7513191902184403,0.546688324992035,0.3031767222143829,0.19765735319557576,0.07855720786742801,0.11070195162652019,0.02990422046315319,0.09450936934127377,0.09715133815663564,0.045999549031636916,0.05392065133223585,0.04914105676908635,-0.027524601678859516,4.092222092683108,2.6824806513127455,2.040871870575867,1.4839448121668093,0.9905128783509259,0.7109815905974365,0.5721858029309388,0.4192702792057474,0.36676356290342876,0.3918457006278736,0.3295412210317929,0.2680464907518845,0.23338884765709159,0.2279630014137097,0.15251946740507685
0.0,45.0,45.0,0.0,120.0,0.0,0.0,0.0,0.0,-107.0,0.0,-45.0,0.0,0.0,0.0,34.27253218749016,17.55503396713325,2.141320314705595,1.1354317437832895,0.7838639070055464,0.5096141809206153,0.3051640146084984,0.19541053374233944,0.14051366588432482,0.11714528218654299,0.09434170042485802,0.027875237955851576,0.104330338052703,0.03229489517489763,0.021009549266061227,0.07140929020341549,0.017127154177451732,4.166581427839112,2.7061883294638474,2.0248127935420577,1.5142614563295023,1.0402564874947355,0.712266478640593,0.5175868445486896,0.4437092542575914,0.42250540934697106,0.34583051575230933,0.30731981068211034,0.2846310300987454,0.2438286588160443,0.17986932485616053,0.14900039758690775
0.0,46.0,46.0,0.0,120.0,0.0,0.0,0.0,0.0,-107.0,0.0,-45.0,0.0,0.0,0.0,34.27253218749016,17.55503396713325,2.167308452774244,1.1787891723431385,0.8402103358588012,0.5132310576517899,0.3442854386610227,0.27565886536557394,0.099555790142544,0.10768864577395262,0.12378954638775758,0.06250255731506563,0.08172259618103742,0.06727946241804755,0.03985420845466184,0.09522112454561144,0.040785505503427244,4.122281891122856,2.720122811182793,2.047240925962009,1.507285952569111,1.035336073122104,0.7106740449987223,0.5064203092941253,0.3973982383965013,0.428004940366994,0.33975302049558864,0.29689923101569216,0.2838708136414826,0.1954980704815032,0.19365121427874277,0.17275148006212382
0.0,47.0,47.0,0.0,120.0,0.0,0.0,0.0,0.0,-107.0,0.0,-45.0,0.0,0.0,0.0,34.27253218749016,17.55503396713325,2.1917289691776403,1.1823682981586998,0.7603889851230601,0.45064616584011585,0.25390701499357843,0.14721395966859524,0.1371466822354238,0.12244347554546427,0.17706134856499683,0.08264428752875122,0.08302996853698975,0.08606897326779399,0.06442219185997443,0.10345389665359533,0.09428370579709863,4.185124413947209,2.7199978947411267,2.072016367816019,1.496303495229307,1.0496167510369618,0.6986761409295277,0.5147097369393586,0.4488781060670633,0.3471448208751437,0.3220535965056421,0.2968131115931239,0.2581882591149511,0.2074007847704032,0.2021291939350131,0.09936157802456483
0.0,48.0,48.0,0.0,120.0,0.0,0.0,0.0,0.0,-107.0,0.0,-45.0,0.0,0.0,0.0,34.27253218749016,17.55503396713325,2.261263010079005,1.175231877063915,0.7937122775822952,0.5147891653657504,0.2594097272774182,0.14298951081392586,0.15383138967017257,0.10627148114708038,0.07794324978546607,0.09485672487433289,0.013867251601551368,0.05722676510200205,0.053587073763978005,0.063735681560234,0.019035260816535605,4.244164412842158,2.746273459229275,2.0864203681402804,1.5432292504240135,1.0717565508177944,0.6971246841960216,0.5052420263842352,0.3999305628739787,0.33271389935570556,0.33980446196198527,0.27363123331259737,0.2594963292347396,0.20514730440128676,0.16000237991972224,0.17601922492968866
0.0,49.0,49.0,0.0,120.0,0.0,0.0,0.0,0.0,-107.0,0.0,-45.0,0.0,0.0,0.0,34.27253218749016,17.55503396713325,2.269206352752981,1.2889730326421087,0.8447257706250537,0.507966057411613,0.23919959579052646,0.16793680384293871,0.10061628673742916,0.14288103245383227,0.16177969732596265,0.06559677719734269,0.054365471152043515,0.06002465270042928,-0.004527788635448102,0.023047327269646135,0.07657078370417793,4.270363470812072,2.7326460407714506,2.121203765368572,1.514782898978671,1.0438939279306114,0.7014188961967673,0.4921705682425203,0.3529191150861486,0.3361606359523196,0.29753514697240263,0.2862886277832859,0.2536752463226436,0.22878393093396704,0.17549164788799962,0.13481119497825644
0.0,50.0,50.0,0.0,120.0,0.0,0.0,0.0,0.0,-107.0,0.0,-45.0,0.0,0.0,0.0,34.27253218749016,17.55503396713325,2.2878331644641867,1.1810611353097733,0.7919882853879002,0.4609270241382616,0.2722763368457232,0.1408459147547393,0.0620487803322738,0.06769024857139404,0.04341253812795521,0.08517897584115758,0.046539632505288295,0.054627154584464856,0.052735545370074494,0.06493091018698027,-0.01770240261113779,4.239927214603536,2.7709315161650556,2.1312654118617766,1.5535512155069748,1.0792011116974547,0.6733361822645905,0.4745389837516401,0.348737037225349,0.3629578422857509,0.3063160661356225,0.25050964114771057,0.22126004078000366,0.21126959170965473,0.18048292125500817,0.14701212705859243
0.0,51.0,51.0,0.0,120.0,0.0,0.0,0.0,0.0,-107.0,0.0,-45.0,0.0,0.0,0.0,34.27253218749016,17.55503396713325,2.31514064030814,1.250048824041774,0.8344925256036282,0.5796632151233424,0.27741538339969557,0.23999878703841268,0.09403364315605012,0.11575470145840291,0.14200796897364237,0.06665664883405875,0.02953328961736551,0.011291816650504174,0.032654974488541336,0.06099218972576252,0.032688918090075805,4.315162039734298,2.825470725524847,2.128672883788192,1.5049484809817697,1.040659081864138,0.7076450642036242,0.5039860212669167,0.4012093593994632,0.32364034634713884,0.30053123221203965,0.2795898008567632,0.1915507723452532,0.18303501140425613,0.1639656016698412,0.16458270844450248
0.0,52.0,52.0,0.0,120.0,0.0,0.0,0.0,0.0,-107.0,0.0,-45.0,0.0,0.0,0.0,34.27253218749016,17.55503396713325,2.325658071291422,1.2523726193807576,0.8384294716679962,0.5592450753544184,0.2581981299633067,0.15326490336422316,0.057813358404044196,-0.010459014067629724,0.036119624920737295,0.008734288391069517,0.030986378296194557,0.028486159372238664,0.06224589772084459,0.028718124607250636,0.004471183627872837,4.37303825036369,2.8357858280188672,2.0952523924524526,1.5781628309965676,1.0953690514698196,0.664629725543271,0.452355558765814,0.35645654723945436,0.28525474058514055,0.2755400238177732,0.2137622412831751,0.19680768357768227,0.1879353402843634,0.15277041007004621,0.10320352155947972
0.0,53.0,53.0,0.0,120.0,0.0,0.0,0.0,0.0,-107.0,0.0,-45.0,0.0,0.0,0.0,34.27253218749016,17.55503396713325,2.328762101074826,1.235532256869869,0.8073975573144275,0.5118025395406043,0.36230204645434205,0.19569844174519327,0.11879508749239934,0.03597272136502826,0.07819141832904374,0.04582494900895348,0.010670224541123825,0.15647752322127623,0.06588876529282844,0.09611977414756824,0.01937759780860055,4.398169913560126,2.889497998779656,2.160263885230395,1.558969072841877,1.0509357807115494,0.6941557336959142,0.4786978492103793,0.42963592918785265,0.3288157264249987,0.2506409168500053,0.2532757602972317,0.22512249789384425,0.21419687095223705,0.13169349277653333,0.14279262175659302
0.0,54.0,54.0,0.0,120.0,0.0,0.0,0.0,0.0,-107.0,0.0,-45.0,0.0,0.0,0.0,34.27253218749016,17.55503396713325,2.3806907929227443,1.2221342283620522,0.8610625430632186,0.586137231293473,0.3310198076713847,0.13594987036369424,0.06788821162576991,0.10074053591232889,0.08168523340726307,0.089984036997272,0.08803316374112237,0.04271360689030616,0.056233215015578764,0.10059639085239085,0.010741345422374692,4.461793565568186,2.839362854400716,2.1385568192810545,1.610729515697348,1.071256239051049,0.6887651176014773,0.4643791385126849,0.3122443732892124,0.3317515908033726,0.30195581351330236,0.2297547424144903,0.20468260425074997,0.14486370329121703,0.15394246838636816,0.1500158869724196
0.0,55.0,55.0,0.0,120.0,0.0,0.0,0.0,0.0,-107.0,0.0,-45.0,0.0,0.0,0.0,34.27253218749016,17.55503396713325,2.364526777344531,1.304689497127434,0.8946160954195971,0.5135365535006989,0.27842255279537215,0.1891381248609223,0.15987934483946586,0.04776577598667759,0.05962161114532679,0.10381272809124367,0.06521450173004631,-0.05961627313607703,-0.024495179810781288,0.045430811436467614,0.06363480116312603,4.458633595188815,2.8546044545325024,2.1447924201660618,1.631041793438801,1.1098721655472903,0.7085102750097547,0.4878294024821606,0.3538744229980175,0.3030725394950858,0.2684026746258715,0.2096955503883441,0.18374253809367563,0.1825038217619131,0.12731284777698149,0.1526673918012456
0.0,56.0,56.0,0.0,120.0,0.0,0.0,0.0,0.0,-107.0,0.0,-45.0,0.0,0.0,0.0,34.27253218749016,17.55503396713325,2.4656164692830296,1.2817285795014213,0.7636669059764438,0.5337788380150775,0.3101583082714553,0.19480827311190013,0.137049707827674,0.019892357866800506,0.04774080689238028,0.06668011924395909,0.011590398581988806,0.10319524240978996,0.010492400704261443,-0.025939452983382804,0.06008833078197023,4.45547544367536,2.920570235531462,2.1894987993656168,1.6129241434734791,1.086058416777538,0.7336422208737787,0.44308996879110185,0.3955041123781869,0.2862921126302216,0.28417640997564275,0.2582551959895385,0.20684449115833298,0.18522357869173547,0.11406892335219174,0.13094108029094642
0.0,57.0,57.0,0.0,120.0,0.0,0.0,0.0,0.0,-107.0,0.0,-45.0,0.0,0.0,0.0,34.27253218749016,17.55503396713325,2.4178987346911045,1.3050960662584916,0.7679195532106462,0.5268689736543206,0.3449745255976113,0.18379587488801236,0.10696325704226899,0.05152087294971344,0.047369340018337654,0.04244504316831686,0.16297963412266128,0.03953605416605099,-0.006474250342753202,0.0615932568596292,0.01804615763837492,4.488733859029495,2.9163486019335636,2.1976557700563935,1.6465123332798517,1.094681292039416,0.7340276625420225,0.47379161454687246,0.3554246917746553,0.3248885848213508,0.2633207011646079,0.2157125106170121,0.21216835454403615,0.17902931866014699,0.16449237297062771,0.12219554005638773
0.0,58.0,58.0,0.0,120.0,0.0,0.0,0.0,0.0,-107.0,0.0,-45.0,0.0,0.0,0.0,34.27253218749016,17.55503396713325,2.4462675259862303,1.3538437736231514,0.8636008207690374,0.6090857902238638,0.3017558903795974,0.16119668483175406,0.06508897223994439,0.006874443032776678,0.046539911401517586,0.060906211635623306,-0.017633792903654875,0.05146119352156638,0.018268705518238545,0.016763305597290508,0.036670257898765796,4.521307832939412,2.895186612576871,2.223203003844189,1.6233307348969301,1.1238592805878558,0.7084442094006811,0.5052654341103959,0.3145813321049224,0.27667579053486147,0.25015546618518253,0.22503694941741875,0.18678303555142795,0.16906273666691943,0.1736098113839233,0.12586642899008668
0.0,59.0,59.0,0.0,120.0,0.0,0.0,0.0,0.0,-107.0,0.0,-45.0,0.0,0.0,0.0,34.27253218749016,17.55503396713325,2.49473293767015,1.2417351051315404,0.8491445180308033,0.611245454878372,0.33008369272245336,0.22515690797338161,0.016186523048084767,0.09309271603278109,0.04361440059184648,0.07135240348043238,0.04616975040815191,0.03492222518783802,0.005010513625456851,0.03707969827756056,-0.042498252616180704,4.561648962989449,2.9754782275008873,2.2082600410891597,1.6307070458589399,1.120097517483289,0.7247885799651093,0.46851780388435205,0.3335570028647529,0.2595195608979582,0.22966849366842315,0.22686560666666974,0.1663934817166807,0.13876163251625162,0.14318224712899907,0.11008062186797012
0.0,60.0,60.0,0.0,120.0,0.0,0.0,0.0,0.0,-107.0,0.0,-45.0,0.0,0.0,0.0,34.27253218749016,17.55503396713325,2.526591585738556,1.2895380763653166,0.8394887709807385,0.5449280259939284,0.33032801527082967,0.17219780376152363,0.07523092248499648,0.07915972833661479,0.11218699229790377,0.008604723893034655,0.04287152046915756,-0.019165435890593566,0.029777960662951262,0.01084802279666515,0.03974752070846546,4.588784523984426,3.002830041159163,2.2482721666958363,1.6728894799220853,1.137110123727167,0.7203988430174624,0.4730567341977281,0.31749124535085466,0.2248805884207123,0.22630226480783744,0.2052959262309633,0.17285074568082687,0.16400091079793244,0.10094425251215128,0.10628873425499251
0.0,61.0,61.0,0.0,120.0,0.0,0.0,0.0,0.0,-107.0,0.0,-45.0,0.0,0.0,0.0,34.27253218749016,17.55503396713325,2.548299292141241,1.2916166011056591,0.8492543119897447,0.6151168349887581,0.3006585664671012,0.26125386682101354,0.1270844688667946,0.08825033926010181,-0.016703337546939014,0.07356878665978289,0.1051047727751805,-0.004777619371216221,0.05423229652547023,-0.03267887097419262,-0.03835536501538547,4.6004368059866225,3.0096059100865027,2.2876987505812316,1.6350809646127438,1.1371646252015282,0.7047875669599429,0.4643592919727116,0.32359151511857376,0.2302243789981863,0.23338425759031164,0.1857942317229503,0.1632962893654144,0.15553951009427766,0.08753527603446659,0.10763104732811553
0.0,62.0,62.0,0.0,120.0,0.0,0.0,0.0,0.0,-107.0,0.0,-45.0,0.0,0.0,0.0,34.27253218749016,17.55503396713325,2.5470491470469283,1.340524948343857,0.8644611620694697,0.5624788772931859,0.3293572495601246,0.18197203696333816,0.13676585312500028,0.08684188574250615,0.021733622161480025,0.10531597449239072,-0.00413743355087514,-0.007768023820436787,0.047454382025907876,0.0445036625847173,0.05219623614889756,4.638537266534565,3.0489327170612532,2.2519862262136034,1.7214231075070983,1.1389191759835724,0.725790204932898,0.4919897595548146,0.3260779139579648,0.2702724433865477,0.23468159814088468,0.18777149681222194,0.15601314497611132,0.1422801176998588,0.15353016995623991,0.0906168200336558
0.0,63.0,63.0,0.0,120.0,0.0,0.0,0.0,0.0,-107.0,0.0,-45.0,0.0,0.0,0.0,34.27253218749016,17.55503396713325,2.6076813971855595,1.3603740143060452,0.8463171809732466,0.6044159355084999,0.29472873877657546,0.21747232631385385,0.14948083003872448,0.030837623827130352,0.0761841180535625,0.05708762804566665,0.028824201707437887,0.017082749198730818,0.0659109460001613,-0.011445374292184854,-0.0334352409320451,4.677808119339964,3.0335854522836407,2.3032553055819407,1.6730940246811243,1.1545370175025411,0.7083489109081909,0.4658475858596367,0.34123976653439086,0.24297990723551252,0.22498507916604277,0.1865873017156352,0.20783146432853583,0.16043903592590483,0.13038226178519016,0.11770328477967817
0.0,64.0,64.0,0.0,120.0,0.0,0.0,0.0,0.0,-107.0,0.0,-45.0,0.0,0.0,0.0,34.27253218749016,17.55503396713325,2.622858276759059,1.305031876562863,0.9335715768898069,0.5618229977535484,0.33067091703947654,0.17858657681158607,0.056508482039100395,0.004524710737169313,0.06010914737688955,0.041423831107765215,-0.05861693226967368,0.01837335668522791,0.011656393722037497,0.053939313707883255,0.04984588138076316,4.734705489282755,3.049551656134861,2.2975580129927518,1.687542752183656,1.111454985451303,0.7067103277935884,0.44495395618527583,0.3230555100394375,0.24356054650489806,0.1795990274618101,0.23960683357797238,0.16389361114541245,0.12644250104897345,0.09380769849699978,0.11705185921449664
0.0,65.0,65.0,0.0,120.0,0.0,0.0,0.0,0.0,-107.0,0.0,-45.0,0.0,0.0,0.0,34.27253218749016,17.55503396713325,2.709017987887869,1.377763439535964,0.8895784034820952,0.5746797414492598,0.3155734228582132,0.15638934499824547,0.18858133284746634,0.02021260555436003,0.04905883512703683,0.004241577451916924,0.04557839030952232,0.020701982692419532,0.019423011758579092,0.07157624613845473,0.006728845205636744,4.722081893229934,3.084454423301873,2.338442254440066,1.7036856380243675,1.1744008579650338,0.7297049195099368,0.47854370168624216,0.3126905807762875,0.259728864946356,0.19027279219543544,0.18045383124076633,0.13791217572565162,0.11812735190751858,0.11487235695222814,0.10723509157117084
0.0,66.0,66.0,0.0,120.0,0.0,0.0,0.0,0.0,-107.0,0.0,-45.0,0.0,0.0,0.0,34.27253218749016,17.55503396713325,2.565954380617545,1.394130410730063,0.9916001158647034,0.6083461737445048,0.3067646959724704,0.17058376695015973,0.12380604107846596,0.09238212860680103,0.04741612245554005,0.03413618671402163,-0.02913999644279762,0.0663903118450892,-0.049314188963198904,-0.011853931870188603,-0.016497025809593197,4.767876281692139,3.133899764508915,2.354163752969667,1.6794900851325028,1.117942808018582,0.7552132043016568,0.4390784985552306,0.3030436071557088,0.20672967076009624,0.19315088967105395,0.1768044891236531,0.13335987131169577,0.12528168600149783,0.11477014033876909,0.12636852148099217
0.0,67.0,67.0,0.0,120.0,0.0,0.0,0.0,0.0,-107.0,0.0,-45.0,0.0,0.0,0.0,34.27253218749016,17.55503396713325,2.6862603266984153,1.3925290481975519,0.9925618717801191,0.6238536817043766,0.33531227592997376,0.22520892931855777,0.16378676933359154,0.10036652843271206,0.001991227429999909,0.07600283813777056,0.06627427526359314,0.024814881487610685,0.05675176340155294,0.015423976721667187,-0.024979426106509835,4.780146636412118,3.086711759992047,2.3224249384100495,1.7394535614894615,1.1718164980142818,0.7629320722189922,0.4572019621205003,0.27658957744218016,0.22788991678160928,0.20096539223451756,0.16401579752340048,0.15885396000773644,0.1115674942217087,0.13554234086447833,0.0719130443561012
0.0,68.0,68.0,0.0,120.0,0.0,0.0,0.0,0.0,-107.0,0.0,-45.0,0.0,0.0,0.0,34.27253218749016,17.55503396713325,2.751722111621319,1.414241189464539,0.9051657946185508,0.6263660125382354,0.3319345323768849,0.18789823674483946,0.13388676980588188,0.10498351531712595,0.034454758049672685,-0.008951792706084954,0.04365474304393403,0.014391255293045283,0.010548593948250145,0.009107304366036115,0.000558938863115567,4.818555767690808,3.074512098580721,2.363396378519303,1.7439819215544328,1.1338106357416595,0.6986490534995374,0.4852607599281782,0.29708475600489864,0.23833276476118026,0.19630726368209864,0.13022138210078485,0.18507892879796375,0.1909858705307913,0.12497689904673148,0.09487538051067754
0.0,69.0,69.0,0.0,120.0,0.0,0.0,0.0,0.0,-107.0,0.0,-45.0,0.0,0.0,0.0,34.27253218749016,17.55503396713325,2.783323309774931,1.4203864435296716,0.9227030594152884,0.6363670345772842,0.3683467015336636,0.21081314745117682,0.08717787296932022,-0.004990644515616115,0.04033769804327646,0.04051570891306547,-0.04472495122999271,0.03802179056284973,0.05763951852035746,-0.022956215648775244,0.005401581205084034,4.8741395686000315,3.1707953785809844,2.317433893254005,1.6943260605159323,1.21152233470182,0.7385294153549182,0.4607626242723192,0.28300277874481544,0.2043115927744108,0.22720350047605306,0.15578616040812773,0.176640506528875,0.125859592733207,0.13256289627462384,0.06871495826907358
0.0,70.0,70.0,0.0,120.0,0.0,0.0,0.0,0.0,-107.0,0.0,-45.0,0.0,0.0,0.0,34.27253218749016,17.55503396713325,2.7718350296992327,1.4055658886805873,0.9278605540260062,0.6005933588304225,0.3885385482115368,0.18665759670129783,0.08390502853923296,0.08192228656914369,0.02088624210501272,0.00838230581891549,0.02814828328129298,0.00812950127774293,0.03753271507421186,0.05319465213034698,0.0180516596236452,4.9082715524791265,3.15990925938833,2.376637521399562,1.7673303248510794,1.1931504249837042,0.8021829167814882,0.46073577267125027,0.28009347987034683,0.19393947682672336,0.1868463041137635,0.12970960665395834,0.1582248483973656,0.11106346285874065,0.11361271589326866,0.09699479430142956
0.0,71.0,71.0,0.0,120.0,0.0,0.0,0.0,0.0,-107.0,0.0,-45.0,0.0,0.0,0.0,34.27253218749016,17.55503396713325,2.7457486653721985,1.4605164471276157,1.0025659684190682,0.6488778712695179,0.33176585487569565,0.2634701335415731,0.1273638688922476,0.026937051229040353,0.005927111551296653,0.12066515431443434,0.08925011200748854,0.09834024720206999,0.023709156691347332,0.11629848492877294,-0.023293639448359417,4.941428877778215,3.17534176715314,2.3935238686821902,1.7313815670815622,1.1864820680932913,0.7723205516685284,0.4673476092406076,0.3155339205677952,0.22804184823178797,0.1297754039221268,0.16379429861124917,0.16006830097545183,0.1376721123404385,0.08882483564432037,0.08481400203648731
0.0,72.0,72.0,0.0,120.0,0.0,0.0,0.0,0.0,-107.0,0.0,-45.0,0.0,0.0,0.0,34.27253218749016,17.55503396713325,2.7917751427961406,1.4353046664372089,0.97248558411412,0.6420825421098523,0.32867804381789545,0.13611872603199968,0.1265040648914009,0.09186645512785774,0.05518209875210354,0.040504443342738436,-0.001146292184349789,-0.021559184908663244,0.012501579779387534,-0.01985549323350696,-0.010773936831942684,4.9747913811044,3.2123304661106875,2.4269782969848452,1.7754061318303433,1.1716834224378143,0.7571328623087823,0.4540062129297926,0.31909569786343195,0.24910548299895813,0.1482873829493133,0.11685523281255387,0.15104857221185058,0.15733920399242765,0.09721330047623189,0.08569505050653863
0.0,73.0,73.0,0.0,120.0,0.0,0.0,0.0,0.0,-107.0,0.0,-45.0,0.0,0.0,0.0,34.27253218749016,17.55503396713325,2.813311893651345,1.4958036496751692,0.8979680405405371,0.6407258188511196,0.3637851193748326,0.20260601080673316,0.08210851652859882,0.011954254959195602,0.0354475178240967,0.014676968114653542,0.06479122971899058,0.029280114842062745,0.019049422583813275,0.04809890696123187,0.017533932064763988,5.002480679925516,3.2386168155470547,2.4200686809269185,1.7695587437834797,1.219093672130673,0.8093037689686251,0.44218216040218045,0.29332140148451974,0.1694898335631906,0.18845579974376706,0.16469813433366337,0.18007050229510008,0.10525972839963121,0.11074209516042664,0.09289470185998289
0.0,74.0,74.0,0.0,120.0,0.0,0.0,0.0,0.0,-107.0,0.0,-45.0,0.0,0.0,0.0,34.27253218749016,17.55503396713325,2.901147204589788,1.4652060048403723,0.9284375525366302,0.6777661548508879,0.3470968824653118,0.24644423965037043,0.15032401731280892,0.09765624819340571,0.04533668142514069,0.020967156655169465,0.07968633564636346,0.05398185992437452,0.005704070111395038,-0.006471427869991379,0.09220520592242772,5.060894695758271,3.264073628159412,2.440915013800798,1.761777470675255,1.2205403479998789,0.7982906033032249,0.4693484151518089,0.2987025964411067,0.23085846171519248,0.19698802445236602,0.15355192198498088,0.10758381203767824,0.11738904982358052,0.06096824138032703,0.12119565184613654
0.0,75.0,75.0,0.0,120.0,0.0,0.0,0.0,0.0,-107.0,0.0,-45.0,0.0,0.0,0.0,34.27253218749016,17.55503396713325,2.9294229595001084,1.4288231059646348,0.9436658886234149,0.5884907380716837,0.35294567462838417,0.20965302506577974,0.10719970364826231,0.043600515962552,0.08985192620122719,-0.015277390793336159,-0.00022355295413959558,0.014038394588595201,0.016703215058975103,0.0728792889528298,0.032580233494187545,5.041308537032752,3.2297159241106432,2.489664884098309,1.79534813757306,1.234884196340729,0.770974114965988,0.51171562132896,0.2883738878361649,0.20695224594074432,0.16425994023375023,0.14906649014135848,0.13003307844647521,0.08535989592875237,0.09012139165831233,0.10352326686340245
0.0,76.0,76.0,0.0,120.0,0.0,0.0,0.0,0.0,-107.0,0.0,-45.0,0.0,0.0,0.0,34.27253218749016,17.55503396713325,2.8220819730196904,1.488471660886616,0.937816684845099,0.7041892970582254,0.3420810995836524,0.13471857323827946,0.09070783750407375,0.1173649941699175,0.024308328986967345,0.03813450781801168,0.0025315628069663212,-0.016354945132613607,0.005244070347367418,-0.03318357403174984,0.05892641252974655,5.101976753262428,3.249882929718215,2.4619216215753106,1.766806298514238,1.2208488187405386,0.7938721089999572,0.4605585118693036,0.30525448075909983,0.2192728232014232,0.16754775268165,0.17331567893172234,0.16559641089682378,0.10348364795317676,0.11170869600398806,0.07515614245479235
0.0,77.0,77.0,0.0,120.0,0.0,0.0,0.0,0.0,-107.0,0.0,-45.0,0.0,0.0,0.0,34.27253218749016,17.55503396713325,2.889081122298787,1.554715279702261,0.9973401200704509,0.6633885103753084,0.29441939542783635,0.2263167084504132,0.05250110656522504,0.038119005352348675,0.030297067312725016,-0.006076682452696568,0.058373480644816955,0.06562174869008083,-0.012854117710308206,0.028794531940206404,-0.035472806685696134,5.115710001800357,3.302268480984812,2.5103244990157565,1.8107721640481622,1.2303261707255346,0.7859808572952764,0.49195074999654537,0.2973971764450806,0.21283972037785318,0.1571805294885015,0.1334257693697785,0.10849275012231535,0.10019432046560074,0.11388301294265867,0.10403856853826818
0.0,78.0,78.0,0.0,120.0,0.0,0.0,0.0,0.0,-107.0,0.0,-45.0,0.0,0.0,0.0,34.27253218749016,17.55503396713325,2.997135669962376,1.4664512890493746,1.0355183825233407,0.6342662787545915,0.3418954702632009,0.14557082759302664,0.10744746181571486,0.0715846288124325,0.04104181860518207,-0.04915970950594943,-0.008669618019371422,0.007573108995377324,-0.034597995128653636,-0.018097131900349207,0.026298175320717244,5.152566602436682,3.3420192262750503,2.4941272292751866,1.7982707503478776,1.2209569803957818,0.8141339465191072,0.42530681479011057,0.3393758852430644,0.19238403103119797,0.13964297385452717,0.1785767472238297,0.11442633385089766,0.12851930917427715,0.08206748275739678,0.11556831311767363
0.0,79.0,79.0,0.0,120.0,0.0,0.0,0.0,0.0,-107.0,0.0,-45.0,0.0,0.0,0.0,34.27253218749016,17.55503396713325,2.983169099376847,1.5088529773789001,0.9767095467989505,0.5689270742074076,0.3575869726023406,0.22978153228076711,0.1495388557058589,0.018763079386834455,0.04618778388693684,0.00618628646154527,0.050532287235623384,0.0806603933861653,0.04740392097261716,0.07612463970084656,-0.04862015363226606,5.158813871696145,3.378275499752149,2.524256233146,1.8080785487274893,1.2515687675928875,0.8364445199725692,0.4870288165368352,0.30960308031983935,0.1930861395136962,0.15349327233911905,0.1365649553959091,0.15075945581862865,0.10614795449330912,0.08192393601779713,0.08131830405325825
0.0,80.0,80.0,0.0,120.0,0.0,0.0,0.0,0.0,-107.0,0.0,-45.0,0.0,0.0,0.0,34.27253218749016,17.55503396713325,2.978003821465372,1.48300916471689,1.00424146769622,0.6024452605215973,0.34564523337670716,0.2055614754005355,0.15441768659913074,0.045595317174834504,0.07219129152011852,0.0311991823476995,0.009153981591217738,0.011890707228159344,0.031339489639081765,0.025127017599237744,0.02397980952189533,5.146602569453308,3.358184668483693,2.547976555264377,1.8597552474563939,1.234441160394268,0.8443981404065559,0.507132259096817,0.3155215362617929,0.1958544600221688,0.15196123653835703,0.11051482763641293,0.13337061306620207,0.143993922146602,0.07434187113447294,0.0682726446573705
0.0,81.0,81.0,0.0,120.0,0.0,0.0,0.0,0.0,-107.0,0.0,-45.0,0.0,0.0,0.0,34.27253218749016,17.55503396713325,3.055754077133654,1.5478800057901132,1.02402701991077,0.7011171451553101,0.3074676628562756,0.24919168678220835,0.1450327743196232,0.04464852650775837,0.03402174849609502,0.03696142137913031,-0.010898534700394404,0.020953130997047303,-0.017050880249551127,0.02798198600058028,-0.025242919470581916,5.264132805182004,3.3860064798398044,2.5547557815792015,1.8592685098450052,1.2211962212831797,0.8297838724276282,0.45421692779919304,0.2995847251531849,0.20634560100150962,0.21012824916753498,0.13183388818484731,0.11638834196908271,0.1308733709152908,0.08331192240542638,0.083948180575454
0.0,82.0,82.0,0.0,120.0,0.0,0.0,0.0,0.0,-107.0,0.0,-45.0,0.0,0.0,0.0,34.27253218749016,17.55503396713325,3.074097574042389,1.5037396130925869,1.0852775760176965,0.6418205304347788,0.35389179897693546,0.1913944061906343,0.13225944804130524,0.1325164018345367,0.03317881905268137,0.016016058339611974,0.002598946118025476,0.013009131030889746,0.046897698104255474,0.01814843985194755,0.05332738251204551,5.2964974624469265,3.3730468550427557,2.5495241184673767,1.8637519610941868,1.2701720937123706,0.7978030023999169,0.4638411136680798,0.27876481893801536,0.2074491865681804,0.15665504110749248,0.1323573006599496,0.1258060370562597,0.08889174249841994,0.08638056372818782,0.09074705612870224
0.0,83.0,83.0,0.0,120.0,0.0,0.0,0.0,0.0,-107.0,0.0,-45.0,0.0,0.0,0.0,34.27253218749016,17.55503396713325,3.102884296795261,1.658689694463974,0.9893203725229542,0.710535535994369,0.40656878499925686,0.2206001241465962,0.12353671650363382,0.05056732768929717,0.03385369362023465,0.044321338464393116,-0.005653539141292151,0.07777538762225966,0.04736735481741964,0.05851993923606792,0.06391475784534024,5.3439011718545295,3.4427470018482804,2.570745206232841,1.8529634305953402,1.2910400100253916,0.8203099810579988,0.5081701935243673,0.2952953488738238,0.19619384804194412,0.17987092686229897,0.1342716818251999,0.10455712579834041,0.1319232135459507,0.09418866330372319,0.07760394783992673
0.0,84.0,84.0,0.0,120.0,0.0,0.0,0.0,0.0,-107.0,0.0,-45.0,0.0,0.0,0.0,34.27253218749016,17.55503396713325,3.1479610891234793,1.5874576979581232,1.0411436146546078,0.7078567874094122,0.38029434620535385,0.21666908110523592,0.10151485686709716,0.014781470544225135,0.03524642223240812,0.02801401651453283,0.02743915665954507,0.00878087868807539,0.05388065524458574,0.04042481893412503,-0.06276945517567646,5.34192564462608,3.485397406290848,2.552259818140712,1.8826283316553831,1.274772202940161,0.810385703715975,0.482226377334975,0.2689839636565928,0.21158074413086866,0.17525247708532424,0.10688255111649683,0.12242710273170411,0.06519512662222274,0.07777801276492645,0.045393128136327295
0.0,85.0,85.0,0.0,120.0,0.0,0.0,0.0,0.0,-107.0,0.0,-45.0,0.0,0.0,0.0,34.27253218749016,17.55503396713325,3.1338000344708035,1.57396138150148,1.0366189030106052,0.736211371149774,0.3794236765725097,0.1725919630047845,0.10686623826566742,0.11022751399378329,0.04872770417169513,0.02143929118022219,-0.024183879260728798,-0.02460609370299575,-0.003990899890992723,0.030385944766663404,-0.04839591327198733,5.429623496134307,3.4923683208373073,2.585537455937922,1.9094116707393929,1.308150934762043,0.7990590467646331,0.505145790344673,0.30165546331659987,0.13764001782901314,0.14522157804609462,0.1425781651834974,0.056702305716465555,0.08760650431764097,0.0756639171680821,0.04907370692281164
