Line_number,Fiducial,Easting,Northing,Height,Elevation,tx_pitch,tx_roll,tx_yaw,txrx_dx,txrx_dy,txrx_dz,rx_pitch,rx_roll,rx_yaw,PX,PZ,S0X_time_1.086e-05,S0X_time_3.256e-05,S0X_time_5.426e-05,S0X_time_8.680e-05,S0X_time_1.411e-04,S0X_time_2.279e-04,S0X_time_3.689e-04,S0X_time_5.860e-04,S0X_time_9.115e-04,S0X_time_1.411e-03,S0X_time_2.192e-03,S0X_time_3.418e-03,S0X_time_5.339e-03,S0X_time_8.301e-03,S0X_time_1.338e-02,S0Z_time_1.086e-05,S0Z_time_3.256e-05,S0Z_time_5.426e-05,S0Z_time_8.680e-05,S0Z_time_1.411e-04,S0Z_time_2.279e-04,S0Z_time_3.689e-04,S0Z_time_5.860e-04,S0Z_time_9.115e-04,S0Z_time_1.411e-03,S0Z_time_2.192e-03,S0Z_time_3.418e-03,S0Z_time_5.339e-03,S0Z_time_8.301e-03,S0Z_time_1.338e-02
0.0,0.0,0.0,0.0,120.0,0.0,-0.6006107859661425,0.5404942801895656,-0.026958505073061856,-107.03085875312668,0.0,-45.06071121865469,0.6264627011583799,0.15629578395061183,-0.30694838171875904,34.278640887730695,17.554526791089916,10.399612634312021,9.650317043575967,9.150228494372959,8.67703841209989,8.023231004316514,7.286075182972059,6.420055666773469,5.52609418765118,4.566731214550124,3.599950231463339,2.5355402973889567,1.5732177007062251,0.8684890184477023,0.4217339283346552,0.12160390724328024,10.961785161326068,10.488042911591869,10.211164201922097,9.89291876480531,9.435954063435316,8.932839125683172,8.279234577775433,7.565165966985399,6.74841955073992,5.785776675530327,4.641683681116352,3.3709183674264036,2.148051607233428,1.243284376987128,0.5902251631738921
0.0,1.0,1.0,0.0,120.0,0.0,-0.9759018373190473,0.8135696469190454,-0.3751651559209144,-107.06290852992457,0.0,-44.943561119860846,-0.3665533910688814,-0.931185129702222,0.7511409765897061,34.278640887730695,17.554526791089916,10.37257819430549,9.670103523989548,9.179521424797697,8.666168530727136,8.01620685231924,7.260558015018242,6.383657124689322,5.482216152106543,4.529483722063363,3.556950748963378,2.5308682077872895,1.5658650551143396,0.8426121385593315,0.38297170484442045,0.13982677735045176,10.933319404288795,10.477306024743841,10.211953209618878,9.871412840263066,9.449319178768775,8.901033061530182,8.286837581283635,7.53917279336688,6.733272082906704,5.7926471113583915,4.601602665475489,3.3461575045330156,2.1397186854207098,1.1777618111313395,0.5349921263618342
0.0,2.0,2.0,0.0,120.0,0.0,0.16918519944847943,0.9805974121030814,0.09870426806424448,-107.02084944223662,0.0,-45.06449245730174,-0.17160975853697402,-0.34255303940871196,0.3406214042695026,34.278640887730695,17.554526791089916,10.41901940617482,9.633631672445132,9.196532231958564,8.606562049927296,8.042909749194799,7.280471776083212,6.419780846551802,5.480429761920294,4.561749289392364,3.5910346149692898,2.530917114927211,1.562502021964954,0.8459074695227182,0.3923194782068851,0.13403724265824402,10.933516333953866,10.459678416062234,10.254490409743337,9.850910987092485,9.452742238488337,8.956445773736313,8.32477397287533,7.545843574018457,6.737840992665566,5.7499693993178544,4.6113794097579826,3.351693044495271,2.137704793939726,1.1774482912175361,0.5249505096359336
0.0,3.0,3.0,0.0,120.0,0.0,-0.8854677898169232,0.14622731372845577,0.2953196317515341,-106.98647140941503,0.0,-44.956107659691014,-0.32105251481872266,-0.4269854436119267,0.7959766569684212,34.278640887730695,17.554526791089916,10.390497157624125,9.651187308725218,9.142562361342184,8.66585415580628,8.026853671379532,7.268131598075313,6.398281410261077,5.50224034222242,4.5275041555822195,3.5540117953213737,2.484811291607822,1.562378118264981,0.840270500372661,0.37202444096204323,0.13957414446933625,10.941686850297721,10.460349273493042,10.200653948065305,9.889653595618718,9.487819505024676,8.941760348129609,8.304466565762798,7.566918839699704,6.74146142932601,5.782036423984979,4.578797182046347,3.3038322739177546,2.1124489221420197,1.205876101338899,0.5431966207704259
0.0,4.0,4.0,0.0,120.0,0.0,0.6214419931426194,-0.6651344029130648,0.0056515905556866475,-106.87145311694405,0.0,-45.1621086758894,-0.7628957754251502,0.18377400981560688,-0.6022494905447515,34.278640887730695,17.554526791089916,10.387817933949016,9.629952504883125,9.15905590104027,8.59255244515306,8.020484689875325,7.234294787987667,6.410700961999386,5.512702416977947,4.514026216473823,3.5640224219738763,2.489779333990255,1.5607695004726756,0.7839518295291693,0.3600732791383128,0.12621642828912857,10.94718335513594,10.530169179628901,10.238971124302903,9.904168994973146,9.4659801691982,8.963073594706657,8.275901402942587,7.588279241589962,6.744306534530725,5.742991341217147,4.617168197783216,3.321144127442585,2.101784631560571,1.178846164381944,0.5569294247724521
0.0,5.0,5.0,0.0,120.0,0.0,0.0993893425189809,0.8013270539443134,-0.7033154190089279,-106.93508801552782,0.0,-44.94157774775451,0.7391963830586421,-0.49967468592495345,0.2856649718932074,34.278640887730695,17.554526791089916,10.361690813414251,9.620049549037178,9.168884125035078,8.640136737687486,8.020079709878491,7.272602312881797,6.417445300845446,5.512875236199182,4.581971788468296,3.5179498705473256,2.496528012395768,1.5584518806626577,0.8181123072613762,0.3475730766258501,0.10670990740566746,10.984568444957837,10.549044139499749,10.239767840417061,9.908042929451433,9.44603966197868,8.967029746570976,8.316986300572491,7.580777448726185,6.723307877233515,5.7811085790709855,4.572149863000732,3.2886054895739267,2.085746570105441,1.1553115749450225,0.5288628415807108
0.0,6.0,6.0,0.0,120.0,0.0,-0.21088241297063592,-0.8245763183156689,0.5832495609995481,-107.05733037842003,0.0,-45.002544446795895,-0.2612857374304485,0.049840910433742724,0.8086593176528227,34.278640887730695,17.554526791089916,10.413440786180283,9.694486512072412,9.190673536200979,8.689323776143777,8.000188129362032,7.292573109573041,6.412565864788589,5.5238603037343665,4.567950276384928,3.4891800037206218,2.47687991554913,1.5020568866617046,0.7971195093427917,0.3651260303835461,0.19350577316609288,10.957389135015243,10.543552234844014,10.25003887638845,9.898018613782991,9.486331192773523,8.947158289479587,8.32784568652144,7.5962161262267465,6.769311217350065,5.757414853965672,4.563631491738177,3.255274718212635,2.0610200134357606,1.166707460529055,0.5392672698458779
0.0,7.0,7.0,0.0,120.0,0.0,0.5968653553176255,-0.720990257435417,0.6473932024358482,-106.99149575694071,0.0,-45.005268437374895,0.5685074911644464,-0.6400520115089496,0.10864104270172414,34.278640887730695,17.554526791089916,10.38928245629078,9.66171841690173,9.21194733914934,8.64420719581876,8.008081706230536,7.273228307124121,6.4041868579719665,5.473680127204915,4.550626778480484,3.5311773349440574,2.470846855898851,1.5275507901686702,0.7916606218164265,0.36386431411880454,0.15499379371312388,10.980940038816696,10.542268346601551,10.244289255590868,9.88714877002248,9.474094690145968,8.980686874420273,8.341819942207554,7.596262321199398,6.781756632289092,5.773535800713307,4.545559726807061,3.2580898090309467,2.060505206853711,1.152455384948971,0.5262940918438354
0.0,8.0,8.0,0.0,120.0,0.0,0.5195770209342125,0.7296001373736949,0.6780304402704969,-107.09223935144738,0.0,-44.86339339867776,0.279965142850871,-0.26746903538197064,-0.5015459788140113,34.278640887730695,17.554526791089916,10.405932047200038,9.673009617608592,9.158739457179033,8.663911806859819,8.005022509001204,7.259132877698852,6.397795237688821,5.5214835399429685,4.517450622680727,3.5128700534970183,2.496003695595479,1.5254901525519546,0.8045418058667808,0.3503938799545601,0.11040383102451129,10.978810815897162,10.560428978311814,10.165685187780909,9.908434622963119,9.480207155698047,8.9609073565526,8.356310830038224,7.605370634869146,6.750823628737621,5.74668820051456,4.5401010051163135,3.2349398359691093,2.0405836040531513,1.1072824645667003,0.513357431966441
0.0,9.0,9.0,0.0,120.0,0.0,-0.21267126781071788,0.20308290281417762,-0.4459367318513183,-106.98681768608954,0.0,-44.94923174434513,0.08821657751186471,0.9344644410795702,-0.48771174719058275,34.278640887730695,17.554526791089916,10.396565692194887,9.654486978093837,9.188786409017485,8.63628788068234,7.980019878397568,7.212948495975207,6.418731325012897,5.500251968223778,4.580142219917131,3.4857205966768383,2.477571819556197,1.507604673428213,0.7320824244074413,0.3493358076332683,0.10742970599333786,10.9839256782036,10.553335510066074,10.2405596925336,9.9258093846085,9.470926356246563,8.98922536725754,8.337358511726597,7.626213364400882,6.744161005850127,5.763174960929955,4.532026856808698,3.2352346082149173,2.0139050669280567,1.0984438186042471,0.49815056304194966
0.0,10.0,10.0,0.0,120.0,0.0,-0.1730845177585354,0.14141785746669155,0.5424192602753439,-107.03927458702398,0.0,-45.009985965204336,-0.9618073133326759,-0.38005104239234644,-0.2777078329432381,34.278640887730695,17.554526791089916,10.420757509954695,9.648049119212704,9.18511392364717,8.653280662476929,8.003067236852317,7.278803080773035,6.408484415615358,5.53264134923958,4.550866273554301,3.4903721236288088,2.4690539445097053,1.489121741628161,0.748150841371419,0.3055392101367294,0.04516128141644844,10.944642559881574,10.575742011951057,10.256323784414699,9.92016468786029,9.504635002000047,9.001073311134428,8.331395200412933,7.624885587135888,6.762060228453866,5.748802756438327,4.502949370589499,3.214378902159477,1.9813990290613428,1.102654144259625,0.5049526054809367
0.0,11.0,11.0,0.0,120.0,0.0,-0.5111334783252941,-0.8645901813800265,0.4110892425948185,-106.97112854408257,0.0,-45.07998199624187,-0.2843188148173191,-0.7284391100858145,0.6652365590397147,34.278640887730695,17.554526791089916,10.389252672509667,9.658046208117531,9.19046718153659,8.624063089946665,7.995758808559979,7.280639103100772,6.435638066459708,5.498134588643693,4.509472422730964,3.5181360733109446,2.4926955826889112,1.4622435370097504,0.739416526418836,0.37099521992211254,0.12739452859192493,10.98027764748402,10.546905652110498,10.286328799635884,9.925713685890745,9.482211985453912,8.971164980743534,8.34843795709737,7.609814226442584,6.763491997570796,5.743848139113202,4.520355201613651,3.2032487726405923,1.9942610444878812,1.0648664427416552,0.5019767754320201
0.0,12.0,12.0,0.0,120.0,0.0,-0.9213514884463434,-0.2867593551644674,-0.31380315096928846,-106.92252444566921,0.0,-45.15825628507868,-0.016725632625547222,-0.8851379932666668,0.5044997093617536,34.278640887730695,17.554526791089916,10.38255808342119,9.637970622545458,9.20774416315921,8.655976786380794,8.041904510657732,7.287545045420067,6.406140678311741,5.519398435508661,4.5529143506279,3.513783641153273,2.4343443314015536,1.485840927405409,0.7961935826958842,0.3306344419494516,0.11203695647606628,11.005849003388855,10.565917425341354,10.254242515643371,9.930552858527491,9.489715134555475,8.991809404975552,8.376599194077299,7.613559891695471,6.781692526437167,5.775589130007101,4.4921179375622025,3.1849729536844835,1.9923463949216522,1.0683209089080217,0.4869672132024555
0.0,13.0,13.0,0.0,120.0,0.0,-0.536324190981136,-0.9743191407639671,0.634694919156233,-107.08063188175859,0.0,-45.061480279887576,-0.7323290666244132,0.1951317129305361,0.3411036690397924,34.278640887730695,17.554526791089916,10.409562396611078,9.653274541855778,9.226021137745537,8.673725050388816,7.971640768995014,7.284450250136562,6.416245350307956,5.502047017319446,4.53943233070987,3.5056138257209364,2.419003370586565,1.4382907012158332,0.80309913133094,0.32891390475569715,0.10787495498374716,11.016190070325427,10.534336279175688,10.274780709091745,9.958416769185101,9.496374966554983,8.993662537164985,8.34083747540274,7.586422427052126,6.74019521608077,5.712948870043574,4.497890795750136,3.176667277698566,2.000121281579434,1.0657717763511254,0.4815725642290326
0.0,14.0,14.0,0.0,120.0,0.0,-0.4332575983734268,0.9820614248522452,0.22264549926141375,-107.02992467946235,0.0,-45.02300860523671,-0.6406770316628618,-0.022228816330045476,0.16061396096011116,34.278640887730695,17.554526791089916,10.425253709563098,9.6724377840114,9.233667818394107,8.71152512927699,8.006217096329323,7.26700502137642,6.428741295842774,5.480469458405286,4.5453223831144385,3.485953331603714,2.4224571555209726,1.4874662952333275,0.7245738566523044,0.31550153340789944,0.11350294073224187,11.004741729836015,10.554198340925657,10.290643214079083,9.903709737576342,9.523831039484186,8.990415253303825,8.358103713536499,7.618098226329342,6.742421987906026,5.705783914451985,4.494015271556139,3.154802269340325,1.944321350251214,1.0598978250357491,0.4477547701451231
0.0,15.0,15.0,0.0,120.0,0.0,0.39314208408587414,-0.3109134768146633,0.296904050441096,-107.00301324559246,0.0,-44.90830444827456,-0.9315112613968051,-0.9432381758253618,0.8541350456459862,34.278640887730695,17.554526791089916,10.407817334767659,9.667292338423062,9.208691303865594,8.662624740854751,8.036883890091405,7.276416143405585,6.430553898764584,5.518525731918642,4.558892132162936,3.476212772619347,2.4070936573314903,1.4359467389556728,0.7109521796826,0.33640823643765305,0.0963626331907462,11.016388815546778,10.561731301428884,10.263147121225073,9.976270716092488,9.522611911037748,9.04401668052713,8.383616621130557,7.616670124867769,6.732572504346258,5.7113014671333975,4.45900239703555,3.1550801681517417,1.9643685887627254,1.037021442892366,0.45811002278694735
0.0,16.0,16.0,0.0,120.0,0.0,0.790180495939105,0.6019241802505262,-0.31193150399670877,-107.08585841318072,0.0,-45.16289909085154,-0.34589382568275434,-0.5834039355456015,-0.5478357339617481,34.278640887730695,17.554526791089916,10.41226407679278,9.629700241822004,9.183007835699382,8.703076243195174,8.03529811231557,7.245184335059206,6.453271488916052,5.478746594229094,4.520482759099404,3.471708259333893,2.3872558414659673,1.3857048692136074,0.7144947606559526,0.29834326850630777,0.11389702673869877,11.021645039118876,10.591302760187638,10.28470083118412,9.948648036740007,9.526227923698409,8.993218581319539,8.360417954802042,7.596431987962709,6.746890506369571,5.692952751123649,4.429947045922434,3.1073194244505498,1.9001694937131777,1.0339813152502544,0.44897124055075815
0.0,17.0,17.0,0.0,120.0,0.0,-0.4982433141461753,0.4030740424732344,-0.5366211888642363,-106.97757738418402,0.0,-44.99116759112859,0.01959958497326697,-0.5705444331166449,0.6647733397205449,34.278640887730695,17.554526791089916,10.410953888984112,9.671090237688196,9.213381629693297,8.641296222280893,7.9783475931093095,7.266718215211924,6.450568737355718,5.508156091996021,4.546834364108015,3.4333160041024557,2.3620035352893005,1.377506486012556,0.7406117534629447,0.3098821100657201,0.08397315156653644,11.003665130037607,10.585379090386835,10.297152419651896,9.966275379937299,9.533744255365052,9.025629512888667,8.381835643172531,7.6531429285745025,6.748101042025915,5.73094874513444,4.431351930518054,3.1117303887427377,1.925905948511402,1.0153196699928329,0.4361161051560234
0.0,18.0,18.0,0.0,120.0,0.0,0.8248116907480754,0.13896754091281505,0.7421698491577127,-107.01231607348849,0.0,-44.92954429930842,0.5562462419630898,0.24334711926347774,0.5310660193852967,34.278640887730695,17.554526791089916,10.383244489685277,9.659442338013864,9.212580635219485,8.67687495434636,8.024334607100158,7.3046858514552495,6.434858186406172,5.4474302947294655,4.496681907635432,3.458138108540865,2.3835856431585665,1.4251526284272278,0.7012322012639709,0.30689779277827745,0.11705906687297038,10.987801571648445,10.570069325698269,10.291089249942962,9.988367332580248,9.533366836029023,9.02660540572222,8.385111699140335,7.645037417726571,6.737842503522232,5.684858342693946,4.402368867311188,3.041505749861789,1.866491845387187,0.9805189450162346,0.4306823143147081
0.0,19.0,19.0,0.0,120.0,0.0,-0.5456369971899213,0.3458837014030416,-0.597781574081846,-107.07427846366521,0.0,-45.01964586877533,0.060596942452513694,0.11186615015686763,-0.9073927827646373,34.278640887730695,17.554526791089916,10.397483415748152,9.681773753202942,9.192484382698943,8.659499234248798,8.053192923484477,7.2976560432707815,6.387520390570272,5.512068886606844,4.542271828409378,3.403109860003725,2.32242216834937,1.3753232912903497,0.6623678191057933,0.2848534058441917,0.05736099495657211,11.002004820189478,10.58304688846321,10.289437109383396,9.943268804990707,9.529441819192327,9.018506821643813,8.371934937835015,7.624239608557563,6.783854168063457,5.696407413951548,4.4154987763307485,3.044462994699302,1.8683128021208295,0.9843675573879918,0.4164645454817627
0.0,20.0,20.0,0.0,120.0,0.0,-0.3739200705491057,-0.7686807581482953,0.03471857010387969,-107.0240469068201,0.0,-44.98143577802146,-0.7936866726828256,0.9771611090781029,0.6157114560943104,34.278640887730695,17.554526791089916,10.488575593113927,9.686278588665962,9.240080806171424,8.671127353396528,8.05001169841336,7.334605689351482,6.441063968910224,5.481417529055818,4.485357972697913,3.421711810258224,2.339374239501366,1.442432974426392,0.7038249431278889,0.26263029127796267,0.10020633871391489,11.035994795273076,10.61422436280982,10.279203569816714,9.983879096361747,9.54797578978952,9.011971043020889,8.398413882152697,7.659912848458963,6.767445833657013,5.661531868116635,4.379102939075381,3.0548308994956237,1.853898726332063,0.9910106376838809,0.4415784799512954
0.0,21.0,21.0,0.0,120.0,0.0,0.7553604568594809,0.1039886970069861,-0.9602527751551282,-107.02537029594153,0.0,-45.0624688317009,-0.2883007612039129,0.5691959066347423,-0.40997978019034886,34.278640887730695,17.554526791089916,10.41178825316316,9.681623487579678,9.24488074723444,8.66687455042226,8.08407694530378,7.2661650309409955,6.405683704561682,5.5236604180388085,4.494794540271574,3.403945812024213,2.314504259128388,1.3190724421703053,0.7049061169430848,0.3147279956145244,0.08135496024613717,11.027561569348242,10.56308997794832,10.30589205169391,9.996890369316105,9.534900781190627,9.050505403747167,8.415399844635152,7.627140244348425,6.7409425712229645,5.67696118590214,4.404801740690841,3.01468377681147,1.8286658262498923,0.9852128844125788,0.42632750420277543
0.0,22.0,22.0,0.0,120.0,0.0,-0.47159155939792496,-0.4015180497320501,-0.44579358061700347,-107.05258574905564,0.0,-44.975997378392236,0.6528551712833536,-0.02525653908013803,0.9412581782979079,34.278640887730695,17.554526791089916,10.34287327629823,9.628218623878873,9.209110683532737,8.704023655238174,8.053123592832627,7.263988970001467,6.398895284271242,5.533383763574066,4.522696983343115,3.4112921553711373,2.3271235275855155,1.353627035309726,0.6744853251976333,0.283542712519713,0.06568336092292978,11.01850383239801,10.603750279460877,10.290656200698564,10.005923784708909,9.575881526066421,9.0393490884672,8.355201361800672,7.637371102975505,6.752789064589276,5.67053641258546,4.379700055503085,2.984842644248295,1.807447195511074,0.958581050890577,0.39866299772551456
0.0,23.0,23.0,0.0,120.0,0.0,-0.676384455400038,0.14456669946754097,-0.9764978554867589,-107.01466445184299,0.0,-45.05338204287048,-0.5859049879907314,0.5106145363720791,0.9554083577012762,34.278640887730695,17.554526791089916,10.457983095042533,9.654062170763948,9.162288116245236,8.703141520974548,8.022083329108348,7.3131064814994176,6.431422712047195,5.503438521045775,4.485988944195815,3.4235467793054144,2.270156577392686,1.387641777502747,0.6554348250081131,0.30040112399029084,0.11681307013562081,11.04745254846624,10.614250772740712,10.286746328715976,9.99413269073291,9.547987184143162,9.049916191620085,8.358323594653944,7.634820051942179,6.76570304154214,5.656118898092499,4.350916601570162,2.979923098042107,1.790788843407987,0.9371324624336907,0.4535453486324025
0.0,24.0,24.0,0.0,120.0,0.0,0.8346623417494634,-0.4565677435826836,-0.8904642242410421,-107.03281515449795,0.0,-44.99210663462168,0.38731166657127647,0.7090074127639809,-0.28841229039957894,34.278640887730695,17.554526791089916,10.41580596183991,9.64425959095858,9.223426550387531,8.676308399340417,8.026210692696244,7.291074956770757,6.42647386244055,5.526487798243098,4.482304597500116,3.409911789070067,2.2887760530116132,1.3397163463283634,0.6906058342019145,0.2811829748640585,0.07882991380272227,11.060823722863226,10.616943933099945,10.337207068439504,9.993289113027128,9.555108865968728,9.072347490636275,8.404231161213044,7.673520563447594,6.742478728170266,5.635993930844308,4.31646631255987,2.9421720512691887,1.773725950512343,0.9329964049149125,0.3747376673647005
0.0,25.0,25.0,0.0,120.0,0.0,0.23768847679626748,-0.7881365835113874,-0.3111040234559692,-107.05498570894666,0.0,-44.94453470157124,-0.45032613857497655,0.5308910525469004,-0.7741982817272466,34.278640887730695,17.554526791089916,10.426057066128006,9.662999711103332,9.194570361316062,8.690300358295026,8.029507113813805,7.251872553128393,6.439237537002529,5.4910274551459874,4.49938648168704,3.3691746940837874,2.3075278901590406,1.2905263231144597,0.6399199304771873,0.269277051644616,0.09132024833339224,11.04738934338285,10.616252237680037,10.352216882875387,10.002921301795412,9.571366439870644,9.019105172211654,8.398437929352239,7.674831658499788,6.7516937850258225,5.65424015870663,4.278430278083078,2.959648594652729,1.7555800542804203,0.9255232486999159,0.3943367288652112
0.0,26.0,26.0,0.0,120.0,0.0,0.03104789235251615,-0.7494899161682329,0.10209177221412746,-107.14022928857216,0.0,-44.79239992708452,0.02496828769439834,-0.36044175113735677,-0.08971961063295164,34.278640887730695,17.554526791089916,10.416494331866234,9.655655490620564,9.20995937492172,8.638408400057559,8.040137249407886,7.315158185237048,6.410543149530222,5.486783536534431,4.4822269578615055,3.3707361967855607,2.256755505704534,1.300439651614048,0.6195145609385904,0.24999416417616374,0.09633298146077217,11.038120326579655,10.597922277165207,10.333262528540587,9.995911169499653,9.579820765936367,9.0409608550725,8.394818380520533,7.644130301999561,6.747651694727896,5.619444348698348,4.287073467592385,2.934151384715464,1.7668351142674092,0.8881944397691625,0.3869159630143161
0.0,27.0,27.0,0.0,120.0,0.0,0.529332702645553,-0.7275435299427342,0.5938929490218614,-107.00752783497354,0.0,-45.00271728994409,-0.1135029414852832,0.4579976307870606,0.2036240859565377,34.278640887730695,17.554526791089916,10.380807705686129,9.674334193588765,9.193676417473656,8.69519436368059,8.03783271565062,7.3248245309007505,6.437914127090584,5.518063943260046,4.4860367551081675,3.3505666788704254,2.247081612140636,1.274962568150677,0.5815739138932442,0.24727885469224453,0.07833514084441676,11.051994940969811,10.627265642521941,10.3040768142829,9.999022413913329,9.583456292793924,9.041259578054191,8.40021916858988,7.676660815651437,6.7295043573765065,5.647882071383382,4.292016144732494,2.9180296617675605,1.696094944899759,0.9027653590553678,0.4058694739658041
0.0,28.0,28.0,0.0,120.0,0.0,-0.8782121478492995,0.6006280622747644,0.6077545208770367,-107.05654654494694,0.0,-45.01501497716937,0.6673156168910136,-0.26392713580211247,0.534657854419083,34.278640887730695,17.554526791089916,10.39262616670657,9.692761401408566,9.165603772119416,8.643964987285843,8.020435711147666,7.313633709714809,6.464568768081103,5.467035924215629,4.472033911532205,3.318406625133416,2.2234593439963617,1.2710964694331635,0.5827341389192923,0.25460939800523896,0.06220571412888873,11.051819787421742,10.627474495983236,10.299467448971358,10.006422123416026,9.576378359916738,9.063488509646533,8.408082646827845,7.651903131895623,6.737701025589834,5.600198590645339,4.2779712073851295,2.897039922860325,1.694437323344204,0.9037476060448678,0.35580672924538564
0.0,29.0,29.0,0.0,120.0,0.0,-0.841532722386185,0.14448842634862902,-0.8811864612902467,-106.98985396872445,0.0,-45.10834350381225,-0.6576587615771932,-0.502744830552627,0.684640644260019,34.278640887730695,17.554526791089916,10.39233191709611,9.68974402453107,9.219555004986994,8.70629781762464,8.028373737593617,7.335195770752655,6.414445102332997,5.543134394410624,4.459380258431463,3.3230863400419413,2.2359221913519405,1.2631732498651278,0.6178054363854774,0.2560947376651374,0.06692176504066942,11.0534685792577,10.623425458384766,10.362783354964634,9.998111130797529,9.597663836701013,9.071991955441135,8.400227675153328,7.670862261468076,6.716452122408,5.603477633731023,4.264693367722783,2.8524765610084035,1.699180982040232,0.8721384124214864,0.3629784771739732
0.0,30.0,30.0,0.0,120.0,0.0,-0.3091758804444322,0.1449815792679201,0.9428216370995297,-107.00780833458283,0.0,-45.07451587532486,0.43316430165108816,0.7007277227020261,0.04881155359677791,34.278640887730695,17.554526791089916,10.411331259475073,9.703988079941341,9.182975105982143,8.649944739929323,8.037244028791353,7.301546411258488,6.452953301035054,5.480874265366852,4.460541579798529,3.2880048039606447,2.193570043495542,1.2674253320657636,0.58623980790089,0.24663672730829783,0.06841532505546648,11.10632135103344,10.646319215305864,10.349633702129353,10.027275885201853,9.59787138968934,9.04511330646711,8.441655382724372,7.650309125705093,6.727099144723908,5.572810003959613,4.204714878561594,2.820109896845944,1.6745251600089428,0.8537148767955113,0.32170428843117493
0.0,31.0,31.0,0.0,120.0,0.0,-0.10657094086545693,-0.4896581203831236,0.5118316233036273,-107.02877866166706,0.0,-44.99752729964953,-0.33896196259128986,0.8957076775529911,0.5652842116450043,34.278640887730695,17.554526791089916,10.413926230153512,9.668352726000679,9.228850031894298,8.707335179695878,8.062853569360538,7.299382853138798,6.433252095396966,5.482725732086009,4.4010652338791285,3.2685204921636353,2.1559783804023906,1.2380441206697754,0.5818718884375418,0.2020423927717605,0.12276735248090884,11.075845466523827,10.62416200291786,10.324871427468572,10.032743420301182,9.630588276339596,9.078301038319008,8.421490409587756,7.655263604506088,6.713904442910164,5.549051970126732,4.242392782887414,2.8051379360492508,1.6517396933205608,0.8264879416987692,0.3575413898966393
0.0,32.0,32.0,0.0,120.0,0.0,-0.9964693528346331,0.6496297582702368,0.9732745960059146,-107.01128846435262,0.0,-44.98047926163338,-0.17047505572795502,-0.005674096451717459,-0.5936581413579094,34.278640887730695,17.554526791089916,10.417201742683341,9.675198523832245,9.242237179096689,8.679566728455129,8.021491421878377,7.316181914566171,6.460891287781407,5.486028475456305,4.4498883857210885,3.273612823333843,2.172779960156933,1.2160315025515376,0.5926038805046991,0.21221385934577203,0.06734398172958102,11.060825932535495,10.624012947831117,10.349415202410588,10.030325844019705,9.557748375702758,9.084944225909451,8.469613215779427,7.669614727209146,6.70311807868312,5.541015163123616,4.193589441513335,2.8136682446656214,1.6326347457020702,0.8264668635208811,0.321402412923743
0.0,33.0,33.0,0.0,120.0,0.0,0.6063941669275619,-0.3745105652881482,-0.8359283171217646,-107.09886533267726,0.0,-44.905269819729,-0.971235635944967,0.8388076541062102,-0.7885287098746119,34.278640887730695,17.554526791089916,10.4505568264372,9.62956214778383,9.186882996025966,8.665171426149103,8.036047864149257,7.347481843585915,6.46274957324437,5.447733271246678,4.375849789689,3.280714850076903,2.1154205698398894,1.1943285376937236,0.5349287867415926,0.21459549645643966,0.06605996380285167,11.064297099926499,10.637085884324579,10.355723803955273,10.052499112444131,9.605855709394366,9.083075628292196,8.470278432910987,7.6752457800890825,6.708946106037906,5.550478800144893,4.189889368850412,2.7945643013098174,1.5952315203647756,0.831247838941073,0.3537104549140694
0.0,34.0,34.0,0.0,120.0,0.0,-0.6364790825767181,-0.3476565684635078,-0.8252029471254612,-106.95272451616003,0.0,-44.989316266842664,-0.25816332075192444,-0.35187243036061466,-0.30239766895674225,34.278640887730695,17.554526791089916,10.423257862824553,9.703734167206001,9.206768008454713,8.660683230890506,8.018275021625175,7.281530034345772,6.416169323543065,5.495268480272115,4.414405822591093,3.2691471880984926,2.115576114714284,1.1555107116738963,0.5500864762117343,0.22166978148318606,0.05572598470417019,11.093769331969481,10.632059335330155,10.379843287114564,10.011886951963046,9.628579014628247,9.092068118849642,8.42944116522346,7.674540975726235,6.699642972640479,5.5181155864866565,4.1551266958346655,2.7736036219616502,1.5898011603741002,0.784457879921333,0.3385473513984179
0.0,35.0,35.0,0.0,120.0,0.0,-0.23111068150248926,-0.9221056020565455,0.0068231480141569545,-107.02204206247221,0.0,-44.9744789557667,-0.9742290570382646,0.016607732415405474,0.9853415358109612,34.278640887730695,17.554526791089916,10.417559886047307,9.67348021802901,9.203785011380752,8.679088995074354,8.025357193847585,7.250697256551871,6.443421930248057,5.485723732379744,4.358364157141447,3.183756724175324,2.125211028204387,1.1630184721985135,0.5544494814160849,0.2163811547309665,0.024737930662710503,11.123763728612394,10.70724180974146,10.376999531937747,10.037176874945114,9.635587211942733,9.093673234316729,8.437615537399877,7.676996648795315,6.70802216492246,5.512089462358753,4.112448931967862,2.7037306818372686,1.5731794862245907,0.7922166491309514,0.2969519743460484
0.0,36.0,36.0,0.0,120.0,0.0,0.24140345627633564,-0.17366542940624985,-0.19897265162966393,-107.03132044157996,0.0,-45.01264407763453,0.1880961469604595,-0.3111844793493834,0.7935838357580465,34.278640887730695,17.554526791089916,10.435482706153698,9.707159318215073,9.183268383821028,8.683531334633457,8.048641628535844,7.328655201058354,6.382115895640238,5.4204354843342575,4.420275452272937,3.203849250334729,2.0814270651919933,1.1357563041855143,0.5147796955758404,0.24580790301980002,0.05170241623819767,11.123489125635288,10.657663915712702,10.389636827538334,10.020521953923039,9.622669201999859,9.085360593945593,8.43985064489358,7.657864719624437,6.708421770279893,5.484327855664121,4.088081920617503,2.7167234097020456,1.5458950437329073,0.7667905250805924,0.32021651736306156
0.0,37.0,37.0,0.0,120.0,0.0,0.6523757944657025,-0.17366509535990193,0.9258975126130724,-107.03055436878593,0.0,-44.90298411412914,-0.5688547452163099,-0.9863715037169454,0.000114892969256708,34.278640887730695,17.554526791089916,10.41618707737796,9.694734500352897,9.236305972948076,8.693210913540105,8.05119914811896,7.298921747246647,6.427524537438869,5.480164465547268,4.383317480232128,3.247528991443277,2.0617862774194613,1.1192447683101767,0.4981962825714611,0.2052662420611455,0.028056426599317674,11.114410536440477,10.651385006215882,10.379419730871154,10.050207691754565,9.602918649712244,9.109682815936154,8.474492887841565,7.6774055918380375,6.673036908128606,5.501075166439485,4.083421042737199,2.669270890130995,1.5202655998497132,0.7999372639480344,0.33875582685378797
0.0,38.0,38.0,0.0,120.0,0.0,0.05964000659787283,-0.014223115945634524,-0.3933474875319698,-106.98544851752268,0.0,-45.030014646672896,0.8273875415764137,0.31646704353896404,-0.3694277063542144,34.278640887730695,17.554526791089916,10.480298074145256,9.686587003208492,9.280448734899391,8.666493052706597,8.052620967126614,7.295481616094825,6.429721833921655,5.428156253268127,4.357807308935303,3.1955571471428783,2.0483326417066143,1.1404996730722168,0.525218658526229,0.14821469621353328,0.06317129789003537,11.122842833046963,10.680730847328515,10.36410138630747,10.045325195934838,9.616080038567059,9.09632284802104,8.45991625420716,7.671002492703251,6.661627075809612,5.425792101330244,4.058831724622792,2.672055456399954,1.5209162139278236,0.7549328924121563,0.2964016673911886
0.0,39.0,39.0,0.0,120.0,0.0,-0.2329192324886511,-0.45976468239439705,-0.2931492256534427,-107.05118781904802,0.0,-44.89394684923104,0.28785200049854853,-0.855124830800063,0.9118040273359926,34.278640887730695,17.554526791089916,10.398398375436589,9.680203172849687,9.189072167798374,8.67604044922846,8.054031422526188,7.313504775553139,6.448516105489064,5.457411916624324,4.323442133239907,3.157963227530131,2.0143346856567867,1.1297146953008685,0.539193814616244,0.16513764434184705,0.018924987972074564,11.121704966264224,10.703995890714058,10.377169047098114,10.051509980377723,9.617852642697546,9.12305124472807,8.424372409297817,7.6667315388586665,6.667069171814175,5.436502388436206,4.014674300531309,2.613218036602866,1.4929143041307047,0.7319448308527486,0.31691364896058194
0.0,40.0,40.0,0.0,120.0,0.0,0.463691806009652,-0.6763731457510445,-0.9695144363616444,-107.05465200518054,0.0,-44.909649478417805,0.4040774758022894,-0.5356188219923359,-0.6579184789444794,34.278640887730695,17.554526791089916,10.4350904909833,9.68596536967891,9.23646348251844,8.696203155420347,8.04983529611217,7.320661058170791,6.426124533691263,5.435302761584761,4.352053293725117,3.18820226475646,1.9813956231175338,1.0894508264312937,0.45381273193560523,0.2031832365287246,0.06733434082155237,11.153577805762499,10.665234312015874,10.394569045755063,10.063015316666979,9.649809650305961,9.106981050298305,8.437783789778415,7.679863621492603,6.648190510998492,5.436337994446146,4.018793104962956,2.623852907768687,1.4769253362258767,0.7219499106801376,0.3169238379383796
0.0,41.0,41.0,0.0,120.0,0.0,-0.08139721687575707,-0.09084517305438045,0.82690471796393,-107.10423314330883,0.0,-44.986112209452926,-0.3829047606239518,0.8315468338530205,-0.600859775075955,34.278640887730695,17.554526791089916,10.45359142699547,9.678057568161933,9.200510557696045,8.747581566955368,8.074633979620371,7.326839305674938,6.431645467414435,5.4107684841488695,4.333102567312515,3.153700580575346,1.9871500275621785,1.0798204403931146,0.507111250390786,0.2101109807811088,0.057941185896121045,11.096943880023776,10.681800274007317,10.357535390772172,10.09245647545117,9.654320306496345,9.0881069683538,8.443862300259845,7.633950760257939,6.6389563638913796,5.399396891607909,3.9738749812787595,2.57506080097603,1.4749964523103272,0.6946734503078564,0.2788537982268942
0.0,42.0,42.0,0.0,120.0,0.0,0.8952583671039935,-0.36407897677764733,0.48416507966500966,-106.91464723383822,0.0,-45.085219793073335,-0.6201067794553798,-0.891897791859493,-0.701381597425607,34.278640887730695,17.554526791089916,10.427142838065864,9.686816106178345,9.255605288618947,8.708459479578607,8.025133194905909,7.273099172108538,6.465163130038137,5.427908203704894,4.326694325926058,3.102094634303117,2.0076686793685568,1.0542758748300358,0.4762506898011074,0.17648691824621987,0.05498730127445575,11.122877213847765,10.660142058883082,10.38818893035819,10.082606380742824,9.596656102719923,9.114119934362218,8.43986620120944,7.682671888306583,6.621402679307032,5.344677567410342,3.9398522229943094,2.5797170633937405,1.427553049578182,0.7037150985867571,0.2740306492484668
0.0,43.0,43.0,0.0,120.0,0.0,0.5130862046055409,-0.2543855580140526,-0.515344123719722,-106.91356591062008,0.0,-44.97172521342404,-0.9835518795795809,-0.21825630554802355,-0.6000429107041649,34.278640887730695,17.554526791089916,10.407297597844714,9.680145880722876,9.184583192651385,8.727238280100778,8.051612579595776,7.273724777734777,6.420912583510378,5.381224755737176,4.290697411741773,3.1008216743426456,1.933850986996703,1.0554411943314923,0.4809002509051162,0.1780788365349957,0.08008462275244958,11.160138608400764,10.681700237436923,10.41227164465539,10.063556243325866,9.61855264771505,9.143100178496184,8.46622405773477,7.658309523141202,6.586340457446553,5.363512297204581,3.895730743244158,2.5194306954683823,1.4093752335699314,0.6731559852391739,0.2905611193361724
0.0,44.0,44.0,0.0,120.0,0.0,-0.20199353802227837,-0.5302430930764652,-0.07436724536602468,-107.00831111980817,0.0,-45.009292876362395,-0.06556710245471054,-0.6249386826484411,-0.7727824343698737,34.278640887730695,17.554526791089916,10.465506175082586,9.668895075728134,9.227817062777566,8.664641528889321,8.033370007654272,7.3063342885594365,6.453458415157446,5.407863900266267,4.278021835377536,3.0677319494966055,1.9424012269213473,1.031755950902483,0.46692674868968814,0.16619343108180182,0.042328114757829265,11.11655428933058,10.684674437706612,10.419603471406171,10.093296555199451,9.659000219375862,9.099610363591115,8.482347435554297,7.63886045411386,6.593993579366081,5.304639616511032,3.891290811781345,2.5061781805410166,1.392963519767665,0.6430383037902302,0.25774487029996307
0.0,45.0,45.0,0.0,120.0,0.0,-0.10999926007544358,-0.4028827066742422,-0.7477273238144178,-106.9600230712852,0.0,-45.08633160511803,0.906853285667242,0.9589813904489932,0.00278155018327908,34.278640887730695,17.554526791089916,10.426382332857564,9.655116705588005,9.196985978057706,8.707247064858434,8.036818070760706,7.326130916567033,6.420310269936814,5.376425515892818,4.245460946594851,3.0705293607467263,1.852201852338175,1.0572262635878467,0.439002093496682,0.14719319953202953,0.08775205049481072,11.12779246775419,10.714873250354925,10.397652720834985,10.108162445997934,9.643537332190819,9.117184325293177,8.452850627953286,7.602091952149829,6.586367325056882,5.318503436738211,3.8805380736151784,2.456146734069238,1.3740615886888328,0.652775613800405,0.27567424556133147
0.0,46.0,46.0,0.0,120.0,0.0,0.6327407859133511,-0.2281687402635777,-0.7155603644849509,-107.1032805328509,0.0,-44.981711476495335,-0.7745888544911643,0.27585157215840694,0.24133614164475525,34.278640887730695,17.554526791089916,10.478358064070047,9.71246533470803,9.262104950517841,8.657731788621197,8.011118590976551,7.342239023474442,6.433671780685262,5.367098330737754,4.252908290023752,3.0667583387113924,1.89020849499185,1.0112441002335466,0.43176768672976884,0.15888979536049644,0.0477794929299125,11.165432770523712,10.701181043775641,10.402832221007351,10.08387726318791,9.631930634152633,9.10268463684787,8.46345296639519,7.610592907462869,6.5653437558792405,5.283173369069551,3.8529291848728833,2.439175856138494,1.3635475341267789,0.6502007929280729,0.2532299082117238
0.0,47.0,47.0,0.0,120.0,0.0,-0.1660474761896258,0.32772479484745554,0.371359724612667,-106.94602034563536,0.0,-45.09259418258276,0.3433533610689156,-0.6462037151802331,0.05225085790211215,34.278640887730695,17.554526791089916,10.431723467670954,9.702530694589587,9.228434052584317,8.707594404674547,7.967836603439686,7.302042585628906,6.440168178817438,5.399696972802445,4.211027650746825,3.047807925423866,1.886027800952001,1.0003967785055314,0.42643472986841324,0.15543001472697515,0.023367714060123206,11.156144174788496,10.73944095410052,10.401540918592714,10.077623183427585,9.65795204541409,9.130500088364526,8.470131048455077,7.648686290876917,6.53154674518495,5.277192539606488,3.8184080378484477,2.4100565384162866,1.3264879022652682,0.6398135017468871,0.23938514538075423
0.0,48.0,48.0,0.0,120.0,0.0,0.37644541747710125,0.29237516901914606,-0.15552368745496392,-107.04184278392123,0.0,-44.997124972678094,-0.3668504261756207,0.2936748825846496,-0.9791194079007675,34.278640887730695,17.554526791089916,10.439149395658864,9.670398272249562,9.231366983441516,8.675350532480401,8.046692636990723,7.309367037952103,6.429152404833325,5.378586748627899,4.1723679226045265,3.005395237946839,1.8083039168986472,0.9676319434558136,0.42857698375022907,0.21043808698309358,0.045278234878455836,11.147106645906943,10.733566298308025,10.414398623879793,10.095827222701995,9.65669628714349,9.107168695995522,8.495866275307476,7.612955930556092,6.5354850091214365,5.225162917646418,3.7816748352587353,2.417773911517598,1.3045936696069567,0.6186056185230153,0.2390476497954741
0.0,49.0,49.0,0.0,120.0,0.0,-0.1520039617206621,0.8484750417801323,0.17807864363984205,-106.94592710249819,0.0,-44.99571552681354,0.15408746866760314,0.40972813024674304,0.5901535944637031,34.278640887730695,17.554526791089916,10.434728537902615,9.715292523399533,9.225647064940016,8.729197819831507,8.044962352980153,7.27593296063361,6.40560165510687,5.361837213337008,4.19617422568486,2.944804058613655,1.7927392625410732,0.9297943657597789,0.421364477138008,0.15591468926202956,0.04677079054973834,11.16099335871413,10.702648852138118,10.42210840697161,10.106385843164832,9.660009321995336,9.176799196312665,8.44778441096466,7.635874665865737,6.541381940634623,5.21093531242533,3.7459329922643194,2.353709330648388,1.2831534991433866,0.6173235218380075,0.23001099683814905
0.0,50.0,50.0,0.0,120.0,0.0,0.4242356736056765,0.9839727014246169,-0.9702627390343337,-107.06146824856492,0.0,-44.94589051726071,-0.6163231117871242,-0.8703536950223767,-0.7731074066325512,34.278640887730695,17.554526791089916,10.480814601109154,9.716622952623714,9.25405336441909,8.737216095019008,8.057135046999052,7.3244227454297075,6.408288787981827,5.328866802536665,4.190579070037593,2.938575283222922,1.8114099000899289,0.9287214661777639,0.40188605975747543,0.176528120700471,0.04957232574648748,11.148034784504942,10.745147059828879,10.433817863427597,10.099843721052114,9.670538437496832,9.140489246398287,8.468397845898982,7.625035793512211,6.510397851716103,5.181022496347638,3.7036788546780612,2.308586237956213,1.2618429859720082,0.5979869487324342,0.23761078772757405
0.0,51.0,51.0,0.0,120.0,0.0,-0.16817773493049337,0.9671435727992324,-0.09180646730765774,-106.93823000096452,0.0,-45.030788817359166,-0.4449749853828372,0.24899052861633053,-0.9923680337786407,34.278640887730695,17.554526791089916,10.43390840018498,9.72207457873666,9.242669669664805,8.652711128005654,8.022670036553274,7.3457517810003,6.370471683054779,5.336179392619659,4.146450329183773,2.8989242824690997,1.759379440235012,0.8849997950719716,0.40851780754207534,0.169793761507826,0.023622963137266202,11.16910633083342,10.692646241650777,10.424626284628642,10.076941329278913,9.653927777805041,9.131011164207463,8.462287923398472,7.627844155607454,6.490053539559535,5.13231449174087,3.672452200362758,2.3180230187710142,1.245328466130693,0.5825917478666005,0.21123919155322263
0.0,52.0,52.0,0.0,120.0,0.0,-0.4433564178249991,0.8618732388310963,-0.5128451461194101,-107.07885405535535,0.0,-44.977397879120616,0.6676491034459241,0.023076053285697284,0.5568216298817166,34.278640887730695,17.554526791089916,10.411722296802727,9.683337725916685,9.23674358975556,8.663239551687791,8.07213611964323,7.331407759756549,6.384297080256468,5.339745649342466,4.151840646403911,2.857177427485872,1.7557257667462531,0.8994459233712924,0.327202323439386,0.13809105621628198,0.05941216709018343,11.117141174682763,10.717147733701806,10.427651357682624,10.08463238074571,9.670697970407037,9.154377517393083,8.47996382639387,7.577883654248418,6.499418011742144,5.112576649724547,3.61256687441569,2.2779804024749937,1.2115129247504663,0.5664955021148349,0.2267888766245262
0.0,53.0,53.0,0.0,120.0,0.0,-0.5036598960789491,0.1792404748669323,0.18465567843647412,-106.98664481673481,0.0,-44.985098216875386,0.21182145945490394,-0.4283536606811771,-0.6541568648287948,34.278640887730695,17.554526791089916,10.420483715463343,9.723258939385376,9.203387421165495,8.724312846624311,8.046674386380477,7.267426402747017,6.399516878036615,5.298255271227083,4.107787598798524,2.8611487471064203,1.6913821214561624,0.8754526499445281,0.3640132429411728,0.16190746122506816,0.019737976375025536,11.17157636472149,10.735486937744795,10.446475201367905,10.089778457856998,9.656545898536404,9.137495686107648,8.44088118805191,7.59458447026905,6.443922789464263,5.07805731068448,3.6309137789094574,2.2217424511279313,1.1812253803865638,0.5618469585213337,0.24395444655010295
0.0,54.0,54.0,0.0,120.0,0.0,-0.3771872826692715,-0.733452909056667,-0.49213626892386375,-107.09342519370188,0.0,-45.03164087527668,-0.35730296289099567,-0.3007898637274915,-0.2174080390172366,34.278640887730695,17.554526791089916,10.408163830093265,9.701562101018773,9.266388544634577,8.667642876687786,8.063671214363993,7.299049272890417,6.406311372192212,5.272181316272594,4.0829060066368426,2.832660617326302,1.6536314428617622,0.8573753158516139,0.35581550080679364,0.16457164805862856,0.04151108287335299,11.179260694562668,10.717150133128852,10.43230370923444,10.116415805666684,9.671692466960964,9.117826038882216,8.473470715006082,7.560480593296549,6.415617092723121,5.084282797434505,3.597562938103788,2.2221891048852833,1.1787121681762842,0.5493283981822829,0.2204524984789227
0.0,55.0,55.0,0.0,120.0,0.0,-0.7917730685644944,-0.5934527580222546,-0.8844265612448614,-107.0348538810718,0.0,-44.938792755452,0.014730682674760583,-0.18228093244647225,0.15520662325366463,34.278640887730695,17.554526791089916,10.45903220742581,9.693000118522695,9.238002140301036,8.724679465408167,8.098644971788644,7.279957362390671,6.368428747608349,5.281264031184752,4.118518010789644,2.80002577597812,1.6877761260541169,0.8796990641356607,0.3637577996545791,0.09083925008251743,0.0029979671044324807,11.193754136006222,10.732106564495831,10.454924385140067,10.073517534884822,9.686636385706528,9.148892003737544,8.47049388257104,7.584943158574581,6.397572952705494,4.986915035119414,3.558468306279081,2.159925419523577,1.1475571131549485,0.5277310299400646,0.18459760770909603
0.0,56.0,56.0,0.0,120.0,0.0,-0.2164320083955411,0.9567348891053948,-0.5207841512313007,-107.13249414814129,0.0,-45.01941818888315,0.42848358825253635,0.0037374273479855447,0.4393937418144491,34.278640887730695,17.554526791089916,10.455545472568682,9.707814638887852,9.251034265049434,8.718531366059716,8.057648361062391,7.306437428700111,6.396017814817777,5.261799409816966,4.035992261098293,2.7701062406735617,1.654447785474965,0.8057461571233265,0.3506613696055997,0.1528986735420114,0.0595347268729048,11.185152084358165,10.764174391271235,10.446398937202764,10.099270298135504,9.68470116880786,9.146413823926132,8.48080937427901,7.545822582900573,6.392460281860853,4.992811751576964,3.492573400249527,2.126794282619902,1.1178342580007319,0.5118048833302904,0.20205953188121067
0.0,57.0,57.0,0.0,120.0,0.0,-0.32554666742364735,-0.34307976248674943,-0.9649464513095425,-107.16282031746732,0.0,-44.911822126012325,-0.6128342517842735,0.6193038977381442,-0.5510527267684728,34.278640887730695,17.554526791089916,10.415621324461188,9.681020373146831,9.249461002810204,8.689228187294177,8.070275193943038,7.282727147493149,6.358630666768325,5.221569234281353,3.996980588542163,2.7534563843969346,1.6390740287080507,0.7908092765526755,0.33223266517801975,0.06473444444749173,-0.011031396672001578,11.201008643174323,10.703747443014132,10.424495561722216,10.12072503026045,9.711440863706569,9.14435625724417,8.500303433629853,7.508285612208009,6.363509149024937,4.98458841625179,3.457847991090515,2.0985417469099903,1.1239977543820627,0.48937336517266644,0.22796668390916192
0.0,58.0,58.0,0.0,120.0,0.0,-0.8974232153772113,-0.3188481165497341,-0.6258352202028519,-106.94986558914889,0.0,-44.9086217194523,0.15621181507643062,-0.5524061684270971,-0.8156918684312155,34.278640887730695,17.554526791089916,10.462901232543247,9.659217362628132,9.184775500642841,8.736393833925433,8.042666702197135,7.307167874634652,6.381120816268737,5.244790342287828,3.975250098678723,2.727758269639224,1.6127692000774394,0.7702845734105921,0.37381186197844063,0.11006119173215559,0.0611263971663243,11.160172547632776,10.784482212972803,10.456263177677172,10.084050520069622,9.700033548925807,9.149446191989476,8.447047309511705,7.527482010210235,6.317377899453505,4.92351379571137,3.419592491389198,2.0891194408950513,1.0473653635391518,0.4422036144018774,0.18432288989927365
0.0,59.0,59.0,0.0,120.0,0.0,-0.5119838866589577,0.05819855559366349,0.4274234835745898,-106.98692308531574,0.0,-44.984432171861485,-0.23369159493420077,0.7849517288736405,-0.397935598650748,34.278640887730695,17.554526791089916,10.449258013975909,9.715159120000115,9.245847095995268,8.696594857664639,8.062561742789352,7.330943009743802,6.320162846961454,5.20762600969879,3.944206401971652,2.656113113046636,1.5621793073992791,0.7286770065889252,0.32716554623338295,0.10926691776630229,0.07149578412462648,11.218402959035577,10.73643745962592,10.488537424350927,10.106106778629808,9.680774353856073,9.141905668470583,8.474848842389282,7.5015120726910895,6.332763924671312,4.88086319796487,3.395290572991472,2.040380929638146,1.0569918414202033,0.49161244260832077,0.17570591898840748
0.0,60.0,60.0,0.0,120.0,0.0,-0.7381195616901572,-0.9939104874138476,0.7115732374113806,-106.94595045455918,0.0,-44.9145076313163,1.0624196303445164,-0.7737039108936812,0.5828835615915222,34.278640887730695,17.554526791089916,10.441155682593145,9.698855703528034,9.24037740516685,8.74286909672208,8.054180337934818,7.303306855895487,6.372548384676983,5.127543766261682,3.9316378333968114,2.602807397946818,1.5727147686375402,0.7641752224461079,0.3244079423350447,0.09926980053343495,0.04416806049991951,11.198317001224023,10.771789710408337,10.475287321254537,10.150334839150057,9.686004288900055,9.185765461120305,8.456318858063835,7.491649799878998,6.287616418407521,4.849903793319574,3.329705980760687,1.9987174307952045,1.0296805144508097,0.45742944913308886,0.1876553727065772
0.0,61.0,61.0,0.0,120.0,0.0,0.02863728706915092,0.10493743763458196,0.5811139439138133,-107.06646700850852,0.0,-45.04363281599521,0.653537448906619,-0.7447411451264017,-0.3134822784125837,34.278640887730695,17.554526791089916,10.50127809809176,9.729446406965785,9.279002248735011,8.669337182329,8.059981625857393,7.2704583979026065,6.350466729838639,5.143845726968067,3.9144732645653253,2.645548503044768,1.5112432981606818,0.7377856048436191,0.28343747051396967,0.11469892739898035,0.0339466911007727,11.195320744466235,10.737754716965638,10.466268693526693,10.118285689054865,9.734002797943411,9.14792557528292,8.44591064459229,7.474134590835725,6.259851911531177,4.8165149986573015,3.2680000532598092,1.9435839256698404,0.9958224359900225,0.4663234943341771,0.1696859647754362
0.0,62.0,62.0,0.0,120.0,0.0,0.3710313837174646,-0.7014065124148146,-0.5843494375074147,-107.11072877779199,0.0,-44.93723657198814,-0.04832827236262714,-0.6187968899370091,-0.6362031733898783,34.278640887730695,17.554526791089916,10.438494634582568,9.699604667977722,9.191972529337772,8.706890358200555,8.090038370077407,7.239708723185496,6.286928012300079,5.17040792104307,3.858868931861362,2.576938021327584,1.506420365049344,0.7285113767056979,0.3087891989701806,0.08676240388290718,0.06881269561140903,11.174395443080378,10.764551599279597,10.46858647317038,10.130250822020011,9.708562722992376,9.130841592639882,8.407962173720001,7.439932631997154,6.204485242861776,4.771519214264285,3.270811346748447,1.9275804031667052,1.002441472970822,0.44636686522512486,0.15554359773676377
0.0,63.0,63.0,0.0,120.0,0.0,0.2764142040102786,-0.11074288479468519,0.3044303871842191,-106.98906666556013,0.0,-44.93763051790103,0.031486137043829646,-0.6769028840722882,0.8040249565454394,34.278640887730695,17.554526791089916,10.447502473749966,9.692786735713334,9.252294552703518,8.734260292688928,8.089661779418368,7.308880632535381,6.306509729446212,5.129488437675416,3.8416876562592184,2.529293853474401,1.4495810580485171,0.7470710403023798,0.2617058931586622,0.09123826667452353,0.0009553130779759167,11.18268627655087,10.755035766210028,10.476550722287769,10.134076931365637,9.687024210775068,9.154890723284911,8.406522041477341,7.453255890431286,6.18861367032975,4.718397650229045,3.1940549538461647,1.885556650458406,0.9550411481772735,0.4335647156779664,0.16044924461616214
0.0,64.0,64.0,0.0,120.0,0.0,0.5599067588190905,-0.8275263883406565,-0.752644316330173,-107.081549486065,0.0,-44.97491478819086,-0.3744335951894343,0.5096839638965298,-0.062909850569558,34.278640887730695,17.554526791089916,10.420331407145712,9.745899511610942,9.206915842793771,8.709341804228108,8.06557096812116,7.266715317960477,6.2619256552353555,5.086011709612433,3.7756077141936246,2.5434412080219024,1.4390741337574526,0.6381114210743365,0.2779094378073579,0.09162490057466598,0.01296584260760777,11.160093602270258,10.769778744540735,10.46105191879513,10.12434140742817,9.702296401129013,9.162112057173692,8.388166164473255,7.428139665908913,6.144081738113754,4.663310168617168,3.165241381573063,1.856983601034856,0.9057835579864841,0.3932425553257297,0.15248917871346784
0.0,65.0,65.0,0.0,120.0,0.0,-0.7598170629403884,-0.6268267856025647,-0.6549182903636883,-106.94634151619577,0.0,-45.033091959371106,0.3957037720613022,-0.34274647255191537,-0.17902560913767296,34.278640887730695,17.554526791089916,10.408758988465697,9.680693402718946,9.186954946652794,8.687750941788208,8.066856245162557,7.3203782670037105,6.272818265692454,5.056673041737878,3.7221249441209707,2.473228960654426,1.373427839544471,0.6519588108845361,0.24775033313559514,0.07332291126131799,0.006357134074610662,11.22692484226881,10.742197693403075,10.473112480034212,10.129830258653918,9.697619532506115,9.185202830716866,8.424430489678302,7.365559387019061,6.115963308879391,4.628680409701547,3.120251943585692,1.8208956690696525,0.9191976062436249,0.3984317880979178,0.12169457269547959
0.0,66.0,66.0,0.0,120.0,0.0,0.9847411623339732,-0.24691938055062046,0.33239686775296184,-107.00408442454963,0.0,-45.0600298891473,-0.16496827194338143,-0.47555296652552936,0.7220438735149168,34.278640887730695,17.554526791089916,10.442815268862748,9.673274672327274,9.24385829742332,8.69170312715677,8.073100608928257,7.301405918308223,6.277809190785227,5.081419039964711,3.728081754973771,2.4511765596818935,1.3826551309699344,0.6239235992667015,0.2581886985581968,0.11682366159722955,0.05806931977215807,11.228020734127078,10.78351361825347,10.460817858429383,10.120205515194415,9.709147690545429,9.148370183430455,8.39186289919297,7.364563192245338,6.072171680164007,4.591219173655488,3.0539676317064055,1.783443074360574,0.8892159808777197,0.4048187419743384,0.14907157957921485
0.0,67.0,67.0,0.0,120.0,0.0,-0.7624760134081667,0.05020919358461895,-0.11170383668035933,-106.94928418280688,0.0,-44.95239521434145,-0.7193952698197401,-0.2832288632097393,0.5961060217662648,34.278640887730695,17.554526791089916,10.437691864326235,9.692638383070769,9.258600483899896,8.65801018163226,8.068850236865337,7.2694974458769925,6.264133485618104,5.008882096071087,3.653407658502957,2.404937942931452,1.3468718046185886,0.6113128327650904,0.24244049487431915,0.08731533505739186,0.032596321946763804,11.218995292813888,10.799556224083858,10.476812240570927,10.145535592226247,9.694398824684713,9.168119649486597,8.371076584784673,7.307202961959387,6.048412412192773,4.525901051215115,3.0247203128235447,1.7318160215226652,0.8868078579150609,0.36846321139430405,0.12094949388010988
0.0,68.0,68.0,0.0,120.0,0.0,0.9876509203793116,0.2590093985101658,-0.08014602787260028,-107.05016308320691,0.0,-44.93207556056744,-0.8983198922125556,-0.6031333831898382,0.004147341887986711,34.278640887730695,17.554526791089916,10.445926855174672,9.69669698908433,9.229351199698861,8.706340031812248,8.044920479306366,7.290580407400909,6.25004954425191,4.974110138448027,3.709577928441504,2.3350200850300906,1.2742572009191826,0.6087279001077126,0.2509937281707152,0.07143762703333977,0.02826162441313866,11.22633248528343,10.760929212885356,10.505002585701051,10.155536815068999,9.73761587929367,9.143883358341238,8.353732728330233,7.328046412950445,6.0172165198219805,4.484435559215157,2.9735463535379734,1.7070911692637074,0.8492230175656078,0.3772435280715673,0.13795845999035972
0.0,69.0,69.0,0.0,120.0,0.0,-0.7557185036770642,0.9343252567593969,-0.3385878072511923,-107.01467785782302,0.0,-44.84718021842171,0.5494737045906275,0.6336704162182327,0.2184537680007228,34.278640887730695,17.554526791089916,10.447907322437182,9.712836695853207,9.26601028103642,8.722959455174086,8.035244848114576,7.23304906583164,6.202555713447119,4.957861289256129,3.579130805710955,2.3199466561958855,1.282507202258189,0.5858372506277381,0.23074026548288468,0.05739238248255813,0.023086356913476,11.198660253846706,10.76234467842312,10.494633932490968,10.152937761307108,9.726330407592556,9.160413611232848,8.348004910202315,7.308906610494301,5.9468118568397905,4.428842434964858,2.9434585394301473,1.685552550378145,0.8181758054884694,0.36483477669592795,0.09897594256788352
0.0,70.0,70.0,0.0,120.0,0.0,0.20577138733795963,-0.788896271741923,-0.3079460555435751,-107.01232657373157,0.0,-44.968688950533675,-0.7413682189171003,0.17705629946647372,-0.43163212054917177,34.278640887730695,17.554526791089916,10.457992513896473,9.721062854025064,9.194261285855575,8.74339682601385,8.070733032965967,7.231997757907647,6.173906149848799,4.92622587238562,3.582434355835505,2.2633181160441067,1.2706734977674992,0.5158199882468222,0.1928693069516893,0.03384637170706949,0.05008089398271476,11.237031699838239,10.785596369726802,10.494241691218132,10.155711255581496,9.740205965364348,9.177252330490802,8.344182005253202,7.270855562859305,5.895609129746601,4.377393268787078,2.8907415928014824,1.6417889104917875,0.7852491070432732,0.3636917701008697,0.1260519074618887
0.0,71.0,71.0,0.0,120.0,0.0,0.5572191311841765,-0.7855195062340627,-0.10468468489018523,-107.01082057399101,0.0,-44.96286838976772,0.07655709236330215,-0.4406792630285896,-0.49742578551280703,34.278640887730695,17.554526791089916,10.464650661976416,9.706713204602998,9.194587536249603,8.702342681888496,8.033194393884424,7.20228200620674,6.120780306240054,4.9012787483460105,3.5024387954547627,2.2307083332542144,1.2073309352499317,0.521329846408314,0.17296678657469128,0.09756278626134315,0.028067553235534927,11.232680207980781,10.788974379012243,10.493395777805716,10.18654900691371,9.7033812239101,9.114561679263788,8.346517226355726,7.2488138147089085,5.861181864201088,4.3313935494120805,2.845122406029867,1.5921942840471799,0.7544238285745051,0.34262563922752376,0.11175135932551282
0.0,72.0,72.0,0.0,120.0,0.0,0.712948564829792,-0.9959833598137557,0.7366786179892115,-107.06101947409726,0.0,-44.86519853833886,0.5919040081492274,0.9993018392176931,-0.5849948608206255,34.278640887730695,17.554526791089916,10.477770121700672,9.682520487120051,9.269372316664823,8.680340445596373,8.098837531825618,7.216502390903312,6.158951168991534,4.842771596792393,3.4831594187992794,2.2036118962876676,1.1973662425033451,0.5265790786314059,0.20221998673673358,0.052696865667220746,0.017338252626531676,11.237105269654995,10.796714574472345,10.516785493361963,10.165850062775057,9.706593933223791,9.140670319355255,8.30927128105658,7.198767986454467,5.80770774961234,4.2559544102777,2.7526481491809442,1.550737972651224,0.7364244979377731,0.31208031648942525,0.12121708325105056
0.0,73.0,73.0,0.0,120.0,0.0,-0.011876903153634988,-0.44311071793867596,-0.697320070697449,-107.02766110939308,0.0,-45.017902090917346,0.7368757286707243,0.8384049711135151,0.029257402636651664,34.278640887730695,17.554526791089916,10.446677703182262,9.649660408309202,9.268621685964652,8.748569260499226,8.044195427330957,7.236198118231732,6.111879910809032,4.8074004919732625,3.4258512698690886,2.1682553027290608,1.1624854052480509,0.5386994772345735,0.19614817880889693,0.054315640296282316,0.046316033798433145,11.2369891712747,10.793760478198337,10.476977883120206,10.159222830557935,9.691767222572182,9.126897300664343,8.254552072654255,7.137761029658255,5.772679452336495,4.185201771438709,2.710431907023465,1.4921303330377496,0.7078541815360188,0.27918222606747095,0.12596045189562677
0.0,74.0,74.0,0.0,120.0,0.0,-0.15782494566356764,0.6037340616674922,0.059145341559712516,-106.98827469539799,0.0,-45.045021762100376,0.758959080889165,0.3831512966904811,0.8309350550899994,34.278640887730695,17.554526791089916,10.452998755853892,9.73090608089838,9.28783625325584,8.68524464559207,8.031267647116147,7.206855288236924,6.0698034887169605,4.732387318402654,3.4082489856176403,2.0866530925760127,1.137436871261683,0.5064970868728942,0.18535627917729078,0.0504445247618251,0.011939631085000109,11.24031924570462,10.788559843334369,10.50943061437375,10.141078158500319,9.699078135169744,9.106170908860829,8.26405291065877,7.104854664344509,5.717204581847549,4.158597166360671,2.674475601402914,1.4805552223302951,0.6955747289364503,0.29454312504376473,0.09770870339990764
