Line_number,Fiducial,Easting,Northing,Height,Elevation,tx_pitch,tx_roll,tx_yaw,txrx_dx,txrx_dy,txrx_dz,rx_pitch,rx_roll,rx_yaw,PX,PZ,S0X_time_1.086e-05,S0X_time_3.256e-05,S0X_time_5.426e-05,S0X_time_8.680e-05,S0X_time_1.411e-04,S0X_time_2.279e-04,S0X_time_3.689e-04,S0X_time_5.860e-04,S0X_time_9.115e-04,S0X_time_1.411e-03,S0X_time_2.192e-03,S0X_time_3.418e-03,S0X_time_5.339e-03,S0X_time_8.301e-03,S0X_time_1.338e-02,S0Z_time_1.086e-05,S0Z_time_3.256e-05,S0Z_time_5.426e-05,S0Z_time_8.680e-05,S0Z_time_1.411e-04,S0Z_time_2.279e-04,S0Z_time_3.689e-04,S0Z_time_5.860e-04,S0Z_time_9.115e-04,S0Z_time_1.411e-03,S0Z_time_2.192e-03,S0Z_time_3.418e-03,S0Z_time_5.339e-03,S0Z_time_8.301e-03,S0Z_time_1.338e-02
0.0,0.0,0.0,0.0,120.0,0.0,-0.8787458182095644,0.7752499445854433,0.9768428659952137,-107.03548770547997,0.0,-45.01150451496339,0.15563000348921546,-0.8878801238584935,0.6503646457522634,34.28551186217887,17.546392865702316,4.487913437208456,2.560004365839868,2.090625486276975,1.8059286011012492,1.5532087992669459,1.3343412412153093,1.2146661939375807,1.061394058728131,0.9216596560228538,0.7824208723093172,0.644301899811621,0.46846285149054573,0.3366872262223899,0.24048701244001228,0.16243664854294995,6.500012859173518,4.483121464304892,3.873825478534172,3.4183649091860233,3.094969452500111,2.817112755671602,2.575627550132258,2.3652930797665612,2.093991691453486,1.8340808816491554,1.598647252403397,1.299479851690153,1.0453340941327098,0.7865639128835894,0.5252637178982752
0.0,1.0,1.0,0.0,120.0,0.0,-0.5416309841118632,0.7496899894348361,0.2653551169128603,-107.09447377019634,0.0,-45.011378819435066,0.41931222706121746,-0.2021514849054955,0.8594471047676364,34.28551186217887,17.546392865702316,4.452693105769342,2.5777659742920873,2.092069302450629,1.7810458975322918,1.5334373119166802,1.3501170684387087,1.179385501674503,1.0009230294904115,0.8821250632694307,0.7240413801393479,0.5878863528753442,0.45080650621951607,0.33510241686242204,0.2362855164959378,0.18780284594133842,6.510273474722025,4.527903849140349,3.8779788215238757,3.4319604152622576,3.0270929767335186,2.7365427290116737,2.474902229972527,2.262190973269187,2.0073159012270336,1.7706792035114762,1.5206696442177747,1.2591238362468509,1.0009895991844406,0.7484094127758066,0.5147642654618515
0.0,2.0,2.0,0.0,120.0,0.0,-4.327337250087382e-06,-0.08857736096206081,-0.4427940688509122,-106.8792268542085,0.0,-45.02211219879949,-0.2803766522058463,-0.29715721611979684,0.046307451507526354,34.28551186217887,17.546392865702316,4.402598417964679,2.5612142289975885,2.0937756925539777,1.7522502736940715,1.4638425795471075,1.2820903366448113,1.1033562280547011,0.9645767392092032,0.8176300916308498,0.7350522965229964,0.5615969628979207,0.38942288436304007,0.3046602662166908,0.19430944060652441,0.11014733563936317,6.528811152249964,4.563665688143115,3.885184370482805,3.4225381834460564,2.9939111097700204,2.642204556004151,2.4256251391795334,2.15780367758686,1.9560762395076163,1.7286606105681723,1.4595024126269072,1.1920292951013083,0.9185234614230833,0.7408038471022966,0.5503082469014766
0.0,3.0,3.0,0.0,120.0,0.0,0.16886566142732273,0.5792002796500884,0.9718044063529192,-106.96984862287363,0.0,-44.99350430588841,-0.10093964868009254,0.4676799618784213,0.49548369923082713,34.28551186217887,17.546392865702316,4.45039592253872,2.6073255067948753,2.115785750652119,1.76037803780118,1.4990904248733963,1.2393142004896283,1.062631957411012,0.9235375028254784,0.7948541300541809,0.631856204773287,0.5356924148886935,0.45314977291516967,0.32278331560119466,0.20085685269119988,0.13784937724675744,6.556718469781472,4.557207090382452,3.971207586614572,3.4515066005640267,2.998196275763899,2.612796611990036,2.31527320254098,2.1148304783755822,1.8691059859358854,1.6351572860395733,1.4166850987059305,1.1558488797202287,0.937143456343087,0.7114789200617613,0.49487715906709795
0.0,4.0,4.0,0.0,120.0,0.0,-0.04372408098521263,-0.2792846715041504,-0.4416666382064769,-107.08223644056153,0.0,-45.028061283087396,0.7835644608769257,-0.8735903575661681,0.03892807554856703,34.28551186217887,17.546392865702316,4.473394586800074,2.5818676714164517,2.150686774594763,1.7729510704507558,1.4590205060133326,1.2342189682883513,1.0227452973424391,0.8648740959320014,0.7743272295836172,0.6317879410433986,0.5380596512685817,0.382228610594729,0.28641040220986563,0.18331815699464787,0.10145340633167133,6.552816406372136,4.567983349847833,3.9487901490709283,3.4705782694329734,2.9780230720274514,2.595499161158583,2.2752001304298872,2.0606745501942654,1.7977245254138983,1.5676987459356977,1.3499530746940585,1.1266795153726143,0.8829125911741205,0.6776370799428633,0.4709618960033544
0.0,5.0,5.0,0.0,120.0,0.0,-0.272214451356094,0.7211975872661847,0.4393032237963992,-107.12272594141648,0.0,-44.92779585095529,-0.3220488743229089,-0.2418911075521779,0.07890022762291116,34.28551186217887,17.546392865702316,4.455546275468534,2.6381463014721493,2.1777794699596154,1.8055236481302317,1.4800355386562913,1.1868813617963396,1.0017156716960274,0.849126831430727,0.7176872896166824,0.5513242276040107,0.48499927388946756,0.3984590713954922,0.26297379220021866,0.2329264870978149,0.1410733298228126,6.589439517437893,4.6319733387384865,3.956018180450159,3.5082780300726983,3.006444448757774,2.5938980385008286,2.25037060721079,1.9645533178703174,1.7353123321981543,1.518073670899195,1.3133036505544147,1.0721119516257933,0.852321290570998,0.6555581491532845,0.48047590758034103
0.0,6.0,6.0,0.0,120.0,0.0,0.6069949427446424,0.8128899284467421,-0.47333437093808506,-106.96668323850977,0.0,-44.91434999111061,-0.6112932682122904,-0.31513295437070665,0.9030019288140723,34.28551186217887,17.546392865702316,4.463610392707963,2.6704868071157053,2.159466114334499,1.840816945097389,1.4422826376416729,1.1715180846857185,0.962319211313343,0.7865500678887211,0.6701055732828867,0.5790244269371911,0.45581205055446944,0.3501694037080012,0.2588598560242922,0.19112231274764485,0.10203355970526234,6.605676766986371,4.599588155802955,4.018246316721511,3.517413149445666,3.0113290934370727,2.5434275269995834,2.2067422347725683,1.8948375709732141,1.7021334152365641,1.4795989607012652,1.2579590615042928,1.0304154844053728,0.8276434186432692,0.6097738241344205,0.47137411095432313
0.0,7.0,7.0,0.0,120.0,0.0,0.38953122542777896,0.07659984993577984,0.5486128958530418,-107.00683270106121,0.0,-45.12014913205165,-0.04375049403068769,0.29364304986869283,0.47671396728419557,34.28551186217887,17.546392865702316,4.4918294996958625,2.6758699478623904,2.168118729633717,1.814116893297363,1.4842253858985641,1.1734711918067953,0.9608117115086401,0.7857147293619212,0.6625780615970875,0.5504135677558012,0.4733286100167882,0.33573233917444506,0.24263144378896526,0.1800701482079812,0.1142380573321542,6.587515207299246,4.6693783611972135,4.052160762314692,3.53889744065197,3.06826361420416,2.553100117017756,2.1768089381773974,1.8604797293473256,1.6348419960974034,1.4272832750701576,1.2510958717812248,1.0160994575616513,0.8141875046375524,0.6036684002586755,0.45285915571134067
0.0,8.0,8.0,0.0,120.0,0.0,0.8908403017184647,-0.04761554788995692,0.28796824877151117,-107.01769896371589,0.0,-45.08055379491837,0.2553169188894365,0.7758415420865632,0.13355561369498536,34.28551186217887,17.546392865702316,4.472588981208323,2.6671641574231435,2.221329209683771,1.8325009023306944,1.5135106383592605,1.1930605879796687,0.924047662558885,0.7521796738045867,0.6244031879310463,0.5297786974398863,0.43376901136987406,0.32507020913239587,0.22100532928721184,0.17795605336810255,0.1144911793131513,6.59372154413074,4.680084182731037,4.061468195232365,3.583428217348617,3.0582353972243084,2.567945362549226,2.1572800428498637,1.8658402524818045,1.5964277554786144,1.3956818377906373,1.1994865185543673,0.9800747351512012,0.7989957819083973,0.624418122372825,0.43736422008175835
0.0,9.0,9.0,0.0,120.0,0.0,-0.9445288673811609,0.06539814919602738,0.145413725155511,-106.91039100966191,0.0,-45.06367397084246,-0.6179795052451501,-0.7140204197446776,-0.21452947113572018,34.28551186217887,17.546392865702316,4.566959577028108,2.6611304491470276,2.212909535919382,1.8335603066956203,1.5169628520970433,1.172416390557311,0.8913111265972294,0.7448196220548047,0.59723135089795,0.5550967114549102,0.39470980311128934,0.33854787062438046,0.21399987215089752,0.17700193720080198,0.09754445760699094,6.596469466544396,4.673739053745535,4.097990797295075,3.616654863772588,3.078857602567882,2.551782826926213,2.153033175608773,1.805044482815125,1.5646585822282097,1.3509087708634717,1.182967381285111,0.9526596804384292,0.7496116804786525,0.6039654803581025,0.3934771907348018
0.0,10.0,10.0,0.0,120.0,0.0,0.4881588992462158,-0.5237555639123019,-0.08221025147256955,-107.03553857752185,0.0,-44.958648979323314,-0.7484287011236334,0.6325075027996472,-0.6713447227711775,34.28551186217887,17.546392865702316,4.5165974831879705,2.708327891767451,2.275122167046513,1.8755089600819586,1.4885926112166326,1.172937559077392,0.8702755264483939,0.7475607931408016,0.5760344807283055,0.493564691446809,0.37451008523947066,0.3114935569837139,0.22342765431261014,0.19925933907081803,0.07261252338804305,6.624274037599249,4.723868610036892,4.111079512951278,3.62655703860386,3.114841948429044,2.574281123886689,2.122937476221682,1.777007216229597,1.5224875528133275,1.29674196498316,1.073835552287131,0.9134923758352544,0.7683637043666349,0.5572857053999704,0.3985070382653657
0.0,11.0,11.0,0.0,120.0,0.0,-0.8772482628588609,-0.8162826386834643,-0.5143134803080591,-107.05311540393832,0.0,-45.0557524081822,-0.4548202190902707,0.21944680550253248,-0.7685392508491657,34.28551186217887,17.546392865702316,4.521934899957823,2.7342916572487823,2.250563350108995,1.8902646233881442,1.5138112538055517,1.1833653428411892,0.901012876357719,0.6701829805261903,0.5751311095435087,0.45511866900328657,0.3578374781676088,0.311272205848816,0.21540265079497292,0.14580556888083832,0.09396016860552894,6.652850137084972,4.7604064278160605,4.169106004366191,3.627145238309688,3.1430718329421143,2.598859038313462,2.1280544623973787,1.7680478926944083,1.5000747216553159,1.2469868850718107,1.090553839221574,0.895496077744817,0.7308049478020764,0.5314958773196297,0.3883718387252256
0.0,12.0,12.0,0.0,120.0,0.0,-0.41804112477887645,-0.22616001684565257,0.2188544769424483,-106.95472209395182,0.0,-44.9655069130046,0.8965177285301867,-0.9415146119720474,-0.40066770892675607,34.28551186217887,17.546392865702316,4.530453914639852,2.7322550512479995,2.275056701414588,1.9369324403717652,1.5777537530055163,1.1785043389341259,0.9084827324970101,0.68318725666785,0.5621682075132529,0.4527482246334233,0.32992989222181823,0.3042925170139254,0.18949827240919875,0.12050643363961003,0.12068032219843006,6.651162225621766,4.796413521845411,4.194809706947561,3.6676035199012844,3.125087085978024,2.64373772445365,2.1309895632787095,1.7509204295795047,1.4462942281217814,1.2514149148625733,1.0687678250221988,0.8608349127043522,0.6904007646984124,0.5401318117467336,0.39162672054086217
0.0,13.0,13.0,0.0,120.0,0.0,0.834203935333687,0.5681492518289428,0.7486950982345693,-106.96213135325148,0.0,-44.91429187698432,0.4064953814919423,0.5337773583324872,0.38560869039464896,34.28551186217887,17.546392865702316,4.472106045841403,2.7490096778613204,2.3075636403255926,1.9291869358398661,1.5490054557179542,1.1842530170922303,0.8448301738635097,0.6715882569168435,0.5310272900774594,0.40617841173265357,0.34853801769082904,0.27150751391170697,0.18783828281369427,0.13931076407546178,0.10988851966218051,6.674294769721658,4.793467384478852,4.238721837273626,3.727672327617063,3.161494927375902,2.62408018168408,2.115310878527202,1.7240843654928357,1.4321719336398253,1.2099421374786792,1.0237224464342276,0.8198109480800955,0.6657134887481231,0.4957008235023689,0.39412806083286955
0.0,14.0,14.0,0.0,120.0,0.0,0.5507105928526308,0.3635035370034585,-0.9373891718982521,-107.08064115505579,0.0,-44.9518196600435,-0.5911275805754274,0.07537606606785174,-0.6168947624685808,34.28551186217887,17.546392865702316,4.562503272817722,2.8116595959599118,2.311045987508302,1.9462706156329799,1.5651063516710981,1.2315668091266132,0.8482979945388215,0.6762508743117008,0.5054633070568999,0.40249620483467596,0.3407751446784878,0.2644221795035275,0.17363792812721757,0.14738786167273873,0.09777032030364173,6.709476477883403,4.837843208502069,4.2539908222757745,3.7130351723379293,3.191379693938196,2.6393134009896326,2.131363490648717,1.7312583540688002,1.3731271057076273,1.167440500774128,0.9840123918494804,0.8067162838456305,0.674727180089472,0.5254252214161426,0.3867885106168098
0.0,15.0,15.0,0.0,120.0,0.0,0.32403832499445717,0.6817454469266615,0.4653394776572206,-106.95066043084583,0.0,-45.06530114086496,0.24786102302226068,0.5998576491602494,-0.7370757268185877,34.28551186217887,17.546392865702316,4.540382631796405,2.803707749693018,2.34928553444305,1.9584244721945874,1.5528766083163341,1.2247381316738872,0.8466033808146314,0.6769381710737403,0.5363440350477606,0.40329011747107907,0.3332327762312914,0.24479882247793944,0.16235593404392215,0.15947120902526468,0.06818515052814025,6.731365381453226,4.853665637636667,4.270167400598059,3.76294986951522,3.228985225820535,2.665099303955762,2.136726761629071,1.7177804882094625,1.3576492540044802,1.1352108902364186,0.9447694826633662,0.7892173428002823,0.6367233801847377,0.492055775853156,0.36676310113089844
0.0,16.0,16.0,0.0,120.0,0.0,-0.20060705679465896,-0.09706347042668528,0.7598450703205397,-106.87744289098035,0.0,-45.07499402895462,0.3698888634739996,-0.1822639342611072,-0.8444852460537202,34.28551186217887,17.546392865702316,4.576502330349887,2.8418217338035485,2.352667364359239,1.9765725009219963,1.5652480260881185,1.2467664253390418,0.8984248796129648,0.599136294851716,0.4824811924601193,0.364213646263415,0.32372457755055845,0.22353604173051425,0.16278963303172742,0.11631602130065229,0.047168717833546286,6.682370160370154,4.893397894679305,4.284014505699471,3.807667023995508,3.2305966765261727,2.6950640744974326,2.1479903614476723,1.679505750159896,1.3644039201932467,1.1114323602816167,0.9327259389386239,0.7749495167854143,0.604874503638183,0.5176282765749485,0.344800913390086
0.0,17.0,17.0,0.0,120.0,0.0,-0.9003449024142147,-0.751456039307943,0.23377556050629833,-107.020971238059,0.0,-45.16675383428537,0.0750056919830611,0.3310055875761031,0.6924987600803196,34.28551186217887,17.546392865702316,4.580663071296609,2.841329712042245,2.3767896905683736,1.9917692223375967,1.582056005513023,1.2280060184594124,0.899783474032051,0.6508071710916967,0.47277584899647995,0.37080515083962295,0.26559131625997145,0.2208614775067538,0.15785361558087818,0.12309682472440599,0.08841245281187156,6.719359501776554,4.938737151855841,4.302755844079664,3.8344110968751175,3.2784255996048044,2.7144970951989706,2.137253998598336,1.7032640351732444,1.3430593440900296,1.1024883784261459,0.8881696391785034,0.7388337750172891,0.5992050382394141,0.4888244089545364,0.3382861130875685
0.0,18.0,18.0,0.0,120.0,0.0,-0.4794943904877076,0.045250466284876945,-0.4831387351832426,-107.03797576158361,0.0,-44.96937424530998,0.5268808204292069,-0.6023915892289229,-0.5176203564790582,34.28551186217887,17.546392865702316,4.527910545828806,2.867983959256292,2.42577066871231,1.998071769682384,1.5949313344710732,1.2460295180950085,0.875130173218923,0.6489238253094367,0.4699620892288747,0.35564974714263964,0.27759464338052686,0.204402655805848,0.15316377633116293,0.10249869175750934,0.08349327980628238,6.732650956218931,4.928247048058352,4.3599391369944085,3.8495480203450754,3.3220646382541283,2.7487606397422115,2.1794678442338062,1.6828562707373818,1.3414435573407864,1.0618236585180947,0.8965910018308212,0.7227006969721421,0.6021947375567784,0.4404845476471835,0.3351658357688801
0.0,19.0,19.0,0.0,120.0,0.0,-0.03826236530149485,-0.9210199804304737,-0.29704988111603603,-107.04545261756486,0.0,-45.078439935956055,-1.061026896461832,-0.6163108505040225,-0.5982990718280936,34.28551186217887,17.546392865702316,4.583823033816175,2.86712737456832,2.442262960419309,2.081642075436254,1.6464265650242418,1.232516131356906,0.8878363818670063,0.6391219498808239,0.4635591615183548,0.34201291977641685,0.24466642321809368,0.22105752765265327,0.14771134498581845,0.11998043862447114,0.1261158040297515,6.712507300429393,4.96065692397662,4.379956868559934,3.8684690043437246,3.3175769573818217,2.759126136449956,2.1772084199436135,1.7025352117955923,1.3214820531026135,1.0457255169590436,0.8611880242543978,0.6811452536760294,0.5307210022517476,0.44730528848733836,0.32061478800834387
0.0,20.0,20.0,0.0,120.0,0.0,-0.15444321421133345,-0.13826316385780135,0.49760964181058376,-106.94678695805173,0.0,-44.99735035219949,-0.6379768337061058,-0.3194751837487697,-0.21829226421485637,34.28551186217887,17.546392865702316,4.5922398125141415,2.916514468814838,2.4603983580729185,2.0524809101859947,1.652558948845827,1.2598735520153723,0.945475660714916,0.6289838939585369,0.4534325120567843,0.31549465562318785,0.27076538410918527,0.19168968846801732,0.16029694583210707,0.11567754258771208,0.11518298449172318,6.740775390676472,4.989372220579433,4.404281223698371,3.9160531658455455,3.338283431850258,2.756373086326857,2.1847080616408303,1.709034838029405,1.341943814482929,1.0442005749107297,0.8588175131490721,0.6890136237882494,0.5428550063605738,0.45080875772657975,0.28761281492114205
0.0,21.0,21.0,0.0,120.0,0.0,-0.08373497799399954,-0.5971662780994218,-0.2663552712046029,-106.94447396373845,0.0,-44.98557573833348,0.9294363305598351,0.03888101265542954,0.2589724009714549,34.28551186217887,17.546392865702316,4.584172786118184,2.923119493145113,2.4289462359775174,2.0608302311599282,1.6717168833299774,1.2672034009821207,0.9173084675915664,0.639523824818046,0.4441511426403272,0.3332136145903715,0.24658288936309564,0.19135066840873882,0.2007836093118044,0.08908823536784917,0.0753827812824355,6.7707563543836855,5.045820233904479,4.41824605999804,3.9201435641649844,3.3549922822314127,2.800453163169956,2.2408042081778596,1.7044805343180636,1.3156128508752771,1.0451991942470473,0.8293286172458312,0.6737121226500968,0.5277774385739711,0.4439347982773401,0.3057404811847457
0.0,22.0,22.0,0.0,120.0,0.0,-0.9393781413438778,0.6884958337322649,-0.9838536878121669,-107.06945770696323,0.0,-45.08186090044127,-0.04098017371626958,0.43305358115865444,0.17251951446960567,34.28551186217887,17.546392865702316,4.598581523852151,2.932557053202515,2.4900654405056173,2.09597087802853,1.6614393649397892,1.2813929932330006,0.9417900612346293,0.654353532472191,0.4713445262415876,0.35181974955752626,0.2343691871834588,0.18432782913538134,0.14053520214863788,0.09222658476870028,0.02199069824898882,6.767534228557823,5.026327143856092,4.465110460399532,3.9537668374744066,3.394304633454613,2.8212843449492246,2.2277365474888318,1.7021019676395275,1.328647491641449,0.9992336375400832,0.8417822619348215,0.6608548174582695,0.5272574456051872,0.41696187202928964,0.29782721665033096
0.0,23.0,23.0,0.0,120.0,0.0,0.2661482104585702,-0.7421481882642991,-0.7889634107155257,-106.92888472718428,0.0,-44.9410379539903,-0.8692357751182759,0.33360964554465533,0.8473156137600903,34.28551186217887,17.546392865702316,4.630240375889067,2.956039589001573,2.47008884289888,2.097276001797233,1.7372189195248438,1.268261196900526,0.9336452812965053,0.6809957254284085,0.4426441252706828,0.3513919912314814,0.26305627275672633,0.18300715317035268,0.1331385170916019,0.11837183527167426,0.05016610485659685,6.806059247217853,5.088008134618234,4.508307248394262,3.988716102862341,3.3979456389438485,2.84782474314341,2.256763246939232,1.7175062930796663,1.3140782961214763,0.9898925157558687,0.795267941777045,0.6393577930264592,0.5202694091486617,0.41659231244327055,0.2769851581399823
0.0,24.0,24.0,0.0,120.0,0.0,-0.09806883616637396,-0.05072515457669713,-0.429319259764412,-106.92027817003684,0.0,-45.06474791661731,-0.33979642400526555,0.6426891263367034,0.3639442607630945,34.28551186217887,17.546392865702316,4.593174842228752,2.9342808732852053,2.525801146199548,2.08986178402591,1.6809307674069154,1.3016011620971226,0.9457672579525103,0.6708545889943853,0.406584278199864,0.31401772690585805,0.2085584289288245,0.21175868167959647,0.14307436601457701,0.1029256349798641,0.10901729636975968,6.803402118496937,5.106058495293158,4.492904777214686,4.0021945574793,3.4719848976124017,2.8653807238816347,2.262803597806446,1.7288288063059452,1.2936549496549468,1.0092049622760744,0.7967313387761578,0.6284482322183573,0.4879656827473808,0.3947591785082763,0.2804256954427763
0.0,25.0,25.0,0.0,120.0,0.0,-0.9664225649208675,-0.22972462481156652,-0.21366039362123002,-106.98158753676454,0.0,-45.03713474756118,-1.0276241576264749,-0.14720616843384104,0.12394310019518939,34.28551186217887,17.546392865702316,4.660198598961984,2.990401072802339,2.5079903053748773,2.109905857967425,1.715034368633131,1.2871670525689283,0.967433756926987,0.6546785196392279,0.45260460888237086,0.3110627693465533,0.27508847579253176,0.16762991712552966,0.1451558993935138,0.14321241112404945,0.0709575306772508,6.849368615491781,5.11949448797916,4.556325876217,4.015792467376611,3.4427456666125984,2.863100898396082,2.2902961573300726,1.7584643240564917,1.302600989701703,0.975439946160744,0.743940574337198,0.6439563666478197,0.48932069915273285,0.35053416859395187,0.2835584921343639
0.0,26.0,26.0,0.0,120.0,0.0,0.8784266838397707,0.6907701893987679,-0.2713505538564387,-107.13660497040382,0.0,-45.073892231776554,0.05281773395433487,0.8250585088916695,0.4231963344498644,34.28551186217887,17.546392865702316,4.638736241047948,2.9898142759911552,2.5719597531210483,2.128911533701737,1.7215772088808277,1.3179186271148478,0.9620056927253635,0.6857448756971785,0.46345994040515315,0.30067844620100187,0.2553887329159435,0.19775752458032053,0.09322544110595082,0.06647961846475711,0.04763229477962011,6.8566790524204135,5.141413790327411,4.562033442393103,4.050555899499996,3.4799422780056597,2.895767971139025,2.2909257853888607,1.7535130282376359,1.3185097949958744,1.0106523791186148,0.7789907053581914,0.6132811039143082,0.4815177048672337,0.33463299044395006,0.3030640475512468
0.0,27.0,27.0,0.0,120.0,0.0,-0.6045991537946425,0.12324940613628255,0.6128554422844701,-106.95047640918781,0.0,-44.99693502213812,0.9598422201098887,-0.7816645517995493,0.32744697618023944,34.28551186217887,17.546392865702316,4.677575814968966,3.032706087301331,2.552553405557241,2.1599780839069935,1.735630938072477,1.3200117814423704,1.0001332718196523,0.6551691074910595,0.45653258424902377,0.2819615492804297,0.2125076137679983,0.18334048681215498,0.12038059870492447,0.07451672309941672,0.0181869340949428,6.838255456338963,5.16521272935974,4.6103930756909355,4.097962336630366,3.487806263311594,2.9306139819849455,2.308946556824658,1.794266111675122,1.3202586991877023,0.9942766166957803,0.772490855948893,0.5627930253216848,0.46733162297629854,0.3868389887886841,0.28223795600531637
0.0,28.0,28.0,0.0,120.0,0.0,-0.6608208108180431,-0.05009071100881202,-0.5568345276550106,-107.10156508892698,0.0,-45.04154022951937,0.1467250131731005,-0.6255933823911863,0.5349566384559239,34.28551186217887,17.546392865702316,4.71151821624129,3.0509949247204124,2.610174972522916,2.1887712981330867,1.7498047882448928,1.3240137749838157,0.9811431379367143,0.7139034249682614,0.4782889769871815,0.3145446739252021,0.203073220045987,0.12718720450484344,0.11159949933214706,0.06512068639639476,0.0493110534268229,6.875378597338468,5.217453068630635,4.6436463936716335,4.111730603488131,3.521849837995841,2.945111053759511,2.313911444886914,1.8055115847985386,1.3155334467595647,1.002693293117591,0.7312282072410938,0.6089276081699582,0.4508033958158563,0.35374622078998996,0.27592146570608134
0.0,29.0,29.0,0.0,120.0,0.0,0.5101880904115639,0.1923880858665057,-0.17937336873342402,-106.95376058013449,0.0,-44.85812132547157,0.2100276486959871,0.36743515057989695,0.1448526256966156,34.28551186217887,17.546392865702316,4.642765129338369,3.087993018513469,2.584917078659207,2.205318853557732,1.773521281685424,1.3610339483285734,1.0102054183134683,0.6812492556483747,0.4079211724683774,0.2867312425387269,0.1893664658717746,0.16570409149312382,0.10793401343527223,0.06799502733345685,0.03817118580633756,6.864277039437051,5.2313497606325345,4.6681572695703695,4.129780005679164,3.5465024463730113,2.958984841402667,2.3381818403299657,1.794223536118249,1.3589461589311926,0.996867902770208,0.7651058535854357,0.5548576177543549,0.48249708692303234,0.3399183267582147,0.2494883730646377
0.0,30.0,30.0,0.0,120.0,0.0,-0.3026736908841232,-0.5357177765478138,0.6284537882374592,-106.93660818077174,0.0,-45.0402246287495,-0.4212192930929851,-0.49245463987565263,0.6145815901097664,34.28551186217887,17.546392865702316,4.6906578404327615,3.1155645512231076,2.631290269615105,2.206618531055478,1.821103064486392,1.3417345225024961,0.9689123225351395,0.6876145761516564,0.4532689726114612,0.30183732116068485,0.25360111277050434,0.18250953891761165,0.12199946118797458,0.06294989967137893,0.05861266430245642,6.8540586858666375,5.237830106795402,4.693650940857313,4.1404105980032835,3.5671172279401397,2.981811721515009,2.328356111587014,1.8166062424935283,1.348852672128054,0.988450160263934,0.7497172451697622,0.5480296452989704,0.43197799805624787,0.3280240854677012,0.24427481944894852
0.0,31.0,31.0,0.0,120.0,0.0,0.2230967609355088,0.0427670818221082,0.586874561068724,-106.94011199373254,0.0,-44.9883516361281,-0.5453497908761457,-0.6708189075931588,0.8001146098706884,34.28551186217887,17.546392865702316,4.678760792748443,3.110852745638531,2.6049235770212618,2.2013504969688453,1.8083229790116946,1.3708091270746887,0.9894417480386292,0.6790893183076595,0.46380910343530657,0.27207470078556506,0.2211765550664364,0.10111544138529249,0.1264957109999209,0.08518939111996056,0.009262885525184145,6.89812337804887,5.285222139024477,4.69037187184472,4.180293589595465,3.576308064666685,3.0116684611139206,2.400056183167242,1.8256408776634871,1.3132769662089654,0.9791175456540525,0.7160741880771033,0.5364336475139706,0.4045700532311299,0.31967275232046627,0.24064139213539276
0.0,32.0,32.0,0.0,120.0,0.0,-0.9880677183620579,-0.29992492349705757,-0.5895493875327136,-107.16346068286,0.0,-45.0175196724138,-0.03849063141099545,0.7729874898657143,0.39295365882913313,34.28551186217887,17.546392865702316,4.704193615882545,3.1632176647233137,2.681869692827553,2.248143277652915,1.7836646796869533,1.3931962580579835,1.0214671953631242,0.7077378589278369,0.4794773025402055,0.2506452122076545,0.16951130394934433,0.1324740920744248,0.1185775498194099,0.09149654464133038,0.03732340167353717,6.945165102172943,5.2759502898048565,4.732116776335123,4.2183820459904435,3.616000663223825,3.0037482778433002,2.4241132089105637,1.836414313586364,1.3618093964451305,0.9984235275421784,0.7014766174495725,0.5405543168899862,0.4110300925908883,0.30722061512794796,0.2579753390578355
0.0,33.0,33.0,0.0,120.0,0.0,-0.13713221280701582,-0.7821641300119337,-0.2718539754702156,-107.04550817673459,0.0,-44.94458383737938,0.8482940326253647,-0.8631983070356775,-0.28476028391623576,34.28551186217887,17.546392865702316,4.730597475281032,3.17739667394459,2.6908538660858246,2.2920448310924764,1.7649028956455708,1.3938287214510485,0.98487727311378,0.7035413952737382,0.4874450257790729,0.28072987252458786,0.2284387385978025,0.14496304900917642,0.11560985986138811,0.08856528497570569,0.056997684501123524,6.908391402873205,5.321895512123146,4.764729920374661,4.226133118293993,3.6553385207699867,3.003142912575897,2.4271734504995477,1.849477522250019,1.362908979572405,0.9807346571472985,0.6763452872734259,0.5397014123302605,0.40918998587254385,0.3533238047039741,0.24775045764784306
0.0,34.0,34.0,0.0,120.0,0.0,-0.9503319767275042,0.5829971946270867,-0.6873737009142329,-106.95359384580063,0.0,-44.999755686205106,-0.9925939687867195,0.9829422148714242,-0.4400435287942839,34.28551186217887,17.546392865702316,4.735407667024405,3.1699144955355734,2.6907681282955362,2.259471187070856,1.8757499735171335,1.393426267780493,0.9913130335662084,0.7229882256453326,0.48277744101160597,0.29617876337300186,0.21403625171540855,0.1399559470313256,0.07035679776449982,0.11330467288342283,0.0017129097212638111,6.932383256183028,5.385127079648304,4.824826684976686,4.245143298629019,3.669730096684315,3.04272591645502,2.4608532881573324,1.8677662441006757,1.3694307369590701,0.9924279250716462,0.6819883121457423,0.5037766669572267,0.4048093797847428,0.32968082488597106,0.22875025682769556
0.0,35.0,35.0,0.0,120.0,0.0,-0.580876296031253,-0.2784091542778746,-0.8198000235952589,-107.00513399750727,0.0,-45.091360707710024,0.173524718538278,0.7251786227402139,0.2743713304238131,34.28551186217887,17.546392865702316,4.750874359146551,3.1941003197823825,2.769730891018888,2.316269636054133,1.877804337217115,1.4575900121087555,1.0262769444975615,0.7015244372508093,0.4250693592523061,0.28922417990024313,0.20649643888261246,0.15386802706399388,0.09976348373025759,0.06538103890705273,0.06651842458038049,6.959290605605696,5.379065030922131,4.819047073277933,4.2903482179476935,3.675950537019061,3.035279931871496,2.4659108346567256,1.8613929830338758,1.3965608616625176,0.9966766511217138,0.6994991533838125,0.5420015015579788,0.40318118540997416,0.29932698902951227,0.2510330435671338
0.0,36.0,36.0,0.0,120.0,0.0,-0.6105651722975367,-0.44217757893829535,0.10838637248941163,-107.09530636706027,0.0,-44.98757025421692,-0.1256771121190574,0.7365154947046055,0.26285827654892424,34.28551186217887,17.546392865702316,4.731403478484149,3.184398502089875,2.7449215800966917,2.3367862896035545,1.8733007347700603,1.4274127460459574,1.053916235055907,0.6979879212136728,0.4456079746765485,0.28722422759647503,0.17565786594565297,0.10762097842061062,0.08817170234650926,0.09168342786337019,0.03827479733357227,6.95143178490182,5.408583273151316,4.845995892043571,4.321150773100412,3.728641758873649,3.124921106258832,2.46196707698452,1.8964057735657007,1.388820650466517,0.97534327309887,0.6988741833539689,0.476790165922771,0.38049203196998915,0.2969108295805782,0.218806770413055
0.0,37.0,37.0,0.0,120.0,0.0,0.9418535184539629,-0.9988607651664587,-0.3610155152901702,-107.02738619071779,0.0,-44.97250156757191,0.1620729456305816,0.2574261250915495,-0.9521788722967417,34.28551186217887,17.546392865702316,4.752641693505538,3.274010661972831,2.7628142384660004,2.316286392082711,1.8785072464500492,1.4371307332701453,1.0665537589051797,0.7291154939606546,0.49646995985386866,0.2817081021073546,0.1783975594537913,0.12312717388368172,0.09702534454538067,0.09751317891193108,-0.006077664151192458,6.965423264845095,5.457044011977341,4.881377415287309,4.3092763722547405,3.7192773145460167,3.099498787049187,2.4785129517455737,1.8939287537219676,1.4094667735200541,1.015412496092965,0.7010721354386044,0.5033655481667918,0.37273371381647935,0.2819255587412691,0.21594512419256287
0.0,38.0,38.0,0.0,120.0,0.0,-0.39517382703017945,-0.9239910240370754,0.027378433052297924,-107.00033697867937,0.0,-45.079945956616584,0.677268581736131,-0.5502886403301119,0.4942187792555921,34.28551186217887,17.546392865702316,4.774682349883921,3.3141273251444545,2.828386930891356,2.3299317845871004,1.8494257829729441,1.4362406637631202,1.013188701250432,0.7436820969391588,0.49335356757781335,0.3167772679885221,0.2040508279816346,0.13804167824170308,0.1140390509548752,0.06591041661894312,0.05061350340769201,6.99296194922944,5.486102149491323,4.867689173265111,4.376866008599552,3.775314113732398,3.165238742644303,2.481704769898245,1.9167834859599924,1.406438491857856,0.9754864163023198,0.7138070720985368,0.5045667686275802,0.3839228257224511,0.25976484011628503,0.19800637143022745
0.0,39.0,39.0,0.0,120.0,0.0,0.6785027718519636,-0.4963110574429417,0.17581979715614016,-107.1070053038774,0.0,-45.065174609115516,0.0024555968760249375,0.5961831094544385,-0.5562510263444991,34.28551186217887,17.546392865702316,4.785449979940042,3.3008721483332457,2.771831961953326,2.3550910574805046,1.9050500696617438,1.4586436565788958,1.069199599786965,0.722963739690309,0.4515671408734952,0.29931287960332975,0.19493247962214488,0.11402713773468803,0.08798453358787098,0.12137166555547943,0.07487690794584226,7.0062015767753785,5.486134583222303,4.936989320447122,4.389336432707196,3.782525069864203,3.169790580594158,2.5200041710845755,1.93551257955609,1.4205091975905912,1.0424297807988518,0.6710964610022836,0.5156244636018853,0.3322521879067023,0.2942179559574403,0.19392686517419405
0.0,40.0,40.0,0.0,120.0,0.0,-0.15848683700947697,-0.3409394214821664,0.21238453521852074,-106.89340085609457,0.0,-45.040975444204975,-0.665312587969234,-0.8923988696513869,-0.8910196757191273,34.28551186217887,17.546392865702316,4.815979502671097,3.3765133358572164,2.8490233440290114,2.4104385158539294,1.9501760198865514,1.4777996189760556,1.0553536144535245,0.738811814351263,0.4920437425193026,0.3103544956196233,0.21857701130308627,0.1052603541042399,0.10301646272811438,0.03239790809896331,0.08358565356854805,7.031470558675373,5.513188928766506,4.958936768649306,4.406383268024555,3.7695651711684843,3.1588195372987466,2.5497445637429847,1.9203737681435311,1.4374626654279166,1.0185574384158291,0.7080710854126144,0.4925261870128878,0.34738985093740393,0.26021506073799183,0.2056963440622634
0.0,41.0,41.0,0.0,120.0,0.0,0.7242586607755146,0.3982552360561964,0.8815304133876778,-106.94930063357735,0.0,-44.98392786196871,-0.18754560398923428,0.16423068989569,-0.6936015848751778,34.28551186217887,17.546392865702316,4.856118791426144,3.379061937801492,2.8402205448069555,2.3803359326644498,1.9377771427433046,1.4984420218840129,1.0944145581533962,0.7377034546657639,0.4838765314220637,0.27543997772514744,0.2210275991650115,0.11647772851915668,0.10341920842494529,0.05339986636252814,0.04967248644344295,7.046999698154245,5.5733605932652415,4.982629896071839,4.447844254427069,3.8297153980612078,3.192302392097529,2.5677912606535753,1.958192860136782,1.4189461653854156,1.010075023591991,0.6890452256716338,0.48707160472240246,0.33930978871130213,0.2845754317355151,0.2040306744112296
0.0,42.0,42.0,0.0,120.0,0.0,0.32557445884150593,-0.2630878753340027,-0.530701560599379,-106.99066494297794,0.0,-45.022300579534246,-0.6927318589928165,-0.12168072972359667,0.3135617769474528,34.28551186217887,17.546392865702316,4.816269949710317,3.3731628819538337,2.9385066368577,2.473437824008991,1.9611362564374333,1.5233865800404405,1.1167167490733818,0.7174818367240923,0.503651959860542,0.30074924171607,0.18635622534201401,0.10949883121577728,0.050645013825869306,0.05658433932693342,0.0023412942493643008,7.049564694897022,5.60889942252514,5.033711936501365,4.462999289250562,3.8786253806562594,3.2073618777171133,2.553136953125027,1.9984222829534428,1.4559218565943635,1.0270781609705235,0.7081301694903877,0.48995621003288364,0.3402093477556453,0.25555944858230484,0.20257845872843397
0.0,43.0,43.0,0.0,120.0,0.0,-0.9858151509919888,0.5930497758281561,0.7961705864599229,-107.04596598009442,0.0,-45.14076542865362,-0.9246180825061162,0.5008136639595255,0.04610937619751887,34.28551186217887,17.546392865702316,4.869402866490989,3.4311014314061974,2.9058337488501156,2.488928658800284,1.9413487829301757,1.5538458635338634,1.12497466613787,0.7587743041424122,0.499355561689491,0.30150567096557407,0.16832130288295247,0.10634814276707977,0.08594128754781458,0.10076733716394495,0.055348347619974134,7.052236038695314,5.603121390244397,5.065223752658164,4.49872634284168,3.8645669961153426,3.221792344978392,2.5648371138639567,2.0029002904402975,1.4541886473414045,1.0225281227152294,0.6910127754563751,0.4702731174805804,0.3240785972274731,0.2654224825725924,0.2128074159444029
0.0,44.0,44.0,0.0,120.0,0.0,-0.7767995497222364,0.17433242908068847,-0.8973826763337724,-107.01956040795832,0.0,-45.04751721905048,-0.21240878929368873,-0.952463735607799,0.6938754832597747,34.28551186217887,17.546392865702316,4.866983188163818,3.4443296558112975,2.9563907059197643,2.486424173196374,1.9682820070728828,1.5176165443414056,1.106703261762517,0.7927917994870424,0.5222989545215305,0.30587724488110235,0.14606314215347183,0.11304102393975449,0.058443841124542234,0.07205448793224095,0.017931559443218937,7.082047193777887,5.650257288405111,5.077689157552039,4.511156918415311,3.928172073565525,3.240063172153985,2.552162892593215,1.9629024010346614,1.4672821176234165,1.0272574223645778,0.6730904469471876,0.4493768698976208,0.3416374112869773,0.2772605835085727,0.19671162414421567
0.0,45.0,45.0,0.0,120.0,0.0,-0.9373099862931475,-0.2988658938322071,-0.9392343217752319,-107.04083851339658,0.0,-44.9290527542492,0.31411299909866064,-0.22642899250652082,-0.7874945000180191,34.28551186217887,17.546392865702316,4.872924664504511,3.472151129626216,2.9364609272628717,2.4387335626908904,2.007604813571937,1.5412439456657205,1.1313776858542142,0.7782792458080354,0.49923919984310866,0.32575480424658493,0.1679268618686118,0.08409736649886881,0.03734503362179141,0.03743381179380667,0.04773064285657208,7.125093772462885,5.665110385329793,5.1155418768695515,4.562128078777485,3.941850884155812,3.2824073974507204,2.600312788501191,1.9996738632106072,1.4576502579999957,1.0161844207074955,0.7204773718188778,0.48403631017601007,0.3377358044883642,0.238586667857412,0.1790492020949289
0.0,46.0,46.0,0.0,120.0,0.0,-0.8191098907992607,-0.6852051024860517,-0.7824638605073357,-107.0619516085622,0.0,-44.96045743060834,-0.4781412547879247,-0.0458111969450119,0.659033281116882,34.28551186217887,17.546392865702316,4.908405764743348,3.508477780424632,2.9918021957663985,2.508069422769651,2.0348250287195144,1.5339949823864143,1.158540016727567,0.780405601570008,0.4549664240242174,0.2994691347367061,0.1782448637941102,0.14785448704756,0.0722775880338963,0.05060389019381508,0.05462611493883961,7.148212633500678,5.675564080703666,5.14754201344479,4.558453978177628,3.950281323922846,3.2913477033839578,2.644844380204183,2.058200556320897,1.4589010369441522,1.0473953184817077,0.719360875655111,0.469799707149251,0.32417828296786444,0.2734239349096477,0.1783207607316275
0.0,47.0,47.0,0.0,120.0,0.0,-0.5593718603117608,-0.9972611813188277,0.287378294169057,-106.99068960120634,0.0,-44.95913355087629,0.8505661398544467,-0.6952815490448891,0.30183579993976517,34.28551186217887,17.546392865702316,4.918402248327854,3.516930577621236,2.9910487701442876,2.542168790608654,2.0079758042670655,1.5444994680732456,1.119741698984776,0.7893160184477752,0.5206846474827642,0.3432260177826278,0.1792009044856335,0.11899427994914046,0.09801181596566207,0.05078743027229194,0.05069601429580826,7.127800209122371,5.753346292768903,5.17127342829407,4.599069203570571,3.9577400652401655,3.316213157188538,2.6552724057257557,2.029816995050435,1.4903673242558009,1.061837243167559,0.7188736952575985,0.45868766869141925,0.3271886857816685,0.2381357261737676,0.18226227835610115
0.0,48.0,48.0,0.0,120.0,0.0,0.5711653756283495,-0.2337714496686738,0.060587034916810945,-106.93104227494405,0.0,-45.003504281126055,0.49180213086195357,-0.17055962643310307,-0.5701409121997709,34.28551186217887,17.546392865702316,4.944512360798535,3.557195830046161,3.0030951204700744,2.555002281451077,2.112205677415216,1.5308081980652104,1.1335200089736646,0.7543918193972896,0.5141070157759181,0.33522267673554673,0.19247874084546984,0.1406643947444428,0.0823145911412149,0.0753493187279255,0.03540024439671423,7.148830832527605,5.775953507774243,5.199702512235645,4.637071926578843,4.013066064926038,3.325372405930883,2.6648700128658165,2.0269177194724697,1.513967714732649,1.0422796084216324,0.7103215474179263,0.4523725773706386,0.32614188765702185,0.2452574235765112,0.19266701684083215
0.0,49.0,49.0,0.0,120.0,0.0,0.46736126170019254,-0.18655938614508738,-0.6757536337858225,-107.01187804991133,0.0,-44.864187755013816,0.33478829695278883,0.8209553721226466,0.47381123134411274,34.28551186217887,17.546392865702316,4.9749653642713145,3.5839984232333606,3.0459286715008953,2.568063020044598,2.0551477980521056,1.58953755267029,1.156326520100721,0.7965025836922499,0.5233693060363342,0.3441547009988844,0.1815740779184772,0.1453488592071996,0.07459862913833402,0.03198152703926799,0.03867903174590231,7.1830890342686216,5.80037272102062,5.242170611257296,4.6516248973127325,4.008262568903146,3.3598657300807866,2.669055142273375,2.052598822390046,1.5218954091360646,1.0380869662671188,0.721727046217537,0.47586648301686285,0.3268538003824041,0.2156268343239717,0.15842058487372573
0.0,50.0,50.0,0.0,120.0,0.0,-0.5105728876537661,-0.27221751283184603,-0.7041901051574693,-107.02576649254148,0.0,-45.00429567355869,0.4976723293582769,-0.06273155160995603,0.4826665758417774,34.28551186217887,17.546392865702316,4.96748008748969,3.586259156473263,3.0764175577563444,2.617838275571518,2.0926943594149177,1.5868885665806114,1.1406155046219533,0.8191451853028628,0.5258433183986225,0.34049427581288394,0.16980858123150327,0.11469817823709022,0.05375008461263063,0.0430691990551154,0.018239530858193607,7.201072636591221,5.828723523809934,5.234819187267676,4.670114422041966,4.054574367628929,3.3788721852949846,2.68268852941512,2.0549266643143347,1.5261813888719489,1.0839233700708484,0.7229969922230792,0.46519960442841163,0.3217836304610953,0.21826340926125104,0.17695458986818904
0.0,51.0,51.0,0.0,120.0,0.0,-0.21915411689325737,0.6048080894275025,0.05885861684661675,-106.98883623757338,0.0,-45.014457456259066,-0.8940192342533625,-0.4964476447666668,-0.783996831035235,34.28551186217887,17.546392865702316,5.014858868836434,3.620230981622306,3.088816007188042,2.611693462086212,2.1104440222173846,1.6170674269549121,1.1921030199796039,0.7914470223126988,0.5236552613872036,0.33868913363314274,0.1842314901580659,0.1252669668000599,0.0790005017665446,0.058083896908492506,0.01695613623683722,7.250364981296137,5.839296066152688,5.284523569578027,4.731471608918461,4.05381335152593,3.415408545288493,2.697025384538335,2.0527338469568233,1.54765150830915,1.0633362558156887,0.7001341651473401,0.4883377075795955,0.29879638152287324,0.22197642486270108,0.1701593368136195
0.0,52.0,52.0,0.0,120.0,0.0,0.7189758703164988,-0.8088894387327801,0.9180117975285285,-106.95114492793894,0.0,-45.029521636318364,0.5431826768361009,0.06467012206335232,-0.46710637795798116,34.28551186217887,17.546392865702316,5.011373846713644,3.6428130098039433,3.159503210776567,2.6728444969277634,2.1421964478659925,1.605993658740148,1.169506328733634,0.8022844279518305,0.5254824589211448,0.32547486300423517,0.19173778056552665,0.11331864916642836,0.08731670117049102,0.0682854051856251,0.07245989921462556,7.217319903559487,5.9041665078673375,5.2926300809244635,4.7290756294684915,4.1206236078553315,3.414751860097805,2.7193490091678636,2.085021476456286,1.5463333118764893,1.0881582657740863,0.7010314885785884,0.4717765202783947,0.3030816992953794,0.21996979324724775,0.15484073287149508
0.0,53.0,53.0,0.0,120.0,0.0,-0.8553576814784281,-0.7701955516411239,-0.6345399881251284,-107.03279002516035,0.0,-45.024917990660725,0.8429385677255985,-0.8783151308322443,0.2777298078536645,34.28551186217887,17.546392865702316,5.081943842457768,3.673401899397211,3.121191015293535,2.6576849752624505,2.146168797147038,1.6604962194363155,1.174152575235307,0.7995161384626245,0.547210447052933,0.30081099071953066,0.2069237575147576,0.11547116513226664,0.07671253535694884,0.055472152670914314,0.010305137284515545,7.2677273105817966,5.907858615753305,5.365274995393388,4.762709667053738,4.140091555577018,3.442013965882909,2.727919887348229,2.084114079826031,1.5332065255239005,1.0757852271943111,0.7263003724635645,0.4377753550683559,0.29872044137765363,0.21853460747745262,0.18431923018377533
0.0,54.0,54.0,0.0,120.0,0.0,0.12963151739047496,-0.533073382862713,-0.48174097954980466,-107.08631854361926,0.0,-44.951107461900136,-0.9570207619995151,-0.4114629144726514,-0.23885067396833737,34.28551186217887,17.546392865702316,5.063727084839337,3.706937299919166,3.1387663460475634,2.672233167988355,2.1244515366834977,1.661847166355428,1.23317466070813,0.8249001875741047,0.5083403700216791,0.34066082223581784,0.17180015662470827,0.1013701262962954,0.06773376234796726,0.06831398924848676,0.03048669441375135,7.2956177156557,5.959454437707208,5.388566725372202,4.798411153522843,4.164388972530937,3.4355616746112103,2.7477483647933476,2.0951503396977507,1.5453919851315852,1.0752554120602809,0.730820304812961,0.4584421958938839,0.31056263980363186,0.2128177085907861,0.14893939282037033
0.0,55.0,55.0,0.0,120.0,0.0,-0.7699438735483186,0.02746540684537524,-0.7588334152973777,-106.94090773852874,0.0,-45.130250003702855,0.2774261323422582,0.5672734833806767,0.5304898920496022,34.28551186217887,17.546392865702316,5.094703412635202,3.7105803244475046,3.1769771675746377,2.6596989431126046,2.149848849033611,1.656203206746852,1.220502157217283,0.800667154727877,0.5678340641623041,0.3266359994426148,0.19952582513152298,0.11130444786789286,0.0759886297058006,0.07953611451802596,0.05696358529053024,7.290676794289498,5.983671003473734,5.416322970654428,4.811176866720395,4.175712651130215,3.47711269463838,2.7602297903291144,2.1294200821036906,1.5793475405952329,1.0821348612548947,0.7505805669514256,0.47187582891095664,0.30740525890628356,0.22355485533902128,0.11980534299673418
0.0,56.0,56.0,0.0,120.0,0.0,0.9881094529294863,0.4518028011833011,0.1892036873430485,-107.08510569249661,0.0,-45.074076134209136,0.4262189756652241,0.2838285004925052,0.07208488161525106,34.28551186217887,17.546392865702316,5.133568179063052,3.775136223167363,3.216912606202595,2.725099332291862,2.1908111006752975,1.647848866537644,1.206666232145451,0.7904633558898476,0.5762154257439147,0.3292059528256702,0.18511119857815625,0.0786620302397862,0.055947546843061004,0.038983154391801805,0.032751406936099445,7.303050424326991,6.016947215426962,5.452462521298031,4.8617722226629425,4.196540279713227,3.509200495754485,2.785604172595065,2.12436923947345,1.5655853672867466,1.1129743458729247,0.7437397952083523,0.4691274965334679,0.29330778568169463,0.2126935413056678,0.1683232595586393
0.0,57.0,57.0,0.0,120.0,0.0,-0.11670769524699032,0.8073274812037796,0.8535385797185342,-106.96656327303417,0.0,-44.91245139715748,-0.5131298743665694,-0.9520302968245795,0.7139941496615356,34.28551186217887,17.546392865702316,5.156337995121945,3.776521622094453,3.258382352488671,2.7364440812242803,2.1907736350426132,1.6265154837056595,1.1922225528465404,0.8586678905927092,0.5404595772204104,0.3363277065870911,0.19035384749778625,0.11599539915070141,0.07586938851626514,0.05199056252867976,0.05088005969177943,7.359926649454594,6.083744817318609,5.496054359787856,4.885251356007944,4.19971925189309,3.501227970785517,2.7926199569638186,2.151464810600314,1.5640908663234339,1.1086187642259548,0.7522598226199666,0.47892727719428585,0.3032194729022422,0.2119649346012204,0.13645846293227334
0.0,58.0,58.0,0.0,120.0,0.0,0.8305425699085776,-0.46581032949954015,-0.523969717205697,-107.00599745608798,0.0,-45.04848522097066,0.575214817390236,0.13975199741036182,-0.7779479691841735,34.28551186217887,17.546392865702316,5.173316017577092,3.8349701445084556,3.2478259165601484,2.7665485514833055,2.2219462665840917,1.6916222951438464,1.2049242992095428,0.8295180513816364,0.5341255063538006,0.3087226580129998,0.2190236353921864,0.13859146431626637,0.05776827459158625,0.05007991244977948,-0.006025426938883253,7.362979327182121,6.087616711825995,5.48794383416687,4.94159723348883,4.25342090891429,3.541834335991418,2.797031545889189,2.1486649159312026,1.5885109929717938,1.1115304008735558,0.7240474032173941,0.46560805873272815,0.3022931963232313,0.18360265472506784,0.1572873287997589
0.0,59.0,59.0,0.0,120.0,0.0,-0.6940345753496511,-0.7444012966342648,-0.0551574736373317,-107.05602543022451,0.0,-45.070473850884284,0.3377350606836649,-0.565319839113116,0.46749354492480033,34.28551186217887,17.546392865702316,5.184992022544304,3.8552957834710546,3.2892814758098123,2.7843877389505027,2.232009677687017,1.684236083990104,1.2428797833610332,0.8158470497337705,0.5756950716537411,0.3263747235004875,0.17841305933953844,0.06561494946349404,0.04454257791693906,0.0762378225391882,0.039253507752986916,7.392178208577434,6.122128100189388,5.544560596593007,4.93772217351282,4.282548792359613,3.55252295280032,2.8236471960305316,2.1751480876693368,1.598808700584614,1.0984339925509827,0.7481623293337851,0.4696308458389842,0.3228867611222863,0.19720651580482504,0.14603048825021422
0.0,60.0,60.0,0.0,120.0,0.0,0.9806123466953782,0.018428999113135225,0.8152291171227191,-106.91330116026413,0.0,-45.01045302576418,-0.5143950719868098,0.9514996316571547,-0.07072005986206475,34.28551186217887,17.546392865702316,5.190526156353683,3.9034162618267656,3.332570462412472,2.8075413203832693,2.243043356652428,1.7035124865370623,1.2470166360426498,0.8420106806074269,0.5565353351668823,0.3413322462508046,0.20529498099662602,0.10952983605538588,0.05749701042046042,0.01122970536563438,0.02301621043698417,7.44918153376404,6.164705594791215,5.55729065956229,4.972753411234226,4.309513951807263,3.581613705276717,2.860592220749642,2.174716798470181,1.6263733464639158,1.138897673887483,0.7356698651696348,0.46423961274370407,0.290074416003713,0.22632124019885114,0.12474404655022024
0.0,61.0,61.0,0.0,120.0,0.0,-0.881392132604446,-0.4008151792214143,0.4165662811494202,-106.937662933658,0.0,-45.04676866006737,0.819463175582427,0.5673739913869067,0.03878191164927247,34.28551186217887,17.546392865702316,5.214147902999339,3.8974602912024583,3.3213093699567384,2.7852904748332854,2.2361223233240533,1.7313615073986384,1.3046513318021868,0.8341321659938122,0.5658947860419611,0.35375748035855137,0.18442475657058743,0.1002096757713576,0.057102950886419715,0.04177156969647519,0.031815628893989034,7.41807815765378,6.2074634395866575,5.634374122258331,4.995983730316746,4.325588056253084,3.6078383434719328,2.8653447648519434,2.2106637278138157,1.628856474980752,1.1556909543561742,0.7524505962915999,0.518457134122886,0.30301554474309605,0.20117579885201556,0.1443290222604855
0.0,62.0,62.0,0.0,120.0,0.0,-0.8821553553005672,0.9689840777089092,0.05657332692901429,-106.96397077266317,0.0,-44.98169557942131,-0.48620108877424456,-0.7441838015445907,-0.43190887575565085,34.28551186217887,17.546392865702316,5.269326031537319,3.957403425676892,3.390517120376833,2.8483716328890094,2.2656118926394457,1.7521039485322232,1.2477871737981698,0.8523311418869569,0.5338190226515834,0.34667244815839693,0.2067115556913024,0.09380999999023448,0.06402641035646414,0.030212338798530365,0.02043389126521289,7.4623954249515165,6.211937763489519,5.609143499220266,5.032883021595017,4.321233283899438,3.6225257461185567,2.9019584027881886,2.198254902513813,1.64719200994979,1.132597080328387,0.7494458373600854,0.4748277372312147,0.30615682272671985,0.20682465860969845,0.1555108929565036
0.0,63.0,63.0,0.0,120.0,0.0,0.646474271915976,-0.9203149752634396,0.27861353608998174,-106.97249994759464,0.0,-45.07477073967945,0.2879823528743996,-0.22890864463801064,-0.4618736926347762,34.28551186217887,17.546392865702316,5.2891425414374575,4.030320211314442,3.4103218983065138,2.8324992992186315,2.311480404272763,1.7650267546650478,1.3367464778194584,0.8535579859820048,0.5829897556260725,0.35490994140288246,0.17336280149902275,0.10096078633159379,0.03929235745398046,0.05347737099255887,-0.03114173733314448,7.482881630565387,6.245726287106949,5.639911323953862,5.056795514754026,4.361693701709731,3.664414901017244,2.887800380389373,2.228784886561442,1.6294605938541995,1.132823283091594,0.7604854916832168,0.47577215601504835,0.32454465843764146,0.18264842655998276,0.14661013759088348
0.0,64.0,64.0,0.0,120.0,0.0,0.5531844830508543,-0.6182099377721852,0.46167914046864156,-106.9702831184699,0.0,-44.9063061762068,-0.003910513430210684,-0.02006073699065891,-0.6203923692232343,34.28551186217887,17.546392865702316,5.347092542432351,4.043002707719067,3.4764567564937217,2.892959668227844,2.3083762628621227,1.7922263615623772,1.2642096489639338,0.8345620601319733,0.604513806492217,0.3375276039140958,0.2283102561690033,0.0986701996287993,0.07969805324051185,0.02761281749987011,0.04882545683803954,7.543117637387924,6.333922015784454,5.70283566752929,5.061874618321931,4.363700049220577,3.676345706551493,2.927326942494364,2.2287373334534437,1.669823565687247,1.1269233178113665,0.7572570703282107,0.475249122894785,0.2931991131711732,0.20066383746996655,0.1470199062188737
0.0,65.0,65.0,0.0,120.0,0.0,-0.5041264219211712,0.5071175055273323,0.4569569041687329,-107.0614735834859,0.0,-45.08193313792404,0.4099395273065492,-0.6352565724155501,-0.2533086348824516,34.28551186217887,17.546392865702316,5.369343616352666,4.07056980745807,3.473015514216508,2.901702918056895,2.3561068400286898,1.8069565240668262,1.2772971902364176,0.8474045165701961,0.5838453369146396,0.35699289295347747,0.20092855617192135,0.1267732629611462,0.09696676928362191,0.015120664139574396,0.08878468995903951,7.550786439643457,6.355600700865215,5.722147818836964,5.114155945605749,4.419547572765282,3.659254605350616,2.945569012836988,2.236252013839055,1.6625684107156196,1.1660750158268693,0.7745842607787591,0.464829177646573,0.2939310389512105,0.1916891591976672,0.14966046793261362
0.0,66.0,66.0,0.0,120.0,0.0,-0.5063081589856251,-0.22724485144031337,-0.030045783305066243,-107.03512460698954,0.0,-45.00524666156531,-0.8173467290754618,0.4085677069276463,-0.5220243100150062,34.28551186217887,17.546392865702316,5.390329608144051,4.0642550870150975,3.5030243923134345,2.924099792168561,2.3882155429976626,1.7829916486438235,1.2878399136723826,0.868011648767546,0.5960305401881147,0.3349514551198277,0.201440023917592,0.13107169736295146,0.08813690978140849,0.041163648208681104,0.029392746008203657,7.589851612037952,6.357119667253944,5.758269164317813,5.15612175429572,4.4265090813864205,3.7150100408855424,3.0015088780841843,2.256970322998992,1.652681080691673,1.1661086450497122,0.7679569008449569,0.4949487599854041,0.2852159536667201,0.1865119710715917,0.1353831908878679
0.0,67.0,67.0,0.0,120.0,0.0,-0.05468983994770049,0.12447631898489897,-0.4370480123939191,-107.10256270121434,0.0,-44.99651119899235,0.9328157608491553,0.6827575205376284,-0.620543847402715,34.28551186217887,17.546392865702316,5.4254875051494444,4.124311487664267,3.4899269555972277,2.9940731023347014,2.4221278132291966,1.825548086772645,1.2759337764871463,0.8846410551127982,0.5496659411411223,0.3470630366100508,0.20696872918994197,0.13835751846550526,0.03736541908187732,0.02922010647272288,0.07866049342533836,7.61994335334812,6.41811955216658,5.809612174749062,5.1757619955886,4.465466091212831,3.7116437200409367,2.965344780617929,2.2674587072954537,1.6708339090806874,1.1878850724104397,0.7299950321172881,0.4680389900274445,0.2992784971651927,0.1987280197072118,0.1271961843765718
0.0,68.0,68.0,0.0,120.0,0.0,0.8872050783604002,0.6309036208695726,-0.5876508142053687,-106.98173232893485,0.0,-44.984600501477246,-0.6041280878830455,-0.991070809220872,0.9235918252119826,34.28551186217887,17.546392865702316,5.4345827862704965,4.176940903038585,3.5709037729373625,3.0009017563625777,2.3895395744553256,1.8480268565560798,1.2472688494203188,0.8994759464433365,0.5985381326771853,0.372584519866643,0.18926338362409056,0.08160906255666123,0.04872376629957867,0.03615392605013692,0.0030233017513290952,7.6491064031071785,6.42917335658809,5.831341550335698,5.185028950493732,4.491523121446044,3.730479315626009,3.011710384263656,2.2932482210540353,1.674404759147053,1.1741209518759075,0.8052947133864427,0.4967345549512097,0.29415931003343987,0.17856713813954284,0.09633817916454604
0.0,69.0,69.0,0.0,120.0,0.0,0.25177305059497646,0.3337264081975635,0.83722775533928,-106.91043094430825,0.0,-45.003787910130384,-0.6499929179168561,-0.7335532237302513,-0.10517143503468218,34.28551186217887,17.546392865702316,5.4975604880480375,4.179084539546494,3.6363767340749047,3.03613831097413,2.4128217480367815,1.843236439887727,1.3206587202432405,0.8809473878780043,0.5796254330636249,0.38338223717236314,0.19461936504396302,0.07945271748665338,0.03023215126059815,0.03300196211285471,0.020071990559983065,7.6642221352447795,6.446448449255429,5.863407078463009,5.234993074596664,4.538624831504132,3.778257323219872,2.9869949794101736,2.2771594961263255,1.7140001400805895,1.1851015834385832,0.7792879065140933,0.4803601187862696,0.2935587153492938,0.19278407757687588,0.14921617915282698
0.0,70.0,70.0,0.0,120.0,0.0,0.6650593148449,0.2071020404820787,-0.8835066073449545,-107.0239819563414,0.0,-45.00036120933686,0.1271697491060667,-0.4330743216912898,0.3562446652262439,34.28551186217887,17.546392865702316,5.557559032335031,4.216282191630459,3.6740213308827983,3.0338035920623505,2.4591364109264062,1.8537442363669951,1.3513720452856723,0.9088306712877954,0.5940983823328315,0.36897795427995494,0.24849468434140873,0.12408177724591549,0.06641204708204997,0.04299956196383779,0.014254787094146857,7.7173321890095625,6.511767495533223,5.8892753212503735,5.24516157242384,4.53643916486495,3.8040644658983562,3.016564543271541,2.3147435776932164,1.6934419771335762,1.1651109616784536,0.7835985821162497,0.4673934841105912,0.30910321116339917,0.22638549267511857,0.13303425824549825
0.0,71.0,71.0,0.0,120.0,0.0,0.7342068432875362,0.36364727714977785,-0.32585371915994554,-106.98515671297992,0.0,-45.00437514785938,-0.3725659718871337,0.9682204553095659,-0.25170368298464174,34.28551186217887,17.546392865702316,5.585049740458978,4.266433254913992,3.6239149330421796,3.0847254690505808,2.4422108032996084,1.8384898377678585,1.3480955884278187,0.91582644558256,0.569614660076182,0.36275332450181846,0.17733669163800658,0.15915626538402056,0.06102896503711047,0.021244649192788845,0.019228729419184874,7.74217649865309,6.551829151381933,5.90971101866917,5.305749406823438,4.574099403542533,3.838472524512179,3.0370108810307235,2.3151371460554353,1.7005629414713188,1.1830928584027856,0.7689407525268128,0.4749347232224317,0.3075741887232121,0.1838761844196196,0.10153972864079946
0.0,72.0,72.0,0.0,120.0,0.0,-0.7311012147333302,-0.871510686120176,0.38010027552461434,-107.03329719791193,0.0,-44.9183947801269,-0.08171840620378978,-0.19094424299966883,0.13958748761277473,34.28551186217887,17.546392865702316,5.562256708296241,4.299108103924511,3.7206706988202547,3.1308170971593574,2.4502505467896225,1.8786497828465871,1.3371630894009352,0.911997330442924,0.6081153103585434,0.36082044875149444,0.21091232629016327,0.08374777627646414,0.04752574401198184,0.05254318700476372,0.028494744469186702,7.787227751860694,6.568860622277456,5.956663124302937,5.341572049554879,4.582711441354839,3.8149823347735796,3.036440764051409,2.3517926421323625,1.7041008453309316,1.2063703064402747,0.8114773376415902,0.47096076841928336,0.3055000867545866,0.19171393226579855,0.13857270872093724
0.0,73.0,73.0,0.0,120.0,0.0,0.1576170623443618,-0.8044014665642516,0.20013805460744916,-107.0294487401777,0.0,-45.007837422225734,-1.0040698705468476,-0.6594960740474938,-0.0015957819327347966,34.28551186217887,17.546392865702316,5.6602921232856,4.2849057453231225,3.724222805614716,3.0872995663401364,2.560781393531341,1.887275740790869,1.33581528054624,0.8879285392808624,0.5998857210565867,0.3409318080374495,0.22365289907691815,0.11002744264076106,0.06508975141600847,0.01297018418901593,0.03358856511092731,7.799649411573678,6.626235240815777,5.966297550539819,5.357222317291254,4.620471003283112,3.8715915835351264,3.055659612717824,2.3457774462786696,1.7155960742783838,1.219885246247997,0.7994898316355895,0.47107981846203967,0.3225575424786209,0.21943908897869452,0.13182646230943604
