Line_number,Fiducial,Easting,Northing,Height,Elevation,tx_pitch,tx_roll,tx_yaw,txrx_dx,txrx_dy,txrx_dz,rx_pitch,rx_roll,rx_yaw,PX,PZ,S0X_time_1.086e-05,S0X_time_3.256e-05,S0X_time_5.426e-05,S0X_time_8.680e-05,S0X_time_1.411e-04,S0X_time_2.279e-04,S0X_time_3.689e-04,S0X_time_5.860e-04,S0X_time_9.115e-04,S0X_time_1.411e-03,S0X_time_2.192e-03,S0X_time_3.418e-03,S0X_time_5.339e-03,S0X_time_8.301e-03,S0X_time_1.338e-02,S0Z_time_1.086e-05,S0Z_time_3.256e-05,S0Z_time_5.426e-05,S0Z_time_8.680e-05,S0Z_time_1.411e-04,S0Z_time_2.279e-04,S0Z_time_3.689e-04,S0Z_time_5.860e-04,S0Z_time_9.115e-04,S0Z_time_1.411e-03,S0Z_time_2.192e-03,S0Z_time_3.418e-03,S0Z_time_5.339e-03,S0Z_time_8.301e-03,S0Z_time_1.338e-02
0.0,0.0,0.0,0.0,120.0,0.0,-0.09886242042626892,0.16146381073941685,-0.06749288070004966,-107.0982911450215,0.0,-45.110401766203466,0.6952128647789679,-0.5365646893589089,-0.16143309804656614,34.270624069470855,17.560637190127487,4.560935565123102,2.6333662842097545,2.162768550979358,1.7597675810346094,1.2186616197056073,0.7873400596867669,0.42376577394735615,0.18395871421641932,0.09626859348920473,0.004714507676719229,-0.011312381503633468,-0.017961235432655195,0.0066842599353660465,0.01896944187198665,0.02445970342446737,6.9388475780937435,4.91496122972735,4.276963258308604,3.6885980464762333,2.9230354934387233,2.1278295117713646,1.3615170269084842,0.7517413963213416,0.3723957211380106,0.17824136415862446,0.05848581062340494,0.03496098871549257,0.0018690019560161355,0.012565497244394526,0.005760080233656756
0.0,1.0,1.0,0.0,120.0,0.0,0.7085396040936554,-0.1505305729522013,0.2739937521849529,-106.96074607841393,0.0,-45.03868172326575,-0.7682861724132002,-0.6209304063895849,0.32370955935767864,34.270624069470855,17.560637190127487,4.541739884457581,2.658611454727184,2.1841444908219354,1.754633470916744,1.3256551015717306,0.8914664652420884,0.4978827946721741,0.2106028035321223,0.08665485224439771,0.026648301582047645,0.016216133516378232,0.018667994135902338,0.022926964410416445,-0.024303113792137235,0.018648376593819457,6.958891160051339,4.936961817985631,4.30933475926761,3.750726357108032,3.084822588725864,2.2846872375289764,1.5216593891862098,0.8602042490142752,0.45635899934818175,0.17369227510304608,0.08850206568815493,0.029241481502156573,-0.01814661743352598,-0.020986042617897514,-0.013655039728939252
0.0,2.0,2.0,0.0,120.0,0.0,0.22356510770973137,0.8306390735951354,0.6364540121836659,-107.01086042201791,0.0,-44.94506523957935,-0.4222688530700446,-0.5324683179157323,0.16748365246262087,34.270624069470855,17.560637190127487,4.550315462300859,2.6803387017412272,2.1982938633120996,1.8156129526679896,1.376896015112691,0.9757305588896672,0.5482794094629775,0.2846523310334865,0.12212106126273668,0.046723984600932064,0.024292420743730954,0.009627687967344175,-0.005481572232353178,0.032894802865432116,-0.004035412483931252,6.936793163147474,4.99316829264029,4.3481824909750975,3.7719065282905695,3.129528666273946,2.410353349742325,1.641524927249252,0.986552885592321,0.5078208273782856,0.2296381709881516,0.10242625080625778,0.029849639367123683,-0.00913485395108251,0.029707942664752844,0.012372659868237868
0.0,3.0,3.0,0.0,120.0,0.0,-0.31191081056151204,0.5123700002074374,-0.5747757945140821,-106.92192002398315,0.0,-45.00311780761558,0.045969750906014885,0.5095179283484517,0.5557556937604935,34.270624069470855,17.560637190127487,4.557455442359891,2.7021997494696017,2.206417369127112,1.824685006109137,1.404565394793439,1.01658622948548,0.5995045557035478,0.31505224902786233,0.12530100584308226,0.08117288760254245,0.02492998479709578,0.0549575176130328,0.018934148047604512,0.010534347559185461,0.009376252268284068,6.962333398252339,4.990572035677849,4.330964868211595,3.833747161335554,3.2208243498852998,2.5024723254072065,1.7454878016108597,1.0858837935032681,0.6064855904714264,0.27892759430386005,0.10609951016533045,0.017925421498134017,0.01354542496538818,0.0010748516190633365,-0.013828334191633476
0.0,4.0,4.0,0.0,120.0,0.0,0.8899978861950106,0.981894798581703,0.4987080899364449,-106.94725328121987,0.0,-44.991323851186195,-0.3530535570857369,-0.01821708032490088,-0.9366739661247685,34.270624069470855,17.560637190127487,4.553041339060231,2.759143804646399,2.2538186761814987,1.8607237641342247,1.4523473836755407,1.0545153461225056,0.6486539552528147,0.3755967551159685,0.160499178541003,0.04719555254932514,-0.018406322494501297,-0.02728374928701048,0.015363671739049654,0.0060313297644952425,-0.022622950754795635,6.967150458381734,4.9752914381627775,4.356008573377984,3.8130253933233336,3.2845410718632526,2.6003643658652162,1.8428007133725246,1.1886600821754092,0.6738131530425521,0.33491917355910295,0.13025499773328475,0.07624128591874574,0.015460658850067619,0.01749149089629137,0.0009790169037203564
0.0,5.0,5.0,0.0,120.0,0.0,0.07092942342165176,0.1482124619987577,-0.2640519320044039,-106.92454852729222,0.0,-45.039433914014296,-0.5592013780459929,-0.73163124771973,0.37854887865633424,34.270624069470855,17.560637190127487,4.558871967778925,2.71200637164584,2.26341949536716,1.8796663078861207,1.5050478812680952,1.089466746948966,0.7160735294809987,0.39076208296194354,0.18229707442496318,0.07694096070836395,0.032410133412538476,-0.0032436230501745635,0.0033007823565247146,0.020228580426315368,-0.02672295328672726,6.931103965122053,4.990132747328418,4.38103376729568,3.867675599176197,3.3098383501608315,2.650894940697572,1.9386797649853684,1.2770539582054394,0.7471486303882116,0.39164028079944824,0.15551978539036687,0.09298866924849795,0.04369562211670139,0.00033583859241812734,-0.00176990324887076
0.0,6.0,6.0,0.0,120.0,0.0,0.6659694103667793,-0.7034405302806053,-0.3823785633730914,-107.06411923256812,0.0,-45.07821378081469,0.6123114923814327,-0.040846823106207575,-0.47070587796766206,34.270624069470855,17.560637190127487,4.5762899695883466,2.770446204567687,2.2637727768594864,1.8916772929151855,1.5215883773783891,1.1029214621893202,0.7401854640319071,0.4168373994689377,0.1836967212024908,0.09318491342978691,0.007644331611958478,0.00800021128009686,0.011286795034814065,0.01711519763406971,0.007856808302682433,6.952602743445315,5.003418813892502,4.380922374426948,3.9139359618788783,3.3334476522863863,2.711538556000874,2.0141354249478742,1.3620447846302641,0.81394057960142,0.43385821092374743,0.21620531524572434,0.07403546199898857,0.017878684439862173,0.029708872834145056,-0.01304091644749035
0.0,7.0,7.0,0.0,120.0,0.0,-0.7141254170780393,0.34445141506871124,0.185022515023747,-107.01858768956704,0.0,-45.05825169049318,0.5050917874169785,0.8696461579980104,0.1914324048792475,34.270624069470855,17.560637190127487,4.564510150824016,2.752392310911998,2.2705311119534253,1.9363684070863967,1.5264981883202928,1.153199236674109,0.7658188927255968,0.44279291474231386,0.2503385442538839,0.09953277580868718,0.025309887600161708,-0.008037826074367446,0.01260654711594175,0.004978868172280797,-0.010846525074521125,6.940755904154267,5.042851801358661,4.398572515268818,3.9216154601231548,3.397925194839214,2.763778940924725,2.0829997133102243,1.4233493296192583,0.8679550589331476,0.48594166829643626,0.19856692186121816,0.10310982583068018,0.05154012833206617,0.023432887941086646,-0.006961044625974232
0.0,8.0,8.0,0.0,120.0,0.0,-0.31293093052978493,-0.23244058052808292,0.6684995349345808,-107.02527261016803,0.0,-45.086334901431414,0.8561181678174392,0.8080452937906353,0.6489051047216812,34.270624069470855,17.560637190127487,4.560223202114716,2.750166663287418,2.325051894064943,1.8966152383848356,1.567307278062322,1.1799982725234903,0.8101779026927074,0.46142069903619887,0.25190018453617574,0.09189444881448282,-0.005697319465806365,0.0026591613976202893,-0.00405101540846289,-0.0064902609945583205,0.034877347447522467,6.985100095786054,5.064352278220071,4.4136177896034186,3.9416926683607407,3.411338634030909,2.8307103192511724,2.18184873881757,1.4652139664366297,0.9268103077183276,0.5192262154469073,0.24393033041129045,0.0753058339453172,0.03729761474496059,0.027738205665308546,-0.006484112793799809
0.0,9.0,9.0,0.0,120.0,0.0,0.4680977836665372,0.1583390731742571,-0.4857026832528304,-106.94696569551175,0.0,-44.89421887116529,0.06363170526209881,-0.7206227715540241,0.07079507502417837,34.270624069470855,17.560637190127487,4.621618840014161,2.7708073712948615,2.321698258538517,1.967285847053312,1.582980379080155,1.1967439362698133,0.8288659143513586,0.4989358151302901,0.2611943086402953,0.1253556817853314,0.07030936647678637,0.005532382889550635,0.010516483259577634,0.0002573628840184883,0.01565941720620653,6.975945523588998,5.072467540995964,4.439365054221278,3.9319291820380124,3.4411374732884017,2.837859025675815,2.194679805530432,1.5464202467321244,0.9791056403808716,0.5713720022373526,0.25053202064651914,0.13971293986453648,0.02264492805099001,0.017737148424396318,0.01542739948314988
0.0,10.0,10.0,0.0,120.0,0.0,0.1275937945999308,0.15970864402833396,-0.3595806089735518,-106.93684115420655,0.0,-44.97010578060727,0.004673739308800254,-0.016522069800733563,0.32427458912152773,34.270624069470855,17.560637190127487,4.554235261814466,2.8136099832775705,2.343124918424769,1.9737877862959543,1.5576190833931463,1.2149453550650469,0.8465666872907175,0.5112981514597152,0.29848865592186274,0.11718413936511746,0.03769864738548607,0.028845547032815756,-0.01819943490570133,0.01692516812333257,0.039941603843125346,6.959857095016979,5.060839341729213,4.486072058811813,3.959283150872153,3.437740837343603,2.8801224552625615,2.2550429504708487,1.5956620715586642,1.056504521055126,0.578244892266278,0.2931603159837682,0.16609565342527532,0.052688794549842724,0.024157511549802224,0.0016026912998698302
0.0,11.0,11.0,0.0,120.0,0.0,0.9454285318339026,-0.7007264699766866,0.7221302299572481,-106.93645229957774,0.0,-45.0134856317393,0.7282230823431246,-0.006980301836991387,0.6215882469160834,34.270624069470855,17.560637190127487,4.634551556596205,2.842966263410417,2.349368622529023,1.97593003118294,1.6084799127846106,1.2439743777295378,0.8914506433410749,0.5550863849562511,0.33598502430495736,0.14622170282240896,0.04247464111414696,0.01008368646244575,0.007045654053435644,-0.008200210974648715,0.0010035287978441803,6.965307795420011,5.088739966786201,4.498330472401035,3.9890899561038515,3.4553470720348822,2.8650689691492097,2.2649876101544257,1.6607671578136147,1.0827587687939635,0.613919956918508,0.33297301914356986,0.13150126401224446,0.046607480198752174,0.030972085037579436,0.00514532681187937
0.0,12.0,12.0,0.0,120.0,0.0,-0.857353447825469,0.5478961851415198,-0.8585474862134153,-107.02149834629904,0.0,-45.027556765888235,0.6457030547371354,0.5042842746010923,-0.9263967259392485,34.270624069470855,17.560637190127487,4.5821493359978245,2.8076059108116245,2.3564250358376984,1.9859813227458196,1.6013500989463603,1.2258832087881308,0.9005905356296712,0.5634317302611459,0.3022850647732689,0.13199510099863265,0.018997690448340966,0.034223635298252314,-0.0010973305917646907,-0.01863888150818642,0.012653738111317522,6.95527802167209,5.115380716009954,4.486444605262674,3.999248756403783,3.4529438600719664,2.934400655364911,2.302430401706642,1.696923886316152,1.1109824781449058,0.6767305280294843,0.34890222960944495,0.15995916839470256,0.048187729523797344,0.031160626775904345,-0.001356424477302322
0.0,13.0,13.0,0.0,120.0,0.0,-0.9795516830112425,0.7050702489220566,-0.29518122751965925,-107.044150821357,0.0,-44.893135263547975,-0.24424311749107488,0.0742831307428451,0.06614172422539588,34.270624069470855,17.560637190127487,4.59435494492305,2.86908065826889,2.334652514454816,2.01839304144853,1.602297228408142,1.2715858406377205,0.9172617125917514,0.6167422258430993,0.3308643738935318,0.16822133928497165,0.0577804683568543,0.03815006900928801,-0.02077214599240184,0.018832794286330893,0.0030372992939948344,6.974668460080586,5.113509397490324,4.530987297777944,4.034956688522697,3.498615537947694,2.917619804292654,2.2983767325672857,1.7186951786338256,1.1479769615117112,0.7228171638059864,0.3603253782869947,0.18496376478494275,0.057564772710621666,0.03779333888707135,-0.010834729167636585
0.0,14.0,14.0,0.0,120.0,0.0,0.911129720409253,0.9317923593313264,0.9594638114347707,-107.01893232768009,0.0,-45.00041776768822,0.018866437076475714,-0.7938298723709523,-0.1454391359292202,34.270624069470855,17.560637190127487,4.594160175396621,2.8320374842707223,2.3813932483811695,1.9601179856337785,1.586149655546393,1.240936438222794,0.9136562191203735,0.5962787435761644,0.32495454677971175,0.2088282894206618,0.08973362162392676,0.06165404565538264,0.004714271041203072,-0.027595361242626484,-0.019226218013786375,6.951820359379245,5.140835926077411,4.541449406410097,4.046587501558532,3.501915414586949,2.951998972376193,2.362810611903173,1.770241963513524,1.2037542901846339,0.6956318196199903,0.3875374418173728,0.18310421180873956,0.07080939315210603,0.02155959346274574,0.0257101440279058
0.0,15.0,15.0,0.0,120.0,0.0,-0.3552376042173009,-0.44174409823525207,-0.3564144553849502,-106.90852942336315,0.0,-45.039168591413016,0.9392705905258217,0.9397714942642619,0.541306165032639,34.270624069470855,17.560637190127487,4.591145211106063,2.847696055519154,2.397381085958886,2.006844554731566,1.6261897037458424,1.3048871840631524,0.9098919570671151,0.5974681507243857,0.3457785863496313,0.20644325395148921,0.09735734747194495,0.043071279387120534,0.019442834493067,-0.019610183395718652,0.02115808080672103,6.995593334704426,5.138167179078895,4.583138549629227,4.049515254776509,3.5059920756582286,2.965237860603732,2.3878871262160817,1.7841142578250013,1.2167677845580376,0.7731215871341865,0.4014176552623042,0.19376084333432064,0.07942934353193708,0.015028237596063407,0.03431713047060646
0.0,16.0,16.0,0.0,120.0,0.0,-0.8229567571609877,0.22679458393865937,-0.5131052690570224,-106.8874842271482,0.0,-44.98085755111316,-0.947876749349633,0.8294022674867614,0.9411724592018675,34.270624069470855,17.560637190127487,4.634985128775852,2.9286652851763173,2.395393267710762,2.0411602718233426,1.6748717515435916,1.2657476704399964,0.9196188110746074,0.592807784110837,0.34406592632661614,0.19261863051992884,0.09251201934715057,0.04431799635318287,0.002776553000950306,-0.023568316459928663,0.00382630681598614,7.011909646116903,5.192121883206757,4.581645664634247,4.09329399832941,3.5388007605817355,2.957306794150428,2.4012734724767477,1.8187084525495139,1.2940789109562036,0.7806722045381034,0.45522768280965853,0.20552610546787287,0.09020005872072985,0.05638333242349036,0.005603926291934608
0.0,17.0,17.0,0.0,120.0,0.0,-0.7625931658059255,-0.1473905875244259,0.9064939384620359,-106.97092989592907,0.0,-44.946219083653986,-0.7996754777140446,0.10663320956368261,-0.15119419691003588,34.270624069470855,17.560637190127487,4.611858341810637,2.8817866723314816,2.4354953735133824,2.0299377968239773,1.6623448101835332,1.2829717114253554,0.97624372016666,0.6712839874473145,0.42103540498575054,0.198841855831119,0.12277023978475354,0.01675567527981437,-0.01997551348276462,-0.022399558553034896,0.020197353016864796,7.032327140489641,5.210251648397162,4.617508287483275,4.100650469792993,3.5481622619529105,2.9867171497608864,2.4056644547132082,1.844109493866739,1.2786884062391888,0.8119614458701216,0.4785998222559919,0.2136184578635303,0.09485438900867803,0.041171869936307434,0.01886880839425944
0.0,18.0,18.0,0.0,120.0,0.0,0.7127145019896957,0.8392621870246253,-0.5140816517033671,-107.02322398419706,0.0,-44.97558157827065,-0.8108565584644374,-0.37177081263543643,-0.4667368047214495,34.270624069470855,17.560637190127487,4.62921301394939,2.9170764610246294,2.472651195102689,2.0571562219469195,1.6888863501750608,1.3077932743964646,0.9568069188156797,0.6210560899517561,0.37314133845493197,0.19272723028035327,0.09809019958581869,0.051657222735562294,0.03682636421205562,0.0002347648499688216,0.005683073360056908,7.002159777174024,5.202623292044465,4.6043145522539515,4.112173114998869,3.584543995054809,3.0173329676397715,2.436802886471037,1.864331875772579,1.318138321809852,0.8540969881984083,0.48074966257065477,0.23906936678921184,0.08935150220763742,0.027119123018490544,-0.0066748319811519435
0.0,19.0,19.0,0.0,120.0,0.0,-0.1166956496612006,0.6510205289381057,-0.38818930789713924,-107.01856956774789,0.0,-44.9586186885753,-0.3881434842863297,-0.30144865118701625,0.2565993981654562,34.270624069470855,17.560637190127487,4.660113486195572,2.9557044842841673,2.4850256821629313,2.072551984656705,1.677451620443554,1.3271326560309973,0.9611121519387305,0.6711159742938831,0.41814963342437006,0.22828811756098727,0.08051764649652211,0.04347483787711521,0.016433361841240703,0.03481512137460535,0.002090115951500172,7.030782939100152,5.227849601499381,4.616876578568691,4.134120976095974,3.600987365899298,3.0075539647807177,2.4440208854074363,1.8756165192506353,1.3508873701327178,0.8664851051419462,0.4701521762469258,0.22692223331948277,0.12067765389386925,0.0305038198183485,0.011306587358117319
0.0,20.0,20.0,0.0,120.0,0.0,-0.40365688561686386,0.10627611291416228,0.33391790695838974,-106.97767543085689,0.0,-45.021346080952554,0.6378774864393539,0.38916868177553576,0.060496482842022914,34.270624069470855,17.560637190127487,4.654507717844529,2.991260197247858,2.51135125438931,2.121682357300549,1.6606167802141207,1.3123485614591592,0.9421830326481007,0.6603028419287243,0.4225894615280886,0.23956776581663877,0.1181939137952741,0.07624997283874807,0.024633572682680273,-0.0010417905130217066,0.02115577307334473,7.000569951773365,5.2473364844719,4.6993699977122745,4.176896895782203,3.5922482995672946,3.0712604951261433,2.4474742084013292,1.900480087720987,1.3882441421465708,0.8813605815214118,0.47318264348025313,0.2681622487202197,0.08779036367602024,0.031748743766008766,0.01048050458681022
0.0,21.0,21.0,0.0,120.0,0.0,-0.298796928828561,0.20585754529705969,-0.7446163157100079,-107.16740080735732,0.0,-45.00829836849559,-0.05353112564056585,-0.8713200580325258,-0.08392686900829549,34.270624069470855,17.560637190127487,4.6515665400236585,2.956203656653978,2.4671470334227976,2.110095835600546,1.7318957456359103,1.35927890895625,0.9858616358340108,0.6660861113670465,0.3978920674133247,0.25878310827805273,0.12998313638769027,0.0648290060872953,0.0038989649018133735,-0.007867710106350463,0.01832196958324679,7.039457086988891,5.283077704762928,4.720729965315494,4.156959784433352,3.6233889137578172,3.069253948737763,2.478866904026109,1.933452089395312,1.3904883228311746,0.8977367287805099,0.5243093199464876,0.30428789424833075,0.12798207667644226,0.04133192296515234,0.021356777900660172
0.0,22.0,22.0,0.0,120.0,0.0,0.7060429221741047,-0.5870632218833294,-0.03510725873995968,-106.97719140829196,0.0,-44.99318732708798,-0.47370739583987526,-0.8283627523684984,-0.8763110901146036,34.270624069470855,17.560637190127487,4.669841588162732,3.0198846750195467,2.500648514548011,2.1144238505125643,1.721983806185729,1.320351248201397,1.0009885897286412,0.6613479684534623,0.4118656404699359,0.22993687411707228,0.1557630614813727,0.07034840984369928,0.02933593648039226,0.01163346925805031,-0.03130699935010889,6.9794659456666235,5.26494223030937,4.70184544281704,4.171212670268094,3.6339904459505767,3.0644300637069586,2.476265336125217,1.9264604883063818,1.3987206556685903,0.9029206261871046,0.5089901409303422,0.28963356077707036,0.13928019804800262,0.04004841661499341,0.027228221694991867
0.0,23.0,23.0,0.0,120.0,0.0,-0.1290424301830586,-0.12975902319090493,-0.7152692127438696,-107.02361086537987,0.0,-44.96628021248229,0.4544236312933308,0.7460773144893025,-0.2091303289211055,34.270624069470855,17.560637190127487,4.7102497338219536,3.0586637458092953,2.569948896568722,2.146563462518802,1.7016370040028725,1.331991207230048,0.9589566199794489,0.6820317710165131,0.4075525390217774,0.21055980286639675,0.13237577026842964,0.02330839177237027,-0.02519173798043218,-0.027796023138608104,-0.015532119736526162,7.048142758934816,5.314197479324883,4.748831657350293,4.221996042231615,3.676895022675944,3.049046942937233,2.4695149755379417,1.93834604453454,1.4165122385878535,0.9374662700429495,0.5379241158248229,0.2946412974271108,0.11419772883537832,0.042415370565459215,0.0027519734244204185
0.0,24.0,24.0,0.0,120.0,0.0,-0.09121758327277996,-0.059206891796958594,0.23081171734818806,-107.04744097958083,0.0,-44.915992553646646,0.38514218164081443,-0.08753417481346304,0.14982843833808146,34.270624069470855,17.560637190127487,4.6619697203851995,3.0713708279633583,2.586339607477128,2.147278370839288,1.7504545505643012,1.3677044304793389,0.9745298409564372,0.7081391067784777,0.4165336417374669,0.2615323949773416,0.14055681489814126,0.0631703268509881,0.06175928780844075,0.015604258261601021,0.009584839948890464,7.0620169179756305,5.315821790827616,4.7668623025756345,4.252997697823327,3.6651694341861685,3.0766928253232764,2.513579316801961,1.9670500223341263,1.4337516459397546,0.9413395262760054,0.5841041551414211,0.2945932344381553,0.1490117035511477,0.0942967838486075,0.04447644732403497
0.0,25.0,25.0,0.0,120.0,0.0,-0.9333269524950478,-0.6711690456712394,0.5103545354401344,-107.00094812112961,0.0,-44.97568626428094,-1.0246698057198165,-0.5216344681727685,-0.586217819077173,34.270624069470855,17.560637190127487,4.7125312455517125,3.05619628292454,2.5898730403616548,2.1635771021962356,1.7411643984909129,1.3797685880061445,0.9883347912656544,0.7086443620675191,0.43599348281974937,0.2768799583369651,0.12480691187887129,0.030169796388630137,0.013926424579728567,0.004439629743736789,0.03534101869795819,7.056108023187649,5.337576114904063,4.765586635917301,4.257270191100469,3.679116514384953,3.113703864280256,2.50120866306636,1.96163042532962,1.4428303429428389,0.9788020139541074,0.6031010697788137,0.29271540547251007,0.1494601462873546,0.06163703570855005,0.0025516472612072613
0.0,26.0,26.0,0.0,120.0,0.0,-0.4325596094259432,-0.7326552219681248,-0.007611878770520608,-107.0551324649291,0.0,-45.09377182162328,-0.7672376066878782,0.0918062434636755,0.3443656772175381,34.270624069470855,17.560637190127487,4.663307184486771,3.071683277860116,2.556467187387784,2.177610368358651,1.7752182825760892,1.382810039445375,0.956776396235313,0.7102199413704813,0.43836114131452314,0.27543188992277823,0.1506321594018162,0.05852260472913102,0.01687517287656402,-0.021326448305829183,0.038729171793034055,7.0577011861026335,5.354160871248387,4.761713737705903,4.299633120264999,3.7309780605223444,3.1091652122746147,2.5409499502468966,1.9619104103256484,1.4469464781360102,1.008690780952946,0.606426817530053,0.3289197575919488,0.18262967188475315,0.04127833065743358,0.019649214764033675
0.0,27.0,27.0,0.0,120.0,0.0,-0.42192072490514887,-0.06138108016346422,0.7056943375605897,-106.9628007071054,0.0,-45.104783785427585,-0.5178451003917853,-0.9147784835381745,-0.0019737921333755626,34.270624069470855,17.560637190127487,4.698498499430825,3.057569421972388,2.611446091382033,2.1970197973254644,1.7872713859821658,1.3405632005658716,1.0072594856992312,0.7346014809338939,0.4634207816809558,0.2887727311884289,0.16438180189708848,0.0835655953820396,0.05445406171044263,0.017273800740725674,0.016373875686081712,7.084612295845178,5.398809461761648,4.843891518594602,4.290631196599126,3.740400237149042,3.1392869942170254,2.5693823911454547,1.9615775111844236,1.4638428927460012,1.0112750723327697,0.6091798753072891,0.3360749568586353,0.14597498093823572,0.04354533108155382,0.022426626489442547
0.0,28.0,28.0,0.0,120.0,0.0,0.29967039629597436,0.9261815763382728,-0.36101784283701677,-107.00532942813392,0.0,-44.93157772826481,0.6660486376943247,0.20683182210746653,-0.39783440863546815,34.270624069470855,17.560637190127487,4.731419859104199,3.1212714071181797,2.5909741712291834,2.230825256954521,1.8223680675396006,1.3671190152636319,1.0450830893455942,0.6851042655384512,0.4900407598191325,0.26418406258485444,0.16646239364499787,0.025456487683558862,0.06476710419487086,0.015495975780363887,0.020455901833806578,7.08118623649353,5.401868069657278,4.820895646467664,4.32952021478097,3.7309745097619516,3.141368466318871,2.555108072303958,1.9903784431463805,1.4811900529232427,1.020184472161005,0.6373435664170897,0.3402500261908867,0.16141440058627093,0.11288326091642237,0.014598810742757769
0.0,29.0,29.0,0.0,120.0,0.0,0.8478165766541184,-0.2950724039343562,0.1604985756088093,-106.93906118975478,0.0,-45.02621719790527,0.9256530208760814,0.24370366931022946,0.9523815027276012,34.270624069470855,17.560637190127487,4.709992581748542,3.099277158349997,2.6271284756265474,2.2276166351380833,1.8236626745213969,1.368587030833156,1.0177272199574732,0.7119450898386988,0.4228895704980401,0.27006475598939134,0.15698637618497316,0.06385573650287939,0.04398081982964942,-0.01054272081002998,0.030604391450917263,7.089362712876254,5.406069461724176,4.864315024889671,4.349874656819998,3.765364778286353,3.171438042636189,2.5711584358645547,1.9949140924542472,1.4809312604696325,1.0269790850521916,0.6243750469703158,0.3684761812633915,0.16317344137228312,0.08530891026828182,0.026152927560073487
0.0,30.0,30.0,0.0,120.0,0.0,0.46461157129320707,0.9724145744841997,-0.10256966461506623,-107.12665394165577,0.0,-44.86095149761587,0.06970551927591231,0.8854905098419945,-0.1571628781387695,34.270624069470855,17.560637190127487,4.745268170740471,3.140397518419966,2.695679632058499,2.248529538171943,1.7920501675258451,1.3988962824418327,1.04880284331259,0.7340222843792964,0.4700374102759471,0.2532072572818437,0.1698732796887267,0.030685694431758816,0.012654547298514333,0.0301803504500074,0.02804626074550858,7.076308985197159,5.440680140175453,4.891102737784811,4.379060677737803,3.771816058828589,3.173912745225761,2.5704863559809703,1.9998794530274977,1.490171358998217,1.0366702716518819,0.6348274104547716,0.357708551567096,0.14910630158641058,0.0916250106289511,0.013200412714791889
0.0,31.0,31.0,0.0,120.0,0.0,0.5267494951247493,0.24585604778912096,-0.38908010712359875,-106.97975002737952,0.0,-44.909902339480084,-0.5702723583856819,-0.2633476890357149,0.1921706960037064,34.270624069470855,17.560637190127487,4.756534546599089,3.2044530439669345,2.6566273165775516,2.2689767398235032,1.8157440588571605,1.4098450387486028,1.026529200736161,0.7034695192711099,0.4880490374260956,0.2652594567945014,0.1560832945231996,0.049536487534522985,0.07428522377735874,0.005078059324095381,0.02320091326256235,7.083576514749923,5.472307242902832,4.920714900225421,4.355034479198916,3.7911457083394917,3.207300086930396,2.591067712976277,2.0191387040970366,1.509946602797252,1.0613371200347625,0.6609431203875793,0.3800759507744044,0.17030526321021358,0.07625435363371821,0.01763626921597025
0.0,32.0,32.0,0.0,120.0,0.0,-0.15760217448426372,0.08082277500138924,-0.32321551362096734,-107.09667666131274,0.0,-45.04556884070669,0.1778163146142165,0.4361515649662786,0.7705072224516638,34.270624069470855,17.560637190127487,4.727386695749614,3.1921550995883172,2.6940893707778732,2.3148071891918023,1.8907181465595606,1.4548943697136247,1.0650762650586827,0.7410929347611722,0.49349195734755646,0.2654730758967673,0.11687447078362984,0.06754799309386565,0.022878204157210855,0.05864077531425398,-0.018445155303998696,7.141473223399327,5.480404514741422,4.928888938391812,4.3726429976453085,3.8382605143096806,3.2044106654529196,2.5740223521944854,2.0490301037233336,1.4879537417540194,1.0738362145544245,0.6601388503999667,0.38611748456045675,0.19929236591557078,0.0814773381802873,0.04581356043754416
0.0,33.0,33.0,0.0,120.0,0.0,-0.514659406341271,0.6866353381625288,-0.4204769862320188,-107.03772509962873,0.0,-45.07244576572545,-0.9243156917946018,-0.9803624811001521,0.21897240508795468,34.270624069470855,17.560637190127487,4.752925592017212,3.2005890228519758,2.7007635112439683,2.259874222450631,1.8114265138143175,1.4491905342198197,1.0419846729368831,0.7484486232806206,0.5232217761636019,0.31715642749347395,0.13516225524663877,0.06375856326446756,0.01817855461808538,0.03364552285373539,0.020186473071859244,7.0971231043624545,5.544078603077303,4.945038133828856,4.405840922321951,3.8427249167843103,3.202494591672016,2.623270307957389,2.069590111981443,1.5478466451527095,1.0691002883969452,0.7014039868505232,0.4074260976817599,0.19890620053058197,0.09935117043176132,0.025360907246088978
0.0,34.0,34.0,0.0,120.0,0.0,-0.4639972984566034,0.11812855517394283,-0.6261882042626143,-106.92041781357183,0.0,-44.99719539276174,0.14128707977909197,-0.7318474197175073,0.2701567655275616,34.270624069470855,17.560637190127487,4.765627442883427,3.245641194805783,2.7295901157281115,2.339899808223079,1.8545135025048463,1.457956082454685,1.047356601345647,0.7520449611172778,0.47963309541702304,0.3002235662022054,0.15033236458401955,0.08257381339343897,0.015857193092418488,0.045176986169879044,-0.025605748983820828,7.116286227331131,5.533659853694451,4.9780829101866315,4.442356048532515,3.8589785080059174,3.2447535326540917,2.6016122891267184,2.0655292921905026,1.5303483907278856,1.0723377775216834,0.6954056500373529,0.4171134042965708,0.1862994493112045,0.09002148302403391,0.03705238400044781
0.0,35.0,35.0,0.0,120.0,0.0,-0.4061555609155547,-0.9471175941706087,0.9029884654515568,-107.0323177364717,0.0,-44.98973738796387,-0.3126354300022413,0.5169183189343058,-0.1074468400430868,34.270624069470855,17.560637190127487,4.747600411572084,3.2325452054148722,2.7700546326633955,2.324223025261618,1.916357022254893,1.4299841001007765,1.0636268703024,0.7515711056685367,0.47488908586230044,0.2957283520282783,0.1624838392392525,0.06848799965924007,0.056236020427621894,0.002232641230071438,0.008245019969281689,7.1186796940693196,5.538051684867931,4.95866003718444,4.467567082136175,3.8690867023877216,3.2633308269126777,2.6291980285115883,2.0673396427646766,1.5297903060525075,1.104691662421882,0.6771266684043548,0.40874635370883255,0.19023123216655166,0.07742274094318384,0.037062058125165075
0.0,36.0,36.0,0.0,120.0,0.0,0.5245370419094717,0.20177778874718544,-0.31773448716967456,-106.91321071804161,0.0,-45.02575173428251,0.1479455340228919,0.651667573566163,-0.8478042647060158,34.270624069470855,17.560637190127487,4.750251547235957,3.301858914043086,2.8196453840701987,2.3651047602012643,1.8878942783179733,1.48584946668804,1.0202195174051596,0.738315255210662,0.49824715732958047,0.31250235285745287,0.17182652810245383,0.07621838263448741,0.010542801965955893,0.029449940791325346,0.017227751054979475,7.125306053593746,5.593171373140283,5.031297046271152,4.4929592787504875,3.903984806359966,3.2546181696839938,2.6294338487989877,2.0480770131683395,1.5692959705661547,1.1113898826579216,0.6903237211565748,0.43201145080854797,0.1866854549501018,0.08739036294947389,0.02398030747495237
0.0,37.0,37.0,0.0,120.0,0.0,-0.17365559744162828,-0.7072844787994426,0.9430215513944775,-106.87419461738307,0.0,-45.06750516225,0.5098648807659265,0.6641363701353866,-0.403918820834104,34.270624069470855,17.560637190127487,4.774038394053447,3.3373784894010274,2.787121296135407,2.385267991074541,1.910085792400922,1.4582916776069823,1.06718388562493,0.7406682944430533,0.5068079115895782,0.3253717724042273,0.16783289827849066,0.09775007847966269,0.03736090943280409,0.020124091568544784,-0.018224176726188153,7.175634900623583,5.640600816971036,5.030061295901051,4.497309826164089,3.912509604353451,3.289170363542665,2.6614995368290586,2.061039247093129,1.5680825368647573,1.0980987701344684,0.7042567708224298,0.41722465298231337,0.19773003017903507,0.07918772113049966,0.02741937154419889
0.0,38.0,38.0,0.0,120.0,0.0,0.12034927158063535,-0.7374985970543424,0.23320358781399242,-106.95724180809155,0.0,-44.99811038606602,-0.5416141752696676,0.5829551501562651,-0.052267280444948216,34.270624069470855,17.560637190127487,4.8173608394748015,3.3041113836315903,2.8297479905087513,2.37041213494661,1.9240839180397376,1.4963463650111397,1.0654265953358695,0.7809115216748449,0.5135565603153939,0.33889274696791183,0.18600892325180735,0.10085890454691743,0.04628413922790386,0.012131324375333718,0.0017552709923236286,7.1473574624537735,5.631116299031803,5.082874879336204,4.522199718931865,3.923903780013974,3.2869984038458413,2.6884117222681354,2.0723133329991286,1.5470705686609643,1.1292388934495285,0.7309047187133842,0.4393351502971588,0.2112959047553235,0.10502449923170562,0.041615775577870676
0.0,39.0,39.0,0.0,120.0,0.0,0.7846222678608394,0.2935442018342309,-0.5826854651537958,-106.9647329034831,0.0,-45.01236997545185,0.8713026196009466,0.5374859662849216,-0.13366925712711386,34.270624069470855,17.560637190127487,4.800180962478781,3.3617378074465813,2.8505872907938867,2.3842488899068033,1.944039812566293,1.4898707587663578,1.0853993115860554,0.7710111899965403,0.4960278722025251,0.333952789763197,0.1708634739511627,0.0997289333104023,0.06604492242967931,0.02737368642082225,-0.004731205772505358,7.177478846978289,5.658418877263016,5.08122040790503,4.519134145731001,3.947314874440353,3.347690691830096,2.6988575310561598,2.103999616666589,1.5415588778696725,1.0929212350430373,0.7220947380873702,0.4174793679368035,0.21149454739720777,0.09688372368354739,0.05021784862845255
0.0,40.0,40.0,0.0,120.0,0.0,-0.4283699242374994,-0.6784400091256964,-0.8599477643580145,-107.10673928741724,0.0,-44.98488764730109,-0.3370796101751788,-0.925525800398779,0.4745033284823048,34.270624069470855,17.560637190127487,4.848511051077079,3.377886836689403,2.819184432396704,2.4327797345326996,1.9562617783658736,1.5220619972202891,1.0857555690825142,0.772433945489464,0.4936879961529683,0.26551401828913224,0.18823355222521065,0.06900718667142074,0.03732897976258969,0.03201855238547349,0.010656958265622967,7.197612802041921,5.680625155518821,5.068864071537558,4.591665534813281,3.9450599079223694,3.3140640200497264,2.6981881931101586,2.097981864786522,1.5655254488549508,1.0981446015715315,0.7619534167520042,0.4360641944012671,0.21334625455783573,0.09175595302573489,0.0553870570983489
0.0,41.0,41.0,0.0,120.0,0.0,0.9184517990385221,-0.6745078062450403,0.4008218987842316,-107.00762928286038,0.0,-45.02635807510069,0.225317674342218,-0.7100406752663939,-0.24805556423167419,34.270624069470855,17.560637190127487,4.850902952740357,3.395253835519316,2.8795741745071486,2.4583168241603084,1.9639099301104848,1.556802779166914,1.1129847836988132,0.8032795358116247,0.5094564744353822,0.3067819831250418,0.14401305588939078,0.07768961992614803,0.016867051648063975,0.0147280133118463,0.013672954010619326,7.189873809437802,5.709890610990511,5.145221771207712,4.578636343818453,3.9430194038773747,3.299890587322528,2.7090025055024576,2.1140495087397806,1.5933788699130607,1.1580578442324259,0.751284031470574,0.45416221970418713,0.2282379794142802,0.11195271942106284,0.03106853665433313
0.0,42.0,42.0,0.0,120.0,0.0,0.9283320226168019,0.12712771643236054,0.4495179347754059,-106.94985910331941,0.0,-44.819953947925384,0.1847724707861494,-0.19455457454612968,0.6737812934560601,34.270624069470855,17.560637190127487,4.879025846270977,3.4060038098434444,2.9554411543604586,2.5107662630896708,2.0164104320157126,1.547110324871482,1.1056620849289178,0.7368520080838461,0.5433070845458223,0.29161984688629733,0.17267038271506896,0.08849347000928616,0.03558964266556466,0.02962624592066493,0.005521515417822323,7.207590290006555,5.725940397245101,5.169574472515703,4.624625282500971,4.015898652205377,3.362226712414544,2.698011290453052,2.113223550708444,1.5830234484037853,1.1265830900703355,0.7773130874689917,0.4445246861824547,0.21728023444717298,0.10711571909638946,0.04230621331083878
0.0,43.0,43.0,0.0,120.0,0.0,-0.13623420415895549,-0.524535796843588,-0.20822003671994804,-106.81623610963288,0.0,-45.018227092429896,-0.48455193140155645,0.38556686779548266,-0.3222668832407045,34.270624069470855,17.560637190127487,4.866460384372028,3.420469114548743,2.909572089108098,2.435655940156055,1.985865468181604,1.5336007862165486,1.1318537637883102,0.7624831051283826,0.5160553784222369,0.3319009722125784,0.17541540270663483,0.07900202416120744,0.03232303841578723,0.0062559712752404285,-0.018666250268600842,7.244257056402849,5.768867031507467,5.166721754345927,4.666364247602767,4.036725714260339,3.3898182478152186,2.7215396944184587,2.11097109167507,1.607486962118759,1.1501477408830971,0.7670551426914458,0.48369389405731306,0.22450729109305825,0.10375380487488389,0.050023434499906115
0.0,44.0,44.0,0.0,120.0,0.0,-0.8091345951055182,-0.8749469072648297,0.19627450976090488,-107.03400005870932,0.0,-45.00699686642784,-0.8072970249046924,0.6923287274231134,0.6641448506956602,34.270624069470855,17.560637190127487,4.895470113578578,3.4606338847787086,2.9825609581966757,2.499887962054977,2.008558702826651,1.5366961461870212,1.1406818106576744,0.7963504046962586,0.5071851154317699,0.3099174260414522,0.1590680737242281,0.10737183418083274,0.06473593598930347,0.0019894107433026647,-0.013165008287336875,7.235095644828095,5.766276453366115,5.208986545339009,4.672676421926179,4.042593398634527,3.413202205672686,2.735552710855277,2.118315659511988,1.6261075060252,1.1488673224249046,0.7646284445295517,0.4632053939972285,0.24170437497804784,0.09917210010561443,0.04525448828976768
0.0,45.0,45.0,0.0,120.0,0.0,0.009246897441044233,0.8192658225651421,0.7188716650590301,-106.96599778496001,0.0,-44.90947820497922,0.3543557511832528,0.4259230497432085,0.1963237448327979,34.270624069470855,17.560637190127487,4.904778364972802,3.4881948672729632,2.9754171188961913,2.523223336415244,2.018509145642038,1.5268054218251519,1.1611038999006411,0.8131986881421616,0.5418831762862973,0.30338590241301144,0.20650563591469867,0.10560493091140899,0.06781318014459586,0.027097928314681434,-0.007990074281058704,7.2319163645777165,5.800088042302475,5.280044836343768,4.690798587935984,4.059926613630233,3.4172881647425,2.741713002737758,2.1574219431412613,1.615689194121878,1.1463349622279912,0.789332483443076,0.46359454320275656,0.25588012583747366,0.12606654769979347,0.042639014688486736
0.0,46.0,46.0,0.0,120.0,0.0,-0.13321530843844798,0.09689170149549753,0.7754398508997966,-107.01892656884431,0.0,-44.918251641288734,0.8925132631422035,-0.7338488220921333,0.6842499928813524,34.270624069470855,17.560637190127487,4.952147969975971,3.513128290433262,2.9698373364586144,2.5372773688810764,2.029892971391299,1.5476592409382526,1.166559405150254,0.7724967710875889,0.5402271905205679,0.31996981343336384,0.1875850897364046,0.10723659797755794,0.07334053274508968,0.015537580838967821,-0.010550051088076252,7.256524748583971,5.861524438544038,5.31160552649954,4.6823202804326405,4.071417410113634,3.4293410608172734,2.735434012524133,2.1075147933287344,1.6064637382947586,1.1458961335570397,0.7910027921112127,0.4581871502552652,0.24337066868371196,0.11560336412534009,0.068090922780605
0.0,47.0,47.0,0.0,120.0,0.0,-0.1275895204470776,-0.38974123520972515,-0.5502769402021637,-107.00772794590027,0.0,-44.80365647208663,-0.2454736987678408,0.9813437874921835,0.8187174948853964,34.270624069470855,17.560637190127487,4.960993837948765,3.5602360686365455,3.0461169620989654,2.5572723961972352,2.051073034432248,1.5527111328788512,1.152206956760542,0.7852422676591507,0.5281519774590415,0.3618593012478635,0.1591108063726844,0.0895109038573888,0.06873215556990829,0.019261419203303806,-0.032211582483285144,7.27979896264383,5.8609294707277755,5.296862998809305,4.702660369746731,4.106103330431892,3.45613468651812,2.77982349951997,2.167850635917313,1.6028077985920803,1.1682350123201954,0.7679401685261543,0.4707332393021554,0.26752390808729254,0.12114459856176625,0.037577940353748965
0.0,48.0,48.0,0.0,120.0,0.0,-0.8098783215776961,-0.9521014483741594,-0.5269386114920096,-106.93305587980797,0.0,-44.87505729183607,0.09391382527661078,-0.599762323914039,0.9051885565223503,34.270624069470855,17.560637190127487,4.973353450665354,3.5141073999659915,3.0731704670967015,2.572237581141488,2.057753986415681,1.5997117106819951,1.184577867579874,0.8159466897245212,0.5243960186993902,0.32381829811963064,0.18350474375862963,0.10883874356370744,0.02362831354505471,0.015978546253178814,-0.013243740349440602,7.313181193386996,5.8859599731204195,5.311303729385188,4.750461035524334,4.108027150798988,3.4567980262042863,2.8035516469715773,2.1645815542359252,1.622679850979409,1.1469107291835272,0.7920885570341167,0.4895629441790661,0.2399969583007876,0.12708060214056155,0.06262223992526182
0.0,49.0,49.0,0.0,120.0,0.0,0.5612116258612629,0.660900147527917,0.19619390329223574,-106.98930275116541,0.0,-44.91458244905215,-0.5932896024546696,0.3377570826045935,0.5614588814844499,34.270624069470855,17.560637190127487,4.933666235136746,3.5991123898763404,3.1176965413348965,2.589190721898559,2.108609598587505,1.6134747016029953,1.167288644846974,0.8111507061926954,0.5225619455426067,0.36650814931269965,0.21112462822188843,0.11105647190986884,0.02563626370418502,0.022719351914114963,-0.024208828825635423,7.310442976609789,5.897837053302207,5.310568089961444,4.769579456666971,4.1692406217155895,3.4592987004669453,2.797722184071291,2.1622403540090773,1.6295960032740384,1.183111799982423,0.7660549624023493,0.5109219654146501,0.2532710026942223,0.1222196769284019,0.04990032784448727
0.0,50.0,50.0,0.0,120.0,0.0,0.5061101197885483,0.7582457791727988,0.43589776750268805,-107.07298139427175,0.0,-45.025561768022285,0.06630048840014191,-0.8852832498513088,0.5499455954245862,34.270624069470855,17.560637190127487,4.985944317925931,3.6070971249498642,3.105828209210159,2.575327655994799,2.07995221203626,1.6247094882554498,1.2092369024321543,0.7828897309525578,0.5943437402539173,0.3608161196692525,0.2004463880159144,0.11080060527866793,0.04212576210804282,-0.021413049483393468,-0.0007490637496435889,7.308816547288526,5.950175566463061,5.378633939975124,4.803870191472458,4.165055651572409,3.500477619945793,2.810672878577642,2.166171467926456,1.6659610740580277,1.182397784531662,0.8090857244239223,0.4762921781671985,0.27907949140121546,0.14048134143420685,0.05496988106226205
0.0,51.0,51.0,0.0,120.0,0.0,-0.24266589601108102,0.25551801020919873,-0.607013913878607,-107.09967864887125,0.0,-45.12143903352633,-0.42905343891573255,-0.13567889006900202,-0.7955395727217169,34.270624069470855,17.560637190127487,5.075205163222798,3.6358417283493596,3.112885872472968,2.6141317646604536,2.1297847113710726,1.62070035901664,1.2256442632903959,0.8359768562552491,0.5322436247912291,0.3299279456136206,0.20854745641890526,0.09810943413873359,0.04797490379187181,-0.0033853153238265557,0.022944312085503522,7.319853728977655,5.925872311850953,5.41324848711516,4.823401178361321,4.204860986154756,3.521062169571071,2.8172323081158908,2.1715675706464665,1.6585043138979507,1.1838823182741085,0.7891510434429847,0.4963376542510361,0.29555767093135454,0.11969580855351421,0.03895869082986114
0.0,52.0,52.0,0.0,120.0,0.0,-0.9084945246971659,-0.263771845842121,-0.9980871193763037,-106.92813357149751,0.0,-44.9913544421475,0.9623430790966538,0.46101438740928025,0.42487105477453024,34.270624069470855,17.560637190127487,5.061031205042343,3.668868777563184,3.1716165856647907,2.657503161470447,2.1517634857584906,1.6280666475459156,1.1914209012061792,0.819611568645005,0.5372930382440584,0.3527064672247809,0.22484463570626562,0.10059008169538061,0.04687966271713245,0.0686735337954124,0.012266389702633572,7.373626804160612,6.003202802279662,5.421540508011123,4.871030358729968,4.202997280187239,3.5150456179647476,2.842466532949094,2.18071132971398,1.6440170253306527,1.179285081802308,0.8046045612275177,0.4718997743394129,0.2796673357405551,0.13205305994093205,0.04745945267714918
0.0,53.0,53.0,0.0,120.0,0.0,-0.058519948041549696,0.0842389819760554,-0.5604706897636014,-106.89328497594087,0.0,-45.017225552037274,-0.7825570809221024,-0.819347392169991,0.2497080796899258,34.270624069470855,17.560637190127487,5.073658689470339,3.7212685546158375,3.1906971888490236,2.634561595352534,2.1440548691498735,1.6761400277792975,1.2076653551006404,0.8504178465449538,0.5370403930012658,0.343460961774572,0.21612826444732244,0.10753010112725933,0.05808389079460852,0.027488392672380506,-0.03233001594732677,7.371248093753249,6.033759682558981,5.466442073273833,4.878255722019713,4.225851599288627,3.5519477744572874,2.838349433850361,2.214688317138953,1.642576389670206,1.1920806371194235,0.8341099090416711,0.4837668595445107,0.27681845410337375,0.11500178360142822,0.04889726952003663
0.0,54.0,54.0,0.0,120.0,0.0,-0.982323726836547,-0.7242788310228803,0.8994158462849207,-107.11223452273728,0.0,-45.020639969607956,-0.27851484004841287,0.8636862564818237,-0.09568654886825634,34.270624069470855,17.560637190127487,5.1100320890429325,3.749391116294246,3.231705354338283,2.70401625727698,2.179544665609514,1.6490119524053068,1.20473303172751,0.8201171854863037,0.5257266425263168,0.34943226675288946,0.1978651420278904,0.10613836933074686,0.033934652169044385,0.02113537637558996,-0.02362729433289067,7.406683446188878,6.032216061612452,5.475944247854857,4.9107760836462155,4.248291643763152,3.5341646113738845,2.854710724694414,2.1922739674582274,1.6622727976042804,1.1548920352763183,0.7981350717535985,0.5223386502921954,0.26955996442757046,0.14188774406391685,0.044098826080732165
0.0,55.0,55.0,0.0,120.0,0.0,-0.5662616578766562,0.04537381116832706,-0.11620829823321888,-107.01968556201336,0.0,-44.97645259844097,-0.47352699488523053,-0.38207425572454334,0.11320184736137251,34.270624069470855,17.560637190127487,5.093356614120803,3.7333993207929153,3.2662762516840154,2.7458276082349182,2.2000814916211024,1.6746267108297272,1.1735718426813417,0.8196809218846594,0.5951601568042927,0.3327647365819391,0.22200193180324476,0.08988261452884576,0.07020357967366507,0.02907133826859428,0.03093505482988277,7.402019626435397,6.117216315704989,5.5082762836096295,4.955601020646677,4.28791073436023,3.5733972490238353,2.86847401413436,2.2094206559544727,1.6780828393169984,1.1953497157019386,0.8348390798946587,0.5085637369764883,0.29852862842643757,0.11633704892260986,0.06630247104089498
0.0,56.0,56.0,0.0,120.0,0.0,0.4572472887320205,-0.7712637144790755,0.8604388218294738,-106.99019787939602,0.0,-45.00910183978442,-0.23603905848316947,-0.5652922969248095,0.5361043343266978,34.270624069470855,17.560637190127487,5.122090574094298,3.8144218324704537,3.2610924633154497,2.7335054448187925,2.212344092672812,1.6634038170023406,1.2145517402430366,0.8458187033444192,0.5460981063210716,0.3894837519280826,0.23387774555537844,0.13526404852478385,0.05284136092927991,0.06703655345740342,0.028372207396693203,7.437342337478592,6.116160883362631,5.535220214133363,4.949780546067258,4.290364941398842,3.5873905659205483,2.910527936013254,2.2245592110268566,1.6670443386580354,1.195746388255358,0.8171220022446132,0.5173896929035863,0.2890602842402398,0.14034723036165705,0.076057683384916
0.0,57.0,57.0,0.0,120.0,0.0,0.029109763335150696,-0.9932661215569096,0.9067471636281865,-107.01946809315864,0.0,-45.004604619877156,0.028405939190532154,-0.8163317449565259,-0.2736753731651447,34.270624069470855,17.560637190127487,5.131358031826932,3.81843640568371,3.236120494022877,2.7753357647424153,2.2161277704675606,1.7026689401286337,1.2311011195819217,0.8436179791298121,0.5762973957649751,0.38493292395389334,0.1983214433449469,0.09746713587368812,0.06040515856631154,0.04155540920981185,-0.014455169467893731,7.440170262506241,6.184781674716286,5.567910433419307,4.983233323090026,4.284190057858269,3.6164847601898784,2.910338754317749,2.2552558751489307,1.6735786076016281,1.1726437939429861,0.8272439223594792,0.4984733271218458,0.29204072548077903,0.143249844287782,0.07771856208910823
0.0,58.0,58.0,0.0,120.0,0.0,0.839239202401318,0.14692940139837596,0.26466918127389083,-106.99867717608078,0.0,-45.01645415972861,-0.1925089220475721,0.21872699616494118,0.5580159500859225,34.270624069470855,17.560637190127487,5.169891574360073,3.865471315999155,3.2870660750935343,2.784008922897664,2.2265399809345046,1.7048482864483585,1.2319555991236018,0.8636889325713257,0.5849249160277665,0.3592981699040855,0.19233733057035962,0.1240116756110369,0.1000723089544261,0.03742921176642163,0.004548596546105462,7.4642017801378815,6.195617721720748,5.607189885960419,5.000774269761579,4.3353477277763774,3.6332365866682896,2.9297376427954434,2.247705519114143,1.6746699311912738,1.2068025768620239,0.8088951275210212,0.5218659946269338,0.3182943275647891,0.15614454638704092,0.09397808336351965
0.0,59.0,59.0,0.0,120.0,0.0,-0.6301769308839322,-0.08094950693863656,-0.87639619255787,-106.98818650019606,0.0,-45.06403908252133,0.27124411769127477,-0.7637252477531755,-0.7592065146014433,34.270624069470855,17.560637190127487,5.197684629783368,3.8534825779357638,3.311476973909677,2.7984973699388287,2.2325431029704936,1.709912083943877,1.2842194367877895,0.8502557925787031,0.593540026124036,0.3402792075738786,0.22846706197994837,0.11314829368480586,0.06958501774655612,0.027476252394476305,0.03551899756374868,7.505377474979982,6.177976029818755,5.611688938616109,5.019672103521648,4.365878481852134,3.646383639318048,2.9334302935909196,2.244955583264459,1.7060324817275392,1.204614630022768,0.832213255864087,0.5215909426340329,0.28246701205758645,0.13719024329229582,0.04133780001568496
0.0,60.0,60.0,0.0,120.0,0.0,0.00913621416058108,-0.5598647509976811,-0.727714061212049,-106.94027941654551,0.0,-45.00623448177289,0.645679588067815,0.7088920325931405,0.7997462971897054,34.270624069470855,17.560637190127487,5.20541317832774,3.908424396092323,3.344614802775927,2.8305053369112914,2.2809813682142734,1.7380537941736751,1.2964178443783423,0.8945619544452657,0.5908974084957654,0.2995284223600449,0.17633114997499785,0.1675705026393185,0.08511322105853211,0.024365583669305014,0.012786572906627328,7.497689476268475,6.212642720891096,5.640182435941882,5.073292486062617,4.352465929542321,3.6825614491786194,2.9545032848592596,2.265707856228434,1.686590435576189,1.1991485156935835,0.8023065752705455,0.5073529807121169,0.30995016664684905,0.15088983573014278,0.05610499437603003
0.0,61.0,61.0,0.0,120.0,0.0,0.7204281645562303,0.8048575597776968,-0.26067489454952897,-107.01715648980988,0.0,-44.91158211568769,-0.6149024228665018,0.44301998690685074,-0.5180536506931455,34.270624069470855,17.560637190127487,5.245982325728627,3.964064086628932,3.339711881033472,2.864027697839775,2.3183746652150417,1.791602276704425,1.2946739217407806,0.8822235702038246,0.5673303443166461,0.3527902374352132,0.22615240763165698,0.1069682957212546,0.038214108571852035,0.04029138730420623,0.029735462557371015,7.51334896902653,6.263055737458936,5.681324244927135,5.085555956011885,4.4143332024883595,3.697442032196097,2.9423833268748742,2.2775352784847835,1.716087683111436,1.1892731373836973,0.8167954936414655,0.5377306017020663,0.3135407082614705,0.15680192753676886,0.052098239402910265
0.0,62.0,62.0,0.0,120.0,0.0,0.8761866175523274,-0.04451918493440865,0.5279309730616473,-106.82710979675966,0.0,-44.9782859315054,-0.8886467550434132,-0.8364281114826311,0.06455841089676362,34.270624069470855,17.560637190127487,5.287550121279438,3.9829641207655824,3.379656044086491,2.8458384961642786,2.266669195649682,1.7687490591059343,1.3020137769266609,0.8762047732228356,0.6071147280698694,0.35972096363204875,0.21610553372262234,0.10508935830301362,0.05496683000861567,0.02780722462112822,0.01106689875792844,7.554107658123688,6.314199350368765,5.734603318183258,5.10191971010367,4.417190482507568,3.723345220378711,2.983016314205409,2.3003759536782855,1.7189041010121453,1.194214786513176,0.8472076575520695,0.5349510616847646,0.2916897305146631,0.14116979480933547,0.060424124172841896
0.0,63.0,63.0,0.0,120.0,0.0,-0.8642747437026748,0.3680679818445636,-0.09335815993855445,-106.9740800357842,0.0,-45.01941078489813,1.0502922316162764,0.993643594571147,-0.1673491020247071,34.270624069470855,17.560637190127487,5.297040844917579,3.991121586548874,3.431818130420898,2.8980098516516897,2.3083419468334947,1.7982700955333801,1.2776757500297997,0.8363187032049458,0.598831146399802,0.32613392161732646,0.2042281601615777,0.10313283471201351,0.07248279431883303,0.06499542468958307,0.0035584991007706866,7.570400442964595,6.337197578729012,5.714522574269609,5.148392614739383,4.450753300001398,3.7235556191965906,2.951425932614279,2.2931779264118974,1.7099658966989193,1.234845111721587,0.8362270082267418,0.5255832161811315,0.31577606667070224,0.15925525967116286,0.0744769419743521
0.0,64.0,64.0,0.0,120.0,0.0,0.6644643057833419,-0.9388514416939064,-0.9048734565432808,-107.0252154398979,0.0,-45.04364765919638,-0.21537856255207782,0.8592053715865446,-0.8440380960518328,34.270624069470855,17.560637190127487,5.351982293615348,4.0437555088119845,3.4735813356797633,2.900600380383055,2.33250851992824,1.7994854153636426,1.2878396359891882,0.9090202788768716,0.579739824589387,0.3720940397714399,0.21201006699762423,0.10532490385873586,0.049296633306018856,0.030266701950381114,0.019431624721378264,7.584312827574365,6.3751112392699,5.7828575242542755,5.150690046240087,4.475693446963805,3.757900540436532,3.008974866100029,2.3170841210886266,1.7291579507305357,1.2237463083688809,0.8230771143434863,0.5109474803793563,0.34088235064711114,0.15202719507006,0.056002858741677854
0.0,65.0,65.0,0.0,120.0,0.0,0.25106680275803384,-0.4016491385522112,0.05036367970135491,-106.97678989037084,0.0,-44.98934766925818,0.2151954303741027,0.9905430802087671,0.6570891372854606,34.270624069470855,17.560637190127487,5.396736168854313,4.0805478488154625,3.463199314228674,2.9460771948702313,2.3827854754773443,1.8249604234166588,1.2953942857982201,0.8960484750401607,0.6168264217924061,0.3571410254287356,0.21930669378920503,0.09852920917372433,0.06332978441926504,0.01140687670151657,0.07242782469911749,7.6247383318554345,6.403378352544251,5.814460697533408,5.167754069778487,4.460267294940487,3.7903460868238006,3.019391140141464,2.323045779117627,1.7206406959952765,1.2210799304567548,0.8325274460102773,0.5328050378477989,0.30643380252182073,0.17204914141745103,0.06796346445922984
0.0,66.0,66.0,0.0,120.0,0.0,-0.3755638323378392,-0.8392713086121368,-0.9744893397438532,-106.97692717205688,0.0,-44.963190030675904,-0.6651113507241772,-0.7716202347372949,-0.740216241307738,34.270624069470855,17.560637190127487,5.3899142012991845,4.106914827411565,3.5240814593125447,3.00005809008645,2.383940854007046,1.8220344329684162,1.276178019903009,0.897947129911285,0.5638473959013641,0.329541016342731,0.1904665594273504,0.0964960619281485,0.07664620779443222,0.03302060425241456,0.004191728570093127,7.659877339798075,6.451247899856773,5.821243761811251,5.234868871564991,4.51581083169293,3.7835042073788068,3.024791053123893,2.3574113198072633,1.738701881113975,1.2512294688147954,0.8066370288633599,0.5315055435059324,0.3149137892683098,0.16570014827104362,0.08797329592553103
0.0,67.0,67.0,0.0,120.0,0.0,-0.9324107042217873,-0.40116472881473975,0.8295741834358603,-107.05102755679893,0.0,-44.980962635656056,0.5200203657645518,-0.5642052226075704,0.021543068995090175,34.270624069470855,17.560637190127487,5.452761561882547,4.134302306626661,3.5144429539562836,2.9535589945567873,2.367794863970641,1.8094212398634286,1.3203939450952216,0.8790750485996119,0.6659230831136085,0.3798476741796296,0.22589448926606417,0.12910458285209261,0.03708642753467743,0.027690194566137985,0.03735477939976196,7.642191872899246,6.4792863104226015,5.861480049506038,5.244832181844824,4.542641936302473,3.7931309869552043,3.0549187335593087,2.355369299118223,1.7253835695822852,1.267162380949254,0.8348342860788649,0.5400558581921852,0.2983885472930853,0.1528865391482347,0.08626874700555912
0.0,68.0,68.0,0.0,120.0,0.0,0.1682184666984048,0.1543599772041071,0.3496796127914936,-107.00262494688991,0.0,-45.05626681523161,-0.04638033423361956,-0.00018222446946336568,-0.6254426362860788,34.270624069470855,17.560637190127487,5.471070296176315,4.172331523063,3.5535705482648563,3.0195620526477818,2.424445927161763,1.8428477377152241,1.3429284707805254,0.8983800998036381,0.6220647914277933,0.3331538020887769,0.21316878953972504,0.11316355680299563,0.06925096625078586,0.01712662356048529,0.03225101598578278,7.709384586775742,6.512245667156826,5.910581062087015,5.27870631812869,4.55263671268081,3.816372134068513,3.0438989101640517,2.333339585073903,1.7596261181810204,1.2410500177199684,0.8312445710139005,0.5246877815170071,0.2987671268515639,0.17508517558826064,0.07033409089797564
0.0,69.0,69.0,0.0,120.0,0.0,-0.8444439393529715,0.013361038622838661,0.8761316625408895,-106.9468684719709,0.0,-45.06710908507827,0.40641131722074053,0.15759823121918548,0.9391239259864579,34.270624069470855,17.560637190127487,5.485582359270468,4.206186167715575,3.6109010234574237,3.033231141918797,2.471391761124781,1.838818382758105,1.3468698504710503,0.9195819483081409,0.578674738488014,0.36860219784731635,0.23639012035983892,0.07768005273679149,0.07444928717839636,0.0493988042228274,-0.02835386308339846,7.7452738530389995,6.550198779476094,5.91323469903981,5.324757183057265,4.6184330044481925,3.8579629784068272,3.0771859847719663,2.3586944570350323,1.7578478593493603,1.247750824895781,0.8478277990236802,0.5314252887957782,0.3248904206850229,0.17902615932219368,0.08213555596480576
0.0,70.0,70.0,0.0,120.0,0.0,0.3137700586528782,0.8618815871477661,0.11336859302352686,-106.97390837123416,0.0,-44.938898277267256,0.21868652649271966,-0.6289589913370988,0.2901960060513693,34.270624069470855,17.560637190127487,5.526832352144241,4.229880230620363,3.648358706013702,3.0385881292556767,2.4492921934606913,1.8772954918831462,1.343832774621455,0.8978891932266104,0.5977012555905648,0.36897491902537727,0.18601733076826113,0.09982206391423953,0.045217473115546344,0.0014383685657760464,-0.01294483819019336,7.774784384789281,6.550482255235226,5.941009222996772,5.316645215587744,4.647455236426885,3.864007123859199,3.0955852926632406,2.3570480067282076,1.7404766995718144,1.235412181084578,0.8652517279224053,0.5438255446935764,0.31826347035695074,0.19328513415767626,0.07345592897036704
0.0,71.0,71.0,0.0,120.0,0.0,0.7650513774736829,0.8221843391134382,-0.23086649706835005,-107.0291350416134,0.0,-45.051351837865994,0.6780773459854288,0.9016805984879428,-0.48552474132710843,34.270624069470855,17.560637190127487,5.613684674350423,4.275359361416311,3.6769213672780863,3.0981267467907476,2.4970048384226264,1.9028037697179188,1.3549797529329497,0.9572297189281604,0.6082753768344122,0.35706603538964926,0.2253887886718292,0.10283167433336483,0.09686993265908067,0.00011690688633710089,0.023815775209268947,7.812773193364339,6.572719576268387,6.001899766654779,5.3556268691952065,4.646022334224435,3.856945254508681,3.114845695387675,2.4074982599352572,1.7671289086895354,1.252676198938197,0.8504886214964976,0.566089112936732,0.29752958883920233,0.18961373410851542,0.050398355378506045
0.0,72.0,72.0,0.0,120.0,0.0,0.9916102668893865,-0.6231982969944274,0.592422410400177,-106.95558811317281,0.0,-45.087872608442,-0.8158638315395237,0.9480626366461071,0.6384919753450151,34.270624069470855,17.560637190127487,5.588928761203956,4.346725572970337,3.728291878331113,3.159284858807098,2.5027408842009957,1.9105248458068034,1.3626953558978756,0.8987520705999638,0.6003905520565664,0.39140398105148444,0.21758259199579474,0.12202689529994662,0.04318259604495081,0.005886156011374578,0.03794758529206403,7.852887689965465,6.620851466471392,6.020329725648892,5.371265620739139,4.6795788160110074,3.9267217951378726,3.119607156923855,2.38393884901004,1.788101187982444,1.293417928835598,0.8461773824848287,0.5586952936537859,0.32525373481145364,0.1674863809559438,0.0751393181800668
0.0,73.0,73.0,0.0,120.0,0.0,-0.7881358072834179,-0.163578167910587,-0.1392077711089892,-107.00799403411116,0.0,-45.053651538505136,0.16847034546796572,-0.6182507002445747,-0.933730573240289,34.270624069470855,17.560637190127487,5.6466381985101375,4.33703681242831,3.7005699750403473,3.135413212495656,2.4733390743271233,1.8886503655598168,1.3623343668673464,0.9542098224282581,0.5909556423177956,0.4248102008109059,0.18055957962286062,0.09643640550419322,0.02719002171223859,0.04604130002698045,-0.05826496869913058,7.857631729326017,6.6612511923817825,6.083788722833833,5.422093702030188,4.68298591297267,3.927457283619014,3.1143746455073265,2.40094408484413,1.7684307516690863,1.240545089030695,0.8828504924683325,0.5496365115880705,0.33160719791927135,0.17745205356137098,0.08453532482595034
