Line_number,Fiducial,Easting,Northing,Height,Elevation,tx_pitch,tx_roll,tx_yaw,txrx_dx,txrx_dy,txrx_dz,rx_pitch,rx_roll,rx_yaw,PX,PZ,S0X_time_1.086e-05,S0X_time_3.256e-05,S0X_time_5.426e-05,S0X_time_8.680e-05,S0X_time_1.411e-04,S0X_time_2.279e-04,S0X_time_3.689e-04,S0X_time_5.860e-04,S0X_time_9.115e-04,S0X_time_1.411e-03,S0X_time_2.192e-03,S0X_time_3.418e-03,S0X_time_5.339e-03,S0X_time_8.301e-03,S0X_time_1.338e-02,S0Z_time_1.086e-05,S0Z_time_3.256e-05,S0Z_time_5.426e-05,S0Z_time_8.680e-05,S0Z_time_1.411e-04,S0Z_time_2.279e-04,S0Z_time_3.689e-04,S0Z_time_5.860e-04,S0Z_time_9.115e-04,S0Z_time_1.411e-03,S0Z_time_2.192e-03,S0Z_time_3.418e-03,S0Z_time_5.339e-03,S0Z_time_8.301e-03,S0Z_time_1.338e-02
0.0,0.0,0.0,0.0,120.0,0.0,9.567783533811209,-24.995457485932597,1.9260783566293185,-107.0,0.0,-45.0,-4.341786574193098,-6.278330319456851,-0.5395557190036051,34.15037580619709,17.60962007248351,10.40891351373111,9.663911509043517,9.191938179937456,8.669714298218114,8.024384094726331,7.276958692358516,6.42292457998124,5.510762808315983,4.572908465270519,3.5798534320668005,2.5508789823573195,1.5984745567787957,0.8586886869283107,0.3926910787898325,0.14131265801461804,10.885211072739033,10.450796327372384,10.163318143808537,9.834640118987853,9.410864802479631,8.893454189107809,8.263118970029337,7.53629489800019,6.719586023658031,5.75566383079034,4.607893499359532,3.346969230763777,2.1522216219417145,1.2142091558334767,0.5654596518855436
0.0,1.0,1.0,0.0,120.0,0.0,-0.029728527441001518,-24.91178431175758,9.773211419780083,-107.0,0.0,-45.0,-3.1538297511887867,-8.732618759884076,2.7244475443768454,34.15037580619709,17.60962007248351,10.410413033392281,9.6654067183236,9.19342909318373,8.671198799455437,8.025857990972732,7.278415460286039,6.424336228105617,5.511794934207861,4.5721734894155395,3.575355034016064,2.5424178851084793,1.5885406742245023,0.8503392311834651,0.387369611025518,0.13882741434604293,10.890370464225015,10.455945298938675,10.168456721767663,9.839763160658425,9.415962080796335,8.898510226096775,8.26809614936676,7.540897102208662,6.722414639899853,5.753969449537068,4.599771445099057,3.3337755745771562,2.1378847532505456,1.2024807381881217,0.5582275346965619
0.0,2.0,2.0,0.0,120.0,0.0,6.481184774599889,24.9393200888427,-9.416736459180985,-107.0,0.0,-45.0,-0.9222261206108238,-1.1166461306443978,-1.2803529611237021,34.15037580619709,17.60962007248351,10.411891924706163,9.66688134076513,9.194899461116044,8.672662817116183,8.027311509751378,7.279851969247671,6.425725313654114,5.512776861409173,4.571314074034102,3.5706745496439933,2.5338075482115716,1.5785447929033165,0.8419981384794153,0.382082711325145,0.13637020579744585,10.895491923949805,10.461056363822108,10.173557418206851,9.844848358492598,9.421021580504497,8.903528554687892,8.273033915083948,7.5454364419552,6.725102247033909,5.75203954714426,4.591397777887381,3.3204053947615773,2.123476367170178,1.1907591919436968,0.551032776366743
0.0,3.0,3.0,0.0,120.0,0.0,7.069690297315123,-15.458141791149332,14.710662137038096,-107.0,0.0,-45.0,3.150354487009608,5.4378231487849575,-2.6769633545142026,34.15037580619709,17.60962007248351,10.413350882397479,9.668336068776705,9.196349973855646,8.67410703781153,8.028745332054006,7.281268883870513,6.42709212243298,5.513706391623472,4.570323544762697,3.5658020221215843,2.5250369145171465,1.5684770171704885,0.8336587584301436,0.37682699754344723,0.13393975661572455,10.90057680586574,10.466130872187335,10.178621579526078,9.849897053201552,9.426044633106704,8.908510486300413,8.277933288691575,7.54991183593359,6.727643413274067,5.7498651058857435,4.582761827833351,3.306847892847592,2.1089879006715533,1.179039382865863,0.5438731059302898
0.0,4.0,4.0,0.0,120.0,0.0,4.289188084715391,5.108291753004568,-2.5482794437924756,-107.0,0.0,-45.0,4.620674184009202,9.627012272383514,-2.6422670983501906,34.15037580619709,17.60962007248351,10.414790540379121,9.669771534192167,9.19778126118842,8.675532088173656,8.030160079426873,7.282666808912132,6.42843683760747,5.514581100857039,4.569195088843756,3.5607277935495305,2.5160956568682447,1.5583282984479356,0.8253150821200526,0.3715994272178379,0.13153491226675518,10.90562634704457,10.471170057688939,10.183650435984335,9.854910469899059,9.431032455372533,8.913457218105853,8.282795146548526,7.554321939192738,6.730032419102019,5.747437038529747,4.573853153697931,3.2930927426565524,2.094411325931734,1.1673165729788666,0.5367464470807491
0.0,5.0,5.0,0.0,120.0,0.0,-3.622059869687728,-12.839851354676634,-11.621972703084872,-107.0,0.0,-45.0,-1.2007562366180267,-3.639289482153403,-3.9677021868941886,34.15037580619709,17.60962007248351,10.416211476399075,9.671188312903565,9.199193897182862,8.676938539451994,8.031556318513823,7.284046293421085,6.429759538366226,5.51539832541712,4.567921725142987,3.5554424459366656,2.5069740901183994,1.5480903486853554,0.8169616838023411,0.36639726920917964,0.1291546299334179,10.910641674688891,10.476175044456326,10.188645108657921,9.859889725021258,9.435986156186956,8.918369839575664,8.287620222205906,7.558665134975149,6.732263242560412,5.744746170853608,4.5646615167509985,3.2791300544034425,2.0797391146199034,1.1555863958193628,0.5296509065181816
0.0,6.0,6.0,0.0,120.0,0.0,6.2566559670558135,4.921535662570818,8.389457532828537,-107.0,0.0,-45.0,-1.5582648358794113,-2.373027684594023,-1.0367448723245531,34.15037580619709,17.60962007248351,10.41761421629034,9.67258692909673,9.200588404410379,8.678326911712187,8.032934565202352,7.285407834442195,6.431060197750466,5.516155148387458,4.566496278926197,3.5499367508502773,2.497663093927367,1.5377555637327442,0.8085936689104031,0.3612180782049572,0.12679796988750422,10.915623812584089,10.481146853521478,10.193606615843986,9.864835832696167,9.440906742854853,8.923249338455392,8.292409107866838,7.562939526319172,6.734329546232985,5.741783225635728,4.55517685541956,3.264950340804769,2.0649642049223322,1.1438448337289402,0.5225847632187591
0.0,7.0,7.0,0.0,120.0,0.0,5.3269720736973465,-12.895828350968285,-11.212129943877262,-107.0,0.0,-45.0,-2.5701381264703738,-2.6017763317796394,-4.416259353532867,34.15037580619709,17.60962007248351,10.418999238295234,9.673967859571315,9.201965258260147,8.679697678145413,8.034295288905376,7.286751880825025,6.4323386802003855,5.51684838690549,4.564911361174141,3.5442016272843344,2.4881540459447153,1.5273169561588282,0.8002066275137176,0.3560596712033189,0.12446408809192694,10.920573688396079,10.486086411133396,10.198535882391516,9.86974971560101,9.445795134488916,8.928096617928684,8.297162273314873,7.567142955608942,6.736224707971802,5.73853886900102,4.545389340608967,3.2505445623261435,2.0500799864455646,1.1320881386133006,0.5155465030425769
0.0,8.0,8.0,0.0,120.0,0.0,-1.881321431039268,12.132289246373823,-2.7979259406476036,-107.0,0.0,-45.0,0.6409330957577142,-7.289817712263604,-4.655405119196995,34.15037580619709,17.60962007248351,10.420366975361045,9.675331535993328,9.203324889147833,8.68105126721489,8.035638914586547,7.28807883454097,6.4335947358780246,5.517474576680289,4.563159347824856,3.538228102221744,2.478438759653583,1.516768093365372,0.7917965934468355,0.35092010851847155,0.12215222770894239,10.92549213516362,10.49099454714726,10.203433734988552,9.874632195602775,9.45065214490727,8.932912466780486,8.301880011088121,7.571272911036211,6.737941684253598,5.735003515977097,4.535289116018215,3.2359038687686525,2.0350802269945785,1.120312986314706,0.5085346775064837
0.0,9.0,9.0,0.0,120.0,0.0,5.320732621845941,-2.642293650738271,3.376186499205769,-107.0,0.0,-45.0,3.6984088691694303,-8.440533523680337,-3.9350355280050264,34.15037580619709,17.60962007248351,10.421717819639003,9.676678349410205,9.204667687045852,8.682388067212289,8.03696582734014,7.289389054676694,6.434827997463148,5.518029960136238,4.561232365950634,3.5320072816364694,2.468509434906043,1.5061030464223801,0.7833600069245568,0.3457976734698049,0.11986171389139423,10.930379900313376,10.495872007049064,10.2083009171955,9.879484013304886,9.455478509678523,8.93769759804205,8.306562488751505,7.57532659929295,6.739473123966596,5.731167495961033,4.524866508360708,3.2210197962823877,2.0199590915212413,1.1085162888641082,0.5015480250629141
0.0,10.0,10.0,0.0,120.0,0.0,6.284183186189033,4.0682720718524195,-12.76864296948139,-107.0,0.0,-45.0,-4.304211120152523,-7.899421537395483,-1.5874133042842011,34.15037580619709,17.60962007248351,10.423052125106645,9.67800865285205,9.205994004062628,8.683708428808421,8.038276374874755,7.290682859064371,6.43603797376467,5.5185104716328715,4.559122278944623,3.5255303225713113,2.4583586113197216,1.4953163426105491,0.7748936817517168,0.3406908560681605,0.1175919473980067,10.935237649133118,10.500719454453261,10.213138090967703,9.884305828111753,9.46027488374681,8.94245264221801,8.311209729782288,7.5793009087278325,6.740811319944009,5.72702098507008,4.514111933045341,3.2058841706960908,2.004711104653328,1.0966952324837995,0.49458542221025387
0.0,11.0,11.0,0.0,120.0,0.0,4.103773202692722,-18.875110731444057,1.9876305502723852,-107.0,0.0,-45.0,3.0130235393626705,-6.838074360967125,3.889568995908089,34.15037580619709,17.60962007248351,10.42437021032551,9.679322764078124,9.207304157176983,8.685012667774359,8.039570870191826,7.291960525998034,6.4372240428332566,5.518911722805654,4.556820673994765,3.518788409784627,2.4479791281057564,1.484402924034932,0.7663947759394192,0.3355983378091885,0.11534239912185582,10.940065969126282,10.505537475421544,10.217945840938365,9.889098222461953,9.465041845567418,8.947178150675086,8.315821610092538,7.583192397399296,6.741948199297561,5.722553994421642,4.503015873048691,3.190489082455784,1.9893311290766913,1.0848472641904885,0.4876458753848278
0.0,12.0,12.0,0.0,120.0,0.0,-8.808062154622153,-5.175548806390239,0.2159847345210153,-107.0,0.0,-45.0,-0.34609683466230834,0.7909249370850286,-0.10224708248128689,34.15037580619709,17.60962007248351,10.42567236099187,9.68062096811757,9.20859843076793,8.686301067499887,8.040849594064294,7.293222295582181,6.438385444027624,5.519228987398278,4.554318850897628,3.511772735622233,2.4373640888325863,1.4733581111318703,0.7578607654875836,0.3305189779086328,0.11311260508218572,10.94486537409081,10.510326582528924,10.222724678471874,9.893861705866556,9.469779901104221,8.951874598867088,8.32039785396916,7.586997280982208,6.7428753150108935,5.717756360416421,4.491568860665905,3.174826865122546,1.9738143461676518,1.0729700784352678,0.4807285143277704
0.0,13.0,13.0,0.0,120.0,0.0,3.6621537343139448,-19.625073298330253,-13.539701876284347,-107.0,0.0,-45.0,-3.2010113296673968,-4.523810171978222,-4.675126477604799,34.15037580619709,17.60962007248351,10.426958832292557,9.681903519616268,9.209877078951424,8.687573881320546,8.042112797325794,7.294468370693419,6.439521268974378,5.519457185540348,4.551607811981331,3.50447448261372,2.4265068305096,1.4621775705186824,0.7492894210016313,0.32545180084196645,0.11090216182541514,10.949636307921306,10.51508721865445,10.22747504544282,9.8985967186749,9.474489487556255,8.95654238915616,8.324938029015653,7.59071141991893,6.74358383781846,5.712617735627371,4.4797614604214475,3.1588900757300697,1.9581562384310962,1.0610616049080133,0.473832585948919
0.0,14.0,14.0,0.0,120.0,0.0,-1.6237919953729563,16.582571954735755,11.030650524779123,-107.0,0.0,-45.0,-2.498333391151829,-9.17532278994904,3.6880331274526608,34.15037580619709,17.60962007248351,10.42822985108499,9.683170645008701,9.211140327742939,8.688831334671747,8.043360702988393,7.295698917540389,6.440630451369202,5.519590867453458,4.548678252968676,3.4968848083840736,2.415400896471947,1.4508572867124843,0.7406787868453073,0.3203959850553195,0.10871072219548128,10.95437914815898,10.519819760520571,10.232197317764562,9.903303635591358,9.479170976836453,8.961181853230627,8.329441540060134,7.594330305807899,6.744064548303138,5.707127580183687,4.467584253080662,3.14267147691333,1.9423525736260652,1.0491199974169203,0.46695744864655264
0.0,15.0,15.0,0.0,120.0,0.0,3.5435342724524226,-10.99076883581047,10.032037274747289,-107.0,0.0,-45.0,-0.6401676980572688,-7.468607675605483,2.976635431418142,34.15037580619709,17.60962007248351,10.429485617918306,9.68442254453176,9.21238837706274,8.690073627086601,8.044593508204807,7.296914065800901,6.441711755562758,5.519624196579918,4.545520554647101,3.4889948325329887,2.404040012616871,1.4393935373006521,0.7320271625653504,0.3153508527291188,0.10653799143786755,10.95909420931117,10.524524522003004,10.236891808689,9.9079827689644,9.483824678823277,8.965793254114194,8.333907621989344,7.59784904702964,6.744307829160279,5.701275153545673,4.455027820699286,3.1261640207187673,1.9263993904684296,1.037143623761042,0.4601025670453581
0.0,16.0,16.0,0.0,120.0,0.0,7.997041115735428,-23.210964685269047,1.4169577896648917,-107.0,0.0,-45.0,2.114164382929556,-6.53698235443267,-3.5423407112230922,34.15037580619709,17.60962007248351,10.430726308910895,9.685659394095746,9.213621402598998,8.691300934052322,8.045811386089088,7.298113908308556,6.442763763871179,5.519550932137997,4.5421247752388725,3.4807956251856207,2.392418066601888,1.4277828711951592,0.723333086352988,0.31031586048848814,0.1043837236053961,10.96378174596022,10.529201757230528,10.241558771896873,9.912634371866988,9.488450844403472,8.97037678775548,8.338335331463776,7.6012623536147785,6.744303657585401,5.695049506574403,4.442082732645878,3.109360834007333,1.9102929858065627,1.025131056520375,0.4532675071183634
0.0,17.0,17.0,0.0,120.0,0.0,-4.76049959790275,13.67450214610895,-8.455588940656538,-107.0,0.0,-45.0,-1.9901862251956137,5.402068273089579,-4.986673854804793,34.15037580619709,17.60962007248351,10.431952077498048,9.68688134702603,9.214839557542208,8.692513408738336,8.047014487407612,7.299298500253713,6.44378486254681,5.519364411114914,4.5384806433856335,3.472278196961696,2.380529089667966,1.4160220896471047,0.714595320333488,0.3052905909655921,0.10224771823709206,10.968441955679172,10.533851663492248,10.246198404396008,9.91725864098539,9.493049668322367,8.974932584181548,8.342723537465204,7.6045645213634545,6.744041597750561,5.688439473805902,4.428739532534008,3.0922552053650523,1.8940299031741041,1.0130810646941604,0.4464519316614097
0.0,18.0,18.0,0.0,120.0,0.0,9.315926463134254,1.0588650152321293,-0.9075545236451745,-107.0,0.0,-45.0,2.3081335364238935,5.364611791233969,-4.637587724320143,34.15037580619709,17.60962007248351,10.433163056061996,9.688088535687786,9.216042974203207,8.693711183607983,8.048202942150537,7.300467857856486,6.4447732263417965,5.519057529715749,4.5345775516770495,3.463433490146416,2.3683672407970904,1.4041082297363383,0.7058128374979901,0.30027474512905444,0.1001298172843289,10.973074981770463,10.538474383968268,10.250810849243408,9.92185571933207,9.49762129185601,8.979460708192605,8.347070910623382,7.607749415228957,6.743510793338776,5.681433665846413,4.414988726003694,3.074840573439183,1.8776069226302463,1.000992606123507,0.43965559609131066
0.0,19.0,19.0,0.0,120.0,0.0,-3.034642666728944,0.763705752885528,-4.342883775680223,-107.0,0.0,-45.0,-2.9948972560738607,5.896416970480651,-2.2468142699550553,34.15037580619709,17.60962007248351,10.434359357455477,9.68928107300459,9.217231765525693,8.694894371924407,8.049376860992052,7.301621956461034,6.445726801594131,5.518622724291988,4.530404550664769,3.4542523708775867,2.35592679295382,1.3920385500856032,0.6969848101122215,0.2952681353041973,0.09802990226097842,10.977680915842061,10.543070010298178,10.255396198105478,9.926425698796585,9.502165805317905,8.983961159569148,8.35137591126569,7.610810451982351,6.742699960109048,5.674020461810671,4.400820769295597,3.057110516623599,1.861021051805364,0.9888648206398033,0.43287834454134655
0.0,20.0,20.0,0.0,120.0,0.0,4.837318169591541,-0.6430959801386678,4.595200360548954,-107.0,0.0,-45.0,-3.113864911948705,-3.479504882244189,0.40385545977365744,34.15037580619709,17.60962007248351,10.43554107642868,9.690459053880927,9.218406026503096,8.69606306916014,8.050536336645678,7.302760727991996,6.446643287762836,5.518051951778952,4.5259503433114485,3.444725622189336,2.343202121195762,1.3798105185785874,0.6881105994546904,0.29027067881551605,0.09594789159656492,10.982259800234127,10.547638585000417,10.259954493669436,9.930968622547272,9.506683250411003,8.98843387275568,8.355636776129568,7.613740582177467,6.741597378465227,5.66618800173008,4.386226058566635,3.0390587440220846,1.844269518075861,0.976697023884816,0.42612010622980573
0.0,21.0,21.0,0.0,120.0,0.0,-5.9416729653669424,3.218292394164191,6.780926691096539,-107.0,0.0,-45.0,4.345672564611373,8.847240098367006,-4.957664529259075,34.15037580619709,17.60962007248351,10.436708290968594,9.691622556537315,9.219565835508682,8.69721735431872,8.051681445118897,7.303884057704429,6.4475201173373975,5.517336669675949,4.521203279830311,3.434843937775684,2.330187692468721,1.367421801887996,0.6791897467529955,0.2852823921897672,0.0938837381734515,10.98681163030823,10.55218010375441,10.264485731917803,9.935484487295318,9.51117362243409,8.992878715978495,8.359851503674822,7.61653227143912,6.740190886001809,5.657924178862567,4.371194919900956,3.0206790876239467,1.82734976179897,0.9644887017528765,0.41938089207905777
0.0,22.0,22.0,0.0,120.0,0.0,-2.597834213716115,-22.782217327916314,1.489190570217822,-107.0,0.0,-45.0,-2.6884547882281207,7.681497871211359,0.9750885787640868,34.15037580619709,17.60962007248351,10.437861063558836,9.692771643766172,9.220711255546963,8.698357291176139,8.05281224686926,7.304991780148718,6.448354434044631,5.516467815607643,4.51615135287456,3.4245979163563107,2.316878056929244,1.3548702566432087,0.6702219652007415,0.2803033858638994,0.0918374270307963,10.99133635660998,10.556694517556329,10.268989864276792,9.9399732454316,9.515636872349603,8.99729548974674,8.364017837930263,7.619177481099852,6.738467869997821,5.649216631840213,4.355717599975806,3.001965495632333,1.8102594305433448,0.9522395054092536,0.4126607915646674
0.0,23.0,23.0,0.0,120.0,0.0,2.316266574270461,23.902743284928917,13.921365681325238,-107.0,0.0,-45.0,4.89469644939002,2.987294263270911,-1.6116704639511958,34.15037580619709,17.60962007248351,10.43899944236712,9.693906364115524,9.221842335433513,8.699482929448756,8.053928787861581,7.306083674261006,6.449143069275421,5.515435786509368,4.510782193037903,3.413978056544018,2.303267840661023,1.3421539220876497,0.6612071329502551,0.27533385934763627,0.08980897321971759,10.995833886914912,10.561181734758284,10.273466799648359,9.944434807045953,9.520072908718136,9.001683924678334,8.368133250806892,7.62166764821329,6.736415259827475,5.640052736594499,4.339784257347924,2.982912026891509,1.792996374257667,0.9399492468425994,0.4059599697753293
0.0,24.0,24.0,0.0,120.0,0.0,4.84392423678597,19.311227498223644,-8.261818929197604,-107.0,0.0,-45.0,-1.6188338168662222,5.73985949457488,-3.088434422216426,34.15037580619709,17.60962007248351,10.44012346236712,9.695026753007122,9.222959110909924,8.700594305893954,8.055031100523005,7.307159457478327,6.449882516653821,5.514230417482929,4.505083064628107,3.402974752128079,2.28935173967228,1.329271014094474,0.6521452869871844,0.270374096795091,0.08779841979541672,11.00030408816669,10.56564162299999,10.277916406335153,9.948869041837412,9.52448159950257,9.00604367858314,8.37219492280813,7.623993664974526,6.734019519252255,5.630419598003302,4.323384954331649,2.9635128463651466,1.7755586413239879,0.9276178949123667,0.3992786646659521
0.0,25.0,25.0,0.0,120.0,0.0,-8.913983159534634,20.15106275380365,-5.36275386573862,-107.0,0.0,-45.0,0.6594640287767017,-7.142237426573188,2.793521057270306,34.15037580619709,17.60962007248351,10.441233146400386,9.696132833794675,9.22406160569958,8.701691445348848,8.056119204589507,7.308218778764874,6.450568904671178,5.512840960373005,4.499040861674769,3.391578287700849,2.2751245150794985,1.3162199204250178,0.6430366178027227,0.2654244629442026,0.0858058359333941,11.004746788315742,10.57007401104092,10.282338513866183,9.9532757809233,9.528862773742356,9.010374332726323,8.376199722066456,7.626145857580123,6.731266638554287,5.620304041206829,4.306509649445873,2.9437622216236545,1.7579444754477156,0.9152455718552496,0.392617184487546
0.0,26.0,26.0,0.0,120.0,0.0,-5.672714422264349,-19.211804514461654,4.033836551966651,-107.0,0.0,-45.0,-1.7488287410197434,0.47771374530648814,1.4176197505480195,34.15037580619709,17.60962007248351,10.442328506183957,9.697224618767658,9.225149832509764,8.702774361712182,8.057193107833735,7.309261210422773,6.451197967310002,5.511256062117591,4.4926421041309705,3.3797788345672326,2.2605809893989353,1.3029991971288124,0.6338814647880723,0.2604853993864437,0.0838313151579473,11.00916177806574,10.574478690500484,10.286732914730951,9.957654818554252,9.533216223095804,9.014675387185049,8.380144181635211,7.628113964562073,6.728142126465594,5.609692602543915,4.289148190412695,2.923654520303909,1.7401523133405956,0.9028325502171675,0.3859759053785479
0.0,27.0,27.0,0.0,120.0,0.0,-8.353273543862578,-20.814963861175446,13.308220420360694,-107.0,0.0,-45.0,-4.002127784009363,2.229647790792715,-4.123987233628565,34.15037580619709,17.60962007248351,10.443409543268245,9.698302110105265,9.22622379398488,8.703843058873808,8.058252806659507,7.310286238546463,6.45176501258447,5.509463742928558,4.4858729342261165,3.3675664468870536,2.2457160438814365,1.2896075659966018,0.6246803122830199,0.2555574211326852,0.08187497367221491,11.0135488125347,10.578855417512798,10.291099366028613,9.96200591374167,9.537541703245152,9.018946255200378,8.384024474964704,7.629887114631563,6.724631001841366,5.5985715200633654,4.271290307695903,2.903184208510534,1.7221807831571703,0.8903792501800094,0.3793552691034066
0.0,28.0,28.0,0.0,120.0,0.0,-8.364964160897863,17.4447713908377,0.628254967578421,-107.0,0.0,-45.0,4.3001037847251204,-5.309624234739456,1.373450475135888,34.15037580619709,17.60962007248351,10.44447624994981,9.699365300784994,9.22728348361512,8.704897531595757,8.059298286543173,7.3112932519644,6.452264888927949,5.507451374360687,4.478719112923817,3.354931058010804,2.2305246168385704,1.276043912988625,0.6154337862175624,0.2506411134439989,0.07993694877996006,11.017907612836579,10.583203914302135,10.295437591038361,9.966328791803278,9.541838935155335,9.023186256414903,8.38783638949204,7.6314538040690625,6.720717785017899,5.58692672356857,4.252925608573106,2.8823458501329466,1.7040287036490271,0.8778862372541414,0.3727557809251638
0.0,29.0,29.0,0.0,120.0,0.0,-0.9778834787433404,-21.964900787587606,2.056618673853439,-107.0,0.0,-45.0,0.23717908403163968,2.1078911393951127,3.348975393945045,34.15037580619709,17.60962007248351,10.445528610142874,9.700414175449653,9.228328886604597,8.705937766348748,8.060329522296001,7.31228152949622,6.452691949363065,5.505205657329103,4.471166016435448,3.34186247697863,2.2150017029192868,1.2623072875706902,0.6061426512912552,0.2457371288989807,0.07801739739007252,11.022237867589158,10.587523870684631,10.299747280716488,9.970623145832285,9.546107606173555,9.02739460887444,8.391575298276555,7.632801873697851,6.716386488789002,5.574743824157948,4.234043571740538,2.8611341070578837,1.6856950840048364,0.8653542203100754,0.3661780075995383
0.0,30.0,30.0,0.0,120.0,0.0,0.6554782860329205,17.74617628712027,3.4193899571017745,-107.0,0.0,-45.0,3.051895583543157,3.7111512041440875,3.9338135839733237,34.15037580619709,17.60962007248351,10.44656660021327,9.701448711236344,9.229359980702439,8.70696374210738,8.061346478114222,7.31325022533606,6.453040013395229,5.502712600135765,4.4631986327354385,3.3283503851615426,2.199142353305783,1.2483969028988697,0.5968078086401265,0.24084618467137842,0.07611649459560373,11.026539234352768,10.591814945500932,10.30402809512518,9.974888638094821,9.550347370951497,9.031570419658689,8.395236129614517,7.633918485477164,6.711620608925402,5.562008103227103,4.214633542454165,2.8395437402615658,1.6671791243473364,0.8527840499241094,0.35962257547888776
0.0,31.0,31.0,0.0,120.0,0.0,4.8412719560391455,17.541915886546896,1.4564035975766707,-107.0,0.0,-45.0,2.0290621908552167,4.900982648051983,-4.7596845737265845,34.15037580619709,17.60962007248351,10.447590189778177,9.702468878570757,9.23037673700012,8.707975431107212,8.06234910737515,7.314198352355439,6.4533023265784,5.499957496565858,4.454801558020478,3.314384333032485,2.1829416768066054,1.2343121368017063,0.5874302939458963,0.23596905999405937,0.0742344323197315,11.030811341004725,10.596076767984638,10.308279664797618,9.97912490136012,9.554557852166834,9.035712673992652,8.39881333457104,7.634790098750086,6.706403114153451,5.548704500903408,4.194684728216726,2.8175696117711406,1.648480216861643,0.8401767170145257,0.3530901687150579
0.0,32.0,32.0,0.0,120.0,0.0,1.037153056101456,4.26546020952744,-3.1775615076217285,-107.0,0.0,-45.0,3.0078797632077023,3.3989853040196127,-2.36075136593728,34.15037580619709,17.60962007248351,10.448599342474642,9.703474641929553,9.23137912069783,8.708972799566487,8.063337352127343,7.3151247631001395,6.453471517710091,5.496924904113264,4.445958993049688,3.29995373706376,2.1663948418321888,1.2200525335154817,0.5780112759458494,0.23110659378716808,0.0723714180217512,11.035053787053318,10.60030893907032,10.312501592043445,9.983331540167555,9.558738641013424,9.039820222675441,8.402300852370901,7.635402446178394,6.70071643549981,5.534817603887475,4.174186195023761,2.7952066874892543,1.629597947531771,0.8275333517462018,0.34658152755076793
0.0,33.0,33.0,0.0,120.0,0.0,-5.237196586319801,20.73232845373733,13.26407658057505,-107.0,0.0,-45.0,1.886135543257291,5.6943650729122215,-3.0235155014822435,34.15037580619709,17.60962007248351,10.449594016699683,9.704465960573716,9.232367091842445,8.70995580837512,8.064311142211226,7.316028128236784,6.4535395536230995,5.493598622392482,4.43665473929902,3.2850478767556397,2.1494970792458106,1.2056178061343887,0.5685520553055924,0.22625968243000957,0.07052767345670763,11.039266144895462,10.604511032645314,10.3166934521986,9.987508132034487,9.562889297422624,9.043891767648844,8.405692073596576,7.635740509393177,6.694542454899099,5.520331632681281,4.15312686418799,2.77245004088057,1.6105320984652733,0.8148552226827808,0.3400974466897435
0.0,34.0,34.0,0.0,120.0,0.0,-6.015616250819202,-14.035767361254663,-10.877496449944232,-107.0,0.0,-45.0,1.584561588040243,8.707501852860432,1.931671179909288,34.15037580619709,17.60962007248351,10.450574166324413,9.705442789255011,9.23334060603919,8.710924413752958,8.06527039393212,7.316906912184555,6.453497691552859,5.489961671790163,4.426872194857756,3.2696558918096397,2.1322436860889025,1.1910078397428094,0.5590540638196327,0.22142927765769055,0.06870343348282217,11.043447961021334,10.60868259674857,10.32085479482298,9.991654228608455,9.56700934996845,9.047925845511731,8.408979801147485,7.63578849438421,6.687862492951554,5.505230428187532,4.131495509764678,2.7492948575229716,1.5912826507876874,0.8021437361665661,0.33363877373631723
0.0,35.0,35.0,0.0,120.0,0.0,-8.585284886612861,8.599248515355853,3.9846230969682317,-107.0,0.0,-45.0,2.4015481806166523,-6.157979487614266,-2.419565674356302,34.15037580619709,17.60962007248351,10.451539741384455,9.706405078897882,9.23429961513878,8.711878567879099,8.066215008191762,7.317759345647761,6.453336429072664,5.4859962724039715,4.416594349991737,3.253766779468539,2.1146300301859493,1.176222695201864,0.5495188639075578,0.21661638456491764,0.06689894491129958,11.047598757169876,10.612823154720525,10.324985144849604,9.995769356767394,9.571098295399384,9.05192080877092,8.41215620892322,7.635529806644464,6.680657295707402,5.489497437669957,4.109280756606404,2.725736440531417,1.5718497880912101,0.7894004359072359,0.3272064076956318
0.0,36.0,36.0,0.0,120.0,0.0,-8.38719614504104,-20.70294995531648,11.600227652848009,-107.0,0.0,-45.0,-0.7389997972741122,-4.650951704385557,-1.2394913418945475,34.15037580619709,17.60962007248351,10.452490688748416,9.707352777258485,9.235244067901373,8.71281821949322,8.067144867964835,7.3185833947443735,6.453045451603669,5.481683823309694,4.405803782293591,3.2373693920538633,2.0966515556395917,1.1612626135667936,0.5399481483755364,0.21182205970051685,0.06511446539360653,11.051718031438517,10.61693220630732,10.329084003688662,9.999853019671383,9.575155597727118,9.055874804602453,8.415212798202333,7.6349470260768575,6.672907020344637,5.4731157000703945,4.086471079079746,2.701770216865949,1.5522339004234609,0.7766270027613603,0.32080129752605935
0.0,37.0,37.0,0.0,120.0,0.0,-8.69565551763423,3.4797769322701235,-1.9309277411014296,-107.0,0.0,-45.0,-3.303353826497096,-3.1894696762170778,4.147864082699833,34.15037580619709,17.60962007248351,10.453426952765984,9.708285829562262,9.236173910637957,8.713743314468804,8.068059834984984,7.319376726405324,6.452613577522399,5.477004882187413,4.3944826513373085,3.220452434740751,2.0783037892318603,1.146128021115642,0.5303437404147989,0.20704740923730205,0.06335026234164122,11.055805259350992,10.621009228723306,10.333150850290036,10.003904697769187,9.579180686788574,9.059785750880692,8.418140351698085,7.634021881659181,6.664591219596444,5.456067830684193,4.063054800481407,2.677391744540304,1.532435588804144,0.7638252546851471,0.3144244407357353
0.0,38.0,38.0,0.0,120.0,0.0,-0.8628777851032847,-11.79585319119673,-5.254107694987599,-107.0,0.0,-45.0,-4.046231153733601,-1.6990154934038806,1.0065799327473801,34.15037580619709,17.60962007248351,10.454348475896419,9.70920417912095,9.237089087829462,8.714653796356934,8.068959745478615,7.320136669699533,6.4520287009065,5.471939145326877,4.382612692752222,3.2030044636188673,2.0595823477526665,1.1308195349734411,0.5207075938100644,0.2022935872029135,0.06160661187665052,11.059859894886927,10.625053677675687,10.337185142168009,10.007923849762841,9.583172956181055,9.063651309216214,8.420928885284408,7.6327352258492835,6.655688824774822,5.43833600520201,4.039020093196322,2.652596720751793,1.5124556702588259,0.7509971468436285,0.3080768820154415
0.0,39.0,39.0,0.0,120.0,0.0,-0.6055257265258582,10.994974646886725,-12.699028876815273,-107.0,0.0,-45.0,0.9915802105427822,-3.4253828659809678,0.8603386818170025,34.15037580619709,17.60962007248351,10.455255199317849,9.710107767929369,9.237989542722655,8.715549606897065,8.069844404755315,7.32086017272009,6.451277731977547,5.466465428017388,4.370175211629854,3.185013884097682,2.0404829462813985,1.1153379693191345,0.5110417933319539,0.1975617937580527,0.059883797803116555,11.063881371477505,10.629064988355475,10.34118631639188,10.011909913532856,9.587131760451252,9.067468854726775,8.42356759739677,7.631067008695962,6.646178127226999,5.419901943132849,4.014354979645342,2.6273809909577417,1.4922951833600353,0.738144771859811,0.3017597119004335
0.0,40.0,40.0,0.0,120.0,0.0,3.4088214053133754,22.678733717003645,-11.345086607376034,-107.0,0.0,-45.0,-2.8404116073280483,-7.663494385594147,1.140209985188637,34.15037580619709,17.60962007248351,10.456147065323034,9.71099653903596,9.238875219683159,8.716430688249606,8.07071358215098,7.321543756297575,6.4503465368223925,5.460561646527701,4.35715107585895,3.1664689494442144,2.0210014058526284,1.0996843403421463,0.5013485568978622,0.19285327310950992,0.0581821105892976,11.067869077896075,10.633042551314679,10.345153765464772,10.015862281971778,9.591056386449566,9.071235417634348,8.426044792457047,7.628996230343804,6.636036742292676,5.400746886598121,3.9890473496733074,2.6017405869786905,1.471955379208779,0.7252703587193173,0.2954740665039533
0.0,41.0,41.0,0.0,120.0,0.0,1.7419588216451913,24.626926834701187,14.15669493239307,-107.0,0.0,-45.0,-2.0946922150837533,5.896785844966603,3.243782525568532,34.15037580619709,17.60962007248351,10.45702401846788,9.711870437703181,9.239746065371321,8.717296984088364,8.071567003346491,7.322183461670474,6.44921987445276,5.454204800353575,4.343520709240167,3.147357761360794,2.0011336643643514,1.0838598725324229,0.4916302355228883,0.1881693129225208,0.05650184623128842,11.07182242568531,10.636985779908175,10.34908690474928,10.019780370242719,9.594946114686776,9.074947710813056,8.428347888341738,7.626500970568331,6.625241628651044,5.3808515929818945,3.9630849216357205,2.575671663793611,1.4514377681662813,0.7123762768792021,0.2892211234634114
0.0,42.0,42.0,0.0,120.0,0.0,1.343021289407746,-19.56711132649299,4.043829023676551,-107.0,0.0,-45.0,2.594637622588224,6.720758054986316,-0.7509123910624016,34.15037580619709,17.60962007248351,10.45788600116509,9.712729406974434,9.240602024282213,8.718148434976197,8.072404335023249,7.322774786732482,6.447881326055675,5.447370949158647,4.329264078896071,3.1276682686083865,1.9808757906143455,1.0678660122862176,0.48188931157178483,0.18351124196308122,0.05484330553951618,11.075740797863771,10.640894058987671,10.352985121172164,10.02366356445491,9.598800161441567,9.07860203678557,8.430463309833776,7.6235583175532495,6.613769031533596,5.360196308690086,3.936455278894023,2.549170569917933,1.430744095117967,0.6994650341618883,0.28300210278765386
0.0,43.0,43.0,0.0,120.0,0.0,-3.876189571172155,10.156744749237994,12.605717782875793,-107.0,0.0,-45.0,3.6277434327155103,-8.98247582323102,0.7693442217617097,34.15037580619709,17.60962007248351,10.458732960163095,9.71357339417987,9.241443045265576,8.718984984737329,8.073225178386284,7.323312627478762,6.446313233634772,5.4400352008296675,4.314360691345374,3.107388272705657,1.9602239994205612,1.0517044357313157,0.47212839876305707,0.17888042517821426,0.05320679544962816,11.079623560777247,10.644766761936161,10.35684779543207,10.027511251505036,9.602617713253974,9.08219430395585,8.432376524572947,7.620144485027193,6.601594670401401,5.338761055769317,3.909146271008545,2.522234251911663,1.4098763971989206,0.6865389045829002,0.2768184796309664
0.0,44.0,44.0,0.0,120.0,0.0,3.892912823434262,-6.935327792319839,4.293112198036507,-107.0,0.0,-45.0,1.83836038682621,-0.36129066909123253,3.670941081994023,34.15037580619709,17.60962007248351,10.459564837789085,9.714402342032411,9.24226907245469,8.719806570914814,8.074029043765764,7.323791196157672,6.44449661929146,5.432171680939649,4.298789567919507,3.086505414946257,1.939174651703651,1.035377050273469,0.4623502508629726,0.17427827201889728,0.051592620968906475,11.083470055037166,10.648603226013885,10.360674261744734,10.031322755280375,9.606397814269334,9.085719809574693,8.434071715555078,7.616234366727417,6.588693079445952,5.316524697513446,3.8811448123159704,2.4948590661040773,1.3888368748193514,0.6736010515777034,0.2706713381489517
0.0,45.0,45.0,0.0,120.0,0.0,3.6908178670183034,23.870111549282115,-5.073414219140904,-107.0,0.0,-45.0,1.3648029798527457,8.898597420601412,2.37997038748445,34.15037580619709,17.60962007248351,10.460381581523771,9.715216198323384,9.243080055047125,8.720613134363784,8.074815341947119,7.324203953408197,6.442411125388812,5.4237535266002395,4.282529245808628,3.06500719292865,1.9177242827351757,1.0188860115258864,0.4525577552411776,0.16970622483294986,0.050001091296447926,11.087279611669889,10.65240278407391,10.364463855104285,10.03509740702259,9.610139463494283,9.089173353989702,8.435531987727328,7.6118019272062245,6.575038208297195,5.293465833212294,3.8524380905868467,2.467041988526343,1.3676280397882732,0.6606544087830202,0.2645620135516192
0.0,46.0,46.0,0.0,120.0,0.0,-2.8008699174188,4.160916840561228,-10.295628758619685,-107.0,0.0,-45.0,2.3709894665892337,-2.5857671005682903,-1.0456457734068971,34.15037580619709,17.60962007248351,10.46118314160774,9.716014913472046,9.243875944748618,8.721404616090954,8.075583358778545,7.324543519399138,6.4400349387586795,5.4147528641069,4.2655577603486385,3.042880959271032,1.8958696138118871,1.0022337308599965,0.44275393626070236,0.16516576041232842,0.04843251658786973,11.091051548136088,10.656164755502337,10.36821589712259,10.038834523240311,9.613841565779854,9.092549122956294,8.436739214143577,7.606820033515519,6.5606031807597,5.269562479628965,3.8230131827170837,2.4387802413951016,1.3462526786075304,0.6477020467519167,0.2584918805784905
0.0,47.0,47.0,0.0,120.0,0.0,7.3952422485631715,-18.710748962770566,13.560989413491644,-107.0,0.0,-45.0,4.647922856577718,-7.235258586350759,4.392361844635053,34.15037580619709,17.60962007248351,10.461969471441318,9.716798440914214,9.244656696084176,8.722180956806255,8.076332228498455,7.324801580436369,6.4373447173035965,5.40514079000061,4.247852630324294,3.020113926063915,1.8736075695894672,0.985422885926337,0.43294195635600285,0.16065838828260914,0.046887206996496164,11.094785169307432,10.659888447135307,10.371929696855593,10.042533406005047,9.617502915002058,9.095840619052067,8.437673967438156,7.601260420870923,6.545360254340752,5.244792046969395,3.7928570591299993,2.4100713058681813,1.3247138612144624,0.6347471787027453,0.2524623493153872
0.0,48.0,48.0,0.0,120.0,0.0,9.23913608445308,4.839599697212066,5.10957707397456,-107.0,0.0,-45.0,-2.5925928425353515,0.8674862161508639,1.4382585011661373,34.15037580619709,17.60962007248351,10.462740527974967,9.717566737484741,9.245422266687775,8.722942096147769,8.077060902022659,7.3249687874188725,6.434315515768016,5.394887351516199,4.229390842110088,2.9966931707403117,1.850935296884438,0.9684564317281288,0.4231251170575832,0.15618564889644748,0.04536547175008817,11.09847976856252,10.66357315436786,10.375604551885255,10.046193343433044,9.621122174479337,9.099040587572345,8.438315450790354,7.595093658256685,6.529280779297247,5.219131318765671,3.7619565949736344,2.3809129414128996,1.303014950787078,0.6217931613435637,0.2464748638100895
0.0,49.0,49.0,0.0,120.0,0.0,-5.853758815842096,14.792921579596587,1.7502496922654487,-107.0,0.0,-45.0,-2.1021488480002946,-5.946963379175923,2.1751083992713207,34.15037580619709,17.60962007248351,10.463496272035805,9.718319763739595,9.246172617515594,8.723687971407639,8.077768109335725,7.3250346457011535,6.430920710851649,5.38396152606367,4.210148832593698,2.972605643475873,1.8278501849671738,0.9513376122083661,0.4133068599724882,0.15174911176495012,0.043867618230963024,11.102134628947137,10.66721816233217,10.379239749466421,10.04981360999155,9.624697853624756,9.102140935805627,8.438641427294174,7.588289111723074,6.512335154240371,5.192556431761873,3.730298582958228,2.3513032066033177,1.281159613990412,0.608843495678299,0.24053090065298677
0.0,50.0,50.0,0.0,120.0,0.0,-9.61667505737373,-14.081960949110744,6.566715311587636,-107.0,0.0,-45.0,4.834074795791079,-5.6406248343190075,0.3132466982771458,34.15037580619709,17.60962007248351,10.464236668573621,9.719057484201631,9.24690771296747,8.724418515590724,8.078452315072253,7.32498739599479,6.427131925881926,5.372331199396507,4.1901024709088635,2.947838176309979,1.8043498874359414,0.9340699723422545,0.403490767695564,0.14735037351774766,0.04239395105850779,11.105749024408336,10.670822747155489,10.38283456774973,10.053393466549567,9.628228280234747,9.105132645347778,8.43862814782491,7.580814904915798,6.494492778127667,5.165042855925543,3.697869747976654,2.3212404814179943,1.2591518316562016,0.5959018277763501,0.2346319675174388
0.0,51.0,51.0,0.0,120.0,0.0,-3.1498351310939228,13.63279265081622,-6.856245733881991,-107.0,0.0,-45.0,-1.5381715790733907,-5.257320024812264,-4.4146241305344605,34.15037580619709,17.60962007248351,10.464961686807335,9.719779867511829,9.247627520899988,8.725133654589367,8.079111666263604,7.324813885979729,6.422918955249203,5.35996314207263,4.1692270390311155,2.922377494193749,1.780432345769497,0.9166573707252244,0.3936805646248126,0.1429910558828559,0.04094477117312646,11.109322221107584,10.674386177304,10.38638827708795,10.056932160061,9.631711567734826,9.108005677125153,8.438250277472932,7.572637876312075,6.475721998485152,5.136565374722231,3.6646567636680074,2.290723491113336,1.2369959098867245,0.582971949486409,0.22877960165478148
0.0,52.0,52.0,0.0,120.0,0.0,7.36884253516612,6.964072081698021,2.092146140200242,-107.0,0.0,-45.0,0.5145472659770061,-3.7901327451497657,-4.516238127872482,34.15037580619709,17.60962007248351,10.465671300251973,9.720486886466459,9.248332012514435,8.725833303199488,8.079743931110269,7.324499432345337,6.41824968878421,5.346822983765736,4.14749721131923,2.896210228187234,1.7560958146635195,0.8991039926449933,0.38388011765296765,0.1386728035778298,0.03952037492052525,11.112853478812546,10.677907715013069,10.389900141427935,10.060428922726551,9.635145576614367,9.110748868815335,8.437480820583623,7.563723532569442,6.455990055717055,5.107098065808391,3.6306462711041867,2.2597513317512603,1.2146964915715013,0.570057799074544,0.22297536833904136
0.0,53.0,53.0,0.0,120.0,0.0,-0.4732526098178642,-18.347959180841023,-1.0301348089734343,-107.0,0.0,-45.0,-4.59658942330663,5.655771048620606,0.8154605583844887,34.15037580619709,17.60962007248351,10.466365486607035,9.721178517921587,9.249021162104492,8.726517359632538,8.080346427520164,7.324027673042101,6.41309003622166,5.332875184938313,4.124887033118564,2.8693229310442274,1.7313388892626813,0.8814143636240226,0.3740934367057751,0.13439728210410787,0.03812105313506762,11.116342052359212,10.681386617796285,10.393369419782761,10.06388297042855,9.638527869185882,9.113349824374978,8.436291044396226,7.55403599732122,6.435263023378262,5.076614282316903,3.5958248998020093,2.2283234974634496,1.1922585683036453,0.557163461765681,0.2172208592563883
0.0,54.0,54.0,0.0,120.0,0.0,7.913469414997827,11.683553285543745,-6.535778514662955,-107.0,0.0,-45.0,-1.2091419074786103,-9.207229446882597,3.307060127609807,34.15037580619709,17.60962007248351,10.467044227490915,9.721854742549402,9.24969494665253,8.727185698093393,8.080915940031277,7.323380409599495,6.407403851845605,5.318083005344317,4.101369898578949,2.8417020954392327,1.7061605344058277,0.8635933634164508,0.3643246750959398,0.13016617543687836,0.03674709022067549,11.119787193166397,10.684822140015747,10.396795367768497,10.067293500167217,9.641855656700782,9.11579479541165,8.434650401212773,7.543537954677454,6.413505744302729,5.045086634930662,3.5601792912875045,2.19643990953719,1.169687492679552,0.5442931701668139,0.2115176908342165
0.0,55.0,55.0,0.0,120.0,0.0,-5.453354518864277,-12.8626487108164,2.863313441855823,-107.0,0.0,-45.0,4.913042307653537,-9.49690859827803,0.9640052850849488,34.15037580619709,17.60962007248351,10.467707508014096,9.722515544438872,9.250353345270682,8.727838158894142,8.08144862361676,7.322537439454309,6.401152859348369,5.302408468792448,4.076918527879946,2.8133341751076033,1.6805601160058592,0.8456462404411313,0.35457812966039987,0.1259811836031817,0.03539876322738818,11.123188150774295,10.688213534485119,10.40017723917888,10.07065968614824,9.645125737745072,9.11806855416864,8.432526448949895,7.532190586614792,6.390681762501798,5.0124869749640935,3.523696125466973,2.164100947411483,1.1469889909627369,0.5314513045496031,0.205867502504333
0.0,56.0,56.0,0.0,120.0,0.0,-3.9333577936130215,-22.92463184505797,3.908364901403772,-107.0,0.0,-45.0,-3.487344343453608,8.899547785976466,3.5601195587764867,34.15037580619709,17.60962007248351,10.468355316196405,9.723160910545076,9.250996338493104,8.728474535454492,8.081939892753828,7.321476378336735,6.394296576856452,5.285812323571257,4.051504944100538,2.7842056091855674,1.6545374346879853,0.8275786266294487,0.34485824064712933,0.12184402014116334,0.03407634092147961,11.126544174368073,10.691560054065807,10.403514287558012,10.073980674076292,9.648334426726352,9.120154257930295,8.429884769827362,7.519953503362252,6.366753250766657,4.97878637869845,3.486362150086855,2.1313074816749604,1.1241691760887063,0.5186423929690712,0.20027195489417918
0.0,57.0,57.0,0.0,120.0,0.0,3.5936424453990945,-16.317014879646642,-4.6953634552385015,-107.0,0.0,-45.0,1.4605633971897127,-4.103576181273414,-0.4972664488676992,34.15037580619709,17.60962007248351,10.46898764225214,9.723790830009856,9.251623907439269,8.729094557399055,8.082384294029698,7.320172472879357,6.386792241979576,5.26825399791934,4.02510045001776,2.754302850052691,1.628092761810427,0.8093965526635754,0.33516959131675206,0.11775640943358609,0.03278008284677836,11.129854514239236,10.694860953207128,10.406805767718623,10.07725557309871,9.65147747115205,9.122033304701725,8.426688886829686,7.50678466581695,6.3416809339302125,4.943955133245823,3.448164213593849,2.098060909160272,1.1012345609842698,0.5058711111945917,0.19473272793900234
0.0,58.0,58.0,0.0,120.0,0.0,9.092379142330142,-16.328087719365314,-14.078326167468413,-107.0,0.0,-45.0,3.2603619088408458,8.042457656288313,2.178629426061285,34.15037580619709,17.60962007248351,10.46960447779099,9.724405293399853,9.252236032883035,8.729697868795006,8.082775360461179,7.318598403744492,6.378594736623978,5.2496915499185945,3.997675605170494,2.7236123949950937,1.6012268779908,0.7911064635769631,0.3255169072231956,0.11372008390852631,0.03151023837495234,11.133118423133533,10.698115489376288,10.410050937142223,10.080483444715558,9.654549956292007,9.123685180070884,8.422900177437949,7.49264029895538,6.315424007764265,4.9079627242486,3.4090893017353756,2.0643631902331268,1.0781920721706792,0.4931422824283677,0.18925151890677117
0.0,59.0,59.0,0.0,120.0,0.0,7.038053974745196,2.4093902562800693,-7.759262132018679,-107.0,0.0,-45.0,2.3133340644376057,2.6764323844922338,1.0877081134065012,34.15037580619709,17.60962007248351,10.470205815011111,9.725004291936239,9.252832694275217,8.73028400037544,8.083105445623625,7.316724079704948,6.369656511173277,5.230081611199384,3.9692002035792187,2.692120822023847,1.573941114259954,0.7727152346846279,0.31590505513656336,0.1097367810998,0.03026704574292876,11.136335157436882,10.701322924325273,10.413249057189004,10.083663287827697,9.657546195722057,9.125087295224601,8.41847778396916,7.477474795144566,6.287940053507562,4.87077782575434,3.3691245782673906,2.030216888377209,1.0550490636161554,0.4804608767855858,0.1838300403262817
0.0,60.0,60.0,0.0,120.0,0.0,1.8570152106719213,6.102203565240789,-8.202407194611375,-107.0,0.0,-45.0,4.913420559267021,7.405478077182202,-0.27398275353453716,34.15037580619709,17.60962007248351,10.470791645991833,9.725587816821454,9.25341386877428,8.730852334357063,8.083365535622972,7.31451642325709,6.35992750747957,5.209379323874918,3.9396432525708054,2.6598148302007347,1.5462373959657412,0.754230187805546,0.30633904157013636,0.105808240559096,0.029050731076530573,11.139503978164692,10.704482525153637,10.416399394041525,10.086794018932197,9.660459606165341,9.126214816164088,8.41337851968093,7.461240606207478,6.259184948038707,4.832368292642839,3.328257430162693,1.9956252121800513,1.0318133308000237,0.4678320105092157,0.17847001780732952
0.0,61.0,61.0,0.0,120.0,0.0,7.504683115261749,-7.566012181954068,9.501095825436057,-107.0,0.0,-45.0,-0.11633024909702527,-1.8413949688644333,-4.782295277895214,34.15037580619709,17.60962007248351,10.471361962222758,9.726155858797677,9.253979530331357,8.731402060177203,8.083545036903605,7.311939148484039,6.349355079918838,5.187538270168774,3.9089729532180124,2.6266812848445125,1.5181182895530272,0.7356591077331899,0.29682401087088056,0.10193620061096165,0.02786150740100484,11.142624151745066,10.707593565149628,10.419501219306587,10.089874446294063,9.663282564991166,9.127040484247221,8.407556769599015,7.443888123058862,6.2291127697233515,4.792701156019926,3.2864755177371796,1.9605920598284996,1.0084931249468214,0.45526094489025276,0.17317318774080254
0.0,62.0,62.0,0.0,120.0,0.0,0.7319304402547093,-5.683059723617717,5.740153499066125,-107.0,0.0,-45.0,-4.250990094629841,-5.418387999263466,3.5766750043800553,34.15037580619709,17.60962007248351,10.47191675452755,9.726708408093943,9.254529648842297,8.731932119133074,8.08363153786719,7.308952532009932,6.337883913545398,5.164510394265171,3.877156682966505,2.592707268016681,1.4895870523570374,0.7170102589026136,0.28736524282933545,0.09812239494116251,0.02669957364116818,11.145694950625382,10.710655324428956,10.42255381020194,10.092903236721664,9.666006248703034,9.127534428272552,8.400964384804993,7.4253655417034965,6.197675699977545,4.751742622033924,3.243766830137249,1.9251220662260509,0.985097167385098,0.4427530848619094,0.16794129486557605
0.0,63.0,63.0,0.0,120.0,0.0,3.486706099844035,-19.44882236870193,10.571977105806965,-107.0,0.0,-45.0,0.4196099220860763,-2.274730624301551,4.338975738176771,34.15037580619709,17.60962007248351,10.472456013548388,9.727245454927566,9.255064189306399,8.732441135496396,8.08361054228354,7.305513177978755,6.325455938126244,5.140245915995068,3.844160981088784,2.55788013472036,1.4606476855663586,0.6982924021932062,0.27796814975894213,0.09436854900845763,0.025565113616631885,11.14871565378268,10.713667090439552,10.425556449254595,10.095878873348257,9.668620450753313,9.127663968407065,8.393550568679998,7.405618714378553,6.164823920596675,4.709458074615069,3.2001197466624425,1.8892206528487319,0.9616346639804877,0.4303139772329297,0.16277608968925777
0.0,64.0,64.0,0.0,120.0,0.0,-9.282565182801072,-9.317980155107286,-2.262891476787537,-107.0,0.0,-45.0,-3.5003717816168987,-3.074771919798791,-1.0963499199580529,34.15037580619709,17.60962007248351,10.4729797309416,9.72776699071154,9.25558311080183,8.732927331184948,8.083465172505948,7.30157377803588,6.312010236544823,5.114693236072031,3.809951537675122,2.522187575292136,1.4313049905398834,0.6795148117946471,0.26863827298706183,0.09067637627023742,0.024458295040366552,11.151685547275184,10.716628158456118,10.428508423423809,10.09879960256377,9.671113377062374,9.127393412333562,8.385261753333666,7.38459098462177,6.130505506899794,4.665812082688174,3.1555231044389687,1.8528940804596101,0.9381153195850424,0.41794930852143636,0.1576793257510795
0.0,65.0,65.0,0.0,120.0,0.0,-2.7589583374871633,8.16129599385826,-3.0727165754145105,-107.0,0.0,-45.0,4.8541432911407885,4.113992487528652,3.897022010841633,34.15037580619709,17.60962007248351,10.473487901390758,9.728273010077107,9.256086364883537,8.733388420491945,8.083175840560553,7.297082867268302,6.297482945733956,5.087798832708731,3.774493186951341,2.4856176845289846,1.4015646286972652,0.6606872920492592,0.2593812786903033,0.08704757421369969,0.023379268531560058,11.154603925027216,10.719537832242139,10.431409022520475,10.10166336794152,9.673471417694387,9.126683844038514,8.376041464151095,7.362223005053098,6.094666316732162,4.620768412467036,3.1099662730211852,1.8161495048061833,0.914549352432947,0.40566490234680125,0.15265275671785805
0.0,66.0,66.0,0.0,120.0,0.0,-2.404582879075596,-21.454671812845294,13.421496081054034,-107.0,0.0,-45.0,4.990622137620633,-1.567636380236026,0.5584839023517478,34.15037580619709,17.60962007248351,10.473980525550546,9.728763513821356,9.256573892781617,8.733821480757246,8.082719885309055,7.2919845769615,6.28180714789433,5.059507149469553,3.7377499056109937,2.4481590379280957,1.3714331851302202,0.6418201943316388,0.2502029529238366,0.08348382023990703,0.022328166609869197,11.157470086546835,10.722395421563132,10.434257533173655,10.10446772512955,9.675678889756416,9.125492902257015,8.365830166904367,7.338452534107681,6.057249874073569,4.574290046455122,3.0634392396406995,1.7789950352502428,0.8909475078987792,0.3934667163873256,0.14769813334526902
0.0,67.0,67.0,0.0,120.0,0.0,5.358635352527854,24.478827598827706,-4.891700320143087,-107.0,0.0,-45.0,4.476452640102359,0.2231341236101798,3.1071001623178294,34.15037580619709,17.60962007248351,10.474457643323385,9.729238542048043,9.257045649484505,8.734222822935516,8.082071202279844,7.286218411872829,6.264912773735896,5.02976049312593,3.699684824992922,2.409800766476628,1.3409182132203914,0.6229244330597523,0.24110919737160344,0.07998677120502204,0.021305100688941276,11.160283236131137,10.725200148709867,10.437053147593323,10.107209666104957,9.67771770138559,9.123774532815567,8.35456513294888,7.313214333811794,6.018197490687019,4.526339586498719,3.0159330831804225,1.7414396655911673,0.8673207363553627,0.38136115278992877,0.14281716314680853
0.0,68.0,68.0,0.0,120.0,0.0,-4.149446549380591,5.677809608342304,-5.588418439051219,-107.0,0.0,-45.0,1.4332762404539823,-7.8554963260973665,-3.3728654551256776,34.15037580619709,17.60962007248351,10.474919301186358,9.72969814205431,9.257501558748986,8.734587763447058,8.081199774667164,7.279718967836022,6.2467264411989465,4.998498889233315,3.660260242474217,2.370532668388214,1.3100283319845207,0.6040115029431319,0.2321060269078369,0.07655804584978386,0.020310166353109504,11.163042804709866,10.727951447250591,10.439795231151587,10.109885735668398,9.679567222744462,9.121478838077747,8.342180168576814,7.286439586207587,5.977447431218203,4.476878158051545,2.9674389270880117,1.703493731822855,0.8436812001134656,0.3693541271386901,0.13801161530602798
0.0,69.0,69.0,0.0,120.0,0.0,-4.215432487058289,20.164004523614935,-12.100631608269019,-107.0,0.0,-45.0,2.346364894835097,-9.128291223075731,4.272480899163787,34.15037580619709,17.60962007248351,10.475365554571376,9.73014237021901,9.257941494552641,8.734910385599086,8.080071194171124,7.27241567064741,6.227171291410173,4.9656599339321605,3.6194376298595925,2.3303453053307868,1.2787733109698927,0.5850934918659514,0.2231995525466075,0.0731992329319887,0.019343437158287485,11.165748148967165,10.730648682425231,10.442483052729406,10.112491656302547,9.681203778990476,9.118551763289014,8.328605486016832,7.258055960062486,5.934935469778937,4.425866531763885,2.917949144636542,1.6651686028437842,0.8200413413675548,0.35745194594189283,0.13328321495665996
0.0,70.0,70.0,0.0,120.0,0.0,-7.206317292695079,-1.0273044156205131,6.693552941722224,-107.0,0.0,-45.0,2.2772011423966934,-6.430199884161391,-1.0965893407510663,34.15037580619709,17.60962007248351,10.475796484468532,9.730571308722693,9.258365268910632,8.73518326853087,8.078646160521988,7.264232531887407,6.206166824618172,4.931178662547653,3.577177672671524,2.2892301161083535,1.2471641392074135,0.5661830963941699,0.21439597726182033,0.06991188250561312,0.01840496525215954,11.168398652822676,10.733291245950728,10.445115855913045,10.115022225012673,9.682600343210016,9.114934884478396,8.313767453160038,7.227987242505363,5.89059457532263,4.37326487359693,2.8674571699123232,1.6264768577465036,0.7964141541495408,0.34566106006564096,0.1286336670246521
0.0,71.0,71.0,0.0,120.0,0.0,-1.6231433843705148,3.6740905327970417,-13.34177424979941,-107.0,0.0,-45.0,-0.08929125486391598,2.3832519232582214,2.307067713090392,34.15037580619709,17.60962007248351,10.476212201789938,9.730985069756654,9.258772594495237,8.735397146586969,8.076879928969374,7.255087887742477,6.183628697270077,4.894987400885276,3.53344031388953,2.247179542994042,1.2152131099617476,0.5472936359824291,0.20570158641890185,0.06669750053524796,0.01749478066725569,11.17099373464592,10.735878561668608,10.447692838962638,10.117471097986858,9.68372613681776,9.11056514897977,8.297588311410033,7.19615301073471,5.844354751244639,4.319032773315823,2.8159576040431835,1.587432373717322,0.7728132255571571,0.3339880295488929,0.12406465589941074
0.0,72.0,72.0,0.0,120.0,0.0,-9.667678248214642,-23.72710560502014,8.602106504240655,-107.0,0.0,-45.0,-2.4439440385691102,-4.385926237815547,-4.560608507536235,34.15037580619709,17.60962007248351,10.476612850624923,9.731383798364421,9.259163028855765,8.735540502004621,8.07472171834368,7.244894131278847,6.159468488830786,4.857015612561891,3.4881848130489495,2.204187172540699,1.1829339097665879,0.5284390651265651,0.19712273719146106,0.06355754356250462,0.01661289060359629,11.173532856689818,10.738410093893016,10.45021312812349,10.119830537493705,9.684546205208813,9.105374614005576,8.279985868627024,7.162468297299421,5.796142898505562,4.263129318332705,2.7634463613768565,1.548050405817587,0.74925274634304,0.3224395164945915,0.11957784148872616
0.0,73.0,73.0,0.0,120.0,0.0,-5.5954434725509605,-11.556298318726904,1.4992380161937113,-107.0,0.0,-45.0,2.8978898605601024,-6.0927455524428265,4.172242380456897,34.15037580619709,17.60962007248351,10.476998608759091,9.731767672016419,9.259535892555448,8.735599079763373,8.072114079345349,7.233557433640281,6.133593432864342,4.817189743102797,3.4413698228708385,2.1602478924384685,1.1503417117922672,0.5096339836352513,0.18866584690490734,0.0604934131698641,0.015759278726739583,11.176015535610672,10.740885356507478,10.452675738219623,10.122091111178246,9.685020963632848,9.099290172437957,8.260873149371657,7.126843229604937,5.74588267723435,4.205513182586291,2.70992082989921,1.508347670363003,0.7257475203234671,0.3110222771203703,0.11517485515758032
0.0,74.0,74.0,0.0,120.0,0.0,-1.7104479212783001,-0.5562908187370219,-0.47305058484898055,-107.0,0.0,-45.0,4.803246111531944,-6.089572106365322,0.8287473010514423,34.15037580619709,17.60962007248351,10.47736968426571,9.732136895273335,9.259890152262022,8.735555313248879,8.068992223791149,7.220977448718212,6.105906107179694,4.775433062144179,3.3929534863789366,2.115358066413959,1.117453273470259,0.49089364463036445,0.18033738026032622,0.05750645023532741,0.01493390445193879,11.178441352837105,10.74330392138059,10.455079514778479,10.12424133584201,9.685105712836943,9.092233260870508,8.240157995783939,7.089182642587719,5.693494368516696,4.1461427333191425,2.6553800471100777,1.4683424316813547,0.7023129724612464,0.2997431529023101,0.11085729555482703
0.0,75.0,75.0,0.0,120.0,0.0,-1.3119645542244935,0.7760949999082669,-9.902392824834074,-107.0,0.0,-45.0,-4.445761643614635,3.0121961571209255,4.4311471205443915,34.15037580619709,17.60962007248351,10.477726307279536,9.732491687909743,9.26022425804118,8.73538764920185,8.065283316394245,7.207046994426091,6.076304077865287,4.731665505188434,3.34289355771655,2.069515729141352,1.0842870382173615,0.4722339599377785,0.17214383535665487,0.05459792897313506,0.014136702177108535,11.180809962854577,10.745665423826836,10.457423049986643,10.126267256689788,9.68475012365101,9.084119542775253,8.217742611380698,7.0493856633283025,5.638894738757815,4.084976159224511,2.5998248926393295,1.4280545919302654,0.6789651554759338,0.2886090607353436,0.10662672431809371
0.0,76.0,76.0,0.0,120.0,0.0,0.07307040143181709,1.2679225460106807,-8.5777569677356,-107.0,0.0,-45.0,-3.681381138126969,-9.879733296065034,-3.4743106777555632,34.15037580619709,17.60962007248351,10.478068716761788,9.732832265141381,9.260535922319129,8.73506976089159,8.060905731778023,7.191651702381434,6.04467949238498,4.685803516491825,3.291147550038448,2.022720802971923,1.0508632410099954,0.4536715026181508,0.164091728378398,0.05176905076170042,0.013367580424789456,11.183121096861088,10.747969561990649,10.45970456263986,10.12815195209473,9.683897689227859,9.074858557173924,8.193523038923455,7.007345266129668,5.5819969097802815,4.0219716240080094,2.543258298922891,1.3875057836041254,0.6557207548110763,0.2776269820239724,0.10248466162765789
0.0,77.0,77.0,0.0,120.0,0.0,-2.1394207164214274,-1.9169986390368159,14.919472751676587,-107.0,0.0,-45.0,-4.320971194040768,6.401416972986944,0.18765523572963883,34.15037580619709,17.60962007248351,10.478397143202193,9.733158809111655,9.260821826230343,8.734569639717435,8.055768280791987,7.174669626638006,6.010918617646519,4.6377598948389185,3.237672913891377,1.974975338020774,1.0172040174773906,0.43522350648022695,0.15618757676042244,0.04902093777007475,0.012626420859980614,11.185374558958939,10.750216086378071,10.461921730136213,10.129874953447766,9.682485143232142,9.064353320520844,8.167388562402483,6.962947796282873,5.5227102386157325,3.9570874498576427,2.485685481259793,1.3467194643837976,0.6325970917294043,0.26680395060919676,0.09843258155642615
0.0,78.0,78.0,0.0,120.0,0.0,3.8513996917390863,-4.085033513784385,2.8104544990538827,-107.0,0.0,-45.0,-3.4554091149331247,-4.725363697543679,-0.792582516822586,34.15037580619709,17.60962007248351,10.478711789710669,9.733471431395769,9.261077237286823,8.733848557545798,8.049769411650027,7.155970801130666,5.974901320096753,4.587443644189618,3.182427249406253,1.9262837768774925,0.9833335161414479,0.41690786246095224,0.1484378806011569,0.04635462640762392,0.011913077170133773,11.187570212368975,10.752404775543127,10.464071458749448,10.131411569959454,9.680441842071833,9.052499866890898,8.139221022246613,6.916072460371703,5.460940211672346,3.890282335570032,2.4271141885475576,1.3057210140935758,0.6096121242073281,0.2561470394350286,0.09447190714012084
