Line_number,Fiducial,Easting,Northing,Height,Elevation,tx_pitch,tx_roll,tx_yaw,txrx_dx,txrx_dy,txrx_dz,rx_pitch,rx_roll,rx_yaw,PX,PZ,S0X_time_1.086e-05,S0X_time_3.256e-05,S0X_time_5.426e-05,S0X_time_8.680e-05,S0X_time_1.411e-04,S0X_time_2.279e-04,S0X_time_3.689e-04,S0X_time_5.860e-04,S0X_time_9.115e-04,S0X_time_1.411e-03,S0X_time_2.192e-03,S0X_time_3.418e-03,S0X_time_5.339e-03,S0X_time_8.301e-03,S0X_time_1.338e-02,S0Z_time_1.086e-05,S0Z_time_3.256e-05,S0Z_time_5.426e-05,S0Z_time_8.680e-05,S0Z_time_1.411e-04,S0Z_time_2.279e-04,S0Z_time_3.689e-04,S0Z_time_5.860e-04,S0Z_time_9.115e-04,S0Z_time_1.411e-03,S0Z_time_2.192e-03,S0Z_time_3.418e-03,S0Z_time_5.339e-03,S0Z_time_8.301e-03,S0Z_time_1.338e-02
0.0,0.0,0.0,0.0,120.0,0.0,5.340472829924515,0.6088696485954266,14.427908708196192,-107.0,0.0,-45.0,3.8655509183779415,-9.736953672052461,-1.4125394307434478,34.17116048210502,17.650919203761195,4.436104032065689,2.5465434400251126,2.0819971849808216,1.7777937076385464,1.5468699211133914,1.375019760302182,1.222107718406585,1.0740770925485488,0.9280567398298668,0.779441543434112,0.6293481695991903,0.48419459347844346,0.35229232207069716,0.2418841719945738,0.1503827247023074,6.487565350129345,4.471682090949225,3.854867407979431,3.4226521862301595,3.076537056047566,2.810956712138349,2.572307014215625,2.3371419903450743,2.098113356726508,1.8450095818361543,1.5762935061260748,1.2997833235647278,1.028753485456202,0.7805307356819084,0.5507577951836755
0.0,1.0,1.0,0.0,120.0,0.0,-4.255791670975531,-20.15213486492301,-5.330667982604179,-107.0,0.0,-45.0,4.099576762178453,-0.7781319756796883,-0.1337951167521183,34.17116048210502,17.650919203761195,4.443260821315657,2.5624068928855572,2.092146215739791,1.7664630745822498,1.507005895460838,1.317992468349992,1.1618121879736816,1.0179545553436407,0.8788601319716633,0.7384257640441344,0.5970341531482983,0.4603411180036278,0.3359306782522703,0.2314826853847712,0.14455215431833504,6.502862607600455,4.497633343428997,3.876633774401968,3.4187094257342285,3.0314490498474,2.7350058232296828,2.4849508410842573,2.2509336249045653,2.0184077283619684,1.7745885862728952,1.5169363587652727,1.2523271091471142,0.9929948418710595,0.7551887512213643,0.5345116477041819
0.0,2.0,2.0,0.0,120.0,0.0,7.557437282566891,4.97036997487842,11.267329215634426,-107.0,0.0,-45.0,3.5921937272149798,3.423983308008175,-2.067675943981262,34.17116048210502,17.650919203761195,4.450364937491925,2.578800460975588,2.106409543743563,1.7657953370156831,1.4806562695652132,1.2714161855861574,1.1083382394701926,0.966742151830117,0.833495459521056,0.7003784600816612,0.5669123292912359,0.43799878357188865,0.3205273968288957,0.22163714467451623,0.13899900551435831,6.517815842109525,4.523831663455021,3.902605530071216,3.4277346287462382,3.0049041886335894,2.674359606139758,2.4073947866088146,2.1714614182186067,1.9439505516471707,1.7083736454532112,1.4608709398900444,1.2073241746164045,0.9589493938458912,0.7309593670904362,0.5189035534567221
0.0,3.0,3.0,0.0,120.0,0.0,6.05100261636386,-18.98623955081822,12.831952847046246,-107.0,0.0,-45.0,4.40937649204742,6.412105026186442,-4.609303315100397,34.17116048210502,17.650919203761195,4.457430269630889,2.5953982437267347,2.1226245443425316,1.772076778409567,1.4653914362649043,1.2347917659970975,1.0615611935060736,0.9201489971513988,0.7916601589434858,0.665058303166381,0.53881104260811,0.4170566482123298,0.3060176555506233,0.21231347518611196,0.13370827273755312,6.532449112223048,4.549978883550209,3.9304018638348728,3.4449795537141057,2.9933455937661653,2.6283986496505656,2.339855324030187,2.098594387169731,1.8744604067126804,1.6460997678179188,1.4078883940635984,1.1646253973113798,0.9265198130440958,0.7077846712914071,0.5039039222825276
0.0,4.0,4.0,0.0,120.0,0.0,3.3468469857082965,9.369136401999953,-14.51912672595031,-107.0,0.0,-45.0,-2.0441301240696785,-2.213149194100497,-1.8487330041235461,34.17116048210502,17.650919203761195,4.464470741232047,2.6121096365386376,2.1397059478290763,1.7826499447908823,1.4587481024325748,1.207254023121403,1.0213322994490919,0.8779580568013666,0.7530954016257827,0.6322499285175376,0.512574670157775,0.3974131073813105,0.2923415349422372,0.20347988751364535,0.12866581821035897,6.54678599086129,4.57600193810221,3.9588617405111197,3.4671314744260613,2.9932505658135318,2.595835059294896,2.2823923422638597,2.0322927975912912,1.8097118621297206,1.5875308509137063,1.3577975851029302,1.1240927337277342,0.8956152533930841,0.6856101866713002,0.4894846889822015
0.0,5.0,5.0,0.0,120.0,0.0,-6.8665084141072015,-3.875388068364842,12.181938021372972,-107.0,0.0,-45.0,-2.166703243812976,6.7809745181520285,0.8275809785721897,34.17116048210502,17.650919203761195,4.47150007812459,2.6289184956080587,2.157154159845186,1.7957505805618976,1.458526842907818,1.187692600947851,0.9874117694820528,0.840002965714718,0.7175831878642953,0.601761567169784,0.4880620740565401,0.3789750491191045,0.27944363169119957,0.19510672392628314,0.12385832401751022,6.56084937492066,4.60189661234014,3.987467699351596,3.4920387203222107,3.00153971554959,2.5749656736550364,2.2348102534269967,1.9725597191002064,1.7495341857906024,1.5324584945667767,1.3104237854042438,1.0855983413689014,0.8661508912591961,0.6643846598026226,0.47561923469383127
0.0,6.0,6.0,0.0,120.0,0.0,9.74417638082156,5.947848182150363,4.070811458197323,-107.0,0.0,-45.0,-4.041303460853001,8.512004206573149,1.0450557254171002,34.17116048210502,17.650919203761195,4.478531762673679,2.6458289048536248,2.174760047673301,1.8102753771106774,1.4629179518267272,1.1748962572860724,0.9594449806804546,0.8061401608931276,0.6849422502596908,0.5734231031807459,0.46514524761255477,0.3616570920391727,0.26727270034895995,0.18716631298816552,0.11927324571634842,6.574661463741641,4.627676517461874,4.0160129640359115,3.5183825905592716,3.0157262696443903,2.563931447380896,2.1966431050183655,1.91938596493166,1.6938050209499818,1.4807012617221462,1.2656075653682917,1.0490237962131617,0.838047498832251,0.6440598615273997,0.46228231127076935
0.0,7.0,7.0,0.0,120.0,0.0,6.590643701071006,24.62031616856072,-12.158578665761993,-107.0,0.0,-45.0,-1.9090445855822225,-6.992362516338801,-0.22656348424148653,34.17116048210502,17.650919203761195,4.4855790375720845,2.6628494009237387,2.192446498120498,1.8255701220558422,1.4705164948426024,1.167671141137073,0.9369738511544623,0.7762237652539755,0.6550219939837718,0.5470844208431446,0.4437081262108775,0.3453809020824277,0.25578132200394765,0.17963283254099544,0.11489876781249714,6.5882437878219875,4.653358759754738,4.044428209921705,3.5453967637355808,3.0339116545161864,2.5609138726781078,2.1671998923251,1.87270481061206,1.6424381971292543,1.4321039342079263,1.2232038591356331,1.0142594014701753,0.8112310484164352,0.6245903989707108,0.4494499689805656
0.0,8.0,8.0,0.0,120.0,0.0,0.07164550465092745,-9.346314100719283,7.85738550532745,-107.0,0.0,-45.0,2.3273758564696294,-6.774952427716001,4.744341504031558,34.17116048210502,17.650919203761195,4.492654930250744,2.679989145925311,2.210191165467489,1.8412664457335663,1.4802801656061644,1.1649186886400986,0.9194674469204689,0.7500882765660108,0.6276948139030677,0.5226138047719526,0.42364554688205464,0.33007458090953373,0.2449255987443726,0.1724821810810424,0.11072376126203094,6.6016172546093115,4.678960593895307,4.07269942304232,3.572659320631321,3.054708687910894,2.56425623798791,2.1456373119944097,1.8323655033457023,1.5953675913212773,1.3865361051364546,1.1830811991512666,0.9812035758376901,0.7856323469307042,0.6059335387638317,0.4370994876014441
0.0,9.0,9.0,0.0,120.0,0.0,9.290357145502991,11.595803000965596,-6.896730404942998,-107.0,0.0,-45.0,3.3874924925231102,5.251990587826818,4.432831609771373,34.17116048210502,17.650919203761195,4.499772280985115,2.697257188923269,2.227992159736419,1.8571679570265993,1.4914648181816796,1.165676984273489,0.9063578665786073,0.7275404127573541,0.6028478937417547,0.4998961601036383,0.40486234167156554,0.3156721170942403,0.23466487302578495,0.16569185737489112,0.10673774305429298,6.614802194470771,4.704498790314114,4.100832422415908,3.5999517276599504,3.077141190910799,2.5725230670114727,2.1310348177769844,1.7981262617215044,1.5525303304226068,1.3438896082008969,1.1451210839786696,0.9497623086368276,0.7611867006322015,0.5880490409181931,0.4252093109289782
0.0,10.0,10.0,0.0,120.0,0.0,-3.458093130407301,5.812376301916178,-14.833186272957157,-107.0,0.0,-45.0,-1.9508110047814329,-6.021902519555498,3.476157252578629,34.17116048210502,17.650919203761195,4.506943768588962,2.71466234085815,2.2458542524845866,1.873176473073733,1.5035572803354904,1.1691352298169768,0.8970727774542145,0.7083587458437884,0.5803757092527017,0.4788309361783669,0.3872725378320698,0.3021128924158973,0.22496147093045357,0.15924084798517954,0.10293083789588502,6.627818402071575,4.729989514387189,4.12883903187712,3.627169528345035,3.1005455074325043,2.5845168497889444,2.122458207484001,1.7696623372270897,1.5138523595454692,1.304074695641183,1.1092173928743891,0.9198486742563292,0.7378336092535214,0.5708990026603589,0.41375898471581385
0.0,11.0,11.0,0.0,120.0,0.0,7.4619014368217975,17.808913023722724,8.651375996410739,-107.0,0.0,-45.0,0.926479299846398,3.8092417738207693,-0.8514784396307871,34.17116048210502,17.650919203761195,4.51418193332091,2.73221313052727,2.2637839455841426,1.8892470955726017,1.516215143330818,1.1746307960658446,0.891060787059766,0.6922985902601743,0.5601741085126114,0.45932978756634707,0.37079862523402063,0.2893412377632681,0.21578046785674995,0.15310952231969394,0.09929374199389762,6.64068517365603,4.755448277544712,4.156732321032277,3.6542690184912177,3.1244853902047205,2.5992686493113983,2.1190068883615965,1.7465831100755507,1.479238210276285,1.2670152878969052,1.0752757306156568,0.8913824022772858,0.7155164874269743,0.5544477117319858,0.40272909801579443
0.0,12.0,12.0,0.0,120.0,0.0,-2.384730759456253,24.591513515708513,4.020086144991225,-107.0,0.0,-45.0,3.625917199357783,3.9934670673947394,4.213194327812925,34.17116048210502,17.650919203761195,4.521499197995835,2.749917775646663,2.2817879629635223,1.9053623497772019,1.5292173311157748,1.1816362505326066,0.8878089461029524,0.6790996053651882,0.5421363421122688,0.44131411743403653,0.3553708492592578,0.27730603435041334,0.20708947479417364,0.1472795348617034,0.09581768889815732,6.653421341605726,4.780889913139799,4.1845252241912885,3.681237103929774,3.148683903201773,2.6160146472462653,2.1198451711861774,1.7284528408593682,1.4485654879652479,1.232643855277404,1.043212599188931,0.8642894981785674,0.6941824105839803,0.5386615089884604,0.39210122778349754
0.0,13.0,13.0,0.0,120.0,0.0,1.847593248926243,20.195034706304476,-12.673713343562822,-107.0,0.0,-45.0,4.1642718842272135,-5.025077079941047,-3.0701328592081625,34.17116048210502,17.650919203761195,4.528907888019634,2.767784171810508,2.2998728898059504,1.921518080870366,1.5424259555385769,1.1897415455209124,0.8868532520291659,0.6684941363770016,0.5261509880340808,0.42471269047574,0.34092649760684934,0.26596035551930314,0.19885844324974034,0.14173373430655026,0.0924944173170839,6.6660453071127534,4.8063285773429945,4.212230237635479,3.7080751553356044,3.1729719169541,2.6341666353968183,2.1242202402001795,1.714811247443341,1.4216836195919478,1.200896521424556,1.0129543414206357,0.8385019037741241,0.673781882726823,0.523508660335354,0.3818578864643033
0.0,14.0,14.0,0.0,120.0,0.0,-8.379751308693272,-20.700161132369942,-13.820122196340787,-107.0,0.0,-45.0,-0.14583373786021525,-8.930133458483002,1.041218132185227,34.17116048210502,17.650919203761195,4.536420250583142,2.785819897579325,2.3180451222627827,1.9377161723125038,1.555758292731286,1.1986347659352137,0.8877835870048689,0.6602150145827494,0.5121014496885736,0.4094594847347934,0.3274091667562042,0.255261143112178,0.19105948706012607,0.13645607935572449,0.0893161407886825,6.678575071240548,4.831777768328559,4.239859386471522,3.7347908288725606,3.1972508932336963,2.6532814373691096,2.1314700132014517,1.7051916615786988,1.3984158835775737,1.1717088578608414,0.9844358625216523,0.8139571805023087,0.6542686241197893,0.5089592380109184,0.37198247226389003
0.0,15.0,15.0,0.0,120.0,0.0,-5.318466543757776,5.460411347202903,4.473522466787898,-107.0,0.0,-45.0,-2.956928729433801,4.918946227718298,2.8148266000041193,34.17116048210502,17.650919203761195,4.544048472995691,2.804032228717857,2.3363108707987026,1.9539610002786947,1.5691670412861687,1.208083527598431,0.8902445557908243,0.6540021377532883,0.49986659679726203,0.3954918991330035,0.31476801146897726,0.24516891133934796,0.18366671958522374,0.13143156089066801,0.08627551907861815,6.6910282644106145,4.857250353929701,4.267424230049805,3.7613941674414346,3.2214670431915158,2.673032156795694,2.141023848110376,1.6991357605291229,1.378563603664135,1.145012652006315,0.9575991873111556,0.7905981958534165,0.6355993774453128,0.49498501101022996,0.3624592218236838
0.0,16.0,16.0,0.0,120.0,0.0,-4.501620953839664,-9.607859227099697,-11.578539852723019,-107.0,0.0,-45.0,4.759840926862731,-5.114080895257189,-1.2582002205419007,34.17116048210502,17.650919203761195,4.551804700090875,2.822428155371549,2.3546761613418963,1.9702578186814614,1.582626928199774,1.2179181973220459,0.8939334955413832,0.6496075802630763,0.48932212269369324,0.38274937152771876,0.302956993765029,0.23564747096005564,0.1766561049838631,0.12664613018720497,0.08336563118949603,6.703422174325741,4.882758600679193,4.294935863860912,3.7878958701822403,3.245594022406643,2.6931827545293907,2.1523985070262768,1.696204688292307,1.3619114909617291,1.1207337452855886,0.9323919417454406,0.7683727948975253,0.6177337309964246,0.48155934418269336,0.35327316511971013
0.0,17.0,17.0,0.0,120.0,0.0,7.60323869184711,21.794410133179184,6.906389520956587,-107.0,0.0,-45.0,3.9776788174437723,6.617328618096149,-1.5167137832896316,34.17116048210502,17.650919203761195,4.559701050660334,2.8410143987508016,2.3731468328648466,1.986612081569278,1.5961259340794498,1.2280174782342481,0.8985966757977443,0.6467992469926631,0.48034225796956753,0.3711724075530445,0.2919341543497966,0.22666366756239034,0.17000532235878577,0.12208663277019208,0.08057994988931227,6.715773772349717,4.908314200919746,4.322404921232982,3.8143065912700966,3.2696217334598905,2.713566550168911,2.165191219288916,1.6959868435184076,1.348233333710185,1.0987908916969202,0.9087658554757375,0.7472334443232044,0.6006339570564485,0.4686571053300846,0.3444100825015519
0.0,18.0,18.0,0.0,120.0,0.0,6.8212265974682325,-6.641585981563903,13.335817224881144,-107.0,0.0,-45.0,0.0165154619534551,-9.037014883579676,-0.6513754547563622,34.17116048210502,17.650919203761195,4.567749632894341,2.8597974261539054,2.3917285372532917,2.003029189176928,1.609659734703364,1.2382964913032637,0.9040244655387857,0.645363224661721,0.4728015698942871,0.36070198129080033,0.2816609299541379,0.21818712946954713,0.16369364154372915,0.11774074746958021,0.07791231769144935,6.728099738363695,4.933928297214693,4.349841580863681,3.840636691317958,3.2935493192117176,2.73406867515102,2.1790711929285633,1.6981028221666599,1.3372974743111723,1.079095493170251,0.8866753721536768,0.7271368438008033,0.5842648629978768,0.4562545795360635,0.33585646386206813
0.0,19.0,19.0,0.0,120.0,0.0,8.87197745474517,9.584730856782578,14.323757249739831,-107.0,0.0,-45.0,-1.062497433248315,2.0668053482819086,1.853338589800532,34.17116048210502,17.650919203761195,4.575962558825249,2.878783464349758,2.4104267440102367,2.019514409000815,1.623228295597669,1.2486972295234278,0.9100460393410209,0.6451050412443806,0.4665766649197476,0.3512792461960704,0.27210153619086425,0.21019002284104565,0.15770180924998936,0.11359693023103963,0.07535692423619814,6.740416484124753,4.95961150444259,4.377255581412186,3.8668961691106203,3.3173809241586634,2.7546121731743596,2.19377053153985,1.7022080589491517,1.3288717279506013,1.0615520225017776,0.8660764332542223,0.7080435069152791,0.5685936521054592,0.4443293899614697,0.3275994699628706
0.0,20.0,20.0,0.0,120.0,0.0,1.8566202324726895,-9.942022374254183,13.957974023754502,-107.0,0.0,-45.0,-1.8978169650492127,6.620106503116492,-4.129839011070201,34.17116048210502,17.650919203761195,4.584351957785694,2.89797851174124,2.429246749251021,2.036072860632312,1.6368338559932984,1.2591811211485575,0.9165240293463687,0.6458500528352845,0.4615476854318952,0.34284548615515725,0.2632224293495473,0.20264681344495022,0.1520119442544831,0.10964436225186251,0.07290828503219915,6.75274017516444,4.985373930235525,4.404656241246846,3.893094655609547,3.3411232194353127,2.775147275992301,2.209075212146756,1.7079936843229546,1.3227275659590803,1.046058936303331,0.846925476123174,0.6899173199430106,0.5535897909038421,0.4328604244029258,0.31962689593864607
0.0,21.0,21.0,0.0,120.0,0.0,6.727660925865472,-0.42510977473569866,-7.078749202481054,-107.0,0.0,-45.0,-0.40509259951036025,-6.231221070436794,-1.3516297675134248,34.17116048210502,17.650919203761195,4.592929988902115,2.9173883497329647,2.448193687268641,2.0527095194176814,1.6504797782062075,1.2697233781227313,0.9233493993807976,0.647443161372392,0.4575995477404793,0.3353422381313899,0.2549918537670411,0.19553403606136796,0.14660744033644632,0.10587290204577524,0.0705612215163964,6.765086751272313,5.01122519431435,4.432052480708099,3.9192414246697185,3.3647840123794697,2.795643324620495,2.2248165519832295,1.7151860494848579,1.3186435071894063,1.0325098963305162,0.8291786628808865,0.672725090638895,0.5392248799303012,0.42182776699222585,0.31192713697766467
0.0,22.0,22.0,0.0,120.0,0.0,4.649143322814096,11.635335839217099,-9.348271288389029,-107.0,0.0,-45.0,0.825210383400357,-9.468692688028513,3.3490319258591867,34.17116048210502,17.650919203761195,4.601708852643027,2.9370185536002027,2.467272543030323,2.069429223445217,1.6641699172846447,1.2803087981550247,0.9304367164323926,0.6497480404149658,0.4546229069404917,0.32871152561994754,0.24737947522099057,0.18883007341370034,0.14147287576864054,0.102273041078185,0.06831084238604725,6.777471945607807,5.037174447078471,4.459452844786384,3.945345405941295,3.3883714993707925,2.816082817225904,2.2408634221908974,1.7235452970534177,1.3164077384393529,1.020795146479182,0.812791336780188,0.6564361008391026,0.5254725254046327,0.4112126344804166,0.30448915614029637
0.0,23.0,23.0,0.0,120.0,0.0,3.7831730920938718,24.176728379955605,-13.811302878151464,-107.0,0.0,-45.0,-4.887862997564973,-3.7352175105764047,4.970553616200592,34.17116048210502,17.650919203761195,4.610700801434798,2.9568745030278376,2.486488164508329,2.0862366799804435,1.677908292056231,1.290928712722463,0.9377199176479594,0.6526460176111251,0.45251485875323366,0.3228961528645198,0.24035609585725037,0.18251494691990183,0.13659392833184772,0.09883586264913684,0.06615252614924838,6.789911302478691,5.063230387646773,4.486865524978429,3.9714151970086493,3.4118938858326633,2.836457115530515,2.25711534143647,1.7328632832424062,1.3158200298906362,1.010802926256421,0.7977176879184731,0.6410216763783179,0.5123082100042123,0.40099731659147,0.29730245424310286
0.0,24.0,24.0,0.0,120.0,0.0,-7.7584918392034785,22.05212476689171,8.194496494824957,-107.0,0.0,-45.0,-3.307099368212679,9.441219125364334,1.3970358752041285,34.17116048210502,17.650919203761195,4.619918149352674,2.9769613924009435,2.505845274292666,2.1031364712364575,1.6916989238748066,1.3015788133209623,0.9451486138207343,0.6560347353481125,0.451179402338182,0.31784002118901633,0.23389344271122295,0.1765701215031565,0.131957295025749,0.09555300373138782,0.06408190483368761,6.802420193821601,5.0894012814479535,4.514298379805196,3.997459075157492,3.4353592070542818,2.856763410387285,2.2734964926613817,1.7429610938296347,1.3166930332354145,1.0024208341497978,0.7839106008891716,0.6264547860881231,0.49970916181706415,0.3911651199488072,0.29035704170959736
0.0,25.0,25.0,0.0,120.0,0.0,3.5639642659633957,9.552438187707708,-8.764393463817349,-107.0,0.0,-45.0,-4.0184941156398315,2.3032122804472444,-3.58429958614105,34.17116048210502,17.650919203761195,4.629373280893876,2.9972842408827813,2.5253484803144612,2.1201330600910193,1.705545764461129,1.3122576340128802,0.9526849294917562,0.6598266868338521,0.4505276946319739,0.3134884394313768,0.22796401986001608,0.17097832632883905,0.12755061586815875,0.09241661949533131,0.06209484878836265,6.815013834418455,5.115694977410929,4.541758953923457,4.023485009514091,3.458775253512434,2.8770026203064183,2.2899506441002746,1.753686342439788,1.3188530566673076,0.9955370829650212,0.7713216523372893,0.6127096790510522,0.48765422139263087,0.3817003150852126,0.28364341227156925
0.0,26.0,26.0,0.0,120.0,0.0,-8.898613580120465,-22.46374979367961,-0.4385177111328318,-107.0,0.0,-45.0,0.2936485539942746,-5.5507583641208935,-2.5122750441572874,34.17116048210502,17.650919203761195,4.63907865883989,3.0178479022982416,2.5450022857168073,2.13723079615945,1.7194526684895322,1.3229655131349476,0.960300852206507,0.6639477038407369,0.4504781286388876,0.30978840958321513,0.22254101342747995,0.16572339277435813,0.12336240138349656,0.08941935027246814,0.0601874525103121,6.827707295877556,5.142118924787425,4.569254495974991,4.049500673882414,3.482149547297886,2.897177965688748,2.306436915327096,1.764910395040042,1.3221404083125008,0.9900416125688729,0.7599012254378164,0.5997615663371323,0.4761237075406538,0.3725880860558741,0.27715251839631333
0.0,27.0,27.0,0.0,120.0,0.0,0.38262299369176134,-19.364089932262207,4.838464800482786,-107.0,0.0,-45.0,4.022248342072359,9.797260834656218,2.687849804781619,34.17116048210502,17.650919203761195,4.649046831213986,3.038657074837827,2.5648110979924033,2.154433922311217,1.7334233870473086,1.3337038972565198,0.9679760464186322,0.6683354544024844,0.4509562671831017,0.30668887607107875,0.21759823877249035,0.1607901103047315,0.11938196356226385,0.08655429072702762,0.058356021427829016,6.840515519397256,5.168680189632983,4.596791975374326,4.075513460198322,3.505489341512086,2.9172940219533263,2.3229263054100735,1.7765256279009973,1.326409392212681,0.985827043398244,0.7495987099716601,0.5875863505382232,0.4650992830835778,0.3638144821963133,0.2708757483125766
0.0,28.0,28.0,0.0,120.0,0.0,-9.792101283965799,21.410776940778867,-4.073506597374694,-107.0,0.0,-45.0,-2.6802847128406904,-0.22047945776110645,1.9460525120547292,34.17116048210502,17.650919203761195,4.659290437335943,3.059716310599242,2.584779237517191,2.171746581510884,1.747461569826849,1.3444748844886103,0.975696078571394,0.6729379935961439,0.4518946612348347,0.30414093269920034,0.21311011993541995,0.15616410030622463,0.11559935021529481,0.08381496102296403,0.05659705957275045,6.853453327315029,5.195385470969063,4.624378098212186,4.101530492306985,3.5288016287178268,2.937356104963193,2.339398889067244,1.7884427963561755,1.3315280313916051,0.9827894670719276,0.7403627599634743,0.576160403805635,0.45456382212288005,0.3553663716072339,0.2648049045092019
0.0,29.0,29.0,0.0,120.0,0.0,-6.733623748549538,-4.312627586800893,-14.620773778349056,-107.0,0.0,-45.0,3.7305016974258685,-5.880703449227971,-0.20448775272137265,34.17116048210502,17.650919203761195,4.669822212970334,3.0810300249856706,2.604910945586442,2.189172823786784,1.7615707703238597,1.355280931732735,0.9834509968793943,0.6777123978616081,0.4532325788608984,0.3020979853133705,0.2090516925461151,0.15183170738134877,0.11200528274583499,0.08119527979222244,0.05490725807670985,6.866535433429447,5.222241116644732,4.652019322398743,4.1275586397231825,3.5520931521278047,2.957369882202829,2.3558415844844185,1.8005885674194706,1.3373775824846676,0.9808290792701446,0.7321415849838309,0.5654603929394584,0.44450128053942195,0.3472313960076216,0.25893218358345077
0.0,30.0,30.0,0.0,120.0,0.0,3.7227743915717575,5.430101646683994,8.174640626853702,-107.0,0.0,-45.0,0.8140427327247854,7.238277334968831,3.441962278442082,34.17116048210502,17.650919203761195,4.680654994559413,3.1026025059800575,2.6252103920283556,2.206716613137865,1.7757544516249666,1.3661246718828621,0.9912342104713474,0.6826235028416764,0.45491566760771984,0.30051587101332844,0.2053986227067393,0.14777990716341852,0.10859109742055365,0.07868953873021155,0.05328348442925702,6.879776452070616,5.249253138911366,4.679721872117373,4.153604531082263,3.575370417022648,2.9773411340356164,2.3722464002976986,1.8129032498129176,1.3438518967771322,0.9798506656061053,0.7248832556172855,0.5554631484336049,0.43489657143748256,0.3393979266719175,0.2532501573195911
0.0,31.0,31.0,0.0,120.0,0.0,-5.084940559854143,17.948060216795895,-2.9659292068636667,-107.0,0.0,-45.0,-2.9755733746084023,3.2685531751722294,-1.019385171902262,34.17116048210502,17.650919203761195,4.69180172252786,3.1244379233133834,2.645681682442254,2.224381834234854,1.7900159919513312,1.3770088031847696,0.9990416163687557,0.6876427562320632,0.4568955699617303,0.29935293651814454,0.20212723570566482,0.14399622938004214,0.1053486902426904,0.07629237866568007,0.05172277243914228,6.893190905887972,5.276427229719235,4.707491751618612,4.1796745670727615,3.598639701633913,2.9972756124831514,2.38860907685778,1.8253387395080234,1.3508566736978886,0.9797639543299205,0.7185360078555851,0.5461455732417914,0.4257354470969195,0.33185502125087396,0.24775175488229587
0.0,32.0,32.0,0.0,120.0,0.0,-8.377912774915625,18.42801875656864,3.96327880562502,-107.0,0.0,-45.0,-0.5459979612675863,-5.151876529485131,-3.8006835169422226,34.17116048210502,17.650919203761195,4.703275443644567,3.1465403375425143,2.666328865088129,2.242172298825355,1.804358689799776,1.387936024864416,1.0068709281190746,0.6927471903973087,0.45912950857265805,0.2985700793299083,0.19921454969354738,0.14046869468012765,0.10227046552381641,0.07399876697389333,0.05022231284357737,6.906793232322492,5.303768775741892,4.7353347583585785,4.205774932724595,3.621907067417541,3.0171789618216995,2.404928046532489,1.8378566869035304,1.3583086449894595,0.9804838510829833,0.7130485350429602,0.5374845863483603,0.4170043887577557,0.3245923813616912,0.24243024601351978
0.0,33.0,33.0,0.0,120.0,0.0,-2.7123324527657573,-5.674755449008568,-2.8541615330961516,-107.0,0.0,-45.0,3.7986006694671417,5.414905271671085,-4.673371230045453,34.17116048210502,17.650919203761195,4.715089312425995,3.1689137090504502,2.6871559374417,2.260091751798557,1.8187857687543916,1.398909001678738,1.0147211659240165,0.6979185143292955,0.4615798552181397,0.29813075585883725,0.19663831059937317,0.13718576362676418,0.09934928822311202,0.07180397622335648,0.048779444513873844,6.920597788732663,5.3312828731333575,4.763256495474374,4.231911608993842,3.6451783688419077,3.037056677282916,2.4212036481915336,1.8504268827402317,1.366134720914033,0.9819305711264393,0.7083702593482134,0.5294570959320518,0.4086905052645084,0.3176003109144822,0.2372792251264381
0.0,34.0,34.0,0.0,120.0,0.0,6.301640510230747,4.3326813787216985,8.018932325803195,-107.0,0.0,-45.0,3.584791264164668,1.8222878390829216,-1.676528177331523,34.17116048210502,17.650919203761195,4.7272565915655065,3.191561906978959,2.708166852422859,2.27814387689833,1.8333003820791784,1.409930346027048,1.0225922742052076,0.7031423206967707,0.46421369504282184,0.29800096083539135,0.1943770255527634,0.13413629623204548,0.09657844008213799,0.06970356396635938,0.04739164620935833,6.934618856147875,5.358974342023853,4.791262383587672,4.258090383632691,3.6684592628150874,3.0569140864809308,2.4374375412750555,1.8630258533308806,1.3742711238855672,0.9840296839289957,0.7044515775224305,0.5220399969206022,0.4007814412767309,0.3108696752137065,0.23229259619574696
0.0,35.0,35.0,0.0,120.0,0.0,8.845999494681898,9.423580346735108,1.6986812242770526,-107.0,0.0,-45.0,3.176977751868135,-9.422255374406014,2.2820060930532424,34.17116048210502,17.650919203761195,4.739790651373415,3.2144887181008017,2.7293655243032098,2.2963323020942634,1.847905617171653,1.4210026103597682,1.0304848383390937,0.7084074010565693,0.46700239541465116,0.2981491822676034,0.19240999290144434,0.13130952045127617,0.09395157953548262,0.06769335360163156,0.04605652883498272,6.94887064162922,5.386847740762059,4.819357671932711,4.284316861363591,3.691755217819891,3.076756343848774,2.453632274417489,1.875635651240882,1.3826625297469473,0.9867120840277506,0.7012440779345396,0.5152101879709171,0.3932652954346978,0.30439186093118165,0.22746455835065574
0.0,36.0,36.0,0.0,120.0,0.0,-5.731963271703373,-2.9571955038989586,-11.217798070651547,-107.0,0.0,-45.0,0.35084959337737054,7.597873653351247,1.1982480813575416,34.17116048210502,17.650919203761195,4.752704968213239,3.237697855636073,2.750755834298894,2.3146606046311873,1.862604499914871,1.4321282853639365,1.038399877539311,0.7137051605760317,0.4699211867926459,0.2985463359945913,0.1907173275761781,0.12869500814490892,0.09146270532876244,0.06576941625287051,0.044771828161478885,6.963367279224564,5.4149073799143865,4.847547448813485,4.310596473394375,3.7150715227713764,3.0965884321217017,2.469790972164319,1.8882428248084977,1.3912612324470564,0.9899139008843105,0.6987007276075664,0.5089446033020746,0.3861305485741023,0.2981587370896291,0.22278959208510266
0.0,37.0,37.0,0.0,120.0,0.0,-4.03419441990676,3.0888018773671853,5.372373819711722,-107.0,0.0,-45.0,-4.387103251373659,1.5047629843866837,4.908569345399204,34.17116048210502,17.650919203761195,4.766013121920796,3.2611929680146137,2.772341635856495,2.333132315782134,1.8773999989324937,1.4433098011971361,1.0463386954552378,0.719029122667788,0.4729487612808822,0.299165683601838,0.18927998107501912,0.12628265714069511,0.08910612372935177,0.06392805361950969,0.04353539797030951,6.9781228295124675,5.443157336034549,4.875836651404512,4.336934486320378,3.7384132955786473,3.1164151673344413,2.485917110745071,1.9008375484932585,1.4000263440363296,0.9935763591879163,0.696776029271851,0.503220255296162,0.3793660018247482,0.2921626172221333,0.21826244600910613
0.0,38.0,38.0,0.0,120.0,0.0,-2.6351457945610557,2.0619338168105337,10.730172299560646,-107.0,0.0,-45.0,4.48054663032716,-2.241640712030617,3.7624181891390585,34.17116048210502,17.650919203761195,4.779728792194769,3.2849776475840784,2.7941267596420225,2.351750925330141,1.8922950297327745,1.4545495301829594,1.0543027739608888,0.7243745135941703,0.4760668930403069,0.29998273714059154,0.18807975573398775,0.12406267817199425,0.08687641917465323,0.06216578176584003,0.042345203589031544,6.9931512777373355,5.471601465218817,4.9042300749189724,4.363336010463516,3.7617854913807274,3.1362412053286897,2.5020143601354334,1.91341289567758,1.4089230386227223,0.9976455997934978,0.6954261493794823,0.4980142843158531,0.37296072421242216,0.28639622288417366,0.21387812407546644
0.0,39.0,39.0,0.0,120.0,0.0,8.487965551290735,14.340376741183455,-12.763325030113826,-107.0,0.0,-45.0,-1.0610624920793943,-1.1027492593779993,-2.627250655757681,34.17116048210502,17.650919203761195,4.79386575394997,3.309055439260941,2.8161150182449926,2.3705198858027803,1.9072924587204791,1.46584979008754,1.0622936988533231,0.7297379172093899,0.47926008343161175,0.30097515375835365,0.18709931324284826,0.12202558561978562,0.0847684281694156,0.060479315821574856,0.04119931578595646,7.0084665305458325,5.50024341646357,4.932732381175813,4.389806007699222,3.7851929104292705,3.1560710487004973,2.5180864748173195,1.925964235949538,1.417921846156535,1.0020724702751123,0.6946090186566344,0.4933040127302014,0.3669040092135215,0.28085264869301274,0.20963187322673893
0.0,40.0,40.0,0.0,120.0,0.0,3.810913570910161,15.173253973631482,-14.315191140068052,-107.0,0.0,-45.0,-4.0517588136378855,7.996396626544737,0.7136664994287614,34.17116048210502,17.650919203761195,4.8084378716278975,3.333429849119539,2.838310210611469,2.389442616480955,1.9223951070568581,1.477212847519627,1.0703131088216888,0.7351169904439145,0.4825152326571189,0.3021226230146701,0.18632217757248629,0.1201621911369681,0.0827772162182903,0.058865555571420744,0.040095904996156194,7.024082411341684,5.5290866448417555,4.961348106603742,4.416349298821546,3.8086402056022317,3.1759090536658072,2.5341372198358494,1.9384887398357715,1.4269979995921611,1.0068122929484054,0.6942844071714747,0.4890670006640847,0.3611853395875034,0.27552532905633276,0.20551917141832587
0.0,41.0,41.0,0.0,120.0,0.0,-8.213222388485292,21.606884119782208,14.995658287445742,-107.0,0.0,-45.0,4.146027731321105,2.482928068315317,2.878836630496795,34.17116048210502,17.650919203761195,4.823459092463007,3.3581043529121306,2.860716126221396,2.408522507201206,1.9376057543530396,1.4886409212396106,1.0783626611603283,0.7405102307894325,0.48582133874502387,0.30340674933509953,0.18573273262232104,0.11846359937804006,0.08089805756256499,0.05732157191358315,0.039033235853898014,7.04001265428215,5.558134424513333,4.990081669724211,4.442970570494847,3.832131889546373,3.1957594366295488,2.5501703220844423,1.9509849752446486,1.4361308370631056,1.0118246171792982,0.6944139761199067,0.4852811014736766,0.3557943597298505,0.27040800673091486,0.2015357159840964
0.0,42.0,42.0,0.0,120.0,0.0,9.25046759301756,22.090705928220437,-9.26307076031103,-107.0,0.0,-45.0,4.595953639430167,5.929839421390035,1.1007971200903839,34.17116048210502,17.650919203761195,4.8389434387074415,3.383082404510784,2.883336549026512,2.42776292196865,1.95292714218895,1.500136185295193,1.086444009360398,0.7459167878270285,0.48916922396206713,0.30481093175049717,0.18531621498750928,0.11692120519082828,0.07912641748033376,0.05584459416777923,0.03800966200943239,7.0562708969446994,5.587389861581941,5.018937378157901,4.469674381838362,3.855672341459845,3.2156262804044062,2.5661894393562217,1.9634525813703874,1.4453032591615023,1.0170729618503351,0.6949613086260248,0.48192451538914716,0.3507208547429664,0.2654947033252583,0.19767741232081643
0.0,43.0,43.0,0.0,120.0,0.0,-4.360289849998102,22.227828458798548,-10.146052407089114,-107.0,0.0,-45.0,0.03765716904798033,9.418941543997494,-1.7575982442818647,34.17116048210502,17.650919203761195,4.8549049988216915,3.408367444259745,2.906175261165904,2.4471672023959936,1.9683619774563812,1.5117007719679614,1.0945587890008852,0.7513363116873666,0.4925512881362254,0.30632024278090286,0.18505870229928875,0.11552669174744913,0.07745793690651327,0.05443199821263691,0.037023621210690964,7.072870671696876,5.616855906805697,5.047919435199797,4.496465170686961,3.8792658135364486,3.2355135401009116,2.5821981417085618,1.9758920073834243,1.4545012401946993,1.0225245529976794,0.6958919218559466,0.4789758401508282,0.34595473540880545,0.26077969182981425,0.19394036287662533
0.0,44.0,44.0,0.0,120.0,0.0,-1.0873074192908767,-24.191566219245132,-11.165699584854663,-107.0,0.0,-45.0,1.0458944036017828,9.108426945831944,-3.3857830885844145,34.17116048210502,17.650919203761195,4.871357917643596,3.4339629072246787,2.9292360464763703,2.46673867098258,1.9839129355300733,1.5233367745443191,1.102708609341622,0.7567688321885897,0.49596128790381194,0.30792130805413975,0.1849470976176455,0.11427202919775675,0.0758884191320406,0.05308129543078185,0.03607363063286002,7.089825395805911,5.6465353681644785,5.077031946007036,4.523347259568031,3.9029164370999796,3.2554250487383576,2.598199901211918,1.988304304804061,1.4637133913600642,1.0281500608546872,0.6971732626815872,0.4764141177951979,0.3414860282590337,0.256257471226965,0.1903208564366068
0.0,45.0,45.0,0.0,120.0,0.0,9.676147546494171,-14.945258446430188,-11.491950306088757,-107.0,0.0,-45.0,-4.78473578188494,-0.16041641044310673,1.6814323522595709,34.17116048210502,17.650919203761195,4.888316385553845,3.459872231322991,2.9525226938149047,2.486480634246369,1.999582663274736,1.5350462499338444,1.11089504875975,0.7622146632283362,0.499394140549552,0.3096021879991197,0.1849691103616999,0.11314947352020142,0.07441381834927373,0.05179012243772317,0.03515828244094103,7.107148360328307,5.67643092327983,5.106278923441763,4.550324861430817,3.92662822846093,3.2753645226302592,2.6141980872948465,2.000690963965026,1.472930573097805,1.0339233398365952,0.6987746890273803,0.47421887702383186,0.33730486997061415,0.25192274320175584,0.18681535770490726
0.0,46.0,46.0,0.0,120.0,0.0,-1.4777371557997228,0.01698191889400391,-2.412218003909196,-107.0,0.0,-45.0,1.3377477123114705,-3.405783701581095,0.5767338610921389,34.17116048210502,17.650919203761195,4.905794626662071,3.486098865317384,2.9760390002101955,2.5063963857206852,2.0153737818982727,1.5468312211579378,1.1191196527193732,0.7676743277858649,0.5028457508673536,0.3113522627228428,0.1851132342556626,0.11215156532278411,0.07303022982197392,0.050556231568213886,0.03427623957230647,7.124852717823023,5.706545131676789,5.135664293608143,4.577402085160372,3.9504050945281812,3.2953355665909094,2.630195965737661,2.013053786373507,1.4821455534132792,1.0398211743695607,0.7006674389040927,0.47237017081561783,0.33340150536139834,0.24777039094498182,0.1834204971880389
0.0,47.0,47.0,0.0,120.0,0.0,3.3121163437286345,-21.208477294606137,11.589028100782237,-107.0,0.0,-45.0,3.5898048010737327,-2.502304355612404,2.303927921419878,34.17116048210502,17.650919203761195,4.923806886044434,3.51264627665278,2.999788773859529,2.5264892088266957,2.031288889662842,1.5586936797277755,1.127383933365422,0.7731484996035658,0.5063128593180887,0.3131621209681966,0.1853687227514872,0.11127112841169305,0.0717338814722945,0.04937748209127276,0.033426231727909164,7.142951468935969,5.736880446869951,5.165191901119205,4.604582940903997,3.9742508382070043,3.315341678999112,2.6461966999780935,2.025394786060672,1.4913527086715794,1.0458230329012264,0.7028245889913984,0.47084860912496423,0.32976628831715016,0.24379546001344132,0.1801330613878007
0.0,48.0,48.0,0.0,120.0,0.0,4.927417489085904,24.84817081911104,-11.778287141598167,-107.0,0.0,-45.0,-1.9009723191094228,-5.780337753343343,0.05998697671068953,34.17116048210502,17.650919203761195,4.9423674160711695,3.5395179591151824,3.0237758369868977,2.5467623796317564,2.0473305644656867,1.5706355879257137,1.1356893701222526,0.778637958256247,0.509792909683275,0.31502345385686475,0.18572556236656362,0.11050126799848625,0.0705211266929846,0.048251832122733686,0.03260705156218717,7.161457447908334,5.767439228249388,5.194865514125276,4.631871345233635,3.998169163611386,3.3353862567444685,2.662203353828829,2.0377161141456477,1.5005477632257425,1.0519108319248436,0.7052210044832502,0.4696353866519465,0.3263896850441974,0.23999314118879198,0.17694998331480788
0.0,49.0,49.0,0.0,120.0,0.0,7.4504642323305745,18.325746074570525,-10.115702788411168,-107.0,0.0,-45.0,0.8333277763203046,6.492934137136942,3.2616673439097887,34.17116048210502,17.650919203761195,4.961490461870647,3.566717440289845,3.0480040285771923,2.5672191695029247,2.0635013663013484,1.582658881000122,1.1440374108832727,0.7841435548791106,0.5132839343962549,0.31692895394773646,0.18617444434838382,0.10983536845980665,0.06938843820985906,0.04717733120214536,0.03181755106288857,7.180383307066832,5.798223752735893,5.224688829131758,4.659271126163387,4.022163681114777,3.3554726000725665,2.6782188950139507,2.050020001839061,1.509727564217045,1.0580687114012497,0.707833281762383,0.46871230577962025,0.3232622791075245,0.23635875525654193,0.1738683333350222
0.0,50.0,50.0,0.0,120.0,0.0,-0.9956112621057667,-22.59201166841853,-11.61066514732661,-107.0,0.0,-45.0,3.331549801749796,-0.8109000454596824,-0.6165182619321516,34.17116048210502,17.650919203761195,4.981190245985709,3.5942482887951615,3.072477207000513,2.587862847664138,2.07980383961606,1.5947654692802458,1.1524294735217753,0.7896661863130919,0.5167844557623724,0.31887221998603593,0.1867067350494464,0.10926709059793255,0.06833240283670626,0.0461521134991986,0.031056638112984508,7.199741500360975,5.829236226169521,5.254665475629936,4.686786028037002,4.046237912258743,3.3756039173382275,2.694246199143365,2.0623087179733566,1.5188898879554635,1.0642828225691,0.7106396853262797,0.4680617948548887,0.3203747777797641,0.2328877396106707,0.17088531036212173
0.0,51.0,51.0,0.0,120.0,0.0,-8.100131568585756,19.391633457978166,8.565326654394521,-107.0,0.0,-45.0,3.501157615275499,0.0009908339558855062,-2.8894674482889746,34.17116048210502,17.650919203761195,5.001480952287755,3.622114121268673,3.0971992525396845,2.608696683664832,2.0962405155642037,1.6069572402154793,1.1608669475520559,0.7952067758432363,0.5202934013454452,0.3208476675814475,0.18731444536609435,0.10879036837737165,0.06734971698181365,0.04517439161364096,0.030323273227613953,7.219544266020436,5.860478794391112,5.28479902056078,4.71441971629646,4.070395294534649,3.3957833296707993,2.710288053887601,2.0745845378819543,1.5280332744276335,1.070541128790503,0.7136200802486706,0.4676669220468734,0.3177180192903776,0.22957563657700547,0.1679982334080947
0.0,52.0,52.0,0.0,120.0,0.0,-2.8486087782479874,-8.822524493497902,3.702696684312606,-107.0,0.0,-45.0,-3.495355883733259,-7.5178307719648485,0.1768604544738661,34.17116048210502,17.650919203761195,5.022376708543019,3.6503186095134352,3.12217407049728,2.6297239492898656,2.11281391436223,1.619236060291275,1.169351195845452,0.8007662590575811,0.523810031889426,0.32285044593437723,0.18799019956495397,0.10839940513343285,0.06643718278166873,0.04424245093185824,0.029616466458710886,7.2398036085507345,5.8919535551578885,5.315092972447777,4.742175781674013,4.0946391862497435,3.416013875519886,2.7263471632066483,2.086849721070829,1.5371568866681766,1.0768332197836967,0.7167558613291294,0.46751140505554767,0.3152829806247108,0.22641808333947552,0.16520453350475153
0.0,53.0,53.0,0.0,120.0,0.0,1.4793911614618604,23.334856699087858,6.962828699600667,-107.0,0.0,-45.0,-2.9250291398046957,8.416325003436086,0.8136633340375754,34.17116048210502,17.650919203761195,5.0438915665173525,3.6788654883235044,3.147405596071812,2.6509479191731042,2.1295265480355927,1.6316037767416423,1.1778835563569026,0.8063455736474137,0.5273338802535682,0.3248763606273024,0.1887272037908757,0.10808866926432886,0.0655917047529298,0.043354644503010846,0.028935274459521113,7.260531280317152,5.923662572596243,5.3455507849893715,4.770057743107614,4.118972871787687,3.4362985150299936,2.742426151546213,2.099106495643031,1.546260391952765,1.083150139343109,0.7200298799594413,0.46757961696702643,0.3130607855787511,0.22341080334776678,0.16250174600776518
0.0,54.0,54.0,0.0,120.0,0.0,4.82206233266588,-8.385695869295027,14.02555477140837,-107.0,0.0,-45.0,-0.07625716735394672,-5.961166435525778,-4.2010565052461875,34.17116048210502,17.650919203761195,5.0660394949949,3.707758554976799,3.1728977860982948,2.6723718805119296,2.1463809195079895,1.6440622201751884,1.1864653436274217,0.8119456522281595,0.5308646999617022,0.32692180241069674,0.18951921452146583,0.10785288942982738,0.06481028686824963,0.04250938839770758,0.02827879772397303,7.28173876003596,5.955607868628674,5.376175863860493,4.798069059454028,4.143399562921482,3.4566401349323552,2.7585275680295447,2.1113570477948556,1.5553438620323632,1.0894842264324678,0.7234263696198048,0.46785658856385726,0.31104271282652424,0.22054959908191837,0.1598875032604894
0.0,55.0,55.0,0.0,120.0,0.0,3.3821087402388983,-13.716053464313344,8.116964920356562,-107.0,0.0,-45.0,0.15640564330214346,-2.4387799861161685,-2.4971134907889847,34.17116048210502,17.650919203761195,5.088834346954793,3.7370016798369523,3.198654631237603,2.693999128501005,2.1633795310049293,1.656613204475419,1.195097850479843,0.8175674173962257,0.5344024221216286,0.32898368182877286,0.19036050720835554,0.10768704928681185,0.06409002997493063,0.04170515751271338,0.02764617794737728,7.303437260146777,5.987791522146405,5.40697166702843,4.826213225964794,4.167922409925868,3.477041479962043,2.774653926785874,2.1236035026786264,1.5644076932478648,1.0958289687046394,0.7269308709035314,0.4683280073917448,0.3092202038014075,0.2178303460515745,0.15735952843909096
0.0,56.0,56.0,0.0,120.0,0.0,1.5803144299263359,-10.58464957194835,-3.404987050276361,-107.0,0.0,-45.0,-3.1710017414639347,-2.7219752479911286,0.8761598683893848,34.17116048210502,17.650919203761195,5.112289852943774,3.766598815194213,3.2246801570456243,2.7158329678663105,2.1805248766958076,1.6692585314112176,1.203782349500954,0.8232117785911819,0.5379471193903663,0.33105936956298776,0.19124584529239622,0.1075863818041908,0.0634281294861542,0.04094048178601597,0.027036595554896396,7.3256376440709285,6.0202154993226,5.437941465220566,4.8544935357172125,4.192544496597202,3.4975053348813265,2.7908076216336766,2.1358479515572344,1.5734525290061254,1.102178871012101,0.7305301563421436,0.4689802139369255,0.30758487024155373,0.21524898789567118,0.1549156271900311
0.0,57.0,57.0,0.0,120.0,0.0,-3.4544815331205614,4.307112209203368,12.272200182349529,-107.0,0.0,-45.0,-2.63451377595485,7.447348318730935,-1.2947513443164018,34.17116048210502,17.650919203761195,5.136419597892279,3.7965539970191657,3.2509784249012896,2.73787671708176,2.197819449304059,1.681999990556289,1.2125200945690777,0.8288796300631123,0.5414989762638089,0.333146642119817,0.192170449811864,0.10754636318861484,0.06282187328814778,0.04021394278776349,0.0264492673663674,7.348350442370845,6.052881763409844,5.469088489769198,4.882913228272845,4.217268848837924,3.518034423946303,2.806990982545367,2.148092431945294,1.5824792077589895,1.1085293334382054,0.7342121563507045,0.4698001951376732,0.3061285012670018,0.21280153248122569,0.15255368257398952
0.0,58.0,58.0,0.0,120.0,0.0,-3.0856952571357654,2.9135917944184087,-11.734231970950432,-107.0,0.0,-45.0,-2.2266238556078797,-6.942154460064556,1.1563798254959226,34.17116048210502,17.650919203761195,5.1612370009922515,3.826871348374476,3.2775535334795096,2.760133710868193,2.2152657434767313,1.694839360453587,1.2213123221801445,0.8345718498339034,0.5450582645566082,0.33524363267805835,0.19312996973537694,0.10756270647004205,0.06226863981311369,0.039524170653904456,0.02588344439449457,7.371585844031585,6.08579231575798,5.500415983734371,4.911475541560411,4.242098440444237,3.538631380207476,2.8232062967676566,2.1603389214554274,1.5914887179886406,1.114876541508712,0.7379658863429217,0.47077557556858873,0.3048430699052912,0.2104840488741899,0.1502716496814037
0.0,59.0,59.0,0.0,120.0,0.0,5.6380130088156655,1.6389702584141297,-1.6578712948930114,-107.0,0.0,-45.0,3.0004948863856704,6.406608979805547,-0.7399773220538455,34.17116048210502,17.650919203761195,5.186755298944862,3.8575550848737796,3.3044096213261835,2.7826073015277024,2.232866255926847,1.7077784106290141,1.2301602527774658,0.8402892993239462,0.5486253232894347,0.33734878679302066,0.19412045315293025,0.1076313547908324,0.06176589623727719,0.03886984133099957,0.025338409775422732,7.3953536642771684,6.118949170049212,5.531927158671337,4.9401836688541865,4.2670361954562095,3.559298783303313,2.8394557953827397,2.172589344637915,1.600482158669103,1.1212173679058455,0.741781375456866,0.4718946065722652,0.30372073900069113,0.20829266507342967,0.14806754993108612
0.0,60.0,60.0,0.0,120.0,0.0,1.9324885048125484,-21.601379503408825,4.292483713173024,-107.0,0.0,-45.0,0.7176859693249051,0.5467994030007155,-0.8838959889701918,34.17116048210502,17.650919203761195,5.212987528048196,3.8886095186349494,3.3315508689244897,2.8053008608557786,2.2506234870847006,1.7208189030465157,1.2390650920231707,0.8460328234261467,0.5522005423376177,0.3394608226195958,0.1951383194424208,0.1077484744402955,0.06131119677101407,0.03824967410235565,0.02481347682479913,7.419663324486239,6.152354358713978,5.563625197989919,4.969040762531149,4.29208499192943,3.5800391631761523,2.855741656821277,2.1848455746413755,1.6094607086698096,1.1275492840285097,0.7456495973946559,0.4731461535828953,0.30275386646198604,0.20622356640891057,0.1459394660989961
0.0,61.0,61.0,0.0,120.0,0.0,1.4617667109752333,10.64093043695788,-4.874712749873865,-107.0,0.0,-45.0,-1.1372618734717497,-4.16578340542425,-4.8496456040890035,34.17116048210502,17.650919203761195,5.239946506845791,3.920039061869555,3.3589815007358257,2.828217782009819,2.268539942699222,1.73396259350806,1.2480280320181818,0.8518032508959854,0.5557843492149117,0.3415786953419152,0.1961803324984976,0.10791044767838094,0.06090218101378173,0.03766242936747764,0.024307987214422185,7.444523832628145,6.1860099386812255,5.5955132601970625,4.998049937697775,4.317247665577374,3.6008550036568288,2.872066010261986,2.197109435351225,1.6184256022864092,1.1338702809929648,0.7495624036285123,0.47451968189048604,0.30193500982462973,0.20427299450766373,0.14388553771906823
0.0,62.0,62.0,0.0,120.0,0.0,1.9108711550783717,-9.225641096090087,0.699781560455353,-107.0,0.0,-45.0,-2.6744601184759045,4.115893046722947,3.917308094793043,34.17116048210502,17.650919203761195,5.267644819529987,3.9518482301207825,3.3867057872172315,2.851361481336557,2.2866181353913686,1.7472112330005483,1.2570502524738196,0.8576013949505603,0.5593771984696725,0.34370156548797903,0.19724357509333695,0.10811386539041228,0.06053657235202346,0.03710690664870721,0.023821309264369275,7.469943764434883,6.219917996459463,5.627594482019289,5.027214275682209,4.342527013279669,3.6217487459138646,2.888430938914671,2.209382703821132,1.6273781098599216,1.1401787993492432,0.7535124592091949,0.47600524107332504,0.301256930117169,0.20243724673966082,0.14190395684534676
0.0,63.0,63.0,0.0,120.0,0.0,5.168750607303812,1.60156735029976,13.45801639559026,-107.0,0.0,-45.0,3.918142216122604,-6.458014300585111,1.1067155431827027,34.17116048210502,17.650919203761195,5.296094800301847,3.9840416451673435,3.4147280468165597,2.8747354001608043,2.3048605861612765,1.7605665689915515,1.2661329218374853,0.8634280539986425,0.5629795632459331,0.34582877081201224,0.1983254244209516,0.10835551961322393,0.060212176382718245,0.036581942800804255,0.023352836345483234,7.495931245534828,6.254080652554067,5.659871981401282,5.056536827388181,4.367925796451812,3.642722791763571,2.904838483182873,2.221667112862745,1.636319522595226,1.14647366679742,0.7574931813570981,0.47759344831053596,0.30071259503375203,0.20071267606325613,0.1399929641629953
0.0,64.0,64.0,0.0,120.0,0.0,9.014576667977543,8.01394038205244,3.6808252286776195,-107.0,0.0,-45.0,1.4457962426040734,9.525181091642008,-0.42424786745557963,34.17116048210502,17.650919203761195,5.325308518895194,4.0166240376161095,3.443052647946127,2.898343006537836,2.3232698258507702,1.7740303466757827,1.2752771983742948,0.8692840124457905,0.5665919286284723,0.3479598014357043,0.1994235288602188,0.10863239597125546,0.059926879349066,0.036086410401133286,0.02290198538710374,7.522493934782811,6.288500065235857,5.692348860376681,5.086020616507795,4.393446744272734,3.6637795068381886,2.9212906437023465,2.2339643536967326,1.645251140822642,1.1527540432061667,0.7614986809659455,0.4792754707710319,0.3002951814239756,0.19909569119735132,0.13815084543443254
0.0,65.0,65.0,0.0,120.0,0.0,-3.948166165362341,16.959070908959504,4.160771990670927,-107.0,0.0,-45.0,2.959150602932908,-9.951818700523615,-0.47243216081325556,34.17116048210502,17.650919203761195,5.355297767475429,4.049600249210815,3.47168401093542,2.9221877969716137,2.341848396562763,1.7876043101740864,1.2844842312061202,0.8751700415350727,0.5702147864495866,0.35009427795126885,0.20053578597694058,0.10894166605913971,0.059678646577979444,0.035619216299968316,0.022468195484947637,7.5496390090263965,6.323178433684891,5.725028207807287,5.115668642591059,4.419092556767209,3.6849212236098086,2.937789384251607,2.246276078596665,1.6541742650633613,1.1590193722622004,0.7655237071042315,0.481043007259999,0.2999980771186678,0.1975827570547029,0.1363759282656894
0.0,66.0,66.0,0.0,120.0,0.0,9.653766794113881,-9.548792251348603,-7.993618731945311,-107.0,0.0,-45.0,-4.6430057722196505,-4.179769376174822,2.9435190116797187,34.17116048210502,17.650919203761195,5.38607404912396,4.082975234888369,3.5006266099631542,2.946273298101032,2.360598853039035,1.8012902036867307,1.2937551613091924,0.8810869001960733,0.5738486312863404,0.3522319322034084,0.20166032177205556,0.10928067980517428,0.059465520911695186,0.035179300312240376,0.022050926604092493,7.577373149550198,6.358118000542289,5.757913101987225,5.145483883970948,4.444865907741239,3.7061502442687484,2.954336634531472,2.2586039034780976,1.663090189361207,1.1652693391111164,0.7695635945600711,0.48288826928959677,0.2998148821158244,0.1961703953779177,0.13466657917721359
0.0,67.0,67.0,0.0,120.0,0.0,-1.6962399080160129,-1.1535982954547563,-6.01025848253628,-107.0,0.0,-45.0,4.415336094307294,-4.349736984987098,-0.7788904822581699,34.17116048210502,17.650919203761195,5.417648564725343,4.116754063198313,3.5298849756624824,2.970603072002608,2.3795237703882193,1.8150897751629775,1.3030911182003821,0.8870353377999711,0.5774939567598238,0.35437259067271154,0.20279547112947396,0.10964695785555158,0.05928562112704941,0.03476563403332526,0.02164965842202486,7.605702557799835,6.39332112367372,5.791006718177163,5.175469436678384,4.4707695670826695,3.727468804548121,2.9709342307853226,2.270949449883523,1.6720001826236244,1.1715038366618993,0.7736142139381545,0.48480396177382595,0.2997394091632997,0.19485518551398387,0.13302120243341417
0.0,68.0,68.0,0.0,120.0,0.0,9.777224105549024,7.354104438753801,14.46762591688109,-107.0,0.0,-45.0,-4.977921103611984,-2.1305242897458303,2.370002610343816,34.17116048210502,17.650919203761195,5.450032213045396,4.150941921086902,3.5594636951471044,2.995180709019487,2.3986257302524083,1.8290047715168758,1.3124932309240351,0.8930160904301545,0.581151254840545,0.35651615938346276,0.20393975963085487,0.11003818397566521,0.059137140342794804,0.03437721976546775,0.021263889087171535,7.634632881506889,6.428790114053295,5.824312084738891,5.20562819830263,4.496806123790952,3.7488791676942257,2.987584063348475,2.2833142549901537,1.6809055175256684,1.1777229257750306,0.7776719264674481,0.48678326328246296,0.29976568373323453,0.19363376533532584,0.13143823422943898
0.0,69.0,69.0,0.0,120.0,0.0,-6.646164390511611,5.550037742508167,3.9836596401915187,-107.0,0.0,-45.0,4.127236431243569,-7.167543401131933,3.305844917584137,34.17116048210502,17.650919203761195,5.4832355816888665,4.185544114200467,3.5893674150755164,3.020009833835747,2.4179073293927864,1.8430369422148811,1.3219626241122393,0.8990298838815081,0.5848210134378177,0.35866261140537864,0.20509188642819082,0.1104521975483,0.059018344406403564,0.03401308953807225,0.02089313423699562,7.6641692383151785,6.464527314247513,5.857832201583524,5.235963020765119,4.522978119986484,3.770383583488495,3.00428801089052,2.2956998173582788,1.6898074530344012,1.183926811014906,0.7817335400750101,0.48881980629957705,0.2998879434782189,0.1925028321842759,0.12991614219720654
0.0,70.0,70.0,0.0,120.0,0.0,7.656799712639135,16.385248381138396,8.076514297051332,-107.0,0.0,-45.0,2.4786203654297427,7.490304821945951,2.1875002821994274,34.17116048210502,17.650919203761195,5.517268941043574,4.220566067023207,3.6196008439503204,3.0450941099229536,2.4373711860931855,1.8571880424498737,1.331500415341394,0.9050774359622275,0.5885037147089891,0.3608119760086058,0.2062507083008218,0.11088698616530546,0.058927570262614484,0.033672304211245785,0.020536926071841363,7.6943162335576485,6.500535156223431,5.89157012840841,5.266476824445271,4.549288151499229,3.7919842587304666,3.0210478916317043,2.3081076315273483,1.6987072216738577,1.1901158193062533,0.7857962685209018,0.49090765742771353,0.30010063717197877,0.191459143852665,0.12845342473392862
0.0,71.0,71.0,0.0,120.0,0.0,-3.856993352545029,-11.133686048843611,-4.028799548677318,-107.0,0.0,-45.0,-2.942684832152338,-2.428645080625575,0.8456098013680613,34.17116048210502,17.650919203761195,5.552142245542224,4.2560133250048,3.6501687535003806,3.07043723891478,2.45701993758918,1.8714598326320633,1.34110771843915,0.9111594560821393,0.5921998346773721,0.3629643290722598,0.2074152249059547,0.11134067832675802,0.05886322430480283,0.03335395265207483,0.020194812430145342,7.725077942448888,6.536816120922137,5.925528925303856,5.297172521009188,4.575738800432853,3.813683382142783,3.037865501570013,2.32053916702464,1.7076060368619947,1.1962903773583198,0.7898576940780623,0.4930412975869694,0.3003984231602775,0.19049951958122174,0.12704860848480112
0.0,72.0,72.0,0.0,120.0,0.0,4.314160994909011,-21.786408886552806,11.1448006978991,-107.0,0.0,-45.0,0.23295641228296216,3.171063204761893,-2.3778059894145764,34.17116048210502,17.650919203761195,5.587865135614129,4.29189155587476,3.681075980509929,3.0960429621467593,2.476856241225063,1.8858540793026306,1.3507856442511943,0.9172766459347539,0.5959098427586472,0.3651197849438527,0.2085845650972613,0.11181153628347927,0.0588237807078943,0.0330571509730272,0.019866355959752238,7.756457911209516,6.573372738288249,5.959711654531924,5.32805301548737,4.602332637227947,3.8354831263891462,3.0547426164490026,2.3329958702534843,1.7165050927109335,1.2024509939630315,0.7939157326604391,0.4952156023953428,0.30077616737341556,0.1896208410296943,0.12570024688586587
0.0,73.0,73.0,0.0,120.0,0.0,6.536403768400209,-11.500879157148836,0.09036751062261672,-107.0,0.0,-45.0,-3.119117200110819,-2.4212630041114114,3.0061437357024943,34.17116048210502,17.650919203761195,5.6244469423689045,4.328206550956654,3.7123274286386208,3.121915062179541,2.4968827755785936,1.9003725560131166,1.3605353013727177,0.9234297001436204,0.5996342015166133,0.3672784894756132,0.20975797429000118,0.11229794903669482,0.05880777974463282,0.03278104182416333,0.019551133351254354,7.788459161213021,6.61020758707426,5.994121382178946,5.359121208219341,4.629072222589179,3.857385649957843,3.0716809935947,2.3454791662536563,1.7254055642035144,1.2085982448919528,0.7979686015814427,0.49742582278533937,0.30122894092996333,0.1888200532043737,0.12440691889303879
0.0,74.0,74.0,0.0,120.0,0.0,-6.619543147583656,21.05212029418592,4.777155086775931,-107.0,0.0,-45.0,-0.8727449929419624,6.741984324854894,0.6813345103474369,34.17116048210502,17.650919203761195,5.66189669507466,4.364964226509296,3.743928070236621,3.1480573643081375,2.51710224155471,1.915017044172117,1.3703577968456095,0.929619306873967,0.6033733665925829,0.36944061409092005,0.2109348028237385,0.11279842551084925,0.05881382608689924,0.03252479373158367,0.01924873462913995,7.821084196229518,6.6473232944718985,6.028761179690058,5.390379996668351,4.6559601092812555,3.879393098914806,3.0886823736247226,2.357990460337364,1.7343086076392975,1.214732760061651,0.8020147898239907,0.49966756592951983,0.301752017365588,0.18809416532619383,0.12316722788124145
0.0,75.0,75.0,0.0,120.0,0.0,-7.13810335743055,0.7496149135354351,7.455759002245969,-107.0,0.0,-45.0,-2.8868098036336876,3.152439633014776,-1.2515972406466878,34.17116048210502,17.650919203761195,5.700223131454944,4.402170625117074,3.7758829481596345,3.174473738059603,2.5375173634493864,1.9297893338609389,1.3802542368225565,0.9358461484109937,0.6071277867639417,0.37160635074906034,0.21211449527172646,0.1133115879134693,0.05884058709417216,0.032287600475497884,0.018958762496694745,7.854335012794769,6.684722535617345,6.0636341252959545,5.421832277109212,4.682998843799054,3.901507608530817,3.1057484820336905,2.370531139605039,1.7432153612655144,1.2208552126711514,0.8060530306972585,0.5019367765385944,0.30234086952003736,0.18744025162582761,0.12197980069813245
0.0,76.0,76.0,0.0,120.0,0.0,-5.857660258915116,-18.36255777396609,6.299239342793353,-107.0,0.0,-45.0,4.55179163308515,-7.260045415140148,-4.193321992655604,34.17116048210502,17.650919203761195,5.739434710787075,4.439831917146498,3.808197177589651,3.2011680986816238,2.558130889984796,1.944691224619787,1.3902257271992717,0.9421109017063273,0.6108979040966768,0.37377590769050156,0.213296580644856,0.11383616529389866,0.05888679109147219,0.032068680502140234,0.018680831730767823,7.888213113682531,6.722408033011397,6.098743305343905,5.453480946192269,4.710190967918229,3.9237313047876,3.1228810306594252,2.383102574345737,1.7521269460271705,1.2269663100470931,0.8100822767514961,0.5042297185872335,0.3029911661143327,0.18685545205513993,0.12084328685757481
