Line_number,Fiducial,Easting,Northing,Height,Elevation,tx_pitch,tx_roll,tx_yaw,txrx_dx,txrx_dy,txrx_dz,rx_pitch,rx_roll,rx_yaw,PX,PZ,S0X_time_1.086e-05,S0X_time_3.256e-05,S0X_time_5.426e-05,S0X_time_8.680e-05,S0X_time_1.411e-04,S0X_time_2.279e-04,S0X_time_3.689e-04,S0X_time_5.860e-04,S0X_time_9.115e-04,S0X_time_1.411e-03,S0X_time_2.192e-03,S0X_time_3.418e-03,S0X_time_5.339e-03,S0X_time_8.301e-03,S0X_time_1.338e-02,S0Z_time_1.086e-05,S0Z_time_3.256e-05,S0Z_time_5.426e-05,S0Z_time_8.680e-05,S0Z_time_1.411e-04,S0Z_time_2.279e-04,S0Z_time_3.689e-04,S0Z_time_5.860e-04,S0Z_time_9.115e-04,S0Z_time_1.411e-03,S0Z_time_2.192e-03,S0Z_time_3.418e-03,S0Z_time_5.339e-03,S0Z_time_8.301e-03,S0Z_time_1.338e-02
0.0,0.0,0.0,0.0,120.0,0.0,9.567783533811209,-24.995457485932597,1.9260783566293185,-107.03777098794842,0.0,-46.667308360880384,-1.2587505102607897,-6.278330319456851,-0.5395557190036051,34.15037580619709,17.60962007248351,10.340634373697643,9.97251279192976,8.927042482092348,8.6386012933375,7.940634067614273,7.238454890118678,6.4473943151103965,5.238152373724729,4.065594332723589,2.7954167088736943,1.6637228243478601,0.8094812875403102,0.3503673822979262,0.12101968089999889,0.06440555511296463,10.870870557388418,10.649922193442354,10.40491486966488,10.216536689151148,9.575918860650708,8.99022685443751,8.323526588681684,7.304440983609443,6.094828872600333,4.895087926885425,3.467562147391767,2.1988120099031323,1.1214835450507183,0.5442659597491171,0.2335266081461944
0.0,1.0,1.0,0.0,120.0,0.0,-0.029728527441001518,-24.91178431175758,9.773211419780083,-108.39370595793646,0.0,-44.06178332476625,-5.2273513103581735,-8.732618759884076,2.7244475443768454,34.15037580619709,17.60962007248351,10.574637585682732,9.537751881066287,9.31221232125033,8.633176506052395,8.096737578210186,7.3955258021932515,6.372394152061539,5.371122173503099,4.207559004208351,3.046236675224042,1.7705612391502863,0.9916961794539578,0.43649816945709674,0.17850354191445567,0.05690210869112357,10.644004378801736,10.637945964414987,10.23015986624151,9.596758989962305,9.405772206228944,8.873689302280223,8.422969541810247,7.620911626535884,6.57938060026139,5.227682142303812,3.6494241378887473,2.4647753078114967,1.3633603253224083,0.6940776375033159,0.26840078593939287
0.0,2.0,2.0,0.0,120.0,0.0,6.481184774599889,24.9393200888427,-9.416736459180985,-106.20585684048305,0.0,-46.033387276643566,1.6455343462234757,-1.1166461306443978,-1.2803529611237021,34.15037580619709,17.60962007248351,10.456130384176614,9.60029176633761,9.351257619571669,8.68029397649153,8.210618947203365,7.269142222417885,6.305519112451768,5.495539597397794,4.416674725800168,3.169786380799735,2.003783788147571,1.0932422753413926,0.5191931424096106,0.218211066748481,0.06364486874577484,10.913602876012181,10.132681253627954,10.613019473175635,9.933051675495852,9.365201457396896,9.230651805980768,8.591897084533604,7.710616810231076,6.828409659237347,5.461670966074748,4.058237591535313,2.7797489223619265,1.5236721771175508,0.8010746743625529,0.32144787280054066
0.0,3.0,3.0,0.0,120.0,0.0,7.069690297315123,-15.458141791149332,14.710662137038096,-106.81290218264967,0.0,-44.543837026783976,1.959155442777255,5.4378231487849575,-2.6769633545142026,34.15037580619709,17.60962007248351,10.577610656289375,9.823774688289644,9.345813246163742,8.649840784057943,8.148100211003976,7.1872799109768435,6.550477752739938,5.567083357191963,4.32527345183304,3.2698635377352074,2.1703278304032425,1.2996174191209355,0.6247323043618709,0.23066786408004628,0.09420027350925118,10.888811054492004,10.366039429187472,10.259388499036142,10.198515439283165,9.32186844419145,8.924951623404926,8.169983078413198,7.74622204087143,6.8300192829814,5.492958737677012,4.086887581292197,2.861465041195838,1.725011486982646,0.8703791303900196,0.35841436180135827
0.0,4.0,4.0,0.0,120.0,0.0,4.289188084715391,5.108291753004568,-2.5482794437924756,-106.37356968302672,0.0,-43.80279696412006,-0.0971607837205406,9.627012272383514,-2.6422670983501906,34.15037580619709,17.60962007248351,10.4262201640462,9.648043363859488,9.351513807432768,8.762802813321183,8.194441485848987,7.270647326894193,6.470910135365568,5.645136640248703,4.444239095864172,3.5699115685145433,2.3498166249256394,1.3559979269486866,0.7056128484808238,0.313258698932759,0.1011685856574479,11.204966109405694,10.45771494962097,10.276037630120056,10.105378018811425,9.478726429882485,8.983826435059967,8.190497741756875,7.406348213555397,6.3422171548770985,5.6412743917423,4.3686379516153835,2.950736370020609,1.8519844596943555,0.9473277732692373,0.44691555636686026
0.0,5.0,5.0,0.0,120.0,0.0,-3.622059869687728,-12.839851354676634,-11.621972703084872,-106.18541280162485,0.0,-45.68200405978014,1.0230592326922743,-3.639289482153403,-3.9677021868941886,34.15037580619709,17.60962007248351,10.191886737710162,9.716490540835172,9.016935267038043,8.971833955225469,8.059427932895805,7.36278579717442,6.401852883264537,5.666149210326772,4.607282020836,3.50826257896516,2.397818959745774,1.4441735137429617,0.767713031490476,0.34939682381397597,0.10997267446627149,11.16511049990426,10.533714845160503,10.313193138695333,9.794657180233976,9.5785403996103,8.72034459174244,8.452794397216804,7.64853987492015,6.560569269409529,5.729665823837072,4.398274369074238,3.187222228905194,2.0370020028680913,1.128712602755712,0.4880139909328249
0.0,6.0,6.0,0.0,120.0,0.0,6.2566559670558135,4.921535662570818,8.389457532828537,-107.77285820321522,0.0,-43.05680167649227,-2.529915858525283,-2.373027684594023,-1.0367448723245531,34.15037580619709,17.60962007248351,10.566676482066638,9.500071557933069,9.206636481646752,8.424931980598602,8.032694021236708,7.29543423751753,6.274214722467328,5.598584177738759,4.711588673282325,3.517698499342923,2.574393042190848,1.5841989084955994,0.8225760568721929,0.38087364677610375,0.11061483377162629,10.70697871737986,10.431836674115006,10.099523210116658,9.95928612883284,9.634125731962563,9.096333442552723,8.069571894571197,7.700025072400205,6.84995493046013,5.847804234622285,4.5576505323130085,3.31173822028241,2.1724598838119653,1.1536354047452793,0.5711065654796647
0.0,7.0,7.0,0.0,120.0,0.0,5.3269720736973465,-12.895828350968285,-11.212129943877262,-107.24934671391844,0.0,-45.21596866733209,-0.5113542553039485,-2.6017763317796394,-4.416259353532867,34.15037580619709,17.60962007248351,10.485037156625193,9.713302948563092,9.083854781514543,8.604307593304384,7.851274927277012,7.190562796299052,5.994346402919098,5.744626545997686,4.593222932340253,3.6282923876564843,2.6946464414096805,1.621983232721193,0.8924763106299728,0.43769883528863285,0.14849340479857465,11.17936465648393,10.092802613239723,10.137314752285619,10.111050074815935,9.595638916505045,8.830166031822476,8.345681791432735,7.777206919277112,6.6652832597062135,5.749790636560505,4.575622040924474,3.5537048631775527,2.226945852973137,1.2181941698284833,0.5926274042840944
0.0,8.0,8.0,0.0,120.0,0.0,-1.881321431039268,12.132289246373823,-2.7979259406476036,-107.57391965841424,0.0,-43.19504626842631,2.0340145438755703,-7.289817712263604,-4.655405119196995,34.15037580619709,17.60962007248351,10.45014358647287,9.54183388710911,9.084617614271355,8.62939836749947,7.8271467236184655,7.106334431371627,6.402987954009042,5.498823259988459,4.594576505052531,3.6204225043248313,2.616096917200401,1.7150635964967806,0.9359755981965461,0.46960250637522744,0.18688123058324022,11.165228560671382,10.485097738493344,10.078832678172699,9.727229860447228,9.055872194580797,8.6669041079126,8.172983963608445,7.484874837704236,6.654129972773886,5.712145718979297,4.74054324839241,3.616416588334629,2.309182323569837,1.4132928923859815,0.6474284555717797
0.0,9.0,9.0,0.0,120.0,0.0,5.320732621845941,-2.642293650738271,3.376186499205769,-107.55656556215864,0.0,-44.439745875207635,5.874690742339594,-8.440533523680337,-3.9350355280050264,34.15037580619709,17.60962007248351,10.436189015399016,9.719903812290143,8.923993603447041,8.671312704480243,7.845443154924645,7.314860998318848,6.443792387892425,5.537865092512129,4.6342340993136375,3.7123389531224684,2.64694805309126,1.7208560979631455,1.0015747775189106,0.4839375367774835,0.16818189915365223,10.759262460697105,10.670776100495218,10.101216192832247,9.407763111377395,9.11842901329252,8.430593817863844,8.120660274036647,7.685458248490523,6.6192206501398765,5.823551913651886,4.783386297175164,3.6888306516333134,2.382254030228191,1.4183388955981004,0.6750250975390173
0.0,10.0,10.0,0.0,120.0,0.0,6.284183186189033,4.0682720718524195,-12.76864296948139,-108.13349062731336,0.0,-44.92510758862957,-5.583047559115859,-7.899421537395483,-1.5874133042842011,34.15037580619709,17.60962007248351,10.594093359531005,9.543357065987852,9.11870297845293,8.67614048715982,7.773223293877123,7.127021985079228,6.7446702587217,5.283101994441677,4.5486632623539025,3.6677134091772765,2.7501565627377538,1.8177771307406598,1.0358035389257865,0.5230366112016775,0.20578616226862026,10.540359148434723,10.004437318608453,9.987086258998605,9.398518380446568,9.482080199536952,8.435069334926128,8.123138457737157,7.40444784148904,6.596912901482005,5.669373758224093,4.670713186958425,3.578027264445288,2.5072912003490333,1.494564893766109,0.7457452375110161
0.0,11.0,11.0,0.0,120.0,0.0,4.103773202692722,-18.875110731444057,1.9876305502723852,-109.27935051781357,0.0,-44.43941367126125,0.9151080764645574,-6.838074360967125,3.889568995908089,34.15037580619709,17.60962007248351,10.248154007352356,9.664238750779447,8.935118536045422,8.794077221032994,7.648586083472378,7.452761038484891,6.2084561769049085,5.600104439310042,4.579076338905082,3.5810710608955336,2.6399367523054478,1.797427849065784,1.0890315763551868,0.561341330572438,0.2292360792950614,10.984757299545059,10.251815539939418,9.72464292424685,9.290779910774763,9.14089947927043,8.731950335358171,8.17066999774939,7.19032105636553,6.325909940131328,5.80706377348466,4.794519430138799,3.4203293471543694,2.5330871298938935,1.5394136999636583,0.7824177825699259
0.0,12.0,12.0,0.0,120.0,0.0,-8.808062154622153,-5.175548806390239,0.2159847345210153,-106.55897559774023,0.0,-46.73431384782822,4.348629169063235,0.7909249370850286,-0.10224708248128689,34.15037580619709,17.60962007248351,10.346175274309829,9.403692691165235,9.064187641150623,8.91515905882522,7.906725047415377,7.131677648181443,6.330686873155756,5.329219932321106,4.4138715640218775,3.5760481333144543,2.6993741902916883,1.9331094811147354,1.1225500629998284,0.5727707655373985,0.23803245946768345,11.030987629036542,10.366903979189932,9.682157753255863,9.321142515671912,9.172077333110126,8.897068425829108,8.372998655125054,7.338746492095681,6.5839784470517415,5.5112640739558145,4.853539848625413,3.6880472811159106,2.7109079884555296,1.5701398191395173,0.8274339153147064
0.0,13.0,13.0,0.0,120.0,0.0,3.6621537343139448,-19.625073298330253,-13.539701876284347,-106.58763506708394,0.0,-44.3989018131458,-3.8019097925030003,-4.523810171978222,-4.675126477604799,34.15037580619709,17.60962007248351,10.274325386012533,9.584361023318522,9.136037691362015,8.647188620839016,7.901659794469753,7.3286138792479205,6.253312857392399,5.532478199226124,4.552890379074094,3.700935639748448,2.7316200041118597,1.9074363573083535,1.1460895440832128,0.6007280636230691,0.24417974884113014,10.650902582582942,10.326393680576656,9.599063644309075,9.478872607316779,9.19061675023417,8.638158200837879,8.062757112334438,7.401469588736094,6.450838515179712,5.527311069039605,4.59988785454413,3.768956862757178,2.6172828021226087,1.5991938489268458,0.863413853744062
0.0,14.0,14.0,0.0,120.0,0.0,-1.6237919953729563,16.582571954735755,11.030650524779123,-106.92361470328925,0.0,-44.51975787096332,-1.7672315361252267,-9.17532278994904,3.6880331274526608,34.15037580619709,17.60962007248351,10.3547724125327,9.550844080766545,8.883984230915335,8.770021993296547,8.03511597157381,6.964934127788046,6.101852300158475,5.347228550236185,4.677221242398756,3.4692119186728734,2.694991934491377,1.9372361978848103,1.1941451058530947,0.6210527712300975,0.28486703614980546,10.396153884977933,10.616301903258112,9.791966070330714,9.411568393790123,9.013169234157264,8.200862766232905,7.903311991208488,7.472098293676396,6.252514068356123,5.672823464760679,4.548397668743831,3.549653642417885,2.559857197031474,1.714477925695025,0.8944104020964165
0.0,15.0,15.0,0.0,120.0,0.0,3.5435342724524226,-10.99076883581047,10.032037274747289,-105.59001974375661,0.0,-45.85617893959326,-0.1832543208549714,-7.468607675605483,2.976635431418142,34.15037580619709,17.60962007248351,10.461489552437198,9.721630228593078,9.26307722039973,8.55107739020819,8.142708916485294,7.268155537726562,6.435862831099518,5.413352775396427,4.556509838424654,3.652541219850128,2.6627459223778827,1.8512578516883909,1.1836770430952697,0.644045248601162,0.28022627933630956,10.712274083725346,10.333524969536965,9.928211417487152,10.028182762452396,9.033438922563803,8.45431332380047,7.960649062202073,7.247351841241877,6.372094715897575,5.8504359122352785,4.755067297026536,3.736572521412748,2.6469300396195465,1.6824775809563954,0.9147492524316948
0.0,16.0,16.0,0.0,120.0,0.0,7.997041115735428,-23.210964685269047,1.4169577896648917,-107.77763222591588,0.0,-44.8986575101401,2.6658372901264284,-6.53698235443267,-3.5423407112230922,34.15037580619709,17.60962007248351,10.403935261235052,9.503382840391717,9.222852149267556,8.202459549414334,8.07291889800432,7.142599212878679,6.0882477019424694,5.281454957105904,4.493742988531688,3.545167444190941,2.6851866356680034,1.8196378375445401,1.268615136444813,0.6652763965883608,0.30493367914745395,10.62797615924574,10.114365096155376,9.74725093817528,9.194275317761779,9.474572010841156,8.792144241179594,7.869087326082178,7.278473996959617,6.604758080849484,5.703623479031144,4.551124653372853,3.677031571814032,2.608542211336294,1.7566190760959737,0.9858037274234274
0.0,17.0,17.0,0.0,120.0,0.0,-4.76049959790275,13.67450214610895,-8.455588940656538,-106.09976648053974,0.0,-45.44512970228284,-5.638631648053501,5.402068273089579,-4.986673854804793,34.15037580619709,17.60962007248351,10.524076707067653,9.406074033802238,9.153917928045892,8.36983709033894,7.997714590638181,7.135828297883646,6.287277618965744,5.470266404414063,4.419344208336418,3.5644410623841773,2.685068503902726,1.9778812958938548,1.2341096039060866,0.6857281501020855,0.3122615822602688,10.270649605600918,10.2669972727858,9.70463481836041,9.442866129792687,9.054378441641282,8.578300331602186,8.114653404616304,7.204053082074945,6.465965519217199,5.669945801714708,4.652171325274294,3.7577352716177206,2.6138347760138916,1.7927133456259847,0.978896539582272
0.0,18.0,18.0,0.0,120.0,0.0,9.315926463134254,1.0588650152321293,-0.9075545236451745,-108.79271508369253,0.0,-45.394336329053814,0.974138773987764,5.364611791233969,-4.637587724320143,34.15037580619709,17.60962007248351,10.201040703121038,9.530098212355425,9.145562576933955,8.437001319255927,7.9550169076987185,7.518741089184322,6.644295529801798,5.6063283804955475,4.495916029967331,3.449742879277824,2.6938562998962037,1.923785340080195,1.2523421392920664,0.7112824854245652,0.3261539808512113,10.892551076430783,10.069372894123141,9.933041601666819,9.62877354914142,9.105022821820564,8.516471319546438,8.027652559552164,7.450625906910045,6.261175244986015,5.620368810170645,4.530233777104138,3.7732411021171917,2.7337442888881007,1.7600018770111963,1.043808860751568
0.0,19.0,19.0,0.0,120.0,0.0,-3.034642666728944,0.763705752885528,-4.342883775680223,-106.66120953260591,0.0,-45.07492347522786,-0.35934110437067845,5.896416970480651,-2.2468142699550553,34.15037580619709,17.60962007248351,10.228973452267434,9.627262908352805,8.93485565098189,8.301751173354116,7.90982296695032,6.941359409983401,6.055559518210974,5.262025001200826,4.30693061181382,3.5492004207094765,2.606830212790266,1.9359224697056334,1.2662826889849654,0.7104423047582525,0.3220409117350805,10.677194645117995,10.093216029715338,9.839633159161838,9.451326213908775,9.200802427047636,8.288093245718185,7.978990685684526,6.977263462290941,6.486030946964164,5.425154938470444,4.471322889578836,3.75270957375488,2.647932455926168,1.8686936175444193,1.0540151311317079
0.0,20.0,20.0,0.0,120.0,0.0,4.837318169591541,-0.6430959801386678,4.595200360548954,-108.54260321741019,0.0,-43.991950523912564,-0.8999722544026358,-3.479504882244189,0.40385545977365744,34.15037580619709,17.60962007248351,10.201831789002355,9.491442501720417,9.110177794238034,8.674713515063173,7.761958316322971,7.345851482316746,6.253096131016601,5.4603571532425565,4.371590085817089,3.448528470373488,2.635401302517633,1.9238362762918433,1.2711815533954718,0.7057925962267024,0.3455232388892083,10.456328416454859,10.111152597206885,9.803538147247112,9.493819482500205,9.041791745838488,8.678590115332241,8.114720577527605,6.896372433034169,6.3977597678656934,5.403899212527431,4.695847142864294,3.471976804921101,2.6425094979767025,1.820795317702802,1.0493476180561079
0.0,21.0,21.0,0.0,120.0,0.0,-5.9416729653669424,3.218292394164191,6.780926691096539,-106.88902499393924,0.0,-43.324775049710496,4.149405083824343,8.847240098367006,-4.957664529259075,34.15037580619709,17.60962007248351,9.926626386985989,9.478222712378454,9.022327787741403,8.610800187251451,7.781552447723509,7.140147372089312,6.229213607080662,5.319261080079834,4.411342797882676,3.529951776488338,2.7518762012483955,1.8799090592896663,1.2525908610742302,0.7264035277266672,0.34655757521522884,10.59518752132233,10.024236940720721,9.533337199910779,9.272115220671179,8.960997491898917,8.370496557848023,7.838100042613854,7.10676720474814,6.106121440771379,5.4594531872366385,4.538592850469615,3.5832843739304385,2.6897703272749918,1.8162420625845177,1.0826331075775308
0.0,22.0,22.0,0.0,120.0,0.0,-2.597834213716115,-22.782217327916314,1.489190570217822,-107.10045411280056,0.0,-44.681855735857525,-3.503266653794711,7.681497871211359,0.9750885787640868,34.15037580619709,17.60962007248351,9.883298321824538,9.66109110186873,9.005000873092404,8.596372740574752,7.813928893270059,6.978548573812134,6.135342258316221,5.295232217881847,4.49507264325309,3.53599976877113,2.618039033660681,1.917692307669748,1.1984876494267722,0.7135469980865125,0.35109954698925516,9.951123526741423,9.776638712758572,9.869999253205002,9.368642178079702,9.00598086325458,8.453018487570814,8.026716324848953,7.266250862860951,6.369407100616352,5.480747020225161,4.522774917352092,3.658838205072554,2.686825105051006,1.7664774315084575,1.1355092850712067
0.0,23.0,23.0,0.0,120.0,0.0,2.316266574270461,23.902743284928917,13.921365681325238,-107.7143050651074,0.0,-45.215073865681745,2.683075271035735,2.987294263270911,-1.6116704639511958,34.15037580619709,17.60962007248351,10.244129634123798,9.67946354320846,9.058142305413494,8.567314060391833,7.776863371633658,7.289587722921133,6.368687760484208,5.352712556468624,4.303611441339638,3.412760586106947,2.5986710097447028,1.9932819095888896,1.2872407286470295,0.7193778786533948,0.3842458361759762,10.581747447247745,9.894093129230638,9.905191515186685,9.268772463631837,8.924209652163464,8.445750567692002,7.858994381347957,7.100009820906561,6.350800600782472,5.323831018362987,4.488067514719831,3.471813557440748,2.773127013540617,1.8898983485870324,1.0849071392549852
0.0,24.0,24.0,0.0,120.0,0.0,4.84392423678597,19.311227498223644,-8.261818929197604,-107.90740441116262,0.0,-45.05989627074588,0.3802020668123838,5.73985949457488,-3.088434422216426,34.15037580619709,17.60962007248351,10.172094364997252,9.352666754543407,9.124495835666643,8.046124985279206,7.751534820663541,7.098483090054315,6.198319755029884,5.229033900435476,4.68693631175723,3.4898350519968124,2.65095766135362,1.8391387738899518,1.249640782686781,0.7555655492598571,0.3616385370722314,10.505000200123336,10.063298377948419,9.805015649783074,9.260316164656832,8.651338089531404,8.668106845195021,7.780889166344364,7.07875281040781,6.433080726891006,5.222353997673336,4.4236581779134205,3.538971042537007,2.7268001386863383,1.8046038947580918,1.138397636370158
0.0,25.0,25.0,0.0,120.0,0.0,-8.913983159534634,20.15106275380365,-5.36275386573862,-106.80530727775093,0.0,-45.61423863251861,0.25585406157703244,-7.142237426573188,2.793521057270306,34.15037580619709,17.60962007248351,10.195920165659317,9.418925251275116,8.76226017950613,8.500099190319697,7.859022767813506,7.255964091417284,6.263451918347595,5.430671756786446,4.460986676603317,3.504870062392075,2.5699002547855407,1.8855765446742683,1.2292839053620137,0.7563472441428953,0.37594619576056487,10.2944040930515,10.243588851403521,9.897834147209693,9.570456303093007,9.122481441426622,8.254454667409732,8.023355656349045,7.030880222288796,6.197223389948478,5.341952467864327,4.529997780143563,3.590511176672814,2.6854768730300393,1.854594022740833,1.141791445470481
0.0,26.0,26.0,0.0,120.0,0.0,-5.672714422264349,-19.211804514461654,4.033836551966651,-107.69225473319015,0.0,-45.48613524928575,-0.5833422894678018,0.47771374530648814,1.4176197505480195,34.15037580619709,17.60962007248351,9.96048581740445,9.323444240704173,8.964279721687841,8.436196257557087,8.088015553275595,6.912017351717383,6.154001568678479,5.2801092201821485,4.473668962052878,3.5407625016022592,2.701420396170579,1.8520534482296718,1.2429979229791275,0.7903477976389063,0.3875818683824406,10.109595825276216,9.782453983104574,9.877708542154117,9.191058861702341,8.911589372021961,8.198243130996145,7.795462244036851,6.891848209154713,6.279197410581589,5.469841084380346,4.5902209613051435,3.585112734842257,2.638268752821139,1.8329004268025917,1.1451890303187342
0.0,27.0,27.0,0.0,120.0,0.0,-8.353273543862578,-20.814963861175446,13.308220420360694,-107.51263893393985,0.0,-43.411874391686695,-0.9451585825605093,2.229647790792715,-4.123987233628565,34.15037580619709,17.60962007248351,10.286398581204299,9.595873686078285,9.05342701668038,8.462145163967664,7.6710569660981065,7.258688839693032,6.44051803895143,5.378897396836727,4.496563994220832,3.5364064585646826,2.6614811733118082,1.8819933622841765,1.2630601265942998,0.7636659626944238,0.38850183557928686,10.129550949231485,10.170068237243662,9.645064799322741,9.281898599335824,8.743702248079172,8.521083472770995,8.00588966496625,7.305764577829689,6.260899151223687,5.224038228432693,4.435675628855001,3.5670144336723033,2.7148818852391097,1.886775127979462,1.1631608892136587
0.0,28.0,28.0,0.0,120.0,0.0,-8.364964160897863,17.4447713908377,0.628254967578421,-107.24911523567182,0.0,-45.03724328593303,2.097067347577606,-5.309624234739456,1.373450475135888,34.15037580619709,17.60962007248351,10.277755515328522,9.778332337029692,9.29232253095731,8.674360875326267,7.522497122202448,6.995827672058413,6.346968678346883,5.079031993779332,4.58431678543727,3.6275708642956506,2.685928015714654,1.8784039876032972,1.249450389025069,0.7690883131269955,0.3819524994626661,9.967624722771879,10.077167638355352,9.7676543221344,9.463496159441316,9.129730259913213,8.08684266529611,7.53559560090849,6.853858793071422,6.304683004919849,5.474088148796873,4.5195072816259065,3.570197375937496,2.5634496259968604,1.9375479669866027,1.1159891146781724
0.0,29.0,29.0,0.0,120.0,0.0,-0.9778834787433404,-21.964900787587606,2.056618673853439,-106.16404858369678,0.0,-44.86379314889754,0.9648995478371059,2.1078911393951127,3.348975393945045,34.15037580619709,17.60962007248351,10.516708927267391,9.630258807152622,9.142851107359725,8.498054388014445,8.020608129370345,7.028289475180416,6.185042691966253,5.4275564376294545,4.3527301430760055,3.4563754157552484,2.7104545769139916,1.8230932485274718,1.2799004732178465,0.777721928662013,0.40096528700923056,10.447355361374818,10.125131072877789,9.165836529029324,9.159290851918374,8.933595109228136,8.11285353301919,7.607637143453364,7.1777431437032995,6.323906032863061,5.419486490830253,4.480537392534878,3.4446104728353664,2.6586869492146414,1.7829622729860608,1.214851985271948
0.0,30.0,30.0,0.0,120.0,0.0,0.6554782860329205,17.74617628712027,3.4193899571017745,-107.58231388650024,0.0,-45.64353836958122,4.241964814429541,3.7111512041440875,3.9338135839733237,34.15037580619709,17.60962007248351,10.219007667971475,9.555049376689752,9.165151132801304,8.305335958651458,8.177441297976983,7.063392080517841,6.177365762769136,5.304684247263821,4.50617251382005,3.444564721038646,2.574007080303516,1.89718828588882,1.2436732095983614,0.7317348337061103,0.39414554193962614,10.144635338001835,10.175516709742855,9.323705694586256,9.280575132966318,8.828602915688615,8.371304354332473,7.637868732286745,7.403299917395949,6.162489733450886,5.265839676442894,4.4953889530716,3.4453038821951862,2.6233768587221724,1.919248355584822,1.19734050833745
0.0,31.0,31.0,0.0,120.0,0.0,4.8412719560391455,17.541915886546896,1.4564035975766707,-106.82215759852541,0.0,-44.69389269220629,-2.418355419018889,4.900982648051983,-4.7596845737265845,34.15037580619709,17.60962007248351,9.732961795918435,9.633577960029728,8.666315092433845,8.436409864548663,7.7747632030758975,6.808690645704077,6.225866639814213,5.064655939910456,4.310115852395849,3.4928996455907755,2.600165691016654,1.8416263992824582,1.2415976176945747,0.7449482393105268,0.38469988611822475,10.163914848433794,9.828159381709499,9.635103845921645,9.428458271342311,8.87339641936094,8.408791656122393,7.601196270471042,7.015643442187848,6.240874849459589,5.328544898131786,4.40703809884395,3.5841543973284113,2.544478945959069,1.8538181096407218,1.1756386698174905
0.0,32.0,32.0,0.0,120.0,0.0,1.037153056101456,4.26546020952744,-3.1775615076217285,-107.12649584552516,0.0,-45.10806071178587,3.0001418049446986,3.3989853040196127,-2.36075136593728,34.15037580619709,17.60962007248351,10.044251689859214,9.537627807288713,9.304613137983361,8.647277710227435,7.992234880760424,7.053700951761844,6.14624392286676,5.255759509007375,4.50554305822146,3.608755098780101,2.646620289559097,1.8902020639996406,1.2381080554811998,0.7373510413638037,0.42657027422781724,10.144309680887899,9.984396290698855,9.346890278765715,9.56260605886165,8.723164506277183,8.3397096521121,7.606432189651538,7.065852062300845,6.249059988799271,5.329843291825243,4.267655476257988,3.5057316219499786,2.545166752547894,1.8862762931024546,1.183265544713176
0.0,33.0,33.0,0.0,120.0,0.0,-5.237196586319801,20.73232845373733,13.26407658057505,-108.23089346124607,0.0,-44.08572164676433,0.1612196961359793,5.6943650729122215,-3.0235155014822435,34.15037580619709,17.60962007248351,10.537718767097058,9.640470233912305,8.86528775397881,8.54012792613192,7.858663219856747,7.003897793084168,6.295517665596055,5.305906975592221,4.41069509925088,3.317009602831813,2.7001523883761487,1.8271160390293149,1.1915278439327177,0.7644764228557073,0.41410224951900154,10.287693068746616,10.11757618457386,9.591304832574716,9.2069026654772,8.862493601562695,8.348443196351019,7.845597901906822,7.079590182999574,5.96477607584438,5.400081917988405,4.559248426691397,3.429691194244125,2.54864054513045,1.7734498535843377,1.1506142744707262
0.0,34.0,34.0,0.0,120.0,0.0,-6.015616250819202,-14.035767361254663,-10.877496449944232,-106.95679851298173,0.0,-45.67500637697998,3.369579641301474,8.707501852860432,1.931671179909288,34.15037580619709,17.60962007248351,10.202032631461268,9.439495760543242,9.024677502947958,8.639640241466601,7.6694122944115515,6.962145011701163,6.317539967499046,5.3074958126412906,4.424621223941359,3.4422591146750907,2.576290188088649,1.8784940701952137,1.2507244718559989,0.7614345447190806,0.4098228847457739,10.329582442264856,9.914850839287357,9.65858153317638,9.560745575488232,8.9266791841167,8.454145973842579,7.88287585781393,7.164820788392713,6.22449633274002,5.394621474353526,4.439377933579527,3.3911196674149084,2.6665211680463434,1.8998318180981881,1.1696268435517683
0.0,35.0,35.0,0.0,120.0,0.0,-8.585284886612861,8.599248515355853,3.9846230969682317,-108.71078708056453,0.0,-44.85574356411955,4.3373448645939945,-6.157979487614266,-2.419565674356302,34.15037580619709,17.60962007248351,10.084559853895206,9.717709396787189,9.067654046705426,8.29276691867633,7.7824381091689085,6.773826866325485,6.337039292055509,5.445944681126488,4.406110090659843,3.428498896207079,2.6128645965580564,1.821426989791676,1.179168206155693,0.7641873437060601,0.4087073240424352,10.990858553580233,9.838417833840287,9.597525806590065,9.728529152074321,8.892218034083951,8.536203703607896,7.675238539194401,7.154900464912466,6.205946242962604,5.200273025327388,4.411138179452655,3.4815575632744986,2.591204777689624,1.8576062251449412,1.1340901770161091
0.0,36.0,36.0,0.0,120.0,0.0,-8.38719614504104,-20.70294995531648,11.600227652848009,-108.27945224215192,0.0,-46.903585345846636,1.3771273034816778,-4.650951704385557,-1.2394913418945475,34.15037580619709,17.60962007248351,10.319402032882879,9.439201597267921,8.621767133890286,8.443871164789094,7.7997901007610375,7.085176905386997,6.079786184956319,5.30763039437614,4.347155904403089,3.494545653366343,2.5744854301472238,1.8773148745702524,1.2512930830217326,0.7793416829347665,0.4232548140200559,10.65731646359069,9.806225678274245,9.593287784837544,9.31792812640887,8.779654745912682,8.290896866014748,7.626178031770778,7.0987205558472795,6.163488365812356,5.464667108721224,4.39704709840449,3.4918564462300643,2.6018074323059017,1.9124673372221057,1.1893187342281601
0.0,37.0,37.0,0.0,120.0,0.0,-8.69565551763423,3.4797769322701235,-1.9309277411014296,-108.41129156179436,0.0,-46.97696402240453,-1.9471857380830215,-3.1894696762170778,4.147864082699833,34.15037580619709,17.60962007248351,10.435611721547486,9.168608640185543,9.062778375111463,8.641695186656262,7.827467725754708,6.992730425395027,6.079841476402512,5.334986851968799,4.555959211764681,3.454680025198102,2.658555695081689,1.836466992423981,1.21590289996789,0.7947858555412106,0.39446068769587,10.315674597166955,9.894335104909885,9.615135633765691,9.10895947359461,8.727086248027469,8.37214816694759,7.609783586648455,7.042810398981852,6.296372594402162,5.308774422878536,4.456349035430893,3.515570395499747,2.5783327304448576,1.8988713007503575,1.2083199364703037
0.0,38.0,38.0,0.0,120.0,0.0,-0.8628777851032847,-11.79585319119673,-5.254107694987599,-106.75315539594077,0.0,-45.26435987365524,-2.814601349610211,-1.6990154934038806,1.0065799327473801,34.15037580619709,17.60962007248351,10.492134544570836,9.949032109335866,8.873639995379206,8.615217500604976,7.725220070990654,7.0739022342913565,6.007816480365573,5.3337004648094855,4.4261336300457765,3.4819851564527333,2.7713054255138645,1.8629256604776192,1.2278143463488715,0.7376489083716453,0.43987596130795387,10.3784021659368,9.952566270538519,9.698745327843453,9.109547247570926,8.878477367658693,7.937946807604678,7.548815096166792,6.7937151383627095,6.480114085080693,5.328834913439832,4.300306122101874,3.3788727424271867,2.574784466744632,1.9063156275289979,1.2432703337761117
0.0,39.0,39.0,0.0,120.0,0.0,-0.6055257265258582,10.994974646886725,-12.699028876815273,-106.75421713115176,0.0,-45.15424812416812,2.5626658746951403,-3.4253828659809678,0.8603386818170025,34.15037580619709,17.60962007248351,10.304176634955857,9.560814089999019,9.198949046545307,8.654327653785215,7.845149413332106,7.142239835085309,6.1580311892114965,5.222733269742497,4.508601832777394,3.5309661008635786,2.615807057902582,1.901435880514563,1.2131740146760999,0.7548441364634084,0.413826302847825,10.06553908720454,9.837881074706575,9.672248891995439,8.927720169881969,8.930830405291006,8.39369308340641,7.662412943980094,6.8950767425655455,5.95637161203916,5.177684399964352,4.463411001173079,3.319787294706084,2.6891079282763566,1.8545751206208672,1.2044320442375633
0.0,40.0,40.0,0.0,120.0,0.0,3.4088214053133754,22.678733717003645,-11.345086607376034,-107.31868328199734,0.0,-44.386971079438936,-1.9635011947949423,-7.663494385594147,1.140209985188637,34.15037580619709,17.60962007248351,10.239743948132574,9.466152451144943,8.965915079390363,8.812589305901092,7.909498903694493,7.1659920358249085,6.18021467053792,5.24212049476576,4.34215548261291,3.4495330593089713,2.633584557912018,1.9018403189006605,1.1868292215327605,0.7706244645384008,0.3935827674246653,10.796883318635386,9.584113931852634,9.46346063515785,9.621874109056007,8.965392528966277,8.320880884362523,8.008320874405182,6.852513898965963,6.222906047532712,5.360379604968175,4.464869981311286,3.508603663893587,2.506036169446123,1.8844112879643418,1.1699390878074478
0.0,41.0,41.0,0.0,120.0,0.0,1.7419588216451913,24.626926834701187,14.15669493239307,-106.22671692986162,0.0,-45.96675755383548,-1.3071679052880631,5.896785844966603,3.243782525568532,34.15037580619709,17.60962007248351,10.160385384992717,9.43216290936272,9.121034958295876,8.394681193008665,7.8523464261557345,7.041760208180615,5.963532556530785,5.299739445842009,4.435741810846705,3.559723113224475,2.601644691017824,1.8494946777397043,1.2386723335921999,0.7576306183886374,0.42798128179755346,10.156186372002773,9.541902804536809,9.567553395404161,9.44809573153122,9.063265570137071,8.48505521440589,7.813251604391394,7.038084762920329,6.261989498985594,5.403270811457236,4.4488948805628095,3.434741080966813,2.6391385520676844,1.826755533670564,1.1551300417081793
0.0,42.0,42.0,0.0,120.0,0.0,1.343021289407746,-19.56711132649299,4.043829023676551,-106.05301697649395,0.0,-44.51909418016224,2.98491555002382,6.720758054986316,-0.7509123910624016,34.15037580619709,17.60962007248351,10.32850749331273,9.495774390812514,9.217877027768763,8.494930860364256,7.692140922765816,6.970304689980597,6.039716242387883,5.383143579191629,4.367742534197136,3.54962496713068,2.576344904505938,1.822250103951383,1.2087046070060588,0.7425590608123536,0.4262009622847292,10.067571554867385,9.703513700781405,9.591186421269999,9.407212309898592,8.774760494649799,8.27089599381941,7.910347413719898,7.143468563457877,6.30350936800984,5.105193022230045,4.440584451228758,3.5649681116486063,2.5400005273899167,1.8692594218227467,1.186077272364903
0.0,43.0,43.0,0.0,120.0,0.0,-3.876189571172155,10.156744749237994,12.605717782875793,-106.40407241827515,0.0,-45.852311196037476,2.1630929766655136,-8.98247582323102,0.7693442217617097,34.15037580619709,17.60962007248351,10.335374569498057,9.344048564602236,8.594738920587425,8.414805034592133,7.844907776304071,7.189435286169277,6.110217420216424,5.27444285314745,4.360194738794617,3.5271374782221545,2.7073552792857516,1.8848419073417655,1.1572458039268332,0.7688730741174676,0.4033383350796864,9.895801976700664,9.91069871954267,9.339028984806092,9.385323246881411,8.882711159668421,8.18631787046424,7.434588842564026,7.178659836722013,6.214496263275804,5.319623110719937,4.349588920972289,3.3514228547979816,2.577695615152835,1.8163090591213784,1.2082266758252496
0.0,44.0,44.0,0.0,120.0,0.0,3.892912823434262,-6.935327792319839,4.293112198036507,-107.25783121397377,0.0,-46.5576804226049,-1.9880207992175367,-0.36129066909123253,3.670941081994023,34.15037580619709,17.60962007248351,10.773874509164006,9.587466167122214,9.40602223318757,8.215169585822075,7.772610177476049,6.914427710020356,6.22097322449166,5.322254166466607,4.2763563405806515,3.399658304437803,2.6852985728017256,1.8977894342570227,1.1995444419187662,0.7569144343069233,0.4259602373207302,10.392681572018983,9.90491880377872,9.693425966244508,9.513457668358717,9.018542014106867,8.114189088774749,7.961761269392141,6.747227329807895,6.348140945334779,5.2451523007871685,4.352366793852727,3.4837778066884777,2.588900869034986,1.8151277944631388,1.237176778859173
0.0,45.0,45.0,0.0,120.0,0.0,3.6908178670183034,23.870111549282115,-5.073414219140904,-106.63728267889245,0.0,-46.7187990187857,4.006425265930886,8.898597420601412,2.37997038748445,34.15037580619709,17.60962007248351,10.252892277663701,9.640517645959294,8.906098059542527,8.449104522063287,7.902378848218762,6.989272075844119,6.29789456142427,5.288829440063307,4.366455089935531,3.50720372244366,2.632335547904765,1.7814449254252165,1.2489004118469043,0.7660581729382291,0.38858381882646775,10.249692598649046,9.986355216348189,9.625530477471365,9.384778877321224,9.087450008458514,8.453581092234048,7.826604314775238,7.180404692136405,5.980405959764284,5.301628951271229,4.452609872808513,3.373960145522694,2.5834779131329855,1.8898572877807158,1.1389135756429598
0.0,46.0,46.0,0.0,120.0,0.0,-2.8008699174188,4.160916840561228,-10.295628758619685,-107.30713499065855,0.0,-44.66220127890834,1.727379400458823,-2.5857671005682903,-1.0456457734068971,34.15037580619709,17.60962007248351,10.071194856638652,9.047400408499888,8.821339079329986,8.522037958067363,7.712108445656031,6.779618949439351,5.995848259323335,5.34333244463363,4.362685441980903,3.636069397207024,2.7327060731872534,1.8627137055688574,1.179998140380266,0.7569144639519512,0.399078713794703,10.215398595429944,10.295759202192452,9.523267568588869,9.189652335341332,8.775082902651041,8.499596029738735,7.596158445444475,7.055799721201601,6.080509564254453,5.173590644869013,4.330350434247925,3.5930255964784767,2.48403905855121,1.7919018524819232,1.1706532201871944
0.0,47.0,47.0,0.0,120.0,0.0,7.3952422485631715,-18.710748962770566,13.560989413491644,-107.17457214753428,0.0,-44.24701911982086,6.357496850650005,-7.235258586350759,4.392361844635053,34.15037580619709,17.60962007248351,10.1500259318029,9.299413796157527,8.791909869611855,8.516958399401837,7.692080399061565,7.222874165462195,6.340157368999378,5.318034357118701,4.423549237462385,3.429703345891217,2.688160731138548,1.8568432408039288,1.21204221924668,0.7611522103071177,0.40720855399543987,10.555905797967283,9.868391317525834,9.57884898896202,9.190203382640838,8.681043649498825,8.46437990998642,7.697078698338058,6.7165439901589945,6.360811339336332,5.299361231786585,4.387202160279268,3.4520609410468346,2.5634034647238773,1.8534716392212265,1.2167757514734487
0.0,48.0,48.0,0.0,120.0,0.0,9.23913608445308,4.839599697212066,5.10957707397456,-105.8621457099853,0.0,-46.050966740320206,-5.777116861760895,0.8674862161508639,1.4382585011661373,34.15037580619709,17.60962007248351,10.189852399588,9.450674398163418,8.726869304922795,8.40546921348496,8.035437240421164,7.069033470250481,6.2708057629113725,5.130149480964869,4.567201622694883,3.487839810512087,2.5413783479031657,1.9051066824352365,1.2581926986972267,0.7262808116297149,0.3995168039390212,10.304038753552245,9.885095462280782,9.713092760286747,9.176335578372054,8.688131737994214,7.925413838231926,7.584793158105747,6.80875683944081,6.424175536199726,5.310488596553392,4.433447714263895,3.572288672585022,2.6462177191983938,1.797795748132709,1.1396105104514325
0.0,49.0,49.0,0.0,120.0,0.0,-5.853758815842096,14.792921579596587,1.7502496922654487,-106.2061919791183,0.0,-45.77309943100575,0.7563894628609908,-5.946963379175923,2.1751083992713207,34.15037580619709,17.60962007248351,9.859569760225332,9.243696312468314,9.00777578468028,8.307249434908565,7.6067752737211585,7.040998317564943,6.1516987419428135,5.395408863607609,4.437934843098235,3.3893349417513425,2.601661355998454,1.8559336035090526,1.2147067286755167,0.7433711846768772,0.38436912531952333,10.507691261542064,9.807066273363889,10.070710200803042,9.400591302436396,8.653040179564297,8.357943486677387,7.441341265490043,7.146959928598141,6.1139592871982105,5.29499405600989,4.459617598939695,3.41374520354394,2.5903506830131042,1.787508529052173,1.1867050900892806
0.0,50.0,50.0,0.0,120.0,0.0,-9.61667505737373,-14.081960949110744,6.566715311587636,-107.53816341413867,0.0,-46.204682526198766,4.467978897962787,-5.6406248343190075,0.3132466982771458,34.15037580619709,17.60962007248351,9.995694641605137,9.269109851845,8.772774531628336,8.504506070052004,7.481038186070168,6.927276261238763,6.286328753454954,5.244649664469541,4.146423236012891,3.42313562217066,2.5021178032150995,1.7952408401745188,1.1497562637821004,0.7291009161741945,0.3907952029667959,10.096607481143547,10.10808790760187,9.032972091734969,9.111380888139282,9.005215769306536,8.5575926354848,7.9589758500047285,6.698155693335057,6.252173650663473,5.3719180769507195,4.532894808737865,3.469947529709611,2.590518760126909,1.830921790601025,1.2096021937723684
0.0,51.0,51.0,0.0,120.0,0.0,-3.1498351310939228,13.63279265081622,-6.856245733881991,-106.59866234955828,0.0,-44.57232390314955,0.7780057572158281,-5.257320024812264,-4.4146241305344605,34.15037580619709,17.60962007248351,10.539239967916538,9.546858430794892,8.867027177273046,8.203680034190413,7.9683567114243505,7.245077203074741,6.091427020220083,5.308091429457267,4.4580526974009915,3.56608458246326,2.5595278638388863,1.790815666625335,1.1975959650344343,0.7421226671534078,0.42916717997652964,10.533760171300553,9.460214613893546,9.5491302781945,9.359023439424313,8.873732247578834,8.246589700661719,7.840773306792511,7.042233581374121,6.315816093673485,5.264520567172522,4.44425011263099,3.509792949675162,2.583688288346779,1.833674562351697,1.1563648004324565
0.0,52.0,52.0,0.0,120.0,0.0,7.36884253516612,6.964072081698021,2.092146140200242,-107.96828856992077,0.0,-45.84039500216717,1.4172854603529417,-3.7901327451497657,-4.516238127872482,34.15037580619709,17.60962007248351,10.382653657279443,9.426503227621593,9.01406052371001,8.389625265005074,7.83249253969916,7.335752778567339,6.357290348981382,5.3013952234784085,4.462932795662732,3.542122426209148,2.6138792758550737,1.859028738901466,1.2284100870436876,0.7138541248665021,0.40166873277352916,9.979661610760212,9.811581134160425,9.705435981661926,8.816224463873695,8.886382938951964,8.222752945981497,7.741737939959521,7.182439258338481,6.218460241087745,5.299656818814176,4.271870113044731,3.457344050440791,2.6293813343656556,1.7989412543615901,1.1855158225633176
0.0,53.0,53.0,0.0,120.0,0.0,-0.4732526098178642,-18.347959180841023,-1.0301348089734343,-108.13998179054735,0.0,-45.48258501673699,0.006179379447696753,5.655771048620606,0.8154605583844887,34.15037580619709,17.60962007248351,10.286257307888222,9.329311236327998,8.88885364832894,8.401334902650543,7.934403836753148,7.092967408401547,6.098253113612017,5.345946912518507,4.438271933420236,3.530244616578993,2.611407597376707,1.865030392515296,1.2414829250879464,0.7675981094226539,0.4229374687538082,10.439099559325284,9.912635473433108,9.29093738236115,9.456380867236623,9.209838459911413,8.478924365025549,7.893228064768242,7.136545778956913,6.204843909823907,5.429478761633127,4.504035099347604,3.5783822790019157,2.6175735027851643,1.8023814146429373,1.1372809789728562
0.0,54.0,54.0,0.0,120.0,0.0,7.913469414997827,11.683553285543745,-6.535778514662955,-107.93290720211697,0.0,-46.474775400517814,-1.2918244657120983,-9.207229446882597,3.307060127609807,34.15037580619709,17.60962007248351,9.99038881029936,9.707825076404548,8.470309094561614,8.724686552840438,7.81819165384989,7.016390092659502,6.23281357743173,5.527994750396095,4.411318809140539,3.4380362674144136,2.591179961100087,1.8336327663192007,1.2396068916298992,0.7156173872404019,0.40850514059641163,10.27947354938601,9.761655152068052,9.51462265611464,9.188674000748511,9.03264302176893,8.228908678378554,7.83446997911066,7.080820293410639,6.030682055722154,5.2672827791602925,4.499181748191345,3.4809548842810445,2.6131629620710677,1.7712218546753213,1.2056971658205242
0.0,55.0,55.0,0.0,120.0,0.0,-5.453354518864277,-12.8626487108164,2.863313441855823,-107.58033021896009,0.0,-44.27836559615598,6.418479035822967,-9.49690859827803,0.9640052850849488,34.15037580619709,17.60962007248351,10.290368529148605,9.498250205846587,8.910650136682403,8.424861735602615,7.556409339188613,7.3059241384899485,6.313015137658223,5.3378877908821565,4.536595400899231,3.5883540521498984,2.573859944710284,1.9140418888741146,1.188221178759874,0.7415377367882019,0.3883430833853459,10.73273873297835,9.776817856545975,9.617498935936336,9.325449640374524,8.978340487603477,8.204118988824156,7.513461678064489,7.0162475548478875,6.3222570878398425,5.325471775001535,4.419496494736595,3.538633845951657,2.5357543773082543,1.7844350913604274,1.1463907815044614
0.0,56.0,56.0,0.0,120.0,0.0,-3.9333577936130215,-22.92463184505797,3.908364901403772,-106.82131355807547,0.0,-44.56086809474445,-4.326176266317896,8.899547785976466,3.5601195587764867,34.15037580619709,17.60962007248351,10.070720666151121,9.941364927244997,8.970394290763108,8.2842756387916,7.92959653544717,7.019406861775836,6.152294385572617,5.41632018021073,4.480944551022422,3.373231950636863,2.538824094816557,1.884515350836729,1.2121382748626799,0.7099493977071877,0.4171912056680288,10.611943833070642,10.043062218709242,9.732869931440627,9.485750919191547,8.352485188500578,8.541164308062648,7.734405035443364,7.02433698695827,6.414837847861808,5.415470449711126,4.536732942663932,3.5456411583325544,2.5536741654835033,1.7983752903449466,1.2003556973080864
0.0,57.0,57.0,0.0,120.0,0.0,3.5936424453990945,-16.317014879646642,-4.6953634552385015,-106.36532746360677,0.0,-45.27759036917375,0.987608230578087,-4.103576181273414,-0.4972664488676992,34.15037580619709,17.60962007248351,10.400641818223537,9.128272839362234,8.965630840304659,8.445910625667402,7.6755386472144345,7.245189739688186,6.385365248479456,5.3023845350463406,4.366127842748178,3.4450799977190765,2.699897079705805,1.8911259760853447,1.2191796557967265,0.6930617045448166,0.4160572281405078,10.613229409583417,9.88828760521041,9.7586096481529,9.103039518786057,8.618426658036416,8.257013972132954,7.924252979461043,7.067162340633687,6.241355865036692,5.161212692696807,4.456629145090522,3.513182759817862,2.628063442619314,1.8013142610841935,1.1507301880823746
0.0,58.0,58.0,0.0,120.0,0.0,9.092379142330142,-16.328087719365314,-14.078326167468413,-106.43526063825448,0.0,-43.16253600794256,3.4356551969821703,8.042457656288313,2.178629426061285,34.15037580619709,17.60962007248351,10.148326278194906,9.21806759247822,8.630184908946271,8.759849239067924,7.895906549090879,7.164165771463305,6.162424893534092,5.2517335564256715,4.583409470507085,3.4360202943884732,2.6123127861443107,1.8220764458156304,1.194814185636138,0.7543472616077812,0.40517943311335747,10.497080126095321,10.184840212397342,9.37218238496093,9.335819411510826,8.754055351407063,8.392700066638046,7.593130350798084,7.071831157389882,6.240412111711192,5.3641058316435215,4.393985519264214,3.4867974060268736,2.6130279436133312,1.8119603859314262,1.1492217540730796
0.0,59.0,59.0,0.0,120.0,0.0,7.038053974745196,2.4093902562800693,-7.759262132018679,-106.97136832840184,0.0,-44.113988479340776,0.10406920770496564,2.6764323844922338,1.0877081134065012,34.15037580619709,17.60962007248351,10.104442803271622,9.56633353496223,9.465410935551947,8.59086640894873,8.058013502228148,6.996589780605313,6.042463982473806,5.18540281659172,4.318977331664904,3.523520030144183,2.57098960532391,1.7747680431611188,1.1869807351004509,0.7329285700168423,0.4112748483450651,10.457952454067422,9.746441553583725,9.707958630909427,9.27114784480444,8.72983822952151,8.348158433194323,7.92667236737871,7.074818451721935,6.047803766198159,5.235700763764627,4.445119825506518,3.4005610031277578,2.63128143691491,1.8277681460785502,1.181572256890287
0.0,60.0,60.0,0.0,120.0,0.0,1.8570152106719213,6.102203565240789,-8.202407194611375,-106.90078003784814,0.0,-44.49827491429214,5.273102508510378,7.405478077182202,-0.27398275353453716,34.15037580619709,17.60962007248351,10.116238876523902,9.455030321013348,9.038355602611878,8.865952383418469,7.8997297910863145,7.283537884726105,6.33958255328924,5.424214312756061,4.389563031173122,3.5431935722533376,2.5282370094665856,1.821735605104378,1.2023436049684137,0.7115974954913287,0.4153439008642508,10.416257118004769,10.01981688291959,9.615168754036693,9.383638291236553,9.05536374230686,8.358312291937793,7.7839090331173555,7.093810915497492,6.3949333597389595,5.281997910876211,4.360337728331338,3.4426385822129917,2.570156062646406,1.847179830385574,1.1555255060417335
0.0,61.0,61.0,0.0,120.0,0.0,7.504683115261749,-7.566012181954068,9.501095825436057,-108.089435349225,0.0,-44.80758140673109,-1.8910333528654646,-1.8413949688644333,-4.782295277895214,34.15037580619709,17.60962007248351,10.002566586056021,9.61149985860986,8.77200415785622,8.421207595911909,7.634838961993896,7.139486551303335,6.153276498936088,5.377139342032232,4.541356318636067,3.498644095864231,2.6011325302819452,1.8336156587654222,1.2311540380448638,0.7311130790075036,0.40376149590997473,10.358900176419509,9.703243057193147,10.081698136711234,9.251388253452848,9.029688656418388,8.467470709194709,8.018881262937947,7.2016291907390615,6.149112065497994,5.336844905424742,4.4723966628502705,3.4752668063768413,2.4463027103972568,1.8431577688440262,1.1923519279135963
0.0,62.0,62.0,0.0,120.0,0.0,0.7319304402547093,-5.683059723617717,5.740153499066125,-105.63916995442901,0.0,-45.32792117284092,-8.008427744207575,-5.418387999263466,3.5766750043800553,34.15037580619709,17.60962007248351,10.399182650309527,9.606948794963401,8.903697577067105,8.372647368035558,7.703193551317931,7.219152174527824,6.207289532038317,5.238074030841702,4.458140998285064,3.6880205910227746,2.6242410587890466,1.865937439772099,1.2225622632179332,0.7065674133102031,0.43270714683761313,10.613188029864741,9.678351247013254,9.716784158071258,9.115228642446375,9.062208809974203,8.430880161849645,7.666827468575465,7.050222175991284,6.442846578813349,5.34299864865664,4.311171847155517,3.5022971683718955,2.5241936466237385,1.7863728468524258,1.1527175386302573
0.0,63.0,63.0,0.0,120.0,0.0,3.486706099844035,-19.44882236870193,10.571977105806965,-107.4605360278565,0.0,-44.437190658674666,3.1004598236623693,-2.274730624301551,4.338975738176771,34.15037580619709,17.60962007248351,10.304780103971998,9.366469599248834,9.057049784223146,8.50067507214361,7.84100665060885,7.038410399606324,6.128906485161249,5.285755615246146,4.354513359915746,3.4702212928096117,2.655149599216915,1.8659792740662016,1.2501466465107225,0.7430791777665463,0.4028285531455605,10.368907347717185,10.00531315210177,9.704651327535492,9.206099840779316,8.748740945654573,8.419201668198678,7.616874437633345,6.952960051906864,6.20241114841596,5.249703829612639,4.360272705476666,3.5521391709934766,2.565688264089958,1.7840564906623175,1.1700360262425544
0.0,64.0,64.0,0.0,120.0,0.0,-9.282565182801072,-9.317980155107286,-2.262891476787537,-107.8283517381434,0.0,-44.08000115137956,0.5191856046528809,-3.074771919798791,-1.0963499199580529,34.15037580619709,17.60962007248351,10.209884965258778,9.418179482332926,8.93546826173754,8.593546108421501,7.705344751416872,7.092502179063796,6.4021283213129685,5.163332659214282,4.240402030749596,3.434726655612601,2.6249708065685513,1.9068003373041373,1.2029977470537103,0.7299059296952014,0.42214435808423517,10.393965813707783,9.763946788321531,9.677105201228569,9.295932854057156,8.827946984776908,8.288519683107312,7.852434791419595,6.949775747844146,6.362759886580401,5.333808656600381,4.279391032305355,3.5693975032767242,2.4754199925223292,1.8526278615305376,1.1557599558380516
0.0,65.0,65.0,0.0,120.0,0.0,-2.7589583374871633,8.16129599385826,-3.0727165754145105,-108.84770903268657,0.0,-44.739102958060926,3.6167729829732673,4.113992487528652,3.897022010841633,34.15037580619709,17.60962007248351,10.165334504170472,9.079360007676826,8.949706573003368,8.479951505884893,7.770090287708924,7.002271588522827,6.286207267382595,5.253344938932136,4.352221793540916,3.530784310577407,2.5665147451816996,1.9111064951830654,1.140767797323966,0.7204398687815645,0.42012800535967737,9.97778582983234,9.532037656464935,9.61091950421538,9.201454911186499,8.839697791580573,8.080695464163435,7.852579575128648,6.914130355418822,6.205767526912462,5.1759142617313,4.434362030458291,3.4847081409108194,2.5424287372020364,1.7881359920212467,1.1733825903756858
0.0,66.0,66.0,0.0,120.0,0.0,-2.404582879075596,-21.454671812845294,13.421496081054034,-107.74795294205542,0.0,-45.11630309496128,6.280587389044861,-1.567636380236026,0.5584839023517478,34.15037580619709,17.60962007248351,10.287489148865834,9.52084100786411,9.056145982837812,8.363001596837043,7.776310726579724,7.160083847590787,6.082132699300711,5.368135390368915,4.533203894800904,3.6011786798237804,2.6186142932048786,1.8718016273130793,1.1996102643801287,0.7223211801767007,0.42087517940659835,10.090688921360027,9.903636181864941,9.72031765798725,9.250996243223426,8.692503775971828,8.203250743973118,7.73301048096343,7.118557463187237,6.2384413294388255,5.472710921469615,4.251565626483721,3.5569209155208967,2.6421587445224106,1.8341153000810566,1.1431307606646552
0.0,67.0,67.0,0.0,120.0,0.0,5.358635352527854,24.478827598827706,-4.891700320143087,-106.51530182671758,0.0,-44.00222086073394,3.250700352653523,0.2231341236101798,3.1071001623178294,34.15037580619709,17.60962007248351,10.44801974116908,9.014992276891467,8.975122257968964,8.302786171134178,7.730921416572087,7.128234055318218,6.356532697617977,5.3124523362724005,4.455060325342103,3.402024596564626,2.681715970135521,1.8111757711507954,1.2637553826823054,0.7269554949889196,0.4044343959520665,10.368301391178546,9.700499290494301,9.225645376458186,9.30874913008894,8.947198007242786,8.572368188224353,7.782060398502959,7.101018601356146,6.21214618894355,5.287360060154768,4.295575976224408,3.5407489410445674,2.5257426760895756,1.8334127278978953,1.1398204736936113
0.0,68.0,68.0,0.0,120.0,0.0,-4.149446549380591,5.677809608342304,-5.588418439051219,-107.81021110012794,0.0,-45.14688422557617,-2.507315346893726,-7.8554963260973665,-3.3728654551256776,34.15037580619709,17.60962007248351,9.808191289730118,8.869623772773318,9.06013102134266,8.801738739306753,7.877913030838225,6.79203852603683,6.336146734278639,5.449892224365732,4.385538852300999,3.4291905814944497,2.6104005716708976,1.8332040150907307,1.1953510852949034,0.7236079454043542,0.4214721815588733,10.252111553801926,9.973020216690406,9.52539192665327,9.34385857367479,8.629135017175209,8.066026305239802,7.797118471334664,6.783891748423356,6.251541979193684,5.287601378498936,4.583479801312747,3.359906013715814,2.599642912487007,1.8112851016715927,1.2128912120543924
0.0,69.0,69.0,0.0,120.0,0.0,-4.215432487058289,20.164004523614935,-12.100631608269019,-109.75139065447505,0.0,-44.17409357326076,0.3136727425103678,-9.128291223075731,4.272480899163787,34.15037580619709,17.60962007248351,10.087546392863947,9.297464951391031,8.787255167085513,8.195083759988648,7.643197817033149,7.022837678241797,6.382661006927724,5.420220020656033,4.490686159932471,3.4994792528833867,2.6451211706624242,1.8939965766519393,1.1952359327505346,0.6994800777105119,0.4125088864951177,10.47633560446987,10.056951182340246,9.475670086225993,9.248750195175434,8.844396592438635,8.371224690039087,7.604711664748381,6.846552349450015,6.057256694246196,5.180269898058847,4.453828230781425,3.372563184179216,2.545961387089103,1.7894454073815684,1.1915674794309863
0.0,70.0,70.0,0.0,120.0,0.0,-7.206317292695079,-1.0273044156205131,6.693552941722224,-107.87044507257036,0.0,-44.14287666699181,3.5202391401334623,-6.430199884161391,-1.0965893407510663,34.15037580619709,17.60962007248351,10.250005286575346,9.57742974858576,8.727637982668341,8.221866858302247,7.8228949551409634,7.08203969279375,6.483518074872982,5.185850480600996,4.340071147832966,3.4946942129773855,2.5856427059303275,1.8880918462756717,1.2143069307590935,0.7332193440699316,0.40559797807489173,10.058371987136638,9.822522549378938,9.48951163713423,9.319105313742368,9.029144625396121,8.530439073489921,7.7556369472695,6.9324681580321705,6.051471810016045,5.3200672764558865,4.5098390178786145,3.505331540001865,2.5936522895183374,1.7446735608388624,1.2045459405136225
0.0,71.0,71.0,0.0,120.0,0.0,-1.6231433843705148,3.6740905327970417,-13.34177424979941,-106.94534478001262,0.0,-46.163524652473896,-0.44618693078652494,2.3832519232582214,2.307067713090392,34.15037580619709,17.60962007248351,10.0613164278089,9.310135129775949,8.888322181793717,8.390752449663927,8.150697431091798,7.086575689113261,6.0432455631116895,5.502435644574152,4.321039103725554,3.5946283767234126,2.6031564316948326,1.8567356972096238,1.223899177983314,0.7517691894556923,0.41446217289940945,10.354331390777448,9.693896132051911,9.444114672918207,9.165374019996056,8.846364378296245,8.506590614669546,7.870626546804937,7.021847073879243,6.475973239410764,5.356956486832325,4.279770783090287,3.3910207533380605,2.604946035885808,1.7978010153911919,1.1644478047843376
0.0,72.0,72.0,0.0,120.0,0.0,-9.667678248214642,-23.72710560502014,8.602106504240655,-106.01915832979829,0.0,-46.29434423286139,-2.252934836730464,-4.385926237815547,-4.560608507536235,34.15037580619709,17.60962007248351,10.304487768197728,9.261646964805063,9.05740525263292,8.53736836291686,7.686864272522124,7.244674909855774,6.2021093419876205,5.3084427622109605,4.378563305921752,3.501711356186407,2.6627949411018346,1.8196279758954892,1.2169977894603776,0.7467634641421218,0.3954324213628069,10.079845796320372,9.57528489533076,9.677488252318978,9.35237382484483,8.965919379263088,8.275605016556728,7.674408103004791,7.071473227715974,6.1163185662495945,5.354811949204039,4.397324071868286,3.5086196665095977,2.606369090803197,1.8085709803255587,1.1232066593375578
0.0,73.0,73.0,0.0,120.0,0.0,-5.5954434725509605,-11.556298318726904,1.4992380161937113,-107.452450635759,0.0,-45.63373202985022,6.953286400650653,-6.0927455524428265,4.172242380456897,34.15037580619709,17.60962007248351,10.483331057663266,9.385023653789972,9.022018156127617,8.443831299133178,7.667344339115781,7.212161780522407,6.105133633121437,5.273065090104988,4.3362932270586585,3.5221754377311862,2.690727085896298,1.8523979787666465,1.2764743946950943,0.7263441783520628,0.41649834557514465,10.41590278896108,10.075543152414333,9.68745976084527,9.260686240945079,8.665780582424542,8.470885562597783,7.5653317341851976,6.862783853168721,6.105771670636787,5.152144388838811,4.394227764350142,3.5428436226153215,2.5600150721393056,1.8504937786083628,1.1648194004968386
0.0,74.0,74.0,0.0,120.0,0.0,-1.7104479212783001,-0.5562908187370219,-0.47305058484898055,-108.15811103658365,0.0,-44.99213875224858,5.847347109535516,-6.089572106365322,0.8287473010514423,34.15037580619709,17.60962007248351,10.073881891249659,9.305508556344838,9.016733185160136,8.603579873668448,7.468200422721505,7.178328337382446,6.37419676395,5.340045600022422,4.482439749475908,3.5329818958575903,2.6929437340700293,1.8478169964858169,1.2378983144408042,0.7271305925007783,0.41118489862946045,10.523763652935983,9.511665303319951,9.65925971542386,9.020005923300312,8.761693258536562,8.305470051634842,7.5394056277185,7.005301615514363,6.2627171122217105,5.314658745903303,4.624468043780876,3.5224151242011756,2.5672969046013208,1.7431151367075628,1.1638860341122739
0.0,75.0,75.0,0.0,120.0,0.0,-1.3119645542244935,0.7760949999082669,-9.902392824834074,-108.89161672299889,0.0,-44.71992926262993,-3.6271934458562867,3.0121961571209255,4.4311471205443915,34.15037580619709,17.60962007248351,10.01275284842058,9.360518994345332,8.697811600965942,8.47473079927109,7.509031272623933,7.172748283664867,6.250288923930874,5.234484008879411,4.469908133749258,3.4068514352496813,2.6444544411116033,1.764768849579732,1.186729608663247,0.7444656838886398,0.396835978781574,10.432245872735589,9.940609869064476,9.854498720104923,9.165861736798181,8.732381098756896,8.145253394231771,7.666863587143161,7.1352014055900455,6.194717309158718,5.1881059922391515,4.477360716922628,3.3990090674516242,2.569191593160004,1.82157881631897,1.2043836095708906
0.0,76.0,76.0,0.0,120.0,0.0,0.07307040143181709,1.2679225460106807,-8.5777569677356,-105.48719283368159,0.0,-45.46888925858309,-3.085932126645459,-9.879733296065034,-3.4743106777555632,34.15037580619709,17.60962007248351,10.36845907330379,9.781256490455194,9.086265104765184,8.69407257908781,7.872366409933599,7.142653855621034,6.154552393111706,5.276586488947995,4.343216757838185,3.392186374685817,2.6421199856476223,1.8450224129323378,1.1905255217984385,0.744195198498441,0.3960155396724208,10.142341401563522,9.903110009145891,9.396473091842225,9.246027291798104,8.795049913925038,8.392457245873095,7.466365643824279,7.172928708276585,6.118705683940104,5.3474566089612745,4.407934290216547,3.429489512272738,2.52723266645918,1.8255145577896854,1.1601211225705503
