Line_number,Fiducial,Easting,Northing,Height,Elevation,tx_pitch,tx_roll,tx_yaw,txrx_dx,txrx_dy,txrx_dz,rx_pitch,rx_roll,rx_yaw,PX,PZ,S0X_time_1.086e-05,S0X_time_3.256e-05,S0X_time_5.426e-05,S0X_time_8.680e-05,S0X_time_1.411e-04,S0X_time_2.279e-04,S0X_time_3.689e-04,S0X_time_5.860e-04,S0X_time_9.115e-04,S0X_time_1.411e-03,S0X_time_2.192e-03,S0X_time_3.418e-03,S0X_time_5.339e-03,S0X_time_8.301e-03,S0X_time_1.338e-02,S0Z_time_1.086e-05,S0Z_time_3.256e-05,S0Z_time_5.426e-05,S0Z_time_8.680e-05,S0Z_time_1.411e-04,S0Z_time_2.279e-04,S0Z_time_3.689e-04,S0Z_time_5.860e-04,S0Z_time_9.115e-04,S0Z_time_1.411e-03,S0Z_time_2.192e-03,S0Z_time_3.418e-03,S0Z_time_5.339e-03,S0Z_time_8.301e-03,S0Z_time_1.338e-02
0.0,0.0,0.0,0.0,120.0,0.0,9.567783533811209,-24.995457485932597,1.9260783566293185,-107.0094427469871,0.0,-45.416827090220096,-3.9992270115339528,-6.278330319456851,-0.5395557190036051,34.15037580619709,17.60962007248351,10.285346279945829,9.915301447120424,8.87337898863876,8.583877029783416,7.888379551678638,7.206344375594146,6.51121000188479,5.5259346065087,4.676921194754825,3.685315240814024,2.632588848703535,1.5934837066017478,0.8626699951502774,0.38287871309950455,0.16723325599818553,10.654236838708893,10.429587906813031,10.184216847646185,9.993578535202161,9.360039430246331,8.791337240815833,8.199353066813039,7.382765703091368,6.510974518478936,5.740456100288098,4.640849765216911,3.4589731201811644,2.1046722868634435,1.2005480318885862,0.5749650961525167
0.0,1.0,1.0,0.0,120.0,0.0,-0.029728527441001518,-24.91178431175758,9.773211419780083,-107.34842648948411,0.0,-44.765445831191556,-3.384221035540941,-8.732618759884076,2.7244475443768454,34.15037580619709,17.60962007248351,10.52589366962664,9.490564490761201,9.26394915430229,8.585981544114073,8.049543622433028,7.354192879902506,6.374806665275019,5.511077841572781,4.579310483353349,3.66221239896426,2.4463810728007176,1.6157041178039402,0.8521147265788327,0.40043753459017745,0.14420958860170285,10.464829966425404,10.452019188895495,10.046817907973594,9.419731746999947,9.225805895737617,8.69948602190606,8.279360328016704,7.6000471030722725,6.809462264456422,5.788325382797454,4.462492204139692,3.413276920701024,2.1663001823429284,1.2496050166099155,0.5495476556282365
0.0,2.0,2.0,0.0,120.0,0.0,6.481184774599889,24.9393200888427,-9.416736459180985,-106.80146421012076,0.0,-45.25834681916089,-0.6369194020736794,-1.1166461306443978,-1.2803529611237021,34.15037580619709,17.60962007248351,10.416704766790689,9.561438252313083,9.311608633522988,8.641468202134753,8.171302113404833,7.232543037899457,6.286792761664955,5.553696745900513,4.635284488652046,3.566024835778726,2.491181361914096,1.5389939284463288,0.8368924677606968,0.393590134213971,0.13409533825023306,10.766376132612844,9.990704328940932,10.460555243538042,9.786152932425576,9.221399221292462,9.083077254700353,8.459054961111958,7.647489750002316,6.933026538405966,5.810367001476357,4.636052798326137,3.479396310160986,2.116518664207899,1.2275712814167339,0.5439531577020876
0.0,3.0,3.0,0.0,120.0,0.0,7.069690297315123,-15.458141791149332,14.710662137038096,-106.95322554566242,0.0,-44.885959256696,3.0179990376504575,5.4378231487849575,-2.6769633545142026,34.15037580619709,17.60962007248351,10.547608704662677,9.793865620493419,9.315998497653942,8.620726971788471,8.118717276670024,7.15932247044926,6.528259471390191,5.583959210193582,4.435420938128603,3.5065238693080065,2.4883060400472554,1.6186792301076531,0.8531244766707161,0.3550871915245931,0.1467898537517562,10.780472438314492,10.258904845920759,10.150644617616171,10.087235949110001,9.21621453856459,8.819128258048174,8.071542476251489,7.677967295166509,6.861636697780107,5.685392160380319,4.436064263459241,3.305984532198616,2.1410890437137455,1.163001404704009,0.5177273008989991
0.0,4.0,4.0,0.0,120.0,0.0,4.289188084715391,5.108291753004568,-2.5482794437924756,-106.84339242075667,0.0,-44.70069924103002,4.096470298705897,9.627012272383514,-2.6422670983501906,34.15037580619709,17.60962007248351,10.407263796206095,9.629211696600322,9.332387345033432,8.743892248348061,8.175488599489158,7.252383851957966,6.454664699948019,5.645348285205601,4.493381853976278,3.6989937203802,2.530067319015893,1.534006800559829,0.8427380656204094,0.3925102089149944,0.1343398002140271,11.134845043254103,10.389718504702019,10.207503184832943,10.035984235159571,9.411102382684525,8.916671478115356,8.126847179560308,7.357288265927571,6.341591760748261,5.733092210126374,4.562163823411815,3.196320615020789,2.0936314692696834,1.1208044469480019,0.548773750773245
0.0,5.0,5.0,0.0,120.0,0.0,-3.622059869687728,-12.839851354676634,-11.621972703084872,-106.79635320040622,0.0,-45.17050101494503,-0.9536656289168821,-3.639289482153403,-3.9677021868941886,34.15037580619709,17.60962007248351,10.184459664988566,9.708888892903648,9.009541294218298,8.964072075902251,8.051951953791619,7.3553547014663,6.395027645064841,5.663652991525944,4.620898951514185,3.54846931076703,2.4592342485333996,1.508446598997081,0.8186570593984906,0.37985510439980635,0.12305022207391268,11.137599242155988,10.506743384002778,10.286102813329778,9.768158570908858,9.55161450222615,8.694638568084754,8.426624922389992,7.626602204042653,6.554727779035739,5.756356091482898,4.462269383735127,3.277382263140231,2.1282188398477797,1.198665188669041,0.5270674671349174
0.0,6.0,6.0,0.0,120.0,0.0,6.2566559670558135,4.921535662570818,8.389457532828537,-107.1932145508038,0.0,-44.51420041912307,-1.6662260606178414,-2.373027684594023,-1.0367448723245531,34.15037580619709,17.60962007248351,10.571090469674042,9.504333374791791,9.210965280346427,8.429113364897548,8.036968460569675,7.29966177099565,6.278147138368055,5.600866478317647,4.706395851651202,3.499233734567294,2.5425351124180655,1.5496067523124955,0.7954647859856816,0.36417447131355657,0.10326748050350001,10.721856938434525,10.446901422053378,10.114488227377167,9.974486129288902,9.649408290812946,9.111469761262814,8.083749504381737,7.713170415436834,6.855751364597695,5.836946601377718,4.526202279355534,3.2654974336685183,2.1238850872455495,1.1173954921137574,0.548851767116595
0.0,7.0,7.0,0.0,120.0,0.0,5.3269720736973465,-12.895828350968285,-11.212129943877262,-107.06233667847961,0.0,-45.05399216683303,-2.3413843630074376,-2.6017763317796394,-4.416259353532867,34.15037580619709,17.60962007248351,10.50188367496267,9.730063865141021,9.100287355663164,8.620737792786649,7.86735624707366,7.206609250588721,6.008972556433875,5.75567200728395,4.58107698320776,3.56919370482723,2.585056160049987,1.5028566098301084,0.7937694405660995,0.3749288942740907,0.12040564786088306,11.238196190054502,10.148022689877068,10.19422572862978,10.169525268972887,9.653337228767175,8.885892167334875,8.401415172151234,7.829130506407779,6.69287788129977,5.722505619850748,4.474298853717305,3.387553234288208,2.057563611491191,1.0875261816806625,0.5116822333226807
0.0,8.0,8.0,0.0,120.0,0.0,-1.881321431039268,12.132289246373823,-2.7979259406476036,-107.14347991460356,0.0,-44.54876156710658,0.7957199233263649,-7.289817712263604,-4.655405119196995,34.15037580619709,17.60962007248351,10.47965911665976,9.570782919670878,9.11351349698757,8.658376040170044,7.855347109960681,7.134243489539551,6.430607905586211,5.519492072108731,4.582279990693428,3.5358001028845996,2.4539207253235222,1.5198856984736184,0.7739254652864754,0.363588115874939,0.1377558642752571,11.267057953178735,10.58452320894751,10.176926887893332,9.82478559031746,9.150335408367184,8.761814314884504,8.267834609424442,7.573230321646545,6.709597227844114,5.682999943938393,4.5855569345055525,3.354529208069882,2.0332642861795382,1.1780084078882402,0.5085932501234934
0.0,9.0,9.0,0.0,120.0,0.0,5.320732621845941,-2.642293650738271,3.376186499205769,-107.13914139053966,0.0,-44.859936468801905,3.9402179661883374,-8.440533523680337,-3.9350355280050264,34.15037580619709,17.60962007248351,10.478536715672092,9.762273381008072,8.9647867638859,8.713162558420791,7.886078303662068,7.356169018500251,6.483878212333729,5.569623555215021,4.625680837035532,3.6094401462660737,2.440779758227271,1.4688746866714877,0.7789426950351409,0.3391749413620542,0.09959121089235083,10.898418670906688,10.814274551836569,10.240664517367495,9.541634899670978,9.253401735670442,8.561673119212454,8.254590143504831,7.815743479987612,6.705297333931753,5.801742655715762,4.593388455785225,3.347533848504564,2.0130137540562174,1.1085345821600057,0.48402705865468915
0.0,10.0,10.0,0.0,120.0,0.0,6.284183186189033,4.0682720718524195,-12.76864296948139,-107.28337265682833,0.0,-44.9812768971574,-4.446304057815116,-7.899421537395483,-1.5874133042842011,34.15037580619709,17.60962007248351,10.650185805456125,9.597651276428845,9.17310382507281,8.730802139116937,7.825795598790293,7.179601389973749,6.799550858925732,5.324129437618184,4.546130747084797,3.5567141519785848,2.5035400176528446,1.5054980616632414,0.7625234195662238,0.33942779364878967,0.11664595561936171,10.71612981574168,10.177958204738596,10.164904604691158,9.571031967573319,9.663147498771838,8.604348518342007,8.296195715523828,7.5677381707786155,6.714799820421208,5.662101720345797,4.464620474854753,3.19012379685146,2.0458585289634357,1.1053206876100816,0.49783342285873067
0.0,11.0,11.0,0.0,120.0,0.0,4.103773202692722,-18.875110731444057,1.9876305502723852,-107.56983762945339,0.0,-44.859853417815316,2.7799218212628802,-6.838074360967125,3.889568995908089,34.15037580619709,17.60962007248351,10.315030320802881,9.73200323276755,9.000832541316228,8.862379719109382,7.712381669161271,7.520567737294432,6.270887120549624,5.654929405239978,4.5834123474902455,3.4677471681299092,2.3790793054126187,1.4500942717684588,0.7659030181766853,0.3408624511496562,0.12040771008099153,11.208001510951902,10.46856154190149,9.935764190666903,9.49874581734116,9.35383847739962,8.945742839385293,8.383204071496921,7.38484649709878,6.4699425032273785,5.8177681997003345,4.571331344471095,3.006633229329864,2.004912487869249,1.08295060184153,0.4855699700308513
0.0,12.0,12.0,0.0,120.0,0.0,-8.808062154622153,-5.175548806390239,0.2159847345210153,-106.88974389943506,0.0,-45.433578461957055,0.17553938797386315,0.7909249370850286,-0.10224708248128689,34.15037580619709,17.60962007248351,10.426254500505722,9.48192013840683,9.143272480030769,8.997316243110122,7.984982266950624,7.20873349244853,6.406317478935137,5.392100544548143,4.424999992250158,3.460570137324846,2.4145920547966333,1.5288898424118877,0.7577239031063435,0.32230412779808837,0.11092092810026409,11.294218656418808,10.624296065669034,9.9290480593963,9.566243241754185,9.423137408856538,9.153103538031267,8.629126369246112,7.572949414477866,6.76551737012041,5.540569361396346,4.622550448509965,3.2071492522008014,2.0920014116853385,1.0557873733934695,0.4819505945715671
0.0,13.0,13.0,0.0,120.0,0.0,3.6621537343139448,-19.625073298330253,-13.539701876284347,-106.89690876677099,0.0,-44.84972545328645,-3.2677778255380194,-4.523810171978222,-4.675126477604799,34.15037580619709,17.60962007248351,10.366083821289022,9.676362344465005,9.228030705764702,8.7391821238415,7.991952359501523,7.420047807445067,6.339651256204079,5.6085599857009205,4.571452134951774,3.580618804015373,2.4293212472829695,1.4810426480673016,0.7458319534879518,0.3195289125711677,0.09985042373189207,10.941494702530852,10.619551924228201,9.878981176656742,9.763930900516508,9.478412280627861,8.92267773954147,8.345210044720439,7.67248920768722,6.6588317360230675,5.576575275996945,4.380374821867454,3.249281171023864,1.973191333902633,1.0326163470753458,0.47357741786999047
0.0,14.0,14.0,0.0,120.0,0.0,-1.6237919953729563,16.582571954735755,11.030650524779123,-106.9809036758223,0.0,-44.879939467740826,-2.4170998517044286,-9.17532278994904,3.6880331274526608,34.15037580619709,17.60962007248351,10.459261798314486,9.654449416423997,8.985096064502445,8.87547665076599,8.138914432773358,7.063240218746026,6.197189833474636,5.430937938139872,4.703249024567858,3.356033194545191,2.3854097962814653,1.482048718623962,0.754890901740263,0.3127001075204608,0.12152748104503253,10.713978588851822,10.954012462891358,10.111965286358839,9.728835494462242,9.329634484363348,8.503883521047008,8.214009437116658,7.779539907227017,6.482170854743481,5.74359135877629,4.333703033563979,3.038415714061228,1.8913692730561085,1.0718903642478648,0.4637475634426428
0.0,15.0,15.0,0.0,120.0,0.0,3.5435342724524226,-10.99076883581047,10.032037274747289,-106.64750493593915,0.0,-45.21404473489832,-0.5893995450347913,-7.468607675605483,2.976635431418142,34.15037580619709,17.60962007248351,10.578817104252927,9.838848019811975,9.380259662585855,8.665411876470344,8.259678082618517,7.382241767465535,6.547704281603285,5.507966327088008,4.5882207626318765,3.5334630545031827,2.347602046728636,1.3960134145785192,0.7249613796680242,0.3097809697070782,0.1022268570458336,11.07344097992402,10.696158871991534,10.286137592083143,10.40110503080506,9.38348391271342,8.79913768801787,8.306275582586903,7.57707543802993,6.633289849544903,5.943464182214775,4.534965916610182,3.1816939715825154,1.9236415895122683,1.0152274489458952,0.44874950654916196
0.0,16.0,16.0,0.0,120.0,0.0,7.997041115735428,-23.210964685269047,1.4169577896648917,-107.19440805647896,0.0,-44.97466437753502,2.1754613726180976,-6.53698235443267,-3.5423407112230922,34.15037580619709,17.60962007248351,10.531903768192876,9.629075589529224,9.350838661395933,8.322803214277082,8.20017517258912,7.265672565551999,6.20444632315676,5.382997462954279,4.530753006021326,3.4292403743313526,2.359548776400354,1.3559517865986928,0.7640954227291559,0.30717503393943246,0.11055172646975321,11.018220195342137,10.500997547781726,10.130066757308056,9.566896370958439,9.874577428303256,9.182975207832449,8.241665572612177,7.639772252036679,6.902059196008364,5.812761408890925,4.345048158936407,3.1170277635980286,1.8669408373935055,1.0316678668898964,0.46904443622552333
0.0,17.0,17.0,0.0,120.0,0.0,-4.76049959790275,13.67450214610895,-8.455588940656538,-106.77494162013494,0.0,-45.11128242557071,-2.3955690499576012,5.402068273089579,-4.986673854804793,34.15037580619709,17.60962007248351,10.664478460536955,9.541033540331126,9.291735860746122,8.50306559194293,8.134537720889844,7.269302324326333,6.417507568212628,5.584439814468644,4.460804962496486,3.447226414904918,2.3521443397523383,1.4633644241011885,0.7227696778275223,0.305494514016469,0.10396404288974884,10.677146383139398,10.69002719447705,10.115526338609742,9.855443304379321,9.466687023461159,8.98968806389682,8.529175740242426,7.590063574284369,6.781589726555633,5.795370431227249,4.446446622194861,3.1742246504547866,1.8462513571011838,1.0257580410912537,0.4399476517250016
0.0,18.0,18.0,0.0,120.0,0.0,9.315926463134254,1.0588650152321293,-0.9075545236451745,-107.44817877092314,0.0,-45.09858408226346,2.1599118961532127,5.364611791233969,-4.637587724320143,34.15037580619709,17.60962007248351,10.34730590535905,9.677053516638637,9.293562794618877,8.581364379667663,8.101345701691523,7.6699410150157705,6.792228388936488,5.732033618059333,4.542585970526866,3.335019506641603,2.3528279051188443,1.4094175111932488,0.7195439746378156,0.30881743734072126,0.10407426125334225,11.353089498088648,10.512738780320591,10.382454633379805,10.078396074693275,9.548249413496935,8.953223719787243,8.466309614864569,7.877557478202567,6.589072563998259,5.759954574730658,4.334076220139136,3.177494187303802,1.9103757457625938,0.9799053358233568,0.4580231193123559
0.0,19.0,19.0,0.0,120.0,0.0,-3.034642666728944,0.763705752885528,-4.342883775680223,-106.91530238315148,0.0,-45.01873086880697,-2.702057683662396,5.896416970480651,-2.2468142699550553,34.15037580619709,17.60962007248351,10.385343758049872,9.785551238202853,9.089057701275081,8.453257104182196,8.065027510445084,7.090367260926904,6.1994889701562546,5.387749977712162,4.3553421629130336,3.4294037373484034,2.269428816012354,1.407024704809011,0.7148986302957149,0.2946106011563868,0.0891251054783957,11.156004982543779,10.564609656347063,10.311907550262678,9.919590198149145,9.676056306185963,8.739294944009096,8.441894086304803,7.401790588325607,6.846949354884453,5.573095841902704,4.281060765712581,3.1513022721084933,1.8297283734132257,1.0224793112167005,0.4432196887667661
0.0,20.0,20.0,0.0,120.0,0.0,4.837318169591541,-0.6430959801386678,4.595200360548954,-107.38565080435255,0.0,-44.747987630978145,-2.8678768388880305,-3.479504882244189,0.40385545977365744,34.15037580619709,17.60962007248351,10.36697839712361,9.656717940673948,9.276687217675779,8.842369748014654,7.9233253384176265,7.512887934096556,6.410493399591572,5.598132681597031,4.423762529398959,3.3295671208275834,2.287288174594241,1.387131725632197,0.7055535265781456,0.27919605384818463,0.09917775291271293,10.950533542424532,10.608885947593343,10.299543932476437,9.989687385897758,9.534278116121328,9.176781396008744,8.61129464839779,7.338822519166269,6.7732181744801885,5.562754630429647,4.498621066235317,2.9066705857271304,1.8084976421270647,0.9725267832636083,0.42125657125417554
0.0,21.0,21.0,0.0,120.0,0.0,-5.9416729653669424,3.218292394164191,6.780926691096539,-106.97225624848481,0.0,-44.58119376242762,4.323865066746148,8.847240098367006,-4.957664529259075,34.15037580619709,17.60962007248351,10.09579381745957,9.651975390525328,9.19595058643504,8.786037567864211,7.951916409457942,7.311195295953422,6.394304205473081,5.460113953386939,4.466348360557255,3.4049990845427143,2.3812231312963195,1.3441457019507275,0.6820914293202337,0.282527920136734,0.0903715783519014,11.120034403419483,10.541507659090488,10.039028130453985,9.779905252173561,9.472828964792418,8.874560375038175,8.34134776979439,7.584633926389336,6.481568957738186,5.629872273862161,4.348976339291889,2.9924474807489534,1.8254550941066134,0.9506735444671631,0.42322544932277256
0.0,22.0,22.0,0.0,120.0,0.0,-2.597834213716115,-22.782217327916314,1.489190570217822,-107.02511352820014,0.0,-44.920463933964385,-2.778989439957742,7.681497871211359,0.9750885787640868,34.15037580619709,17.60962007248351,10.059677014723873,9.846556217477902,9.18649720585023,8.779619849188212,7.993143233473548,7.15374456992185,6.305644378447171,5.44143682473785,4.552779096392136,3.406826552178986,2.25659686150836,1.3621394105055569,0.6369910171263952,0.26380414890232184,0.08537156634903004,10.465413793373054,10.302977378083977,10.416152875389507,9.903969619069185,9.542784328647244,8.984325986702233,8.564640126894577,7.775752635658993,6.776980503575979,5.660139151989222,4.333558155436931,3.0475464071707554,1.8083431613069423,0.9045871153765424,0.4372417524416175
0.0,23.0,23.0,0.0,120.0,0.0,2.316266574270461,23.902743284928917,13.921365681325238,-107.17857626627685,0.0,-45.053768466420436,4.648960762906211,2.987294263270911,-1.6116704639511958,34.15037580619709,17.60962007248351,10.434673153527118,9.873170121598424,9.24847040582287,8.757730136452304,7.9628628809849005,7.480401811599449,6.55287511249748,5.505928229081212,4.359785064189352,3.28335766421019,2.2313064702010252,1.4075943713095713,0.684027742787224,0.25884635835628994,0.10548425436937117,11.149701979084671,10.44741126098134,10.474604949503288,9.819069357723855,9.476985809634247,8.99750285154728,8.406503232150483,7.616966257577904,6.771606423041545,5.50460195511147,4.29862235351276,2.8825251525261417,1.8532305434647736,0.9587625167926378,0.393337037294558
0.0,24.0,24.0,0.0,120.0,0.0,4.84392423678597,19.311227498223644,-8.261818929197604,-107.22685110279065,0.0,-45.01497406768647,-1.3967187186797103,5.73985949457488,-3.088434422216426,34.15037580619709,17.60962007248351,10.368514899217303,9.54700751969168,9.32354951473625,8.231870968037573,7.9440702389218485,7.2915116384519365,6.384393276138192,5.383471599315987,4.7482012762173,3.352108287295572,2.267350105883968,1.2847203857470368,0.6509779142182204,0.27506184308216713,0.07866344167426531,11.08849953238537,10.64571302427041,10.388426726468758,9.82941688201093,9.206174773061235,9.254397338270056,8.342209158813606,7.611724753947257,6.872283013906822,5.404477628488018,4.233831090135947,2.929368600412704,1.807507291362628,0.8955326794078028,0.4093179220819992
0.0,25.0,25.0,0.0,120.0,0.0,-8.913983159534634,20.15106275380365,-5.36275386573862,-106.95132681943772,0.0,-45.15355965812965,0.6146184768656273,-7.142237426573188,2.793521057270306,34.15037580619709,17.60962007248351,10.399559521843171,9.621372803852159,8.96003400786702,8.703056184276003,8.060986513733772,7.460120764113303,6.457817364673083,5.595277866586209,4.518746770229517,3.36028950524067,2.187925841857684,1.3084744962098558,0.6294922060254706,0.2680146498561926,0.08386326814894163,10.884209608309563,10.855082896887975,10.5053443849932,10.177168474239489,9.726010701760389,8.830750516067155,8.620558587871873,7.57631673267689,6.631433602198019,5.5314721893887935,4.331085086178105,2.9620970757676615,1.7658845604884337,0.9092566790141343,0.3981207602749946
0.0,26.0,26.0,0.0,120.0,0.0,-5.672714422264349,-19.211804514461654,4.033836551966651,-107.17306368329754,0.0,-45.121533812321445,-1.619330246402861,0.47771374530648814,1.4176197505480195,34.15037580619709,17.60962007248351,10.16559620807156,9.530064840029778,9.172883931672697,8.643912827399118,8.302336864881543,7.112668473831364,6.350764724272698,5.443759997458286,4.530223908333765,3.387618286568635,2.290238475781501,1.2739842037267362,0.6296566904509555,0.2836529507273983,0.08730379815033147,10.705278411734465,10.383121532234815,10.50127293135295,9.790467918362685,9.518155558226525,8.787170243082409,8.392492257814224,7.440969875914936,6.728709594408823,5.665586556716513,4.3825621392463185,2.9465447733012238,1.72077999587274,0.8839184617390208,0.38786094209098154
0.0,27.0,27.0,0.0,120.0,0.0,-8.353273543862578,-20.814963861175446,13.308220420360694,-107.12815973348496,0.0,-44.602968597921674,-3.662464539403935,2.229647790792715,-4.123987233628565,34.15037580619709,17.60962007248351,10.504112866470647,9.814461011745106,9.270005697750955,8.676357129570595,7.880127979566623,7.475306689570211,6.651907680841344,5.5485812710281674,4.551254792218498,3.3755487733517375,2.2449814330475237,1.284917075988427,0.6338091361499204,0.25949683072659563,0.08225218881722748,10.741710506801754,10.810513677480843,10.269684530215843,9.902856748428102,9.354342382194842,9.14908387993703,8.634863026290748,7.901544582304375,6.717198533645879,5.411229523626061,4.227529286540859,2.9195983217731283,1.7586372889797504,0.9004262861632473,0.3862291008117956
0.0,28.0,28.0,0.0,120.0,0.0,-8.364964160897863,17.4447713908377,0.628254967578421,-107.06227880891795,0.0,-45.009310821483254,4.055321958375397,-5.309624234739456,1.373450475135888,34.15037580619709,17.60962007248351,10.500767695675371,10.006686154282074,9.520218604766168,8.89949318240632,7.732767917171127,7.209988151943901,6.5603006934492365,5.241619115377917,4.637075163894424,3.453778553011685,2.253945512029729,1.271424350303083,0.6172589074682183,0.25708654421466903,0.07148197344919123,10.584001902737205,10.72654352989654,10.414933740602791,10.111364518932916,9.782199793201528,8.69707361266229,8.141667924941608,7.42480140053,6.7708210960953155,5.6687347456380675,4.2985574107715205,2.909225555981788,1.6445467602161854,0.9152062180974304,0.3506771329961974
0.0,29.0,29.0,0.0,120.0,0.0,-0.9778834787433404,-21.964900787587606,2.056618673853439,-106.7910121459242,0.0,-44.96594828722438,0.31803691334335815,2.1078911393951127,3.348975393945045,34.15037580619709,17.60962007248351,10.750076743021445,9.860292076732646,9.372216791770382,8.72368347316895,8.249883046315828,7.248397072342544,6.3973862065371225,5.6029576239695,4.399277496915415,3.281322491980517,2.2621333937033046,1.2211668922580248,0.6277074693009232,0.25713602930586277,0.08245433481459537,11.106871331926929,10.791328311690595,9.786193673802552,9.799687957234736,9.585688394110218,8.738141351108009,8.232380666387437,7.786568038273802,6.7967071427062,5.609312160124504,4.251206450069002,2.7926946037883917,1.6938182516379918,0.820708727109792,0.39288749447988525
0.0,30.0,30.0,0.0,120.0,0.0,0.6554782860329205,17.74617628712027,3.4193899571017745,-107.14557847162506,0.0,-45.160884592395306,3.1841254980860887,3.7111512041440875,3.9338135839733237,34.15037580619709,17.60962007248351,10.450439639615682,9.787985003488124,9.399811602685801,8.530429353453945,8.416030124464642,7.289188082584034,6.393411354075604,5.477302069011551,4.549840516701175,3.2601156617152536,2.134585289852115,1.2616752314355848,0.5975737099793734,0.22180370225195564,0.07235985940655107,10.797280955248251,10.857791211835186,9.966776053782105,9.941868584838113,9.485487777654566,9.028927818495266,8.27700361265497,8.041298802401174,6.627068993257444,5.44608616181637,4.253650300350937,2.7787282080916573,1.6566036333905005,0.8812381199844221,0.37427973749352367
0.0,31.0,31.0,0.0,120.0,0.0,4.8412719560391455,17.541915886546896,1.4564035975766707,-106.95553939963135,0.0,-44.923473173051576,1.5349046786469827,4.900982648051983,-4.7596845737265845,34.15037580619709,17.60962007248351,9.95749704494644,9.87277541109382,8.892378212831751,8.66930174484586,8.005913209008208,7.0304707852272115,6.44715498039597,5.230067453417595,4.346867688304758,3.295054780492131,2.1431895001197074,1.2110230886413667,0.5882205799709688,0.22546076853391173,0.060515764940519634,10.829072011581871,10.498613712129591,10.311094281180413,10.111933799832693,9.545139844309679,9.080953918298315,8.248161911406813,7.628913448736974,6.713759975051297,5.505185278283537,4.157220761538402,2.8753866957728023,1.5910986595430134,0.8353912265758636,0.35421864788952134
0.0,32.0,32.0,0.0,120.0,0.0,1.037153056101456,4.26546020952744,-3.1775615076217285,-107.03162396138129,0.0,-45.02701517794647,3.0070199900673686,3.3989853040196127,-2.36075136593728,34.15037580619709,17.60962007248351,10.279806678203366,9.778409520707065,9.55132238782661,8.88997633193978,8.233829450787884,7.287275289896097,6.367823702753594,5.4272774661950764,4.53788207895706,3.3925121794478255,2.1677448684026497,1.232328292275371,0.5779761391858773,0.21577171639603904,0.09136366703678298,10.818570858488194,10.676156916672822,10.013040863721525,10.266705508526691,9.39405117212932,9.016995286076757,8.263799799653855,7.690897808431455,6.723689830090784,5.499408271827629,4.0120054491576935,2.7952620420365695,1.5770991444274833,0.8409326285686951,0.349825294310067
0.0,33.0,33.0,0.0,120.0,0.0,-5.237196586319801,20.73232845373733,13.26407658057505,-107.30772336531152,0.0,-44.771430411691085,1.6944782269104786,5.6943650729122215,-3.0235155014822435,34.15037580619709,17.60962007248351,10.788520140782126,9.887503604480681,9.103942286506022,8.783462984744208,8.099857429074468,7.23934080677713,6.525190073283112,5.478381433109652,4.435676791545896,3.1060074128707282,2.1970472861776793,1.1764901406134445,0.5421348606656616,0.22875523814676726,0.0776819268849979,10.981162929215458,10.828514362127049,10.28456827581652,9.894612984414954,9.553860688708658,9.036231843755424,8.532885282755197,7.712189412164789,6.417842255811599,5.563273570557516,4.2706321620653425,2.716815009531037,1.5644079560035236,0.7717773588240203,0.325321812381783
0.0,34.0,34.0,0.0,120.0,0.0,-6.015616250819202,-14.035767361254663,-10.877496449944232,-106.98919962824543,0.0,-45.168751594244995,1.782896927291491,8.707501852860432,1.931671179909288,34.15037580619709,17.60962007248351,10.448151850496401,9.684677389491492,9.270907333720151,8.889155476404163,7.908055941201532,7.1993675144865374,6.550367609887433,5.478761345255753,4.442208824474919,3.210561189456903,2.080187888577561,1.198506882673558,0.5688360297802753,0.22230823070942493,0.07105241081081362,11.034848549031414,10.620601248429791,10.365742508596934,10.28407685958129,9.632137246554514,9.159736536289373,8.58195482562815,7.81035434581003,6.695726891911012,5.547739183676664,4.141597677626615,2.667926274189777,1.623475875770224,0.8252098762175657,0.3274996866063969
0.0,35.0,35.0,0.0,120.0,0.0,-8.585284886612861,8.599248515355853,3.9846230969682317,-107.42769677014114,0.0,-44.96393589102989,2.6166367010585794,-6.157979487614266,-2.419565674356302,34.15037580619709,17.60962007248351,10.33081400346501,9.973170625284538,9.31807802798023,8.535249124923634,8.027567464444699,7.007476494980412,6.5725466954999625,5.61972153701994,4.415425085793767,3.1840673024622523,2.094360821327801,1.14683501983938,0.5185189323716707,0.21971129429153285,0.06728617500594178,11.749942127209586,10.546984035098653,10.308517953854423,10.473215749603638,9.603318315364653,9.257095838170182,8.363526706256385,7.803891097261658,6.6731871050212295,5.3371219924571776,4.097508620694478,2.7201947382299703,1.5597785632203032,0.7925828800136989,0.3024834286853121
0.0,36.0,36.0,0.0,120.0,0.0,-8.38719614504104,-20.70294995531648,11.600227652848009,-107.31986306053798,0.0,-45.47589633646166,-0.5038745638568023,-4.650951704385557,-1.2394913418945475,34.15037580619709,17.60962007248351,10.574130081295943,9.690090744692526,8.862546232664053,8.693477507873478,8.048189643348648,7.332141478980688,6.307324889269945,5.474587413365541,4.347507166540538,3.2309079309365782,2.0471518999808147,1.1705822889517596,0.5520615076628037,0.2251629540928962,0.076584089151959,11.401294324213012,10.520047916280499,10.311598814728418,10.038979538991944,9.489389998114248,8.998742960905785,8.316831221036702,7.745990366602201,6.623815524751922,5.595750216264979,4.065593811660382,2.707892297172032,1.5497482934944566,0.8087336388428561,0.3232744686712254
0.0,37.0,37.0,0.0,120.0,0.0,-8.69565551763423,3.4797769322701235,-1.9309277411014296,-107.35282289044859,0.0,-45.49424100560114,-3.1526684833399767,-3.1894696762170778,4.147864082699833,34.15037580619709,17.60962007248351,10.695733928114949,9.414736618307986,9.318325477534794,8.899659003009223,8.079231197243452,7.2388451172367185,6.308530272516186,5.499725553282836,4.546284272644654,3.1787775862692476,2.0977811944281646,1.1296472301141676,0.5229428383724771,0.23082327306197653,0.05058599516123671,11.042893200131761,10.621589847587272,10.342129449760817,9.820826064175652,9.43955362342038,9.093937417180845,8.304994165838297,7.687406239552646,6.761562386863348,5.422654603696166,4.100309571360995,2.7050255789957154,1.5181800358849484,0.7904652464311146,0.32601339963091497
0.0,38.0,38.0,0.0,120.0,0.0,-0.8628777851032847,-11.79585319119673,-5.254107694987599,-106.9382888489852,0.0,-45.066089968413806,-3.909383397719891,-1.6990154934038806,1.0065799327473801,34.15037580619709,17.60962007248351,10.755974431479986,10.21840034874964,9.126100336468742,8.874689760191707,7.97594022412356,7.324986220152934,6.234598427415139,5.49472836104418,4.4062059697071785,3.1879298166588166,2.169578684617569,1.1327765506230327,0.5210584354061243,0.19000014378597396,0.08549790727757653,11.11655151606483,10.690623821620852,10.438605236099136,9.827852894034237,9.609790979064357,8.628610800765054,8.24382656682276,7.417104654004062,6.952485570689023,5.428392691913945,3.9359536802609503,2.577479878248847,1.498546444713668,0.7825329746507125,0.3367574923816147
0.0,39.0,39.0,0.0,120.0,0.0,-0.6055257265258582,10.994974646886725,-12.699028876815273,-106.93855428278793,0.0,-45.038562031042034,1.1661452843374887,-3.4253828659809678,0.8603386818170025,34.15037580619709,17.60962007248351,10.5653645385528,9.821771758922972,9.4627187883404,8.917063623213464,8.101792031493321,7.3976507008428785,6.390874688356984,5.376258979759011,4.476814217604033,3.2159057155186326,2.0282598659931286,1.1430263105692442,0.5038872294664752,0.19686660316413324,0.062109175912919104,10.787352248428173,10.573435646435712,10.416148335594482,9.637534307600646,9.672515593097945,9.129797162556523,8.372633155464992,7.528330973100467,6.384044197844382,5.258984188257077,4.063076955143914,2.5101445693509374,1.549435053092168,0.7457019147284125,0.3112021513692907
0.0,40.0,40.0,0.0,120.0,0.0,3.4088214053133754,22.678733717003645,-11.345086607376034,-107.07967082049933,0.0,-44.84674276985973,-2.742977117046592,-7.663494385594147,1.140209985188637,34.15037580619709,17.60962007248351,10.501159201571546,9.726387927995308,9.224876803717812,9.08203824397624,8.170108244322547,7.423949560368303,6.413975030847375,5.39140352953249,4.299692686948322,3.124228674214162,2.0236729040567454,1.128149041196942,0.4801368790159328,0.20280944462012407,0.043627273858243304,11.576796450650864,10.306150412868153,10.196844961488209,10.392448818571449,9.71558484159104,9.056086320570266,8.754851015595992,7.481694272637565,6.661368582546672,5.427363977347483,4.040942658050907,2.6305914863093727,1.4213709647114685,0.7484418353649023,0.288099952499395
0.0,41.0,41.0,0.0,120.0,0.0,1.7419588216451913,24.626926834701187,14.15669493239307,-106.8066792324654,0.0,-45.241689388458866,-2.007189513995343,5.896785844966603,3.243782525568532,34.15037580619709,17.60962007248351,10.421449372848567,9.6931397302213,9.386162120728358,8.653073376571193,8.112765392163498,7.296744039766487,6.188905482700674,5.445172860165784,4.379528070102115,3.205738945371272,1.979865591556821,1.0796832496370257,0.5002293546332088,0.19039375257682517,0.06989327160207943,10.895034151408414,10.265759319946902,10.314130775225506,10.210075164030341,9.826915202637524,9.239835842548104,8.545446217592561,7.6831878589275036,6.693902684693757,5.452368760519924,4.0020570576972245,2.5505984935374744,1.4814234228192527,0.7091307283663355,0.2748750092450408
0.0,42.0,42.0,0.0,120.0,0.0,1.343021289407746,-19.56711132649299,4.043829023676551,-106.76325424412349,0.0,-44.879773545040564,2.6380018367477347,6.720758054986316,-0.7509123910624016,34.15037580619709,17.60962007248351,10.595415018263923,9.760030825027776,9.48736788870266,8.757922083817475,7.948766764125576,7.223983495085456,6.26733353935219,5.524652132861436,4.298954592354963,3.177365776661072,1.9410832300578733,1.0473421068736322,0.4743848566337677,0.17668852963899073,0.06671435488367888,10.804690765109235,10.444318318147806,10.344416899383056,10.170797656247073,9.518975322858642,9.011337437394834,8.654865779480792,7.796350047317914,6.727888343439789,5.13315294860206,3.9692180907018293,2.622693632232219,1.404133908263734,0.717449889051201,0.2840620469047229
0.0,43.0,43.0,0.0,120.0,0.0,-3.876189571172155,10.156744749237994,12.605717782875793,-106.8510181045688,0.0,-45.21307779900937,3.4650044931543995,-8.98247582323102,0.7693442217617097,34.15037580619709,17.60962007248351,10.603854514338622,9.605459970095053,8.847402537293839,8.676698869431453,8.107980166996915,7.452157757538587,6.3394994303252625,5.406434478055258,4.277356711097878,3.1373201662553045,2.02087441666069,1.0705759147763227,0.4368726270079401,0.18929859631731255,0.046424739596596466,10.62470524346771,10.671787250482543,10.076910657588176,10.15170136006069,9.64056397681375,8.923462201264224,8.137162183740507,7.832122823739964,6.621699300177754,5.328444273844639,3.8619235950984208,2.439023719164503,1.4065147351190341,0.6806942515730965,0.28896289564920885
0.0,44.0,44.0,0.0,120.0,0.0,3.892912823434262,-6.935327792319839,4.293112198036507,-107.06445780349344,0.0,-45.389420105651226,1.413206921710238,-0.36129066909123253,3.670941081994023,34.15037580619709,17.60962007248351,11.055031606743203,9.856931835952704,9.683746625340836,8.472094730923692,8.034506721367615,7.16807334852266,6.45302588464841,5.44803224410537,4.180424445274844,3.003693049470118,1.9831344958277362,1.062383963018085,0.45094445137038824,0.17758496309543562,0.06332737153302916,11.162335218451776,10.669807499276528,10.463485203013267,10.294603379613436,9.792241102461498,8.848767693385176,8.716183324482362,7.35847809617104,6.751546583328681,5.232789831953195,3.8376595107900497,2.510056207668155,1.3929648387955496,0.6682380491442432,0.297145176241689
0.0,45.0,45.0,0.0,120.0,0.0,3.6908178670183034,23.870111549282115,-5.073414219140904,-106.90932066972312,0.0,-45.42969975469643,1.6583165671947613,8.898597420601412,2.37997038748445,34.15037580619709,17.60962007248351,10.521638584326245,9.912630562822974,9.170247762306975,8.714449743378218,8.169763565654355,7.24640065328331,6.531051342140352,5.405822344405527,4.252789976585902,3.0779010051631626,1.9222113025744483,0.9758232633891285,0.46840750899906913,0.17925164721334072,0.03135036048249931,11.012758638859383,10.76154866657445,10.394219323140815,10.159436558115871,9.871122591503848,9.222518011567601,8.570092368490903,7.826485695439898,6.347922035799491,5.26680712089683,3.8979874789504887,2.4036783594163964,1.3695869270729646,0.6904035319023921,0.2441027857285267
0.0,46.0,46.0,0.0,120.0,0.0,-2.8008699174188,4.160916840561228,-10.295628758619685,-107.07678374766465,0.0,-44.91555031972709,2.2994772370191883,-2.5857671005682903,-1.0456457734068971,34.15037580619709,17.60962007248351,10.33621955100403,9.303826234190556,9.084005781611006,8.790709848946411,7.974097548677875,7.02966424060638,6.215890532044559,5.452755492672654,4.232589923078387,3.1687677189553076,1.9746086695410943,1.0084172308510435,0.42177532698663484,0.16933813507494666,0.038481247557156525,10.97967224305703,11.098838334181409,10.287573641625283,9.95201031829632,9.535656754480176,9.276235767830167,8.31919445603002,7.685914506001395,6.440249946549629,5.116797016375119,3.7622820784448385,2.533237366895272,1.293883671010615,0.633583840731235,0.2537583774956047
0.0,47.0,47.0,0.0,120.0,0.0,7.3952422485631715,-18.710748962770566,13.560989413491644,-107.04364303688357,0.0,-44.81175477995522,4.83787552258575,-7.235258586350759,4.392361844635053,34.15037580619709,17.60962007248351,10.418065386766113,9.563891027688019,9.054634789809246,8.78642753997271,7.954307178749458,7.48961518809407,6.570189485382833,5.417534660143037,4.274101457148733,2.9660868571700094,1.9192983821330012,0.988349398837194,0.4295392832330987,0.16788564601222675,0.04373006230944595,11.349273987040526,10.641842036655147,10.351198732792074,9.956175989432257,9.437011018614823,9.241101477838638,8.43058769973821,7.311252983507271,6.721490202096573,5.2168261798584465,3.782149107479609,2.4044717293115374,1.317078173414907,0.6490578803748337,0.27022982555522485
0.0,48.0,48.0,0.0,120.0,0.0,9.23913608445308,4.839599697212066,5.10957707397456,-106.71553642749632,0.0,-45.262741685080044,-2.946428844671523,0.8674862161508639,1.4382585011661373,34.15037580619709,17.60962007248351,10.459813824622614,9.720311269380545,8.988507328346124,8.672293527005426,8.310175689715926,7.330421453546221,6.495424456917579,5.2164084300226685,4.393999829550361,2.99339265935071,1.7904873198220546,0.9995982405345251,0.44445331415397665,0.14178086104053206,0.036116246310959194,11.081987374631344,10.663306787433195,10.499721854569396,9.944566332373538,9.448070178944834,8.655772526397223,8.308150691134687,7.405482707257531,6.7717521557169045,5.202329021040553,3.7912732589093707,2.459766748693654,1.3406963693453864,0.6118883912755629,0.22787327623414194
0.0,49.0,49.0,0.0,120.0,0.0,-5.853758815842096,14.792921579596587,1.7502496922654487,-106.80154799477958,0.0,-45.19327485775143,-1.7845334801268184,-5.946963379175923,2.1751083992713207,34.15037580619709,17.60962007248351,10.121588402844184,9.508237701277128,9.27860880646539,8.571759742504748,7.867682725555025,7.301492611829445,6.368806531598543,5.475069010073833,4.250255849294446,2.8851915135109496,1.8112300162986215,0.954073045061376,0.4118507148911871,0.14843801622033245,0.022457167668015348,11.304360756849329,10.58245310796475,10.88968576558081,10.190884939470816,9.413129135614172,9.130804772119994,8.151171421501145,7.765975009700396,6.428053722714072,5.1607438675441735,3.781797410219721,2.3201122024558876,1.2890485056043945,0.5950718765980929,0.244784048060669
0.0,50.0,50.0,0.0,120.0,0.0,-9.61667505737373,-14.081960949110744,6.566715311587636,-107.13454085353467,0.0,-45.301170631549695,4.793397473810157,-5.6406248343190075,0.3132466982771458,34.15037580619709,17.60962007248351,10.262052589875928,9.535108723330472,9.03729938733235,8.776017030395595,7.738329335052432,7.183569033944413,6.5043515804939105,5.310663832594624,3.9520059341319698,2.8899114888354855,1.7178977048891526,0.9025824378593292,0.36838325592592125,0.13536557437531538,0.02642264093507605,10.86535139879784,10.910483169281715,9.770851370075375,9.880593301594843,9.799329011094974,9.351542197244937,8.717566093213309,7.271110736299517,6.555104206190002,5.207918171871269,3.810806448963134,2.328973268764324,1.2673767139146368,0.601586043108647,0.25013177886231874
0.0,51.0,51.0,0.0,120.0,0.0,-3.1498351310939228,13.63279265081622,-6.856245733881991,-106.89966558738956,0.0,-44.893080975787385,-1.280818541707922,-5.257320024812264,-4.4146241305344605,34.15037580619709,17.60962007248351,10.82075657644073,9.821501776585599,9.13506894679907,8.466302312053232,8.242969477426431,7.512860531078416,6.298612395177312,5.362535457362853,4.228160438066821,2.985317556988273,1.7350763030800136,0.8832369175510697,0.3837516763723777,0.13944842774290483,0.056468449326793506,11.338879367299867,10.214329861734093,10.332117526096853,10.152198059364594,9.659362849183387,9.014249268641205,8.587379247004902,7.635836694384578,6.602398762097977,5.075462931367565,3.702469095386652,2.3253415290810873,1.241854265789687,0.590182362218409,0.2195054474317938
0.0,52.0,52.0,0.0,120.0,0.0,7.36884253516612,6.964072081698021,2.092146140200242,-107.2420721424802,0.0,-45.21009875054179,0.6148515097965545,-3.7901327451497657,-4.516238127872482,34.15037580619709,17.60962007248351,10.660665634165717,9.6983471292215,9.287182503248166,8.658815622243422,8.103033182924895,7.606496169084773,6.568630553154671,5.342623870912807,4.210741784494878,2.938642309205875,1.7487335651901377,0.9037783775010739,0.3899771671609103,0.11765370048153356,0.03281541104935661,10.745502415811423,10.596629924473001,10.504263983531,9.56644034416607,9.67611061576294,8.990464531380779,8.477758281048924,7.778220752646064,6.480534317750887,5.079825039989419,3.525213885633841,2.259122237914173,1.2429781880789361,0.5627874823788253,0.22782766889801392
0.0,53.0,53.0,0.0,120.0,0.0,-0.4732526098178642,-18.347959180841023,-1.0301348089734343,-107.28499544763685,0.0,-45.12064625418425,-4.085170667445038,5.655771048620606,0.8154605583844887,34.15037580619709,17.60962007248351,10.562317181912478,9.598968897109405,9.15880393978874,8.671505008570602,8.20898556790676,7.35426553494166,6.295929360698386,5.373421801365417,4.16460424327517,2.901557166352751,1.7224264887131269,0.8893466220583394,0.3869120314427437,0.14722630793053204,0.048956742710345585,11.243108236508586,10.708727942937399,10.058638568951757,10.263876885405836,10.031205733968157,9.272601963825496,8.641885993338011,7.718216387015654,6.445230962423471,5.173004085440255,3.6818050538134792,2.307171082966051,1.214353492487656,0.5517104527095814,0.19977746675377023
0.0,54.0,54.0,0.0,120.0,0.0,7.913469414997827,11.683553285543745,-6.535778514662955,-107.23322680052925,0.0,-45.36869385012946,-1.2183288583934422,-9.207229446882597,3.307060127609807,34.15037580619709,17.60962007248351,10.259104393694916,9.988980848334782,8.728147446146664,9.005802431922499,8.089253265458312,7.274158067382389,6.429032264697884,5.5409235797460905,4.115643782222574,2.798068585008098,1.6838259334665435,0.8546552764137851,0.3761869094461494,0.1106801982033119,0.035998180824498696,11.074142806135445,10.548546359403772,10.30362953384069,9.97626758287365,9.84115026731899,9.001212764871646,8.575430221955504,7.6468869729873985,6.242820513677886,4.986923021792054,3.64121352463347,2.2111136038613672,1.1893798565414533,0.5261984726492223,0.22647408879545647
0.0,55.0,55.0,0.0,120.0,0.0,-5.453354518864277,-12.8626487108164,2.863313441855823,-107.14508255474001,0.0,-44.819591399039,5.0803130552279185,-9.49690859827803,0.9640052850849488,34.15037580619709,17.60962007248351,10.567687871575782,9.773914399561285,9.182383839683768,8.696904979052325,7.818858895322005,7.573286462137757,6.505292960055149,5.334529298270642,4.207388803592351,2.892071178317072,1.6470759498540621,0.8792822525617754,0.34064629700793253,0.12284234049959757,0.01838217011568464,11.565343646590966,10.567771573690433,10.417880522432101,10.127594132698526,9.784808646911983,8.97585317894434,8.221675415548457,7.565331413089862,6.520870534847611,5.009159255166765,3.5396059158474475,2.2153501685384716,1.1287932975070847,0.5191869797535705,0.19340695806204497
0.0,56.0,56.0,0.0,120.0,0.0,-3.9333577936130215,-22.92463184505797,3.908364901403772,-106.95532838951887,0.0,-44.890217023686105,-3.580547890438529,8.899547785976466,3.5601195587764867,34.15037580619709,17.60962007248351,10.34266423074758,10.230400590497371,9.244470434203675,8.552312093996258,8.205322347971125,7.275187329616782,6.332825535182667,5.395883455120553,4.129741137724283,2.6892787684414294,1.5986651494071809,0.8453916824907912,0.3429924231693323,0.09915860027203684,0.04075847884576894,11.438131647527324,10.85836740557145,10.54568820558548,10.304513104409025,9.105513235503778,9.346085926926845,8.460195324474904,7.561286926759639,6.591150010230963,5.0593052717430105,3.59524562742168,2.186156406713124,1.1148821275096799,0.5123440784727291,0.21324568512969364
0.0,57.0,57.0,0.0,120.0,0.0,3.5936424453990945,-16.317014879646642,-4.6953634552385015,-106.8413318659017,0.0,-45.06939759229344,1.4080128231217544,-4.103576181273414,-0.4972664488676992,34.15037580619709,17.60962007248351,10.681987954501333,9.394242229043593,9.24006906038166,8.719653198039904,7.9427978144562825,7.507689830934694,6.564854584704012,5.264728790074872,3.997463699312051,2.717430989486811,1.6764892104076305,0.8303367731197956,0.3368383824264315,0.08470215915432878,0.03869448450355135,11.442411021794559,10.693873483639837,10.576412543480386,9.891616528237678,9.397911422270159,9.036654652200802,8.66399046984637,7.5935884679928956,6.387279260393354,4.787510029686927,3.492554133159505,2.131868149306577,1.1271503676526864,0.5009557511973414,0.18488503606815476
0.0,58.0,58.0,0.0,120.0,0.0,9.092379142330142,-16.328087719365314,-14.078326167468413,-106.85881515956362,0.0,-44.54063400198564,3.2798389408565485,8.042457656288313,2.178629426061285,34.15037580619709,17.60962007248351,10.423359496672218,9.487123345197853,8.894867397281539,9.044220177926276,8.171071600756292,7.422033351142052,6.327454674579975,5.195957824931426,4.168063412959601,2.6799483144275644,1.5934308489264133,0.776895679463758,0.31524729805982815,0.11888579576386242,0.028697058664804737,11.320047483554035,11.01736820994002,10.160412804976124,10.14725659672303,9.548326084206519,9.186283347439723,8.297928515468318,7.583842518394562,6.359474617010063,4.939341989461982,3.4039570949431943,2.0814210489866385,1.0967089550036144,0.49261896487349033,0.17895927194961322
0.0,59.0,59.0,0.0,120.0,0.0,7.038053974745196,2.4093902562800693,-7.759262132018679,-106.99284208210045,0.0,-44.778497119835194,2.0678601914673123,2.6764323844922338,1.0877081134065012,34.15037580619709,17.60962007248351,10.378764819530675,9.845999115525276,9.756102794416837,8.870247601899944,8.339014661552708,7.246490367984574,6.195502017822482,5.111052891901762,3.8991210358852326,2.7169438271576416,1.5404592433207729,0.7352063456044357,0.3019109774030166,0.10167867931591565,0.032560262028110826,11.280659526867547,10.545959427781966,10.527103538481992,10.079709089732914,9.524428782915004,9.138501933014451,8.657261840353964,7.57126166970494,6.136020832595266,4.784134925546471,3.403196379906461,1.9949972238650364,1.0815471085552022,0.4862429430746318,0.18871414299860856
0.0,60.0,60.0,0.0,120.0,0.0,1.8570152106719213,6.102203565240789,-8.202407194611375,-106.97519500946203,0.0,-44.87456872857304,4.95338522029406,7.405478077182202,-0.27398275353453716,34.15037580619709,17.60962007248351,10.391341842069679,9.73191709885315,9.316446238906058,9.154710262627598,8.175382448504235,7.541224731670194,6.490039773333334,5.3252179977471314,3.933368997929507,2.699414714855353,1.4869920283734333,0.7402573123634519,0.29988589415367334,0.08459765150910276,0.03478585224071234,11.238458182345616,10.844452806220797,10.429234978147992,10.204707120860709,9.882004592760262,9.15031516090906,8.495834189252331,7.574689468169452,6.458128269687021,4.788116365432666,3.2971838910706897,1.9857473344625,1.030451254952041,0.4811674251764888,0.17152027149726282
0.0,61.0,61.0,0.0,120.0,0.0,7.504683115261749,-7.566012181954068,9.501095825436057,-107.27235883730626,0.0,-44.951895351682765,-0.31351948284907405,-1.8413949688644333,-4.782295277895214,34.15037580619709,17.60962007248351,10.275032978553792,9.893411227203016,9.042371241955047,8.695974572841244,7.901359352152992,7.389389241473661,6.288766920275804,5.256760342165774,4.037915469080783,2.6318943643721053,1.503809281460913,0.727604935912584,0.3042629342182306,0.09288641030456093,0.02425913090570199,11.179315084359835,10.504565761926607,10.93796175905249,10.06359819053074,9.856463797165087,9.27020170013715,8.74571847797507,7.671497926468514,6.179715287028848,4.797890010564534,3.3397864844524294,1.9697478179735088,0.9526019608177265,0.46694591467072616,0.1833334608871431
0.0,62.0,62.0,0.0,120.0,0.0,0.7319304402547093,-5.683059723617717,5.740153499066125,-106.65979248860725,0.0,-45.08198029321022,-4.668483166805144,-5.418387999263466,3.5766750043800553,34.15037580619709,17.60962007248351,10.682870106824245,9.889175111564725,9.178541771044294,8.646251553872062,7.972063075263788,7.4686620440741365,6.332391765028478,5.097940523914383,3.93142796768027,2.7398983261839014,1.489199098354968,0.7243810368075592,0.2906522430213562,0.07393765935062058,0.04681034224566896,11.456456206637753,10.48025597593495,10.544865955370415,9.91813747755528,9.894354560888821,9.230279311031067,8.35499248272748,7.491229703972077,6.441893015912155,4.762101569282061,3.176547942544723,1.9494748884863313,0.9638082259565364,0.43269752028911745,0.1600366967688689
0.0,63.0,63.0,0.0,120.0,0.0,3.486706099844035,-19.44882236870193,10.571977105806965,-107.11513400696413,0.0,-44.85929766466866,0.7174821333723311,-2.274730624301551,4.338975738176771,34.15037580619709,17.60962007248351,10.586337870694065,9.642083525430666,9.337040818874668,8.778849146657356,8.11453359950255,7.278182145891677,6.240080586698131,5.120097248754663,3.8070628613315196,2.541780074280489,1.4782754095525314,0.7055419427793462,0.294309495314634,0.09280417317917979,0.021390970060650008,11.195511091673199,10.836917642662343,10.534388494649933,10.019594047953099,9.554456841760006,9.217280420872571,8.2929163458791,7.3679473583527555,6.168317225126666,4.636925182989323,3.169541106281149,1.9410845983780056,0.9582871733683695,0.4195012919333021,0.16293842974335807
0.0,64.0,64.0,0.0,120.0,0.0,-9.282565182801072,-9.317980155107286,-2.262891476787537,-107.20708793453585,0.0,-44.770000287844894,-3.05375429425359,-3.074771919798791,-1.0963499199580529,34.15037580619709,17.60962007248351,10.489282448480237,9.695729748647526,9.212132786199337,8.8751383983578,7.973922614605963,7.330051079886313,6.504265827410058,4.976508235310554,3.6739478907187797,2.48029742366737,1.4312653595924465,0.7053616349407378,0.2626486646286278,0.08100326078362789,0.03612076011309246,11.225234964934495,10.57816612745582,10.507151774797823,10.119946189169003,9.6430977891626,9.07368204435471,8.540510759726292,7.343361049943997,6.292286724204145,4.667429270960194,3.0667397512186443,1.913262633220318,0.897123165258456,0.4328480182638521,0.15142546011796518
0.0,65.0,65.0,0.0,120.0,0.0,-2.7589583374871633,8.16129599385826,-3.0727165754145105,-107.46192725817164,0.0,-44.93477573951523,4.716657701344397,4.113992487528652,3.897022010841633,34.15037580619709,17.60962007248351,10.443930622681997,9.347358487001932,9.227219082205497,8.758207159188526,8.040532662232174,7.232275180393535,6.371722634050678,5.036593133706831,3.735932342544717,2.513489683423208,1.368539739124383,0.6880376197382466,0.2242706431341824,0.07156059232584544,0.03346655695102388,10.778413547564632,10.329509959136807,10.437924207232118,10.019679897330745,9.657995984954965,8.845292662118881,8.530986398932516,7.283305961099473,6.100885039062159,4.485061044646617,3.1326399881299127,1.8293206805527829,0.9016774505651555,0.39657400136368476,0.1545337159824889
0.0,66.0,66.0,0.0,120.0,0.0,-2.404582879075596,-21.454671812845294,13.421496081054034,-107.18698823551387,0.0,-45.02907577374032,5.133951610001103,-1.567636380236026,0.5584839023517478,34.15037580619709,17.60962007248351,10.569832988010711,9.802229216173801,9.337350618234082,8.63778013869757,8.046428892056506,7.389984389566914,6.149465222932703,5.118010599672399,3.853826830823735,2.5255938141246044,1.3678010855980962,0.6512389793090839,0.24268257851668826,0.06918014766737238,0.03308581105751762,10.902898495250021,10.73469634631956,10.559325063172828,10.076148622147452,9.499142723165857,8.97796176702023,8.39063957344266,7.474112909063836,6.095127121753899,4.694850472798584,2.9573075330550562,1.8302897051678766,0.9183259257191343,0.4012755762379482,0.13588862547848407
0.0,67.0,67.0,0.0,120.0,0.0,5.358635352527854,24.478827598827706,-4.891700320143087,-106.8788254566794,0.0,-44.75055521518348,4.340257941496932,0.2231341236101798,3.1071001623178294,34.15037580619709,17.60962007248351,10.7351639185406,9.281861746246728,9.254213588163687,8.57591169785907,7.9987509860452395,7.351221835199829,6.4095174666820975,5.035042627470716,3.7485678790660155,2.3466382445191267,1.3715679676882584,0.6056676751950486,0.2633098379382475,0.06855398344464653,0.01870387521611016,11.205382572250702,10.517092668960297,10.02456275037833,10.141552441895895,9.77919999883649,9.37977170282335,8.432234436898584,7.429835484488907,6.030090190934566,4.487793957006414,2.9416791774792976,1.7831970066015452,0.8482237770808901,0.3888210094275553,0.12958961146848877
0.0,68.0,68.0,0.0,120.0,0.0,-4.149446549380591,5.677809608342304,-5.588418439051219,-107.20255277503199,0.0,-45.03672105639404,0.9954327307486814,-7.8554963260973665,-3.3728654551256776,34.15037580619709,17.60962007248351,10.078179537100143,9.13257018029809,9.342242575438744,9.09150699871864,8.149856254657227,6.998257839589439,6.370348407802495,5.133230229143487,3.6504931037665314,2.3270205278009963,1.3020950563664997,0.5964844967453155,0.22267856140889822,0.06307587655659871,0.031652557458403195,11.082377289378824,10.815046488753621,10.352690042122088,10.18227902714058,9.433277936198797,8.82352565911609,8.43581066744716,7.0719309042094665,6.027065320059658,4.438786534301885,3.090172228628488,1.6516775914563206,0.8534750418804159,0.36878045941642185,0.15797379483057958
0.0,69.0,69.0,0.0,120.0,0.0,-4.215432487058289,20.164004523614935,-12.100631608269019,-107.68784766361875,0.0,-44.79352339331518,2.1205102112434604,-9.128291223075731,4.272480899163787,34.15037580619709,17.60962007248351,10.36557682707148,9.573419182033794,9.061270556184082,8.465215864558257,7.9059127813524475,7.228693107851132,6.396962669210529,5.071670768504237,3.69661683840432,2.3351515603590305,1.289076818525114,0.6033771853205759,0.2137532816650973,0.044891163683758145,0.02341257935093949,11.327268306748808,10.908599746078643,10.301137699406034,10.081084179103883,9.669969025248317,9.15412896342472,8.214155413252055,7.109253272384105,5.79799216860755,4.298752259976658,2.951759471498938,1.6206686034492357,0.809224501893843,0.3490955777837002,0.14360396743720574
0.0,70.0,70.0,0.0,120.0,0.0,-7.206317292695079,-1.0273044156205131,6.693552941722224,-107.21761126814259,0.0,-44.78571916674795,2.4153164754785568,-6.430199884161391,-1.0965893407510663,34.15037580619709,17.60962007248351,10.532873937080815,9.86203842292435,9.000157006237934,8.493086000661155,8.090267286852649,7.281358185332104,6.4760740916284965,4.818440575556445,3.5303845676521592,2.2907282067263273,1.2268448227439905,0.5816909113720472,0.21366929013769861,0.06234725080705039,0.016869106814104983,10.87788416700183,10.656849462548221,10.318625691993114,10.16012977899586,9.873153687167942,9.324301954824529,8.362024963813981,7.168464749121357,5.749022906656952,4.362463734672234,2.9374813321590927,1.6480880920004428,0.8035008720691031,0.32158528157674776,0.14482944936316172
0.0,71.0,71.0,0.0,120.0,0.0,-1.6231433843705148,3.6740905327970417,-13.34177424979941,-106.98633619500316,0.0,-45.29088116311847,-0.12894632996642807,2.3832519232582214,2.307067713090392,34.15037580619709,17.60962007248351,10.339353010286704,9.587185428534717,9.166189457551296,8.667677166156723,8.427317188032761,7.2767967183828395,6.014327049620895,5.075315269833983,3.471801092911722,2.3141036191939057,1.2040554389134508,0.5496988015916731,0.2093105282200884,0.07051970195921287,0.0232160784365489,11.200349738420726,10.51973474577753,10.271675086159062,9.994858261046184,9.674340766804356,9.293643676186168,8.469302289619245,7.228750771774534,6.104086912880338,4.338212533151577,2.7357935814448227,1.553521511304649,0.7838349407822641,0.3286449630729767,0.12217882037748944
0.0,72.0,72.0,0.0,120.0,0.0,-9.667678248214642,-23.72710560502014,8.602106504240655,-106.75478958244958,0.0,-45.323586058215355,-2.4227207939203717,-4.385926237815547,-4.560608507536235,34.15037580619709,17.60962007248351,10.589581513273574,9.537605299870698,9.34088428619705,8.819207865295054,7.945652350501959,7.428614164277849,6.148275432249594,4.858183006650649,3.473132872611746,2.21008580786489,1.2011709878975734,0.5158511855154008,0.1975852762860994,0.06429740733191955,0.0068340471429063025,10.905868188578703,10.393389390570988,10.527848232279657,10.200978478729573,9.805750103840985,9.036110284685826,8.24059686653467,7.2456363720971195,5.717240124227541,4.280245760725973,2.759345563227308,1.5701524412532897,0.7605234730351059,0.3208418669066682,0.09914673306911277
0.0,73.0,73.0,0.0,120.0,0.0,-5.5954434725509605,-11.556298318726904,1.4992380161937113,-107.11311265893974,0.0,-45.15843300746256,3.348489476125719,-6.0927455524428265,4.172242380456897,34.15037580619709,17.60962007248351,10.773712798496351,9.66498558840608,9.304727940148222,8.722614520731396,7.9228789550199705,7.383668622541911,6.0266673375175674,4.786159982345125,3.3932280650120696,2.178933212089879,1.1815131388402607,0.5102109568338175,0.2158261774275482,0.0487017330685441,0.023180377958881213,11.271785556135184,10.938667018947998,10.541075938711353,10.103157789120123,9.477973985140366,9.24297054840126,8.10466208954233,6.99676230300654,5.657783342898498,4.06195848378117,2.703893601786599,1.5456358726811794,0.7205007271469057,0.3237953647967059,0.11348981896605359
0.0,74.0,74.0,0.0,120.0,0.0,-1.7104479212783001,-0.5562908187370219,-0.47305058484898055,-107.28952775914591,0.0,-44.99803468806215,4.919257333532341,-6.089572106365322,0.8287473010514423,34.15037580619709,17.60962007248351,10.353288516307137,9.583436051085338,9.299598296689252,8.887532928374837,7.714114368211646,7.336220057951244,6.263869317913371,4.80498707271351,3.458843190961061,2.140349608730703,1.1489311045838166,0.4896620452345575,0.190114527551994,0.046192635705799394,0.0180346800216976,11.390871439912098,10.328883046018678,10.512732607937544,9.842671014959922,9.582838835995114,9.055430699654998,8.05655699173974,7.104217805652712,5.750328091808558,4.131309924584348,2.7902435299817867,1.4955414220066963,0.6996364222335737,0.2758408215881019,0.10876187134853064
0.0,75.0,75.0,0.0,120.0,0.0,-1.3119645542244935,0.7760949999082669,-9.902392824834074,-107.47290418074972,0.0,-44.92998231565748,-4.354809621641485,3.0121961571209255,4.4311471205443915,34.15037580619709,17.60962007248351,10.290789905924651,9.640404777613831,8.971005821291275,8.754251394246607,7.752686743583094,7.316346406497234,6.112282345306296,4.666671667051896,3.3982292456967613,2.017453509243153,1.0928797576615505,0.43916508465989545,0.15907440762639466,0.053897779631995664,0.005544681214077359,11.29415911112645,10.796862176014505,10.727497389757987,10.003712469182506,9.550370506123814,8.872816885294677,8.170351493764036,7.1952516097255375,5.6332290866235475,3.9729832046758737,2.643753850623638,1.400443812719729,0.6769471076610444,0.2913619643408647,0.12268918112623953
