Line_number,Fiducial,Easting,Northing,Height,Elevation,tx_pitch,tx_roll,tx_yaw,txrx_dx,txrx_dy,txrx_dz,rx_pitch,rx_roll,rx_yaw,PX,PZ,S0X_time_1.086e-05,S0X_time_3.256e-05,S0X_time_5.426e-05,S0X_time_8.680e-05,S0X_time_1.411e-04,S0X_time_2.279e-04,S0X_time_3.689e-04,S0X_time_5.860e-04,S0X_time_9.115e-04,S0X_time_1.411e-03,S0X_time_2.192e-03,S0X_time_3.418e-03,S0X_time_5.339e-03,S0X_time_8.301e-03,S0X_time_1.338e-02,S0Z_time_1.086e-05,S0Z_time_3.256e-05,S0Z_time_5.426e-05,S0Z_time_8.680e-05,S0Z_time_1.411e-04,S0Z_time_2.279e-04,S0Z_time_3.689e-04,S0Z_time_5.860e-04,S0Z_time_9.115e-04,S0Z_time_1.411e-03,S0Z_time_2.192e-03,S0Z_time_3.418e-03,S0Z_time_5.339e-03,S0Z_time_8.301e-03,S0Z_time_1.338e-02
0.0,0.0,0.0,0.0,120.0,0.0,5.340472829924515,0.6088696485954266,14.427908708196192,-107.21903155763889,0.0,-45.04740079505781,3.578764746039932,-9.736953672052461,-1.4125394307434478,34.17116048210502,17.650919203761195,4.51095458263686,2.5949870811034743,2.0319083466802095,1.7911256030448826,1.53962106285111,1.3668936119281572,1.2381151092178824,1.0697619507814813,0.9217655852030805,0.8008867366046845,0.6110049866527806,0.49133223621465283,0.35693775807947836,0.2374962728575079,0.16804419459782036,6.452261901009277,4.4932882633912845,3.906206284680148,3.495408300847507,3.097692924861385,2.7837614542796096,2.659351068001458,2.2972120775327607,2.0412664309048068,1.8213684952399,1.5182689071520032,1.272925911437353,1.012527032614789,0.7895048953251673,0.5520636467077783
0.0,1.0,1.0,0.0,120.0,0.0,-4.255791670975531,-20.15213486492301,-5.330667982604179,-106.87389081502278,0.0,-44.82783874753129,4.165643702822228,-0.7781319756796883,-0.1337951167521183,34.17116048210502,17.650919203761195,4.341926459792021,2.5539851829763998,2.0663292527511454,1.78103818322882,1.4578158664754188,1.3300984232899902,1.1225146631317235,0.9889918982820213,0.84146606413095,0.7330073461318919,0.5606852566440264,0.5017090546617226,0.3249517736136549,0.23388004009185154,0.15719083026356295,6.3970760928752854,4.6038574842724955,3.902627969298794,3.3315996875001463,2.956770055972337,2.6337829454096204,2.469043856108037,2.2184376425452985,1.9531591687056848,1.8569138061382227,1.500190058038085,1.29028665547548,0.9748782798810297,0.7595505820106795,0.5368447525608913
0.0,2.0,2.0,0.0,120.0,0.0,7.557437282566891,4.97036997487842,11.267329215634426,-106.73833867129375,0.0,-45.47930594399941,3.5594029393980064,3.423983308008175,-2.067675943981262,34.17116048210502,17.650919203761195,4.37836666127068,2.608524682325872,2.070131154842551,1.7204227829489243,1.5051720481386572,1.3182644966824761,1.1243395987566058,0.9792255376113178,0.8195989487258044,0.6574901960882151,0.5573487857285562,0.41957737986259314,0.2871564052691459,0.23712042129284597,0.14477803971980555,6.531404183309984,4.570436308230405,3.929283956356143,3.480205069886499,3.0127118409277327,2.711937137148869,2.468402667796338,2.140607839661898,1.9099488564455431,1.6762888446816782,1.434817926418797,1.2248897896075672,0.9399590687099847,0.6952845476852012,0.5205654600813718
0.0,3.0,3.0,0.0,120.0,0.0,6.05100261636386,-18.98623955081822,12.831952847046246,-107.1220551510875,0.0,-44.87682434175129,4.446620772733564,6.412105026186442,-4.609303315100397,34.17116048210502,17.650919203761195,4.546502409620301,2.652881877201555,2.1796060342220627,1.800064465784719,1.48434312704673,1.2035069027402292,1.0768921717176652,0.9205800462151729,0.8098881641074883,0.6404080380496008,0.5294091107459334,0.4006409956978806,0.3042084311763079,0.21228152547761392,0.11947840798353904,6.452773057419503,4.535673691820101,4.033049193129795,3.401079020726161,2.958457662910439,2.6260262014910807,2.448944386822649,2.1465352679341048,1.8814589315018704,1.630113769468934,1.362649332912385,1.1526382867407234,0.9872039377973149,0.6921828679623613,0.49115514950530964
0.0,4.0,4.0,0.0,120.0,0.0,3.3468469857082965,9.369136401999953,-14.51912672595031,-106.59212006822418,0.0,-44.8675897024534,-1.8197430330506732,-2.213149194100497,-1.8487330041235461,34.17116048210502,17.650919203761195,4.510613513031728,2.5219918368949736,2.214956485794441,1.7987470230625586,1.4796258474513975,1.1795480152886033,1.001830105991847,0.8826083218885361,0.7626617527926536,0.6239054043593933,0.5107897839826312,0.40755094792221075,0.3080577635970768,0.2056600976256245,0.14119933358264886,6.585924850399194,4.52179761220631,3.8967589528088773,3.4308723946518302,3.0088901297390196,2.6426747025298676,2.3220770052266455,2.015284658003835,1.8029432999465997,1.582169939987034,1.3971199180613247,1.087225748976039,0.852265493436312,0.6829759168251986,0.5065068199125113
0.0,5.0,5.0,0.0,120.0,0.0,-6.8665084141072015,-3.875388068364842,12.181938021372972,-107.1733761467801,0.0,-44.92924295949497,-2.2236551048499895,6.7809745181520285,0.8275809785721897,34.17116048210502,17.650919203761195,4.433449910750359,2.6981600124293226,2.1470556814459902,1.7719991533844484,1.4339601722990305,1.208419316714532,0.9808455726961677,0.8254677396190738,0.688747710213548,0.6095814462634359,0.5083468527817551,0.39399520587647696,0.28364557187995454,0.19098925078661014,0.11011607371562557,6.450921624212973,4.611668709434636,3.9105139799156845,3.4909174535970178,2.960386125744995,2.6054637403426,2.2672561985565065,1.9709438836299031,1.7149789528446804,1.544914105310993,1.3310121083058672,1.0910273376278612,0.8780266368796307,0.6689759165713541,0.4976540207743073
0.0,6.0,6.0,0.0,120.0,0.0,9.74417638082156,5.947848182150363,4.070811458197323,-106.1329041551008,0.0,-44.41036863697066,-4.013640475938947,8.512004206573149,1.0450557254171002,34.17116048210502,17.650919203761195,4.475267276199907,2.5922961657788095,2.0601348324924147,1.8621631953439381,1.4520061823383026,1.1324925853579044,0.9146338759549156,0.8104963624272159,0.6818732094258009,0.5837560295846551,0.4857072467339549,0.3863576841907923,0.25945971269977797,0.18891436752461105,0.1136080435668315,6.725323464959888,4.799498057712685,4.134346413077129,3.697095415284687,2.986897937797977,2.5502583099750438,2.1710961292369615,1.9975319578873587,1.709994158774874,1.4963605253417465,1.2833056931185958,1.0320078102793784,0.8566196265864165,0.6624729973448795,0.44061329471595534
0.0,7.0,7.0,0.0,120.0,0.0,6.590643701071006,24.62031616856072,-12.158578665761993,-106.83108853887227,0.0,-44.97461486974197,-2.0226922758589625,-6.992362516338801,-0.22656348424148653,34.17116048210502,17.650919203761195,4.471009888475032,2.6673097919437025,2.1992397082247312,1.8886849856683934,1.4707457995793405,1.186415259938593,0.9628203885940163,0.7813171482286686,0.6898362664524453,0.5632199800525136,0.44847477459174023,0.3283630939278753,0.25396372276483714,0.20084403849712926,0.12534518062239497,6.653005515701275,4.560129589814763,4.1247769395376475,3.558920933163076,3.083296314367986,2.5280069962411837,2.1320500969894653,1.8437583282486634,1.6694092435615038,1.4561502305907443,1.2369762216314009,1.0196523024051718,0.7834077323410124,0.6029068165756054,0.4551575590115854
0.0,8.0,8.0,0.0,120.0,0.0,0.07164550465092745,-9.346314100719283,7.85738550532745,-106.89090472391207,0.0,-44.952532179634886,2.349946381670892,-6.774952427716001,4.744341504031558,34.17116048210502,17.650919203761195,4.344863062267037,2.74871397556964,2.177070750497244,1.8766991037472254,1.4641948655452763,1.178851725979758,0.9278046335611938,0.7357177166155663,0.6108926654699198,0.5389683249555569,0.4254132598096857,0.32209947373448033,0.25456000342180524,0.17972390827975135,0.10955152961051137,6.7032743206782515,4.627497783356806,3.9532649654299408,3.592713745339666,3.0765817178317802,2.565567540211696,2.261386218437674,1.7972775825363967,1.6130626313075083,1.3869979811316093,1.2526228782552744,1.0111355843966594,0.7921066957388587,0.6169379891200948,0.4405471753247067
0.0,9.0,9.0,0.0,120.0,0.0,9.290357145502991,11.595803000965596,-6.896730404942998,-107.00631528414807,0.0,-45.09482567925271,3.2893948496162344,5.251990587826818,4.432831609771373,34.17116048210502,17.650919203761195,4.364633698298325,2.7322242289950887,2.152573747491659,1.8078916933889881,1.5248088138613671,1.1982069505633235,0.9133594808288804,0.7243408794435108,0.612033774621096,0.49815641294099583,0.40789881446842563,0.3279062632375738,0.23842558087704108,0.159166309313538,0.11695405968575812,6.798505567767806,4.7830935224415,3.999646963238053,3.6430150585904313,3.0276523796091723,2.4801458628411335,2.1472069831870564,1.8796981909544022,1.5812341074910932,1.326862260335984,1.1497426467373757,0.9651536152249199,0.7491535343659956,0.5838662478640433,0.4271727207751895
0.0,10.0,10.0,0.0,120.0,0.0,-3.458093130407301,5.812376301916178,-14.833186272957157,-106.80533624592681,0.0,-44.94338133652374,-2.1502139428622913,-6.021902519555498,3.476157252578629,34.17116048210502,17.650919203761195,4.37526123845966,2.7097618997882984,2.2453660968686635,1.8249095002077644,1.4768757131953671,1.1597531801365482,0.8785374369510874,0.6951189097904398,0.5695694280638687,0.48850343083107267,0.38856919950031293,0.28479211749203875,0.20134389031074185,0.157680828117033,0.1133372783079274,6.377816024662123,4.663845152723325,4.055464513139416,3.4495858041897076,3.0784082679194364,2.638791251061953,2.033399936644356,1.7615823388759286,1.4913690305040685,1.3172238913717724,1.1018730125507186,0.9436854305444159,0.7290922240550535,0.5538892118876261,0.4382146696805378
0.0,11.0,11.0,0.0,120.0,0.0,7.4619014368217975,17.808913023722724,8.651375996410739,-107.32955182555166,0.0,-45.028687229365076,0.9233084783823209,3.8092417738207693,-0.8514784396307871,34.17116048210502,17.650919203761195,4.453358745096723,2.724961119370776,2.363383667132544,1.9274178745488177,1.5435897879403906,1.1589078300114783,0.9064844969330388,0.710825186859032,0.5397687364392493,0.4736623065750866,0.3691988225778295,0.28603355946874104,0.2162174607854288,0.14681693712196472,0.08875880540580991,6.626050011905621,4.832818488414354,4.1312614905965335,3.7087497700196117,3.1147472197002313,2.516660845275589,2.1780545497676402,1.7799295293331487,1.4426348717264041,1.2340892086067163,1.0765722612061206,0.8706315702796348,0.6999674761793186,0.5790135753688688,0.40464412121076737
0.0,12.0,12.0,0.0,120.0,0.0,-2.384730759456253,24.591513515708513,4.020086144991225,-106.85622293638724,0.0,-45.31795628232729,3.5378316536736514,3.9934670673947394,4.213194327812925,34.17116048210502,17.650919203761195,4.625382277777615,2.881802466921588,2.27789148389144,1.927600047710595,1.5236593673679324,1.1883717973571795,0.8974841984553854,0.6685443950576314,0.5410842707819479,0.4232255265418281,0.3314012911277638,0.26392014568927796,0.22446970943382374,0.15191663029092223,0.09670320729906128,6.691386285734361,4.8390472140194545,4.293762699672538,3.6612067983217913,3.1924612236501226,2.611388918435522,2.1265296676668903,1.6498088687992984,1.4593088507466898,1.221377727850102,1.0507278272025726,0.8674948849214431,0.7176434411494543,0.5376600095695789,0.4011315136601512
0.0,13.0,13.0,0.0,120.0,0.0,1.847593248926243,20.195034706304476,-12.673713343562822,-106.42354176407865,0.0,-44.86692903836506,4.138247876572626,-5.025077079941047,-3.0701328592081625,34.17116048210502,17.650919203761195,4.578189523201868,2.753550932055912,2.252615500467906,1.9312541189756884,1.487437314888494,1.2009862949762806,0.8957288805880198,0.697818323768297,0.5236019536169889,0.4102992322624195,0.33091431165223845,0.2708792242113238,0.19487514774021966,0.14254162621529587,0.08982882531109572,6.666844164235191,4.6820765197337035,4.087078871751708,3.785761574285865,3.1633568072903127,2.6478271707007823,2.072516346458107,1.7329974338577745,1.4135081397278633,1.2213345428714573,1.0255037324188303,0.8408260477575074,0.6744357583501334,0.490732329234616,0.3804301573869988
0.0,14.0,14.0,0.0,120.0,0.0,-8.379751308693272,-20.700161132369942,-13.820122196340787,-106.66167495989373,0.0,-45.037734197482536,-0.20219092209125072,-8.930133458483002,1.041218132185227,34.17116048210502,17.650919203761195,4.552284867081202,2.756203766636142,2.244549778127051,1.9496158849872207,1.5373771936010299,1.2091617844300198,0.8758161776761675,0.6501015475871817,0.5049272369647358,0.41059306266121626,0.333209387220268,0.2544875028218511,0.19952868672409593,0.14409672196907633,0.08684823125571631,6.803815523695534,4.736564384186028,4.275629416455198,3.682537728237925,3.248701687315594,2.590598773281961,2.1313412695366267,1.7345696184797832,1.3335697943683755,1.1530755374854726,0.981534083519175,0.8320077630424788,0.6669607154964848,0.48680236652865316,0.36485544992082564
0.0,15.0,15.0,0.0,120.0,0.0,-5.318466543757776,5.460411347202903,4.473522466787898,-107.3491984824481,0.0,-45.26991633322707,-3.0805405609840912,4.918946227718298,2.8148266000041193,34.17116048210502,17.650919203761195,4.608971781978057,2.9078195446729227,2.2783740109287924,2.0148128305593294,1.5254248497240268,1.2540028474871734,0.8529993720123388,0.6594110103543895,0.4759567382417599,0.38587392320949276,0.3014723831493243,0.2506613057518511,0.20413815083684672,0.15166221810055325,0.09286971072593234,6.788152912206556,4.864498075286302,4.237951326411303,3.7235958168748233,3.2676354324660424,2.7452699985519016,2.1531013627050757,1.7221224926289267,1.3498302344353637,1.136935825266492,0.9269026802351537,0.8038663227298705,0.6220012355278576,0.47968622759778634,0.34356040386149045
0.0,16.0,16.0,0.0,120.0,0.0,-4.501620953839664,-9.607859227099697,-11.578539852723019,-107.09102820117349,0.0,-44.94471073519949,4.9082064616216305,-5.114080895257189,-1.2582002205419007,34.17116048210502,17.650919203761195,4.533210726608206,2.8263309342710246,2.3473619444732194,1.9924785330756885,1.6066805047213684,1.1998621404703689,0.8656822242185479,0.6263585128016833,0.48082497659967743,0.3787263689963038,0.31298639320462424,0.25443052103409414,0.17632228744599163,0.12074931368329327,0.09052764957667037,6.7091342395489475,4.9099548828278055,4.350430101929549,3.7493902458213304,3.2846408760510535,2.728861931894364,2.0835924153885284,1.651154139514697,1.3997708959318147,1.1367331950402686,0.9414384263657947,0.7744307605478309,0.6376315779319405,0.4747220328826629,0.3587864590626358
0.0,17.0,17.0,0.0,120.0,0.0,7.60323869184711,21.794410133179184,6.906389520956587,-107.25523173063091,0.0,-45.408739513777874,4.258330660690293,6.617328618096149,-1.5167137832896316,34.17116048210502,17.650919203761195,4.423679181788133,2.91480318146504,2.3340595178132517,1.9682826061478436,1.6086324358984871,1.2483688849213856,0.918697070876729,0.675317501798552,0.4572141335972704,0.3543082110257024,0.2803346178517707,0.21095192075598476,0.16926876080072895,0.14395424344882907,0.07653258332946851,6.745078808941682,4.667407610012008,4.319058567285703,3.7949403573451015,3.222221145627187,2.7629871470156835,2.2250717348242954,1.693013310659488,1.421876370373943,1.1012224167299136,0.8905251109510619,0.7566515243237723,0.5938319954651318,0.4767444629190165,0.33790313603962246
0.0,18.0,18.0,0.0,120.0,0.0,6.8212265974682325,-6.641585981563903,13.335817224881144,-106.94683217032916,0.0,-44.817759749153325,-0.5129149330520966,-9.037014883579676,-0.6513754547563622,34.17116048210502,17.650919203761195,4.3794148404720135,2.9204266370574166,2.3974765243245444,1.9314966002941218,1.5718230048946962,1.245170339863984,0.877366923406859,0.6550168099861354,0.4992237021487745,0.3390716376523381,0.30135508431287167,0.21094772259334651,0.14204617722444085,0.11972987021984373,0.07641267485286501,6.799373149955614,4.958228970721127,4.321453708775335,3.9381983410764807,3.344033419288102,2.7425270693711252,2.160076372772546,1.7273130180454987,1.3789201371207755,1.0822751981107934,0.8963996068081392,0.711021967998352,0.5838762235347141,0.4397789776336591,0.3376877114301413
0.0,19.0,19.0,0.0,120.0,0.0,8.87197745474517,9.584730856782578,14.323757249739831,-106.88687138845252,0.0,-45.023122223581765,-0.9038123770403723,2.0668053482819086,1.853338589800532,34.17116048210502,17.650919203761195,4.59848461579017,2.777272596559921,2.3857859167538025,2.074116085280981,1.6036705530341424,1.2650381110311097,0.9260591403918723,0.64066935058276,0.4520082092563346,0.35445892128400075,0.27636114062504147,0.18554417715258337,0.1654861977863114,0.11477776937039133,0.07627981285260924,6.959872938061982,5.072235019034028,4.515377143996165,4.002362328978549,3.3239282522583125,2.7507712321606537,2.2185198026630086,1.633756862275004,1.3799231867511967,1.0241093692556988,0.8407204549300337,0.7047603912424034,0.525081508616806,0.44681885281336886,0.335566183674147
0.0,20.0,20.0,0.0,120.0,0.0,1.8566202324726895,-9.942022374254183,13.957974023754502,-106.93656965330487,0.0,-44.68363334915193,-1.853459260220633,6.620106503116492,-4.129839011070201,34.17116048210502,17.650919203761195,4.589646957472464,3.0372606513297637,2.4188464364531814,2.016964725931301,1.6284492082790027,1.2720863264175324,0.9028429393216802,0.6479384778575815,0.4647129324605671,0.3608094080006591,0.2793200107363899,0.19716439749158557,0.1451791349196602,0.12607280747130817,0.05569994374457923,6.6844527391957325,5.084135947692513,4.308318359040014,3.8711824433482187,3.3710605630148422,2.7685566438743807,2.217099158086202,1.7347010484399563,1.3121482801133377,1.028865293201579,0.8366468960702953,0.6936181776880441,0.565136682674037,0.455718414044099,0.320852055239695
0.0,21.0,21.0,0.0,120.0,0.0,6.727660925865472,-0.42510977473569866,-7.078749202481054,-106.96287879813954,0.0,-45.19260322507907,-0.35652747151700226,-6.231221070436794,-1.3516297675134248,34.17116048210502,17.650919203761195,4.529143213397197,2.79851651935464,2.4267588334124985,2.002672688439323,1.68997162681831,1.2813760089888926,0.8730596097645072,0.657690226586192,0.45319444815809945,0.3580659217834437,0.24043196255437135,0.16972197308129608,0.14269082214155296,0.12057705677948803,0.06234194679000231,7.004178672234273,4.945370062310907,4.5792396836035625,3.8441202249186257,3.30780010695395,2.7583110316869095,2.210498781620564,1.656800477030272,1.2877800825363788,1.0335180014990153,0.8069981836638239,0.6912737047677058,0.5613968047094229,0.4163145883177729,0.3156527574954451
0.0,22.0,22.0,0.0,120.0,0.0,4.649143322814096,11.635335839217099,-9.348271288389029,-107.20944517943832,0.0,-44.90647607073653,0.8203210828812804,-9.468692688028513,3.3490319258591867,34.17116048210502,17.650919203761195,4.727293389736158,2.9669456612208935,2.466291049292943,2.1193774721386043,1.7265087817191567,1.2584962737764425,0.9482784596503202,0.6392179011528316,0.4829488386951374,0.3190341091787433,0.2594332418299083,0.19476397060813896,0.14738797256455605,0.10007398170142175,0.07578546076065452,6.694275662492504,4.8950134183728835,4.436750174128508,3.9454127780149393,3.361892789955094,2.8309807434007985,2.2284525126978174,1.6664227183075122,1.3259439929812074,1.0957528931790033,0.8250392230342092,0.6704258426162468,0.5273253732029698,0.4128774955819224,0.3043161024194883
0.0,23.0,23.0,0.0,120.0,0.0,3.7831730920938718,24.176728379955605,-13.811302878151464,-107.07827317492493,0.0,-45.15395678671133,-4.913828356373887,-3.7352175105764047,4.970553616200592,34.17116048210502,17.650919203761195,4.597106030502563,2.9602402464621105,2.4867951074377204,2.118811814186651,1.6861519180398938,1.3076405782375369,0.9152691340449329,0.6551975977619812,0.4670521804237307,0.3213774268488256,0.21293910870270288,0.17810257442852964,0.14638420663969176,0.1076154842652727,0.05216880126671038,6.826185495168329,5.200873131849874,4.662329945445864,3.9559798808071647,3.3717676899801545,2.9006329056954576,2.2304385069719714,1.7548363134635867,1.3659387726578796,0.9932768868811069,0.8043847797240042,0.6097722589897254,0.5195443368826949,0.37809439596250377,0.3039970679717322
0.0,24.0,24.0,0.0,120.0,0.0,-7.7584918392034785,22.05212476689171,8.194496494824957,-107.51934797073638,0.0,-45.16839841552941,-3.6291224329213776,9.441219125364334,1.3970358752041285,34.17116048210502,17.650919203761195,4.648524774481334,2.9543954079368633,2.597577274163689,2.180662187455932,1.7176223866620874,1.2860198078022675,0.9204947127180562,0.6351006679841055,0.4498160051758241,0.3113347933024559,0.2312195364616624,0.14493806345451182,0.12322458676096747,0.08968830918060883,0.04190117385269114,6.736970555226202,4.9548239961518865,4.456932991093696,3.927605467796139,3.3289827957719074,2.927145625740732,2.3369815004002015,1.7051661821456077,1.323922438481722,0.9750296727870784,0.7591219974021592,0.6242056171645146,0.49982711921893,0.37506360217802587,0.29258776517295493
0.0,25.0,25.0,0.0,120.0,0.0,3.5639642659633957,9.552438187707708,-8.764393463817349,-106.79128648322455,0.0,-45.1820347577474,-4.4773536408330825,2.3032122804472444,-3.58429958614105,34.17116048210502,17.650919203761195,4.550813080049776,2.9904064967576622,2.501488543326135,2.0687616930875654,1.7871126853821617,1.3248422816157654,0.9719687180218308,0.64869888794737,0.4653037210725931,0.32048762204042935,0.24399065275363233,0.1669481009254505,0.13630362310160624,0.09323731764622815,0.06824524622133234,7.030827364515544,5.034227894753396,4.319515467338852,4.015360537089229,3.489637535546143,2.864541834860043,2.2516162062259943,1.7113012278890967,1.306838078736592,0.9911749960242886,0.741153610389589,0.6246688505822308,0.4815803763173989,0.3844464178886276,0.270705451651083
0.0,26.0,26.0,0.0,120.0,0.0,-8.898613580120465,-22.46374979367961,-0.4385177111328318,-106.89834739817914,0.0,-45.02983358067944,0.039824477552154514,-5.5507583641208935,-2.5122750441572874,34.17116048210502,17.650919203761195,4.56908220534047,2.996499916704626,2.5736488579345056,2.079176614141885,1.7358750980702968,1.3594478129441843,0.930583712219505,0.7037758789294531,0.4217007698877899,0.3079400398149852,0.24775697421891352,0.17390210251635235,0.10943832345934205,0.08953005956299724,0.06654837282815537,6.895775936309039,5.090148866303789,4.639584818892551,4.1107965067703764,3.5519368455848093,2.9594044827012747,2.2816787785525485,1.8240392820958535,1.3565754947215456,0.962714691403376,0.7466832893581516,0.595191087772842,0.48122089646016775,0.3671255507734395,0.2773364696876617
0.0,27.0,27.0,0.0,120.0,0.0,0.38262299369176134,-19.364089932262207,4.838464800482786,-107.42803650068824,0.0,-44.80559558614692,3.6698029555546334,9.797260834656218,2.687849804781619,34.17116048210502,17.650919203761195,4.634108597344934,3.0104309228915276,2.638547284312113,2.165186580954295,1.733688053588782,1.3082517593009453,0.9782412160533294,0.6666086744523781,0.4362364558638173,0.289081266709785,0.2070678043096726,0.1703968531929034,0.10691272421940187,0.08532639737184512,0.06328781499036588,6.727393495717658,5.356829868687707,4.450419062355167,4.073025824801775,3.482798645024539,2.948678778362397,2.252778364529687,1.7987011232135455,1.3012743727534917,0.9942300546039033,0.7581140692173569,0.5973892648580467,0.44817689874389777,0.3629572434235178,0.26995570577976563
0.0,28.0,28.0,0.0,120.0,0.0,-9.792101283965799,21.410776940778867,-4.073506597374694,-106.88284225176243,0.0,-44.88940807504332,-2.238132283167524,-0.22047945776110645,1.9460525120547292,34.17116048210502,17.650919203761195,4.598056927841383,3.1805463505424068,2.47888786993972,2.1504817172564183,1.7223672257890972,1.2858059167855287,0.9712385959274321,0.6731463534392692,0.4645055406000079,0.31127116985833625,0.21927453198736652,0.16660149389022244,0.10973538118367956,0.08094285860407142,0.06546570039247639,6.793075296606288,5.275109017719162,4.531675519619028,4.026966006003382,3.511939885590629,2.970630336373358,2.311286351385583,1.7900386523009877,1.3474090814864448,0.9930265632535035,0.7779440240635082,0.5853164403648442,0.44826555305745835,0.3500653909413538,0.2725488098978152
0.0,29.0,29.0,0.0,120.0,0.0,-6.733623748549538,-4.312627586800893,-14.620773778349056,-106.7634822219118,0.0,-44.65645444146185,3.8897156125051007,-5.880703449227971,-0.20448775272137265,34.17116048210502,17.650919203761195,4.636422672908971,3.0781096870966085,2.647441119987848,2.18785119339628,1.7546305500206847,1.3474332629430283,0.9699957486495482,0.6856871182338133,0.4600399300490578,0.31995491575832136,0.21362411921804295,0.17632873326566062,0.10611894929154203,0.10743189213923175,0.06435937558873665,6.918382650756983,5.236424550150956,4.581842073739112,4.069886747898965,3.4435632861430303,2.905851487984898,2.339611782573977,1.7903671793670946,1.3590561964225527,0.9953014607195136,0.7542964399348389,0.5595761382777548,0.4448883911314897,0.3497220270454451,0.2321324364581085
0.0,30.0,30.0,0.0,120.0,0.0,3.7227743915717575,5.430101646683994,8.174640626853702,-106.57326177114189,0.0,-45.101872690553904,0.7800727671254795,7.238277334968831,3.441962278442082,34.17116048210502,17.650919203761195,4.674882889877804,3.092208582950118,2.7111077617190094,2.223971690761451,1.7426131530314022,1.3708567178083155,1.013457516997549,0.6749143825027021,0.4660783958827515,0.287676214478507,0.20514746666923814,0.1256517165229666,0.12411935306846972,0.07538228748053956,0.057955789204539185,6.78575966576642,5.195034211221343,4.501214491514689,4.147048784384908,3.542119460482898,3.064563232271818,2.4188005796935257,1.7783008166067273,1.327468549400977,0.9542109178866625,0.7438415717766589,0.5338650268119424,0.4397852691556548,0.3488585927245148,0.2473869099728973
0.0,31.0,31.0,0.0,120.0,0.0,-5.084940559854143,17.948060216795895,-2.9659292068636667,-107.15584843846196,0.0,-45.04894362290257,-2.794854555184883,3.2685531751722294,-1.019385171902262,34.17116048210502,17.650919203761195,4.536280050420357,3.175947766780197,2.7386667299270093,2.221837999610196,1.8046376369243116,1.3409480707101118,0.9986360182334758,0.710439171565644,0.42225163456824627,0.29817388229856395,0.1947072808398285,0.16097355008053582,0.10194582828561828,0.07923969346189089,0.06865746443362145,6.888377679468095,5.420188447227002,4.713018327577649,4.239750368347,3.6936894294146465,2.9809061024950556,2.369587355738389,1.8725353575760662,1.316342007478673,0.9440153920702661,0.7222293069947009,0.5723772124719966,0.4456733544164596,0.33507870037863974,0.25634240927356905
0.0,32.0,32.0,0.0,120.0,0.0,-8.377912774915625,18.42801875656864,3.96327880562502,-107.21424471421541,0.0,-44.87727742278089,-0.7756186977891552,-5.151876529485131,-3.8006835169422226,34.17116048210502,17.650919203761195,4.557355561463725,3.0121285409855822,2.6179225243811737,2.292481146429632,1.7705313427011404,1.3163959432105865,1.0014891446631822,0.7030818423292439,0.4765649214687955,0.3257088766314108,0.18689481803548513,0.13724877058406576,0.11556360115715472,0.07031042527034716,0.030761901819315523,6.780678559605884,5.197155733637283,4.763675407050394,4.246008222430684,3.59296469907672,3.0764997957758204,2.4134050601857804,1.8196593718134395,1.3606478014155992,0.9529711488769597,0.6952664431691481,0.5140526440961102,0.4247793420660789,0.3070927182212837,0.2437178186472613
0.0,33.0,33.0,0.0,120.0,0.0,-2.7123324527657573,-5.674755449008568,-2.8541615330961516,-106.99242080761509,0.0,-45.199194297551415,3.849256676086706,5.414905271671085,-4.673371230045453,34.17116048210502,17.650919203761195,4.745877242855525,3.162938907152287,2.6439635899574108,2.240968168052567,1.823934397471307,1.3803932302125537,1.0034796833041033,0.6977131871667603,0.4522940793522377,0.28979358901410607,0.2082679975016052,0.1617922784354689,0.11840237591844906,0.07086812893056127,0.053587765694043075,6.998047628825095,5.455124550370712,4.676052128577938,4.118125410729286,3.593564430170472,3.0888847778670177,2.420921403200071,1.8541587261170351,1.3056620506432952,0.9689675190976139,0.7122155837788832,0.532202951011695,0.4070946772789931,0.3157791235322878,0.23023322936266538
0.0,34.0,34.0,0.0,120.0,0.0,6.301640510230747,4.3326813787216985,8.018932325803195,-107.1439242769858,0.0,-45.389108972634915,3.1622337091262347,1.8222878390829216,-1.676528177331523,34.17116048210502,17.650919203761195,4.623182054505778,3.221815377198813,2.782653482629391,2.323451830964599,1.8399676478748623,1.3914629067228736,0.9795067365727976,0.7049387459830715,0.4485746352387487,0.2753941958131365,0.2111482954193614,0.13423474156905832,0.10043110494430894,0.0670102274151177,0.04239272957145172,6.879380623006643,5.274984952748709,4.90308699866657,4.190456069660347,3.5703211483506183,3.089869984127585,2.4121838341290784,1.800591893182758,1.393434613369246,0.9587269714531729,0.7232091684268709,0.5224328460900014,0.3933267193426066,0.301615098465135,0.246090193322313
0.0,35.0,35.0,0.0,120.0,0.0,8.845999494681898,9.423580346735108,1.6986812242770526,-106.96248899429803,0.0,-44.84798407216314,2.9890834718982546,-9.422255374406014,2.2820060930532424,34.17116048210502,17.650919203761195,4.770786981374525,3.2427538052234883,2.73528663200877,2.3435191095007575,1.7871492885852573,1.4489277618555678,1.0260498319377307,0.7097204141941822,0.4644537158293624,0.28139530283850334,0.19437444954280297,0.14253097842812168,0.10378025183129333,0.07953235430437129,0.055626891330853835,6.979119540396055,5.261105808543593,4.879565367258422,4.3528110168216685,3.606247122883254,3.0670197658482046,2.463988364305262,1.8729019007349634,1.4295847157876431,0.9721195863189563,0.712124694581289,0.5195418645989122,0.4067556672395688,0.3225687478799513,0.2158993698934181
0.0,36.0,36.0,0.0,120.0,0.0,-5.731963271703373,-2.9571955038989586,-11.217798070651547,-107.05636255604786,0.0,-44.709982396422504,-0.014240132615855883,7.597873653351247,1.1982480813575416,34.17116048210502,17.650919203761195,4.651230630529607,3.2831768826987466,2.7522018150710017,2.3417188196178214,1.786118223855622,1.4084446519824447,1.047001995347241,0.7283470960138444,0.4691489005827771,0.2994364826439585,0.19965319184741637,0.13176493058948216,0.07291268457374044,0.06976345853039548,0.03611564204538317,6.7787864387455805,5.470814855865037,4.913633917372292,4.3837815748124385,3.849428570105349,3.128187095647821,2.50163687826488,1.8872198946640502,1.3938452731922044,0.9872836206485149,0.6807665510826687,0.5303670862695223,0.3934874400437893,0.29928698634972273,0.23785313805606104
0.0,37.0,37.0,0.0,120.0,0.0,-4.03419441990676,3.0888018773671853,5.372373819711722,-106.86913032173206,0.0,-45.09961388818476,-4.351135969847896,1.5047629843866837,4.908569345399204,34.17116048210502,17.650919203761195,4.704016255660014,3.3019137164018444,2.7556730969627563,2.2962454513435357,1.7990410617589285,1.4433290819262448,1.036116971391312,0.7122789590914024,0.4694765646103298,0.296819528759309,0.21808884248897595,0.12660552743700024,0.08585290211914852,0.06410066716880092,0.04048700820245936,7.006441013479908,5.401042238700763,4.762171048919467,4.481113522941569,3.7824434913667555,3.10323861160408,2.478750216878112,1.939557965742497,1.3798827141265957,0.9694472157372016,0.687422894334439,0.5021159894856934,0.3920858377514509,0.3057579651022271,0.2150486169405482
0.0,38.0,38.0,0.0,120.0,0.0,-2.6351457945610557,2.0619338168105337,10.730172299560646,-106.81248414995765,0.0,-45.04325369902455,3.8961236669341095,-2.241640712030617,3.7624181891390585,34.17116048210502,17.650919203761195,4.780692358514391,3.380913839010751,2.7073771582714854,2.3890110417033146,1.8613285493446734,1.4337281101192858,1.0749172744690343,0.724933302345014,0.48698887552114084,0.3087404008742785,0.1764033135494504,0.13044489913161675,0.08579837110501587,0.0653148442279217,0.05094708905408388,7.107983520998671,5.476019272232019,4.911178441793345,4.425835227476864,3.671909239401604,3.1459697957273813,2.4282886596316655,1.8760068081470895,1.428738400868323,1.0564760337072083,0.6865941926406759,0.48955045554430787,0.3771789254281228,0.28477009067173786,0.21180832228014665
0.0,39.0,39.0,0.0,120.0,0.0,8.487965551290735,14.340376741183455,-12.763325030113826,-107.30330415114724,0.0,-44.48917473247943,-0.8603510331655361,-1.1027492593779993,-2.627250655757681,34.17116048210502,17.650919203761195,4.900846478744179,3.346520021528272,2.885545774517938,2.385434527157321,1.9658669656692456,1.4176848848183963,1.0517358374990655,0.7263241972466418,0.4853949162646226,0.30087159378453426,0.16977953689317118,0.15727700533388564,0.10731634824134417,0.054354614674751,0.05002260964295183,6.9846239901803475,5.445634955050892,4.832763533949032,4.360268950013329,3.80176672081165,3.2880234952238645,2.5717320911374606,1.889096776316059,1.4220843975571005,0.9679903148986553,0.6984093041714253,0.4837948567930869,0.3731956039116369,0.2966888138069238,0.19387187605839723
0.0,40.0,40.0,0.0,120.0,0.0,3.810913570910161,15.173253973631482,-14.315191140068052,-106.93724951529434,0.0,-44.76889947236589,-4.477761232969527,7.996396626544737,0.7136664994287614,34.17116048210502,17.650919203761195,4.762066192637778,3.3301683719549895,2.758751468956784,2.4070746833531818,1.9144884868940062,1.4395458260115022,1.060968496038334,0.7275466141519074,0.469900794826065,0.29907997151555477,0.17998808778829714,0.10984864939709428,0.05676676714290863,0.05747630965182838,0.02968954127980525,7.046963651045934,5.515197127760966,4.915353749815544,4.400262040441056,3.686787294031642,3.2247322994272256,2.5158104587226426,1.9182271610999455,1.4119603265467366,1.0122081858256342,0.6795317400076294,0.4758828587430565,0.3385733142545894,0.29290812761931107,0.22237454344861388
0.0,41.0,41.0,0.0,120.0,0.0,-8.213222388485292,21.606884119782208,14.995658287445742,-106.93574790733373,0.0,-44.727315198976754,4.361253283510387,2.482928068315317,2.878836630496795,34.17116048210502,17.650919203761195,4.810540401975234,3.4016856972227187,2.7642876311562286,2.4512900496469427,1.9105484796175525,1.516246011296415,1.0543364717390216,0.7590262635779635,0.466851770823357,0.30618030883801595,0.167704927874641,0.11192999526908597,0.056333613405124605,0.02728153347461005,0.04825838990913933,7.069570037394086,5.6547778498201735,4.883246279932732,4.284234859861702,3.845688656105535,3.1110302728900208,2.5950529427250215,1.9483270454414172,1.4612287722594686,0.9931534968224911,0.6901832515054852,0.48231712935197735,0.35345686872110743,0.2580238157185028,0.19615335668226996
0.0,42.0,42.0,0.0,120.0,0.0,9.25046759301756,22.090705928220437,-9.26307076031103,-106.74105303745783,0.0,-45.039239046529445,5.032917119614916,5.929839421390035,1.1007971200903839,34.17116048210502,17.650919203761195,4.85722678457251,3.3994856543311216,2.9156488795180753,2.4056581157513253,1.9740597639646207,1.5107788534006144,1.0797291604006898,0.74346009013637,0.4838128186249528,0.28866909397252855,0.18030659102237886,0.1108414333089397,0.06737366706145036,0.05685058458198976,0.04966155975019569,7.160413187122135,5.49048287861318,4.927646140599073,4.454721432326358,3.8221137365788356,3.2725271049076206,2.577199039807601,2.0353658891808504,1.4002210257443894,1.024988963362324,0.700868818679619,0.4611951956442586,0.3368560170984149,0.2730022120705544,0.2017807654317601
0.0,43.0,43.0,0.0,120.0,0.0,-4.360289849998102,22.227828458798548,-10.146052407089114,-107.16084855482282,0.0,-45.24127528121457,-0.3086744514518725,9.418941543997494,-1.7575982442818647,34.17116048210502,17.650919203761195,4.781512642786247,3.4489097214960105,2.9465722194213924,2.4933694839288076,1.9275901568776255,1.5361490372335909,1.0875812992806149,0.7600705229176609,0.4765674663649424,0.2843424508589762,0.21274982884549476,0.11770725350638332,0.07204965893014231,0.03464880001298506,0.0362872714983854,6.935010555964466,5.7188265773391205,4.943071920349138,4.560132469067253,3.675841043211511,3.2969453755435247,2.580044390509382,1.972423278595527,1.5228506775528607,1.0415723307362608,0.6930099390962685,0.45984768573675194,0.3120277486653693,0.2483815559148356,0.1894815206215768
0.0,44.0,44.0,0.0,120.0,0.0,-1.0873074192908767,-24.191566219245132,-11.165699584854663,-106.62544160581434,0.0,-45.37910461375897,0.7339456849970956,9.108426945831944,-3.3857830885844145,34.17116048210502,17.650919203761195,5.01528395749436,3.2524773632695365,2.9376724464665407,2.523837640529103,1.9709297015234546,1.5330067191748216,1.0778606131008406,0.7640629232028839,0.4830067967370267,0.3095659375755336,0.19564567953668452,0.15313276339983906,0.07538522272569649,0.05031301207090538,0.016144215237144252,6.920215363096471,5.651026270801995,5.1089481528422995,4.661564914401035,3.9164030893338833,3.2824209218742384,2.587434087961546,2.052549520659905,1.4486135875801551,1.0681068238849591,0.7232773190869182,0.47972817808157225,0.32327923753461724,0.26194256530186216,0.18852340608517587
0.0,45.0,45.0,0.0,120.0,0.0,9.676147546494171,-14.945258446430188,-11.491950306088757,-107.22692914925754,0.0,-45.001150128950044,-4.919485557968554,-0.16041641044310673,1.6814323522595709,34.17116048210502,17.650919203761195,4.752344345313747,3.4803970102201967,2.8634028327033416,2.488828318756948,2.002434758785122,1.563421247451096,1.0985766866180393,0.7691145889668409,0.5030211587249236,0.30300155824674335,0.1967753761920653,0.1095159317573132,0.09073747359397677,0.06863392926317335,0.03802164841007548,7.302215018681325,5.596769990657262,5.209480195296584,4.64186026939123,3.9584829727864537,3.240152258384089,2.5627854423882943,2.032396828835601,1.5072886850175646,1.0917466833431928,0.7078334674352343,0.4830629967783003,0.3660127082823964,0.2483332999511351,0.17812291073527575
0.0,46.0,46.0,0.0,120.0,0.0,-1.4777371557997228,0.01698191889400391,-2.412218003909196,-106.63209737853357,0.0,-44.53721277260705,1.5322593025884987,-3.405783701581095,0.5767338610921389,34.17116048210502,17.650919203761195,4.92754658159182,3.487596406299757,2.9911905016931315,2.4759855837841114,2.033008012731841,1.56382188970194,1.0620876335735934,0.7424292826407163,0.5040762529773027,0.3328166599046386,0.1648439188898225,0.10285599111861696,0.06618897689217104,0.045098634323017944,0.050304257005523934,6.953935093285406,5.5430917380541675,5.2021787972402125,4.434839826637939,3.9495949604368867,3.4430944060329205,2.577427691824247,1.9511937280137512,1.506883943240718,1.0213202614128147,0.7004826382878873,0.4710608795898665,0.32697745173555887,0.25716236691025324,0.18408296948907868
0.0,47.0,47.0,0.0,120.0,0.0,3.3121163437286345,-21.208477294606137,11.589028100782237,-107.4460537150294,0.0,-44.48424127259612,3.8987581124987987,-2.502304355612404,2.303927921419878,34.17116048210502,17.650919203761195,4.681601048212455,3.668638901618371,2.9349297048857927,2.5992407252208074,2.0190865634450326,1.4963952184155926,1.1149675424931216,0.7719349005372927,0.4947093349207761,0.2983860486603939,0.17592388858079805,0.10523972773705244,0.07254384445980074,0.05700383515474877,0.04713107930003789,7.349536043250063,5.8068178731430224,5.122208514500316,4.591713848225062,3.8917509886592447,3.348086309954373,2.6544862857307248,2.0126537282245125,1.500450410421823,1.0468355602647195,0.7126246593529241,0.4602868523972198,0.35071795524118166,0.24045973316653138,0.17987600724731487
0.0,48.0,48.0,0.0,120.0,0.0,4.927417489085904,24.84817081911104,-11.778287141598167,-106.71381422500446,0.0,-45.46458861457478,-2.134318647711028,-5.780337753343343,0.05998697671068953,34.17116048210502,17.650919203761195,4.941934868296083,3.4273384503220443,3.0833617899876082,2.476753004159397,2.0536617576930594,1.580621334319538,1.1209923254443075,0.7632577775707053,0.5036420651600961,0.30826511249726585,0.19143372181932047,0.11400176880428406,0.08006617341692666,0.062382443215967066,0.031849593452466046,7.23022179227438,5.636795825035203,5.132219052568555,4.483755887800371,4.013342902614647,3.2475739419261345,2.7787217973039278,2.015543273053755,1.513598474435976,1.0550772322703637,0.7085284920733692,0.4743302920961394,0.32880610062477816,0.25437941657000873,0.1657107091712436
0.0,49.0,49.0,0.0,120.0,0.0,7.4504642323305745,18.325746074570525,-10.115702788411168,-107.15665941266553,0.0,-44.676927123574075,0.7246089066218768,6.492934137136942,3.2616673439097887,34.17116048210502,17.650919203761195,4.94481856870237,3.5291638311124642,3.0946353829156537,2.570847902499392,2.049948029850525,1.590348745829542,1.1319548050257127,0.7907226818988436,0.520568906264149,0.32324906391301794,0.17666295635672266,0.1141949218309346,0.06042088276922393,0.055814400224776864,0.04351575074012085,7.149660009443019,5.725312611804582,5.293686974616997,4.468194924184982,3.885114651967837,3.4077679217814087,2.620490192638934,2.0541384137346452,1.466338740464973,1.0520100621699593,0.7341728517635348,0.47098996036829,0.33360435764321905,0.23882392142460127,0.1711156217178747
0.0,50.0,50.0,0.0,120.0,0.0,-0.9956112621057667,-22.59201166841853,-11.61066514732661,-107.56733765124275,0.0,-45.269541033799214,3.030222020078897,-0.8109000454596824,-0.6165182619321516,34.17116048210502,17.650919203761195,5.015060038505386,3.6669057912621783,3.1164445831138265,2.631222942558553,2.2043106761987765,1.5996798794566027,1.1927325676188156,0.7724284545527238,0.5205645598278056,0.2970057618811657,0.1741354062709336,0.1081986901584097,0.04223089409892283,0.04915329079078866,0.023122741322907002,7.159773014912715,5.878423956621047,5.324972949151516,4.803529178836261,4.065187103733207,3.2546379410083626,2.706383632876654,2.03473808460445,1.5641693156051202,1.0589333959063938,0.7204971167927654,0.4542504490031929,0.30528280739906155,0.22600326043269064,0.14501910287031333
0.0,51.0,51.0,0.0,120.0,0.0,-8.100131568585756,19.391633457978166,8.565326654394521,-106.92044169053159,0.0,-44.92058499667502,3.561816525431171,0.0009908339558855062,-2.8894674482889746,34.17116048210502,17.650919203761195,4.848059763842777,3.559681752090147,3.1888513229742186,2.6872823611701997,2.095128186378049,1.6056165415358759,1.1817578397417843,0.8003171001824787,0.5191826418415526,0.31437810461585763,0.1787579848297465,0.12409716048599788,0.058769244549151126,0.05202330234490928,0.03503731880061901,7.111628655263543,6.007084433595324,5.378560481970215,4.837228413469633,4.132414654315755,3.4991863718308176,2.7380599402107872,2.1435737037057407,1.523969516808078,1.0524748560184298,0.7275846972963582,0.4908851186318758,0.3062866627300141,0.24892356321118025,0.16320264389407713
0.0,52.0,52.0,0.0,120.0,0.0,-2.8486087782479874,-8.822524493497902,3.702696684312606,-107.26534809637745,0.0,-45.352415609715436,-3.2354066671337685,-7.5178307719648485,0.1768604544738661,34.17116048210502,17.650919203761195,5.053259913138848,3.7260952365472106,3.0795793905150286,2.647685632807549,2.0786231932631742,1.6262194861999912,1.1814120850001637,0.8171284885070321,0.5452391208307201,0.33689346780887197,0.18148607227478925,0.12986683539581884,0.08548336202159895,0.03801874708822522,0.04281894408609731,7.296048162355316,5.979308581734497,5.3716767025042795,4.7571435589686235,4.023192840669102,3.3845397927290723,2.6640930480104266,2.0809039585464633,1.5387759098943163,1.0616008722228416,0.715383879939641,0.4668916786853243,0.3169669050216975,0.22304799495962271,0.1499445014267281
0.0,53.0,53.0,0.0,120.0,0.0,1.4793911614618604,23.334856699087858,6.962828699600667,-106.83893266759645,0.0,-45.16408080851305,-3.232935899436128,8.416325003436086,0.8136633340375754,34.17116048210502,17.650919203761195,5.05034372187832,3.644299481771331,3.134312011428259,2.5549069296447615,2.101771972138266,1.5764154078125172,1.1618325125806808,0.8331701430471747,0.5176484823926898,0.3291546994089255,0.18704549399719614,0.08719666212405416,0.04672343306544349,0.057744351151630645,0.024549092692521365,7.409159532065017,5.712888966625181,5.515385809828368,4.859999779251257,4.170866385177744,3.396283586881855,2.76214622598271,2.1693781204472726,1.5610307958470462,1.0754454248573304,0.728834480971659,0.47735913795956175,0.31262261590696017,0.2167279314394437,0.1322963811079261
0.0,54.0,54.0,0.0,120.0,0.0,4.82206233266588,-8.385695869295027,14.02555477140837,-107.12502409914251,0.0,-45.027940843606956,0.09773879844384839,-5.961166435525778,-4.2010565052461875,34.17116048210502,17.650919203761195,5.2844068912194455,3.565552169874376,3.153723728609853,2.7327780973145788,2.2032332698051422,1.5928575814236323,1.1732939805184344,0.7893969287618713,0.5389762425692544,0.3473410566505615,0.19777527389342295,0.09596595825756896,0.04370185465187974,0.04316595917059646,0.031364788796394746,7.10136396640209,6.028196730774524,5.468414243001257,4.832556057686469,4.113739266763467,3.480172140900754,2.6952908441234062,2.1184196718598347,1.513066860881058,1.0932107409152085,0.7346023790649575,0.4669005379792396,0.3156202932614198,0.21594721925465918,0.12682305067643185
0.0,55.0,55.0,0.0,120.0,0.0,3.3821087402388983,-13.716053464313344,8.116964920356562,-107.51131464978309,0.0,-44.84256029888857,-0.282199918731266,-2.4387799861161685,-2.4971134907889847,34.17116048210502,17.650919203761195,4.973230451876193,3.736123441081386,3.289516333612161,2.693027513077863,2.1553616486760117,1.6392621699384642,1.1835688000185294,0.8367517805303684,0.5190332008505517,0.3202249774407477,0.19003962550845874,0.12745936284846993,0.063062420532399,0.040481369397361695,0.02022908580542559,7.212442143921361,5.691488111889703,5.464610006682877,4.7166193469686215,4.1780418628907166,3.5301807079551395,2.680053353270453,2.160700777889897,1.5432584434430323,1.1094627501334735,0.6957286394687499,0.4625548011395031,0.306875007119366,0.21353102880152258,0.16684779167942704
0.0,56.0,56.0,0.0,120.0,0.0,1.5803144299263359,-10.58464957194835,-3.404987050276361,-106.6422404723942,0.0,-44.696144899595566,-3.3326073035418373,-2.7219752479911286,0.8761598683893848,34.17116048210502,17.650919203761195,5.18623584793247,3.8061604718148048,3.2170838805677793,2.7666695490788387,2.0852475415762655,1.6869454240636514,1.1929217580570328,0.7975933669049,0.569212019340593,0.34886894324782597,0.19408783675831237,0.11531510812590949,0.07889001658529389,0.027103614899741675,0.014379594654804565,7.284793279477666,5.951865458297586,5.4877830975219615,4.896475572655264,4.222419590443662,3.548999840136354,2.870600022843494,2.091576679045156,1.5766859318150568,1.1250891495309734,0.7368664029415768,0.4579735502139766,0.2944466543892129,0.23262884995351701,0.17348050813466015
0.0,57.0,57.0,0.0,120.0,0.0,-3.4544815331205614,4.307112209203368,12.272200182349529,-106.54749865548297,0.0,-44.92779055574822,-2.7559271544594703,7.447348318730935,-1.2947513443164018,34.17116048210502,17.650919203761195,5.186581954966267,3.8316465004509825,3.1505843543355008,2.7860298959949956,2.1970939298851273,1.6750603321414652,1.1643199626865601,0.8534688523417915,0.5374470460973382,0.3351284072476672,0.19395122523890235,0.10598798637434619,0.06172358708629116,0.04944734699877878,0.047655005297648115,7.429827191195387,6.223026925092786,5.422038645286945,5.002308932258232,4.224845407266898,3.601621308154867,2.8552447693493237,2.0567945468918896,1.5696351416935697,1.0774325980497246,0.7293083870589403,0.4749885825323534,0.34906386390749206,0.20864601737664717,0.16424173709359519
0.0,58.0,58.0,0.0,120.0,0.0,-3.0856952571357654,2.9135917944184087,-11.734231970950432,-107.1675333637181,0.0,-44.80108153657723,-2.319904675507775,-6.942154460064556,1.1563798254959226,34.17116048210502,17.650919203761195,5.242197631525368,3.797454212052769,3.3091137717177954,2.7290372505045437,2.2305847133544026,1.7113187902602336,1.2437763285648107,0.8336361313530875,0.5419951105857922,0.320844811802012,0.18696272386702192,0.12427168037112639,0.07498327277687765,0.03706423263975907,0.031266719224780144,7.57314713249356,6.023440732512078,5.483202081142691,4.945394866701224,4.214372207055631,3.463877454680763,2.831535579819945,2.165030350284746,1.583970091636108,1.1259706606681317,0.7356211228639267,0.47872911369836463,0.32499306150373625,0.21875017058197418,0.15787220453985754
0.0,59.0,59.0,0.0,120.0,0.0,5.6380130088156655,1.6389702584141297,-1.6578712948930114,-106.6129423052708,0.0,-44.91223641248985,2.4992114376533507,6.406608979805547,-0.7399773220538455,34.17116048210502,17.650919203761195,5.206223509595849,3.759084686928645,3.2714115289483336,2.844200662838497,2.2728650716882934,1.7155625076239236,1.269902546926485,0.8634765991487995,0.5373413265826733,0.33776181745800826,0.19951202999630074,0.12239504644600968,0.06980007586074037,0.043415339484194584,0.03532908859680627,7.268204567691564,6.14899896498498,5.494326565777439,4.909714683239446,4.211009585773851,3.6323124959729474,2.7671122709078495,2.1522257581284756,1.6476303494772022,1.142377297867465,0.7584491026906068,0.47387335640605494,0.29729493488204156,0.21184400925760788,0.16431516366318832
0.0,60.0,60.0,0.0,120.0,0.0,1.9324885048125484,-21.601379503408825,4.292483713173024,-107.12842731239988,0.0,-45.276888620011974,0.7810297566281379,0.5467994030007155,-0.8838959889701918,34.17116048210502,17.650919203761195,4.746583745058988,3.8614006606076368,3.3030559349534236,2.787026264384866,2.317147682207593,1.73925879792108,1.225716996875384,0.8402213543568187,0.5455637584186704,0.3325903044723584,0.19661206032942216,0.09617908924176763,0.06467232022603764,0.03789377622556471,0.025602101640333677,7.4660462589963315,6.035614075463787,5.403458854058972,4.738240341708936,4.30883879791887,3.5847006194114823,2.9499605109464686,2.121591220225605,1.6433969246143414,1.1401653492291364,0.7048339238066457,0.4780136504864614,0.29589038512953497,0.209917507247377,0.15435286056182776
0.0,61.0,61.0,0.0,120.0,0.0,1.4617667109752333,10.64093043695788,-4.874712749873865,-106.8729528213814,0.0,-44.49462786272727,-1.4645217717323997,-4.16578340542425,-4.8496456040890035,34.17116048210502,17.650919203761195,5.180610926305536,3.948028702809125,3.276027318311564,2.8872298325055445,2.2715976020676365,1.7885439282383269,1.2211497822895427,0.8715269462961226,0.5515268318589408,0.34783120334208906,0.18839450101863758,0.098691346568387,0.057775513643106076,0.04777907834983005,0.02150344109046605,7.460770209594587,6.148706195467403,5.536145704124891,5.0397065988384036,4.291427814771539,3.706925267639764,2.8962502836311677,2.1563634741413114,1.655085649315676,1.1372918214059131,0.7306797809830924,0.45162637532867506,0.2574327176832516,0.1785962468173597,0.1637375176608058
0.0,62.0,62.0,0.0,120.0,0.0,1.9108711550783717,-9.225641096090087,0.699781560455353,-107.33515759040296,0.0,-44.75209487963296,-2.4619390250032605,4.115893046722947,3.917308094793043,34.17116048210502,17.650919203761195,5.2722026387981815,3.9333319184306923,3.4150541164574673,2.934335598596405,2.2607650937022554,1.7907056112030728,1.2574051337179268,0.8645513332572142,0.5367113494846816,0.3450652583404792,0.17559421255510682,0.1115696520114755,0.06829706437620399,0.032201696269057015,0.025047032710246997,7.5109842367537505,6.025855502046806,5.5275052507802735,5.071550574909229,4.413996000979551,3.616962872567531,2.810647449385949,2.2396738504007945,1.7184193137306571,1.1243823803112785,0.7343123515891934,0.5037127613198505,0.309723667168259,0.19725462390289264,0.13980710989095538
0.0,63.0,63.0,0.0,120.0,0.0,5.168750607303812,1.60156735029976,13.45801639559026,-106.65793268239042,0.0,-44.858824345516794,4.0559782271747835,-6.458014300585111,1.1067155431827027,34.17116048210502,17.650919203761195,5.449536837653548,3.96875451355442,3.3371296225336624,2.8425753473358415,2.3129308691691803,1.7631113565540337,1.2669978238693698,0.8698322755925195,0.5690680273654639,0.35093238606864846,0.1994357545061227,0.0913410560057892,0.07111466599570096,0.028022747603922617,0.014681547321892426,7.6349868633185585,6.217051952360486,5.771450169418924,5.125392366545397,4.324218641065027,3.7052288081382065,2.9473172159204566,2.257632247362051,1.6512927797914698,1.1723774767109862,0.797463601448138,0.47994641511103026,0.30093671548497314,0.20931907165114053,0.14715236581460775
0.0,64.0,64.0,0.0,120.0,0.0,9.014576667977543,8.01394038205244,3.6808252286776195,-106.6815545389211,0.0,-44.8501595295957,1.8278426680138475,9.525181091642008,-0.42424786745557963,34.17116048210502,17.650919203761195,5.260525851586425,4.001531865440761,3.375693489234637,2.9196322828526116,2.396620228846775,1.7764595115661468,1.3050627815891676,0.922319080179301,0.5557372132714498,0.3508497801602126,0.21153283027543812,0.10374543564470784,0.0644416302687538,0.03930707607166262,0.020734155333007737,7.766488136831561,6.3368112293741845,5.4644751017585325,5.136608127260176,4.383562703840863,3.669892400062802,2.9355696595242344,2.2682816069737175,1.653033917467638,1.1346154655999383,0.8156674495163387,0.48401768104501547,0.29928384095044375,0.21138334189189525,0.12166321589285929
0.0,65.0,65.0,0.0,120.0,0.0,-3.948166165362341,16.959070908959504,4.160771990670927,-107.09662648066774,0.0,-44.869223997740264,3.2090824758829855,-9.951818700523615,-0.47243216081325556,34.17116048210502,17.650919203761195,5.3844310181484545,4.140022451865053,3.4114989715158486,2.9340686676230727,2.3034269479403098,1.722027948992584,1.2434408063586349,0.8548795097769536,0.5772486954097819,0.3596701316921254,0.2315980838018983,0.11146968442613688,0.06538886664159033,0.04544671316819179,0.028598260969057814,7.833921831290224,6.562426925932978,5.655323064101828,5.085593433530658,4.452644147988988,3.620582214227823,2.9755801503195625,2.255420473337917,1.685514868215178,1.2144539810892376,0.7559389202310497,0.47973997761479903,0.303872449210442,0.19912847085988322,0.12973022312628682
0.0,66.0,66.0,0.0,120.0,0.0,9.653766794113881,-9.548792251348603,-7.993618731945311,-107.11951726415705,0.0,-45.202914637686305,-4.447493736202475,-4.179769376174822,2.9435190116797187,34.17116048210502,17.650919203761195,5.482249871062268,3.9005015966130805,3.5309950783607182,2.9312441445279696,2.3577054273960543,1.7975449580445824,1.2554438918301136,0.8585879654079859,0.5894287803352297,0.3569531287493746,0.20047793655177829,0.11662609489923247,0.04388152443252093,0.036457144816630295,0.025223418888184797,7.700601689773552,6.335780472331412,5.829444048249037,5.151052733716773,4.481466487674075,3.7656905177605466,3.0370103023902435,2.263868295005786,1.688028016078158,1.1718767400954158,0.7553450104267104,0.5003105240507333,0.2943011653019647,0.20229950269774835,0.12985880015633447
0.0,67.0,67.0,0.0,120.0,0.0,-1.6962399080160129,-1.1535982954547563,-6.01025848253628,-106.80551060061407,0.0,-44.83575197168963,4.301196939933456,-4.349736984987098,-0.7788904822581699,34.17116048210502,17.650919203761195,5.319878677443075,4.247879466511128,3.5368044830788463,3.1243665801158915,2.43612121083633,1.8002613522299549,1.2473832599358254,0.879173738218965,0.5701909998546115,0.3738034184416991,0.23075115208078192,0.10839124872928076,0.057316997606481096,0.037517082070628094,0.006840764814417508,7.562406020513607,6.577764183397188,5.849448902776768,5.038828636398571,4.591232519208835,3.6569503844575824,2.9600662337240795,2.2840521488818855,1.6835797253511642,1.130588969321822,0.7705684062502623,0.4783230033587262,0.3065452244943225,0.20135170826705415,0.14436749215581468
0.0,68.0,68.0,0.0,120.0,0.0,9.777224105549024,7.354104438753801,14.46762591688109,-107.43692214589908,0.0,-45.4578834683425,-5.256073217642046,-2.1305242897458303,2.370002610343816,34.17116048210502,17.650919203761195,5.454262342333955,4.13208236651626,3.5623117944719653,2.9576615419152588,2.3769121410793583,1.7608455715493407,1.2810166048745937,0.8694145319532169,0.5573271440537695,0.3489518857210102,0.1930336190666247,0.11590071851757087,0.05535427933052528,0.03597427841129399,0.025069234445009376,7.772904555330889,6.28033576375151,5.600277753672087,5.15806284238894,4.603556728383555,3.775767014427349,3.05763716346346,2.2327576592700855,1.6705327951303905,1.1409671745315537,0.8067738139176467,0.49227695232605334,0.2891532212048924,0.1851584155395887,0.13591631291433484
0.0,69.0,69.0,0.0,120.0,0.0,-6.646164390511611,5.550037742508167,3.9836596401915187,-107.27522060706175,0.0,-45.17213725349414,4.261809303021812,-7.167543401131933,3.305844917584137,34.17116048210502,17.650919203761195,5.535202431610329,4.227839330619539,3.6041651110938027,3.0797479832868273,2.444906738462984,1.8954393239155714,1.2928624943207885,0.933601239728688,0.5761744047835863,0.36999168382249314,0.2282316136469803,0.11110131534989993,0.050465841096255036,0.02238198315203392,0.01875004823145983,7.790520023786936,6.498616889019996,5.851741666755855,5.351503048791978,4.565214386092918,3.596752995969044,2.9491984097422974,2.317010367772106,1.735047497391209,1.2208401012482855,0.7825290342369118,0.4957742744144406,0.31131583385180783,0.17049249310333078,0.12147083669332284
0.0,70.0,70.0,0.0,120.0,0.0,7.656799712639135,16.385248381138396,8.076514297051332,-106.99342129785524,0.0,-44.91622029599789,2.187445561834687,7.490304821945951,2.1875002821994274,34.17116048210502,17.650919203761195,5.503872241354452,4.346368570159002,3.6140610398524835,3.0927445690260362,2.461461712761912,1.8841939178112328,1.2853822711070584,0.8885919032479559,0.5641260112795219,0.3258241235478557,0.1945845036038322,0.09356736402092765,0.05145960488224917,0.028016272165119125,0.028191613324094485,7.687609196589419,6.435402116244546,6.021710133760737,5.3462092842649005,4.402262442239758,3.83479358048962,3.101468086276868,2.230707390737189,1.6632607471423175,1.1800806057691777,0.7586047812302221,0.4854485077058684,0.27542747739149653,0.17579387325923415,0.12543816057081578
0.0,71.0,71.0,0.0,120.0,0.0,-3.856993352545029,-11.133686048843611,-4.028799548677318,-106.52960041365682,0.0,-45.00034857273785,-2.8635772048870236,-2.428645080625575,0.8456098013680613,34.17116048210502,17.650919203761195,5.5000392679439765,4.144709233866884,3.6093054988559055,3.0736114122329323,2.430331734161624,1.8438374369199608,1.3764470750331042,0.9196507744248938,0.5961365564163553,0.3461623554639595,0.2107116742018212,0.10669032760644023,0.04551534038289119,0.06884427442544411,0.029396379760036187,8.011037235348539,6.527772587844942,6.034999405751856,5.538187874437627,4.635676358842212,3.7557187586117435,2.974779850129628,2.3036263913117114,1.721415566597174,1.2854595556366384,0.8095221758961151,0.47498352255570975,0.30386494253997776,0.19424065446889432,0.14125311546594246
0.0,72.0,72.0,0.0,120.0,0.0,4.314160994909011,-21.786408886552806,11.1448006978991,-106.91692059655199,0.0,-44.79331714257542,-0.3655059394665936,3.171063204761893,-2.3778059894145764,34.17116048210502,17.650919203761195,5.443315022682723,4.353968053662081,3.698678564723085,3.059736125648596,2.515194107203227,1.9338032223828259,1.3595051029089826,0.890032648359129,0.5772068493343836,0.3734007246680002,0.21381697697511204,0.12208744444345485,0.07070119373457971,0.03288445292691418,0.02637890391044285,8.066688487227301,6.53504684244585,6.233677758884377,5.2564258055475594,4.518717170618138,3.922342570516621,3.030445210690566,2.2987886145631578,1.7104520528098226,1.1524319402296153,0.8229779921772428,0.5188107286884729,0.29370654334468105,0.18479563505213212,0.10388031719620235
0.0,73.0,73.0,0.0,120.0,0.0,6.536403768400209,-11.500879157148836,0.09036751062261672,-106.93313313956979,0.0,-45.494991407242736,-3.3702293168720288,-2.4212630041114114,3.0061437357024943,34.17116048210502,17.650919203761195,5.6177606286357,4.4321634287173595,3.655732348952271,3.2085541297167963,2.5732847182155814,1.8658037745588507,1.3250134438714323,0.9276636697027707,0.6235157552701265,0.35638636041070754,0.2082675348366615,0.1276797596434159,0.063958408800862,0.0005571493676209821,0.0008037953119138172,7.865467483728326,6.767985091456728,6.109159634966386,5.272230649830882,4.514594154771391,3.9807457486661373,3.1386646264783717,2.3495601129734753,1.762927279351257,1.2177824387327858,0.8069151776401903,0.5018543326752343,0.2855987908145712,0.1750438184807821,0.12596269512905275
0.0,74.0,74.0,0.0,120.0,0.0,-6.619543147583656,21.05212029418592,4.777155086775931,-107.32719993661237,0.0,-45.170700455016245,-0.7567362006396094,6.741984324854894,0.6813345103474369,34.17116048210502,17.650919203761195,5.530654960251442,4.492080576795908,3.842621005987936,3.1786141006179864,2.402193398630557,1.8980127626036885,1.3587764331955061,0.9369931306205419,0.6173054241309213,0.3487197585990261,0.20611523488837802,0.11679549968344759,0.047395363658252226,0.0524502857411837,0.011951387062194596,7.592518969898504,6.795046976802546,5.982684495179158,5.522387631404802,4.6683286771699635,3.904707467843153,3.0686203483015193,2.412382147156576,1.6985690743852773,1.2831657608909914,0.8014769515345561,0.5200938850476687,0.31945655501989095,0.19042507707204068,0.1286039783912472
