Line_number,Fiducial,Easting,Northing,Height,Elevation,tx_pitch,tx_roll,tx_yaw,txrx_dx,txrx_dy,txrx_dz,rx_pitch,rx_roll,rx_yaw,PX,PZ,S0X_time_1.086e-05,S0X_time_3.256e-05,S0X_time_5.426e-05,S0X_time_8.680e-05,S0X_time_1.411e-04,S0X_time_2.279e-04,S0X_time_3.689e-04,S0X_time_5.860e-04,S0X_time_9.115e-04,S0X_time_1.411e-03,S0X_time_2.192e-03,S0X_time_3.418e-03,S0X_time_5.339e-03,S0X_time_8.301e-03,S0X_time_1.338e-02,S0Z_time_1.086e-05,S0Z_time_3.256e-05,S0Z_time_5.426e-05,S0Z_time_8.680e-05,S0Z_time_1.411e-04,S0Z_time_2.279e-04,S0Z_time_3.689e-04,S0Z_time_5.860e-04,S0Z_time_9.115e-04,S0Z_time_1.411e-03,S0Z_time_2.192e-03,S0Z_time_3.418e-03,S0Z_time_5.339e-03,S0Z_time_8.301e-03,S0Z_time_1.338e-02
0.0,0.0,0.0,0.0,120.0,0.0,-0.09886242042626892,0.16146381073941685,-0.06749288070004966,-107.0982911450215,0.0,-45.110401766203466,0.6952128647789679,-0.5365646893589089,-0.16143309804656614,34.270624069470855,17.560637190127487,4.616483338787155,2.4298572769551834,2.1442339515969233,1.92386290332823,0.9390315272609873,0.7520925138666117,0.4613512283112562,0.16499993643201616,0.2737326883966024,-0.13562365379414382,-0.14377132127106446,-0.16200095512634402,0.05277557555021987,0.1573939336112684,0.20427400517291786,6.905486205873493,4.859509913588829,4.302256116552303,3.749644697570671,2.7985975564658068,2.1126218970705914,1.4331998569234983,0.7769833453092637,0.3883360819587352,0.26440398527189624,0.03816464422182045,0.10293816933255613,-0.024299195613065816,0.06627337483421854,0.03332260127594352
0.0,1.0,1.0,0.0,120.0,0.0,0.7085396040936554,-0.1505305729522013,0.2739937521849529,-106.96074607841393,0.0,-45.03868172326575,-0.7682861724132002,-0.6209304063895849,0.32370955935767864,34.270624069470855,17.560637190127487,4.428131714821694,2.543854619937074,2.141969679505265,1.5147108182086437,1.2787552353388278,1.011796933226819,0.580802471681436,0.07444526698234549,0.03697725913334124,-0.016366224588327455,0.06456887762116716,0.13725811638183016,0.18664557476848725,-0.20327513416577203,0.1558516392461768,7.035867066231601,4.923968272510237,4.348937812602663,3.782077488986026,3.1998625336643296,2.2752330047589457,1.6186582754048966,0.811177142228336,0.4987948174790377,0.01795205908826686,0.12480802578029805,0.030072977103625772,-0.15999863104605863,-0.14346569644160673,-0.08672227243402125
0.0,2.0,2.0,0.0,120.0,0.0,0.22356510770973137,0.8306390735951354,0.6364540121836659,-107.01086042201791,0.0,-44.94506523957935,-0.4222688530700446,-0.5324683179157323,0.16748365246262087,34.270624069470855,17.560637190127487,4.478286715322311,2.6318175159939585,2.122135913173526,1.7690450954540147,1.2766485503140204,1.2032998729277156,0.5482947822135297,0.3866812769008334,0.16847579838370233,0.08000137299064927,0.10708643313440051,0.054800983538884275,-0.051728316996092545,0.2726587508841009,-0.0331011348661647,6.856692759009053,5.23239704294473,4.481976849085134,3.649948298984264,2.9810481714821426,2.3925269028808946,1.6520424850555886,1.0035919025542692,0.4120645824804537,0.13543978752528735,0.10350373617184702,-0.009148740591157833,-0.11995631253724953,0.1623774809213134,0.07150990658620622
0.0,3.0,3.0,0.0,120.0,0.0,-0.31191081056151204,0.5123700002074374,-0.5747757945140821,-106.92192002398315,0.0,-45.00311780761558,0.045969750906014885,0.5095179283484517,0.5557556937604935,34.270624069470855,17.560637190127487,4.515033799546635,2.7207926986686313,2.071576600132812,1.6525154393435408,1.1744589619188848,1.11513100245424,0.5694816167041605,0.3472305953591627,0.02737976422763963,0.29025040778034217,0.08411683047935453,0.42374306124346367,0.14938441678968015,0.085937288357162,0.07851849593666083,7.026172873940196,5.126803400634974,4.2447372193164385,3.8699369182029346,3.2012466683504637,2.4188622950130587,1.6788852627770867,1.0732507735233743,0.6315046870375232,0.20712481218679354,0.011768319530410992,-0.13001247922540637,0.001755524838518879,-0.01883821674603484,-0.09062078508486718
0.0,4.0,4.0,0.0,120.0,0.0,0.8899978861950106,0.981894798581703,0.4987080899364449,-106.94725328121987,0.0,-44.991323851186195,-0.3530535570857369,-0.01821708032490088,-0.9366739661247685,34.270624069470855,17.560637190127487,4.451065993679076,3.107074197981401,2.3625968738303125,1.806403961167024,1.3169951239504794,1.0745621010619668,0.6182226520372689,0.5755132990738925,0.15303351064758375,-0.0740246826629627,-0.30829630964487637,-0.2711328213922078,0.11698305098515643,0.0478100815293509,-0.18806051872684446,7.043076639508198,4.9306727681282325,4.308449563046347,3.568579079658019,3.3286521967119014,2.5907783759273255,1.748358556392667,1.213066587371475,0.6711006771436577,0.3191960567737495,0.04045133741368738,0.17620937852108706,-0.005923208168392032,0.07527311058141671,-0.0016710873020793413
0.0,5.0,5.0,0.0,120.0,0.0,0.07092942342165176,0.1482124619987577,-0.2640519320044039,-106.92454852729222,0.0,-45.039433914014296,-0.5592013780459929,-0.73163124771973,0.37854887865633424,34.270624069470855,17.560637190127487,4.474341763572582,2.6055098470186873,2.3356721826661238,1.8407823302268207,1.5572281717984446,1.069987188222135,0.8619911404351046,0.4425487682105141,0.16924921439694607,0.08961540084373261,0.08076399191613015,-0.08221299019759823,0.013394766266929769,0.16528706172685365,-0.22232979992210747,6.759666656852193,4.945282877909864,4.374548899528108,3.810482053463338,3.2642405132911705,2.5358682372519517,1.8844610652717764,1.3080532222051922,0.7669162722651904,0.43760510935987706,0.07195405652126878,0.22365029552094923,0.14588289896724638,-0.03723412354183445,-0.020594105602987165
0.0,6.0,6.0,0.0,120.0,0.0,0.6659694103667793,-0.7034405302806053,-0.3823785633730914,-107.06411923256812,0.0,-45.07821378081469,0.6123114923814327,-0.040846823106207575,-0.47070587796766206,34.270624069470855,17.560637190127487,4.5964056150355175,3.0010202077080397,2.230480528004662,1.830535046121648,1.5333490888144687,0.9357063813752349,0.7813803794775223,0.419281228269047,0.019459808718452543,0.13894173678060914,-0.16208373796491576,-0.001124951602928647,0.07630459362208146,0.13846792031204092,0.06548643404621762,6.897536713530478,4.947486986311754,4.266236494570722,4.009445051478549,3.2368523410391727,2.6197169148744317,1.9540514847300103,1.4256405743952532,0.8417778383148123,0.46987884449528106,0.3193952301096021,0.04861724141300634,-0.035691228072344164,0.13470564490344097,-0.09202510044536809
0.0,7.0,7.0,0.0,120.0,0.0,-0.7141254170780393,0.34445141506871124,0.185022515023747,-107.01858768956704,0.0,-45.05825169049318,0.5050917874169785,0.8696461579980104,0.1914324048792475,34.270624069470855,17.560637190127487,4.4654487589581064,2.7433131539350706,2.1788240281270306,2.104092006114156,1.440150249144365,1.1532051388017157,0.7482722822191813,0.4136603430319896,0.4195680746468575,0.10501884373210826,-0.053394458732964487,-0.1484284406848422,0.08323231002032304,0.03636475894549896,-0.09046248669399516,6.790152787415306,5.1325791530327445,4.28077871825705,3.95093362121186,3.5203089320780965,2.705547384118991,2.038795311670613,1.4327786831361102,0.8568863576700448,0.5691182700384951,0.0820722409024974,0.166135563447933,0.14594701275771005,0.08731823101612585,-0.05738181494951155
0.0,8.0,8.0,0.0,120.0,0.0,-0.31293093052978493,-0.23244058052808292,0.6684995349345808,-107.02527261016803,0.0,-45.086334901431414,0.8561181678174392,0.8080452937906353,0.6489051047216812,34.270624069470855,17.560637190127487,4.397873255151082,2.618462967475115,2.5313505240940724,1.6664350431794528,1.6695249478646432,1.2075445194597765,0.9033793480313277,0.36501973112293423,0.28314772303533065,-0.04538754035701664,-0.35169014859953424,-0.07413890366206721,-0.060013736959975146,-0.06032890936935907,0.2900892284847242,7.09412867502284,5.189813380344735,4.276332094066148,3.9811263832154156,3.480461991557661,2.9359074918996297,2.371118041276368,1.3529901254630414,0.9233763664414602,0.5581095463330304,0.23335150355023573,-0.0681968863975818,0.032130063342258486,0.10405630096181062,-0.05735492638400211
0.0,9.0,9.0,0.0,120.0,0.0,0.4680977836665372,0.1583390731742571,-0.4857026832528304,-106.94696569551175,0.0,-44.89421887116529,0.06363170526209881,-0.7206227715540241,0.07079507502417837,34.270624069470855,17.560637190127487,4.895552272781579,2.6864382164607967,2.3914340821702593,2.164471430609288,1.6998189516801017,1.2046744690952211,0.8709734934898746,0.49189515498171055,0.218334979306206,0.14766294570306432,0.2404190489454257,-0.06597239427399987,0.0563407421206494,-0.005465346038499703,0.12978011025571845,7.004959478453743,5.151130125838249,4.345397613382196,3.807476786281211,3.5666871484426186,2.8032568072995803,2.1833068903955692,1.56154858207265,0.9690136253822311,0.6725131350309774,0.14557437142525267,0.26305391747023454,-0.08562400083615035,0.03235435990721085,0.07378752152982809
0.0,10.0,10.0,0.0,120.0,0.0,0.1275937945999308,0.15970864402833396,-0.3595806089735518,-106.93684115420655,0.0,-44.97010578060727,0.004673739308800254,-0.016522069800733563,0.32427458912152773,34.270624069470855,17.560637190127487,4.281110637233375,2.941279286280496,2.4605101518984185,2.119508367662444,1.3920294762031988,1.2354853557889145,0.8546727189372303,0.42506073701591995,0.39474238047720545,-0.004921189824061811,-0.07316070990814616,0.11159194983537828,-0.18820023172132203,0.13186204539663438,0.33169168075137967,6.864099597327271,4.97153507185981,4.559469493369729,3.8893642731716396,3.436968082134535,2.9334771420735377,2.345497281581077,1.5966642282898897,1.1939319662128893,0.5124164176930928,0.28194603180109157,0.3592978480191747,0.06976247533796989,0.06066740034720833,-0.014389120867727366
0.0,11.0,11.0,0.0,120.0,0.0,0.9454285318339026,-0.7007264699766866,0.7221302299572481,-106.93645229957774,0.0,-45.0134856317393,0.7282230823431246,-0.006980301836991387,0.6215882469160834,34.270624069470855,17.560637190127487,4.939307254719581,3.0796573493766983,2.39934852498553,2.037107437412377,1.7324766939609164,1.373879890740882,1.0876870205916926,0.6368180847880048,0.5805317724512256,0.15465803678926146,-0.07572560196816189,-0.06202565560117707,0.016251923212375487,-0.07901018269213275,0.007075703173505642,6.880372369267076,5.069388293466537,4.532722367812882,3.987939241093611,3.455520262483664,2.7014479927423753,2.2085794919265505,1.763783658686174,1.1138173566848424,0.5409678187301667,0.4029604685974741,0.07924813441228759,0.0023100429064345993,0.09076427184936692,0.0036291596814804336
0.0,12.0,12.0,0.0,120.0,0.0,-0.857353447825469,0.5478961851415198,-0.8585474862134153,-107.02149834629904,0.0,-45.027556765888235,0.6457030547371354,0.5042842746010923,-0.9263967259392485,34.270624069470855,17.560637190127487,4.451246013481548,2.6646601347041323,2.3437072870825446,2.0208491421427257,1.5862560995408657,1.1280960350502525,1.0391109297949315,0.5666204178356713,0.1794564712907068,-0.04422584066135063,-0.3138931115343912,0.1210752976493643,-0.05773665213419449,-0.16772228266794872,0.10370721167663409,6.782183858611076,5.156860028658194,4.336650144327798,3.950751935773085,3.3413535876409806,3.0504004859435,2.2801323281437322,1.7707086364610405,1.0643242423276187,0.7486346272626458,0.37843400854880066,0.18699655100215273,-0.019034402328591778,0.07962969627891592,-0.04018106414531389
0.0,13.0,13.0,0.0,120.0,0.0,-0.9795516830112425,0.7050702489220566,-0.29518122751965925,-107.044150821357,0.0,-44.893135263547975,-0.24424311749107488,0.0742831307428451,0.06614172422539588,34.270624069470855,17.560637190127487,4.5190085767233565,3.0727630115919484,2.041862616753801,2.1929870679885806,1.5095619363231503,1.4283209829377368,1.0692780511076019,0.8862484666140857,0.30601694573652677,0.18021804001418598,-0.03320993823844266,0.1352986552364907,-0.22811858199866425,0.14241385642006024,0.023191048700188902,6.898898103169439,5.041356003184817,4.5328258726718165,4.088926749251043,3.5557047620821147,2.8341770390523844,2.1013178170075317,1.7086328084991016,1.0879738868405529,0.8608730812669046,0.32869790937508,0.2734054448052105,0.00673232095386659,0.10746986921450494,-0.1024890216755006
0.0,14.0,14.0,0.0,120.0,0.0,0.911129720409253,0.9317923593313264,0.9594638114347707,-107.01893232768009,0.0,-45.00041776768822,0.018866437076475714,-0.7938298723709523,-0.1454391359292202,34.270624069470855,17.560637190127487,4.478258325092529,2.6393154212749743,2.3204305782385357,1.5962224160677774,1.2890130856614892,1.0924055527520447,0.9423172170700747,0.6007549812749473,0.15190162368914356,0.4440342297764849,0.19086920092154652,0.31218945310858637,-0.022703774693087615,-0.24630588396073533,-0.16269124615030456,6.704729190587538,5.130580151726606,4.490395501284415,4.060552166742295,3.4827600984901848,2.969137179815166,2.3933870983638834,1.861306203388781,1.2478995793291991,0.5221178822155064,0.3800814216635754,0.19434536199413543,0.05563469438480732,-0.005468140233375388,0.11710592401874131
0.0,15.0,15.0,0.0,120.0,0.0,-0.3552376042173009,-0.44174409823525207,-0.3564144553849502,-106.90852942336315,0.0,-45.039168591413016,0.9392705905258217,0.9397714942642619,0.541306165032639,34.270624069470855,17.560637190127487,4.411577580442372,2.652940082027485,2.3364501739892676,1.8875701785661354,1.5427843309387936,1.5573818291864567,0.8248188344884171,0.5077268379402612,0.22824968632279538,0.35221388755362815,0.21268100687355834,0.1381911908138227,0.09282469754392209,-0.18201176371565034,0.17310312617570928,6.998374422395737,5.006161446639269,4.664805262922998,3.971405724521916,3.415224170307721,2.9682259832376805,2.4417595671857457,1.7892613929099654,1.1507368571878753,0.8497639741305927,0.3520602180506049,0.19282563260037694,0.07562528557024535,-0.05936417343248638,0.16520581307170903
0.0,16.0,16.0,0.0,120.0,0.0,-0.8229567571609877,0.22679458393865937,-0.5131052690570224,-106.8874842271482,0.0,-44.98085755111316,-0.947876749349633,0.8294022674867614,0.9411724592018675,34.270624069470855,17.560637190127487,4.747474370245817,3.221261398621638,2.1983566730073596,2.072821070690864,1.8691976136058097,1.15756590623534,0.8294058056293692,0.37585752001614153,0.1231889082162902,0.16797682763551086,0.13120079854526923,0.12914625497825938,-0.053382347476998084,-0.21731370845868964,0.028204388880300666,7.08950403574945,5.2806051048682665,4.536816542243449,4.163287355735075,3.5430870944511224,2.8292109917157138,2.42576842173894,1.8690834227577626,1.4786831073464275,0.7466239524676433,0.5759494471022888,0.19875235135384156,0.10845791811076409,0.18013005032066814,-0.015717429097591072
0.0,17.0,17.0,0.0,120.0,0.0,-0.7625931658059255,-0.1473905875244259,0.9064939384620359,-106.97092989592907,0.0,-44.946219083653986,-0.7996754777140446,0.10663320956368261,-0.15119419691003588,34.270624069470855,17.560637190127487,4.503908443377792,2.6976644889555166,2.4163990182751416,1.8713083160960144,1.6781963715525055,1.2342340562240903,1.23486911435019,0.9492342947171772,0.6821363859291235,0.1540484925920484,0.3430481882480304,-0.12002912843138669,-0.25051208457686647,-0.21004525694010281,0.163934041467869,7.20963211701172,5.3001002867982745,4.668579067725701,4.103176654149859,3.511005269265502,2.9433878685021613,2.3605785102103893,1.9046467244440306,1.228067224635241,0.8013551156209296,0.6144083583914778,0.18279756227294913,0.10342281526836301,0.07218566168543723,0.06051134803536222
0.0,18.0,18.0,0.0,120.0,0.0,0.7127145019896957,0.8392621870246253,-0.5140816517033671,-107.02322398419706,0.0,-44.97558157827065,-0.8108565584644374,-0.37177081263543643,-0.4667368047214495,34.270624069470855,17.560637190127487,4.607825899331858,2.8724726180120466,2.608022542496844,1.9943496633259805,1.8164487781395002,1.3760694503022075,1.0074292333494896,0.45293599226301784,0.20393978342275926,0.04027250960755252,0.09787280974654392,0.1510850287021352,0.21473338855597676,-0.024129944633361215,0.042412835770627294,6.957324083274777,5.135606134346882,4.456562738853706,4.071013616108653,3.6625426752897683,3.0673834779224873,2.4802968491906574,1.9200800029554406,1.340614490147004,0.9328247633683204,0.5245431649218693,0.27503438567537486,0.03574827252644329,-0.028999996164042967,-0.1014007768369
0.0,19.0,19.0,0.0,120.0,0.0,-0.1166956496612006,0.6510205289381057,-0.38818930789713924,-107.01856956774789,0.0,-44.9586186885753,-0.3881434842863297,-0.30144865118701625,0.2565993981654562,34.270624069470855,17.560637190127487,4.826792002724043,3.0736828520377073,2.5876486839613513,2.0161682918495494,1.633224275194867,1.4723764051175587,0.9837540327310521,0.8035959698378387,0.5079485143146396,0.27730694233345543,-0.08712056375741209,0.06329638157969339,0.03687042904800468,0.2611614043457322,0.011800619707343144,7.135312078791603,5.202021897511396,4.423339990103471,4.1100670102596295,3.677765453120569,2.9210288214108537,2.448246405811056,1.8891414738367833,1.4221518767615113,0.8848124410455652,0.35897980891597336,0.13606473157626747,0.19452669675680218,-0.023471116776148722,0.0033661995706198503
0.0,20.0,20.0,0.0,120.0,0.0,-0.40365688561686386,0.10627611291416228,0.33391790695838974,-106.97767543085689,0.0,-45.021346080952554,0.6378774864393539,0.38916868177553576,0.060496482842022914,34.270624069470855,17.560637190127487,4.728866816414539,3.2466139292989356,2.684380226271429,2.322759804175481,1.403578257114848,1.2815420090675853,0.7683853783960733,0.6506339712922445,0.4784093161443668,0.3147971955744288,0.18944704799906514,0.31679357401326125,0.09700561172179897,-0.040260869339383956,0.16984506122569992,6.880125231073586,5.22615214340016,4.8781488260591495,4.2923267934174065,3.5207032209993603,3.2689318488108365,2.3961488575057253,1.9567643034360884,1.5441563833051213,0.8601149220681054,0.2820922584501968,0.3283131653457005,-0.041705605617849306,-0.031323786879940384,-0.0073577431460051
0.0,21.0,21.0,0.0,120.0,0.0,-0.298796928828561,0.20585754529705969,-0.7446163157100079,-107.16740080735732,0.0,-45.00829836849559,-0.05353112564056585,-0.8713200580325258,-0.08392686900829549,34.270624069470855,17.560637190127487,4.651956126220308,2.8151290190329066,2.18013508514688,2.113757804889582,1.9174898558576494,1.6104027801348442,1.081342515939991,0.6420209055511821,0.21041625310525283,0.4215016331436973,0.2513304594655531,0.20222478456730417,-0.08397714024977297,-0.1000089074830337,0.14547375794605027,7.1309032613717545,5.363832993669251,4.904460722395254,4.040276626039424,3.6349915154144394,3.175419134958033,2.5326457251820003,2.0860054311095726,1.4511236400554808,0.8522319907336471,0.5091224768997469,0.49040240062320434,0.17180737276772204,0.011800378105709788,0.05351396924236456
0.0,22.0,22.0,0.0,120.0,0.0,0.7060429221741047,-0.5870632218833294,-0.03510725873995968,-106.97719140829196,0.0,-44.99318732708798,-0.47370739583987526,-0.8283627523684984,-0.8763110901146036,34.270624069470855,17.560637190127487,4.756087280241272,3.2237011959869855,2.334878978802482,2.0384786105841153,1.7447156757331537,1.2159017070991935,1.1564545427623854,0.5498522737284368,0.27037309381393326,0.13002038868501706,0.4309863419238573,0.22896772774164198,0.11950600896927716,0.059408892359179254,-0.2686410949870587,6.654299350823554,5.1178673927248255,4.647917096005693,4.0237154203616665,3.6085830589823944,3.0628131176146285,2.446915791124771,1.9623745540296078,1.4055066473619162,0.7806296894009405,0.3254210252583941,0.33978111844851633,0.20773051027323527,-0.011954696968636332,0.08354812149731533
0.0,23.0,23.0,0.0,120.0,0.0,-0.1290424301830586,-0.12975902319090493,-0.7152692127438696,-107.02361086537987,0.0,-44.96628021248229,0.4544236312933308,0.7460773144893025,-0.2091303289211055,34.270624069470855,17.560637190127487,5.049128309022138,3.4177335210856588,2.792541994458726,2.1978036161944123,1.4829157759355611,1.2469357945388018,0.7528721928910906,0.6745319521725681,0.18180719546504032,-0.07964019109426845,0.2019197948490816,-0.1819671434322426,-0.3431164442823934,-0.27204205706691176,-0.13811849792139455,7.1210531477292,5.348074008540333,4.851410147737838,4.2591567191229505,3.8020982387431395,2.8788540703909593,2.3356607500520967,1.96798314169189,1.4294948937899892,0.9013767833233989,0.4217765395750286,0.31223390519010585,0.01991274017127373,-0.013436482786182945,-0.07266400751702692
0.0,24.0,24.0,0.0,120.0,0.0,-0.09121758327277996,-0.059206891796958594,0.23081171734818806,-107.04744097958083,0.0,-44.915992553646646,0.38514218164081443,-0.08753417481346304,0.14982843833808146,34.270624069470855,17.560637190127487,4.574599555451086,3.387140294015794,2.7988828241736146,2.089614768278303,1.8047079710753104,1.4803237564426108,0.8340287256182136,0.8479302933345115,0.2083463517368122,0.30058584177664976,0.23721081760514728,0.13139237302289242,0.3726109302150484,0.08625560056763318,0.07016795794634306,7.183915115271591,5.238692390649653,4.851040122150114,4.3569892325331185,3.6219593760432343,2.9840590934210898,2.562424404058861,2.0885282788241977,1.4574746619857917,0.8345173415826184,0.6297749547597442,0.2548784744857395,0.20118392547743857,0.28904197675936366,0.17697987002869311
0.0,25.0,25.0,0.0,120.0,0.0,-0.9333269524950478,-0.6711690456712394,0.5103545354401344,-107.00094812112961,0.0,-44.97568626428094,-1.0246698057198165,-0.5216344681727685,-0.586217819077173,34.270624069470855,17.560637190127487,4.9508581017108835,3.11636933066784,2.6943456068155336,2.11237596369672,1.6346316879331468,1.5140068167290133,0.9009500643598859,0.8095633598579492,0.32610746306557514,0.38610423227890567,0.07417494251138834,-0.16202322854271284,-0.03433361995946878,-0.009943271723609998,0.28374341052694263,7.099921958289764,5.270406645420062,4.71415951829249,4.268876042120162,3.61646258926212,3.1520118675962787,2.4162816466149253,1.990917902755121,1.4398217647844864,0.9863124090342085,0.6716831209219839,0.1877092255052232,0.17120661157420541,0.07230104352125497,-0.08649989181371708
0.0,26.0,26.0,0.0,120.0,0.0,-0.4325596094259432,-0.7326552219681248,-0.007611878770520608,-107.0551324649291,0.0,-45.09377182162328,-0.7672376066878782,0.0918062434636755,0.3443656772175381,34.270624069470855,17.560637190127487,4.463542453707614,3.1050063866425797,2.274029884775674,2.114763597342263,1.8300201586073144,1.471135891580439,0.5871689856954965,0.7823984059424476,0.30422807162078014,0.3339326870580773,0.25897211625258276,0.05608253466656322,-0.018314717265611957,-0.22780859437719234,0.3110070370033669,7.06940507668549,5.263671159794688,4.557770217512005,4.4438275220721914,3.869516220784973,3.039782367299521,2.6161451977672745,1.934023102502071,1.3963302792141197,1.0959733548295285,0.6191888264064198,0.3580971178987764,0.34322054597499707,-0.06897186085307051,0.011897038630032794
0.0,27.0,27.0,0.0,120.0,0.0,-0.42192072490514887,-0.06138108016346422,0.7056943375605897,-106.9628007071054,0.0,-45.104783785427585,-0.5178451003917853,-0.9147784835381745,-0.0019737921333755626,34.270624069470855,17.560637190127487,4.702424711275931,2.8386923722591573,2.6039392039122755,2.161563580071689,1.8386108598113524,1.0460941828206587,0.9627152260251687,0.9481437731590152,0.4750121420060035,0.40759475928074324,0.34428916595545356,0.2469733419852891,0.28616561644713634,0.09033601788021864,0.12384952701250139,7.2232203907654995,5.454603097010173,5.00397996614682,4.261866866525635,3.831832042785649,3.160558731647081,2.7414930318877997,1.876014005774773,1.440388731070295,1.0380407621533712,0.566567003187407,0.3501247631294959,0.08546761175606561,-0.0713002472535385,0.02237347410441478
0.0,28.0,28.0,0.0,120.0,0.0,0.29967039629597436,0.9261815763382728,-0.36101784283701677,-107.00532942813392,0.0,-44.93157772826481,0.6660486376943247,0.20683182210746653,-0.39783440863546815,34.270624069470855,17.560637190127487,4.919252600520875,3.2344290242062925,2.290403691582389,2.3292829541442917,2.0411360664960356,1.2001808973344814,1.2319565760689952,0.4963079010864919,0.6614672856153543,0.16687877761774383,0.3334952866861467,-0.254617999166168,0.3635658484004753,0.0721534585121478,0.15682993040194265,7.1524109361202095,5.348227251277546,4.710955136205554,4.411099957300974,3.6644527003735026,3.091919903889587,2.5837738752659667,2.0105392361869665,1.4921759059152817,1.0251866773794147,0.6764072419762454,0.32528939576911103,0.1491864400459339,0.3384410584082854,-0.03228462956566765
0.0,29.0,29.0,0.0,120.0,0.0,0.8478165766541184,-0.2950724039343562,0.1604985756088093,-106.93906118975478,0.0,-45.02621719790527,0.9256530208760814,0.24370366931022946,0.9523815027276012,34.270624069470855,17.560637190127487,4.664356347743165,2.8962109007458237,2.4570492814481155,2.1818494200946947,1.9570309311443452,1.1422723361656342,0.9535121300581715,0.6852841970071526,0.06611129599027293,0.18264983267929624,0.22750317614440468,0.04833678561555123,0.18196300519976263,-0.14812288908878515,0.2403033159910157,7.165048126513776,5.24809382185218,4.883023673598607,4.430913173913406,3.7961834558332654,3.2114591968990482,2.627186225139831,1.9885367921799328,1.4349587442075822,1.003604658315597,0.5319990842040176,0.45126776508757727,0.1291108749921837,0.15285674492825668,0.03187105801914207
0.0,30.0,30.0,0.0,120.0,0.0,0.46461157129320707,0.9724145744841997,-0.10256966461506623,-107.12665394165577,0.0,-44.86095149761587,0.06970551927591231,0.8854905098419945,-0.1571628781387695,34.270624069470855,17.560637190127487,4.8963164019973755,3.094622674825928,2.8978531558764002,2.237798974411365,1.5937654881857235,1.326819843453392,1.165795589631779,0.835256263614802,0.4285809947859193,0.010588556436013474,0.30913703359706524,-0.24466420496860192,-0.08738236345280342,0.18758809945107624,0.21793014269160452,7.019771045992509,5.362470172850134,4.937162236176959,4.511153799059607,3.7359648080888026,3.1444125920059873,2.5595198691727874,1.9707955248229239,1.4425459569446502,1.0047597134992168,0.5374291766791516,0.3369748584760551,0.011986218149748429,0.17554785607192952,-0.054366192829240746
0.0,31.0,31.0,0.0,120.0,0.0,0.5267494951247493,0.24585604778912096,-0.38908010712359875,-106.97975002737952,0.0,-44.909902339480084,-0.5702723583856819,-0.2633476890357149,0.1921706960037064,34.270624069470855,17.560637190127487,4.918278753038071,3.4866799578472896,2.42124565103153,2.288571816698187,1.6972132650129381,1.3475974854333388,0.9295854444072184,0.5448638678444709,0.5491978690597621,0.08176143917247208,0.16943810756417602,-0.10376678825364462,0.41765243147047487,-0.024949516932318686,0.17648420379215715,7.021905778057605,5.453898158710261,5.010001797289494,4.220819322282205,3.7632068833921397,3.2853967343995767,2.6327381265476797,2.047572842858748,1.521186564978631,1.1050281963763413,0.644125951423306,0.4299085523251978,0.11288983381791318,0.06504870358428486,-0.033991980404976516
0.0,32.0,32.0,0.0,120.0,0.0,-0.15760217448426372,0.08082277500138924,-0.32321551362096734,-107.09667666131274,0.0,-45.04556884070669,0.1778163146142165,0.4361515649662786,0.7705072224516638,34.270624069470855,17.560637190127487,4.588468441518669,3.2242255950621814,2.5942373693001293,2.5535059150307333,2.2334558556292645,1.655195987132226,1.2041303733578308,0.8263178189368509,0.5662590832084826,0.05584175677363262,-0.18114869589860993,0.030570775017054637,-0.01881553438114789,0.41765368416619325,-0.17146064388890955,7.394292688327803,5.375987507584,4.9308567910733325,4.218668155520438,3.980198539502182,3.181032491309468,2.4558403340783745,2.194728608065042,1.3337338970825436,1.1318567229406953,0.5850632805814064,0.42313033432939423,0.26246808325148085,0.08120179100915564,0.1319941905889516
0.0,33.0,33.0,0.0,120.0,0.0,-0.514659406341271,0.6866353381625288,-0.4204769862320188,-107.03772509962873,0.0,-45.07244576572545,-0.9243156917946018,-0.9803624811001521,0.21897240508795468,34.270624069470855,17.560637190127487,4.7279316867360235,3.1364783019036753,2.50347998541374,1.9620494200176772,1.464075656645514,1.534364424123547,0.9603997211542507,0.8544729456495508,0.7877806701411043,0.46129716490670725,-0.05118484732841341,-0.01632582716525581,-0.06612741439656229,0.2059722717361779,0.14912422024082603,7.012832873733511,5.6922328035780305,4.90653197969808,4.323970109522358,3.904134847788919,3.08260415879616,2.7189758080284006,2.2815742728880823,1.6759702926648756,1.052696154029898,0.792681232247973,0.5127538633017819,0.23148431892809598,0.17524229060065846,-0.0004004743312058037
0.0,34.0,34.0,0.0,120.0,0.0,-0.4639972984566034,0.11812855517394283,-0.6261882042626143,-106.92041781357183,0.0,-44.99719539276174,0.14128707977909197,-0.7318474197175073,0.2701567655275616,34.270624069470855,17.560637190127487,4.753561830743575,3.3592602424720677,2.599661522976601,2.514709854896983,1.7288015078850645,1.534858317213934,0.9554932682872388,0.8513540204942198,0.3972516174483923,0.29533566796088057,0.053820400643131455,0.1255907670922241,-0.09352677391429097,0.2984961563522052,-0.23339183531933586,7.096247432242728,5.478675673676649,4.999924227471328,4.451478646534844,3.9081245240746525,3.2819928853573104,2.510705808276906,2.2078981677816296,1.521889988720213,1.0273163292227074,0.7066104505495296,0.531791710583901,0.12569903561452625,0.10220437122661577,0.06438944932990055
0.0,35.0,35.0,0.0,120.0,0.0,-0.4061555609155547,-0.9471175941706087,0.9029884654515568,-107.0323177364717,0.0,-44.98973738796387,-0.3126354300022413,0.5169183189343058,-0.1074468400430868,34.270624069470855,17.560637190127487,4.510724188057873,3.0827299525494265,2.7932956846825077,2.253767671570654,2.151310443676681,1.22495913556414,1.0418072758041785,0.8142522739026008,0.33256757863954944,0.23459917328158583,0.13465548313493791,-0.006230947644778939,0.23488353496565878,-0.06269118912991507,0.04734116406130589,7.054121754119378,5.368711922370095,4.722439291652334,4.4994263410366395,3.86915714421935,3.320892837127345,2.629316635785026,2.1728665446814874,1.4786393045352093,1.189839478149179,0.5460200074360464,0.4401866326062117,0.12258751281105668,0.009204241679780872,0.05748813410518967
0.0,36.0,36.0,0.0,120.0,0.0,0.5245370419094717,0.20177778874718544,-0.31773448716967456,-106.91321071804161,0.0,-45.02575173428251,0.1479455340228919,0.651667573566163,-0.8478042647060158,34.270624069470855,17.560637190127487,4.443268917302462,3.508174289332155,3.063013648906362,2.471645526655824,1.8088780920534384,1.6212662447130157,0.6261605103281305,0.6700605211706736,0.5037516102203241,0.35272783941319424,0.1930314350054952,0.04419596519029183,-0.153582212153128,0.16047205754166918,0.12095697937862772,7.040848001624959,5.618815757274685,5.0924232735647745,4.547677798638048,3.9996038225376958,3.17470868672235,2.5657406489100336,2.000109571376837,1.6950381430710872,1.1920181403251031,0.5854216405400078,0.5466582437385694,0.07395782045949983,0.05510743747758338,-0.029756482209526057
0.0,37.0,37.0,0.0,120.0,0.0,-0.17365559744162828,-0.7072844787994426,0.9430215513944775,-106.87419461738307,0.0,-45.06750516225,0.5098648807659265,0.6641363701353866,-0.403918820834104,34.270624069470855,17.560637190127487,4.555094823829314,3.642400255312599,2.6315069423714585,2.5123165534766216,1.8940211834771152,1.313494948881881,0.9696735825349191,0.6566825245511247,0.5518610157227168,0.4394090419915955,0.1411035594975169,0.21008431845534292,0.06211233174004359,0.0792865303748566,-0.17549524808404088,7.346825702528138,5.8123930054661175,4.9404237816380325,4.448327475444651,3.9481712187952622,3.320464127772381,2.7134639430868184,2.038198171181482,1.6502864728323832,1.0695146631221455,0.631827754260682,0.4180911082862295,0.11604576073263322,-0.010539103228446187,-0.01563317387226386
0.0,38.0,38.0,0.0,120.0,0.0,0.12034927158063535,-0.7374985970543424,0.23320358781399242,-106.95724180809155,0.0,-44.99811038606602,-0.5416141752696676,0.5829551501562651,-0.052267280444948216,34.270624069470855,17.560637190127487,4.832328626311618,3.186025793156425,2.8384603314332915,2.2542443196737865,1.9088573484794116,1.5583328512489039,0.9032711860834421,0.9608565311700553,0.5853817191241417,0.5325817215934144,0.27496693033344133,0.2228796459263439,0.12887064762168482,0.009213568836455466,-0.010325971935571046,7.071933076021993,5.597709460739817,5.168417816954426,4.491046366899567,3.9155996896577783,3.2172128936770923,2.826575460265837,2.065231601771066,1.4788896814027033,1.2316443308106828,0.7603564932713012,0.5203569571592657,0.1743715098129315,0.13333592592228224,0.06451033950351112
0.0,39.0,39.0,0.0,120.0,0.0,0.7846222678608394,0.2935442018342309,-0.5826854651537958,-106.9647329034831,0.0,-45.01236997545185,0.8713026196009466,0.5374859662849216,-0.13366925712711386,34.270624069470855,17.560637190127487,4.583458484450079,3.5044122934093678,2.8580328923482776,2.2384464034717286,1.9731215005285372,1.4269599303078662,1.0191143570380277,0.8445938471726834,0.4162899583047609,0.47253870856227853,0.13175233084576157,0.20078298960045693,0.28604836454962285,0.1326744029453538,-0.06557760280420817,7.2243650218783175,5.643867501672086,5.0107311398912415,4.337754072605491,3.9648084207205936,3.5388255340649364,2.829727737846119,2.2258280607084626,1.408210218227559,0.9667641488375853,0.6683100370446697,0.3506206451999848,0.15081173232252554,0.06845361081894627,0.1103387629590769
0.0,40.0,40.0,0.0,120.0,0.0,-0.4283699242374994,-0.6784400091256964,-0.8599477643580145,-107.10673928741724,0.0,-44.98488764730109,-0.3370796101751788,-0.925525800398779,0.4745033284823048,34.270624069470855,17.560637190127487,4.896985217474112,3.4656318409756413,2.43053954042891,2.5159861945510946,1.9709239463659243,1.6210211337299647,0.9696358753593305,0.8231044489837226,0.37461372228706585,-0.11694106407718702,0.2605457175022772,-0.06751117555834321,0.03953212697454113,0.16789017456705527,0.0613343698573748,7.300758031286084,5.651745453096873,4.775945177035707,4.710851896683403,3.836642609873996,3.221303903187139,2.7584366010917964,2.1394553914380867,1.5282990536690313,0.9677744970039092,0.8840348818799287,0.4337760136391423,0.13811163258608727,0.022300968961516884,0.13511924212277152
0.0,41.0,41.0,0.0,120.0,0.0,0.9184517990385221,-0.6745078062450403,0.4008218987842316,-107.00762928286038,0.0,-45.02635807510069,0.225317674342218,-0.7100406752663939,-0.24805556423167419,34.270624069470855,17.560637190127487,4.809972910762552,3.434763478602992,2.7836104630570575,2.5968443009148405,1.928982210958002,1.8359242527831956,1.145651655765262,1.048113313450699,0.48470594201251116,0.210511570037577,-0.12362806182307354,-0.006979825493299133,-0.13808298619083198,0.020431775518165572,0.08520173746845,7.169269316564487,5.708249835820725,5.1666689155189225,4.485806329782289,3.7089820724166778,3.0346825028919704,2.7631446822607435,2.1975228908002244,1.6740376244984037,1.3182934774056345,0.7841715033520187,0.5152774709249528,0.20662674396969088,0.13214994640802674,-0.02106079074331218
0.0,42.0,42.0,0.0,120.0,0.0,0.9283320226168019,0.12712771643236054,0.4495179347754059,-106.94985910331941,0.0,-44.819953947925384,0.1847724707861494,-0.19455457454612968,0.6737812934560601,34.270624069470855,17.560637190127487,4.941541796428138,3.3447499287561797,3.266922172246294,2.904989904959023,2.265733662640544,1.675311546319691,1.0307471029654915,0.4574187972955708,0.746289889762699,0.06738542104430284,0.1007974596375387,0.07165011225490536,0.010880296024959941,0.14109340078104401,0.01605861046291007,7.222537900136475,5.668313262786165,5.188655637001289,4.671765142325563,4.0962639897615745,3.3658235896797186,2.6221152102640186,2.1447221972459314,1.5737152937151837,1.0887881459854603,0.916723036666079,0.4254998599484453,0.11608533881543659,0.08822379184662005,0.04101417913900007
0.0,43.0,43.0,0.0,120.0,0.0,-0.13623420415895549,-0.524535796843588,-0.20822003671994804,-106.81623610963288,0.0,-45.018227092429896,-0.48455193140155645,0.38556686779548266,-0.3222668832407045,34.270624069470855,17.560637190127487,4.717635816024847,3.2839695468838674,2.710434099060976,2.1277220370456584,1.8983333359133652,1.4817529863799253,1.197187717828937,0.6383127226124927,0.4968873819219497,0.3878993011578023,0.10976527073930033,-0.018463725700055417,-0.02319050306020974,-0.05695038553338104,-0.1866427596875927,7.412684652308509,5.818935319926671,5.016788849665817,4.827108331251559,4.124415255819258,3.460984506401672,2.7106071419115554,2.08230706530121,1.698357837222892,1.2107197821626257,0.8228364000183448,0.6407570151159141,0.13854868105621498,0.053595460934914525,0.08151894379638455
0.0,44.0,44.0,0.0,120.0,0.0,-0.8091345951055182,-0.8749469072648297,0.19627450976090488,-107.03400005870932,0.0,-45.00699686642784,-0.8072970249046924,0.6923287274231134,0.6641448506956602,34.270624069470855,17.560637190127487,4.849069513683582,3.4405986539766378,3.1656151878357854,2.533148600509559,1.980627053865865,1.4275444412188647,1.2171945832371027,0.8880561133994327,0.40136006137348446,0.18893940135199733,-0.03988719929655618,0.20738232993581174,0.2401296820884897,-0.09585104910862395,-0.1420951960561026,7.26231833434555,5.641630165863412,5.16280529261403,4.733735789362801,4.048592903424086,3.5270103857202857,2.735246249173469,2.0825079999966967,1.7855518073423522,1.1756190136215923,0.7797074333413455,0.4858980811884903,0.22328540342832778,0.011689788956178657,0.04541936622210743
0.0,45.0,45.0,0.0,120.0,0.0,0.009246897441044233,0.8192658225651421,0.7188716650590301,-106.96599778496001,0.0,-44.90947820497922,0.3543557511832528,0.4259230497432085,0.1963237448327979,34.270624069470855,17.560637190127487,4.806167326144272,3.4868057125700074,2.9354955083592067,2.589561021841386,1.953941139696208,1.2630137832151642,1.3342507496033762,0.9948835156555649,0.6703914026967089,0.11949534722533853,0.34312601743903226,0.1824387343082035,0.2592153849128599,0.10994586235269196,-0.10026806944961146,7.153057602408047,5.72322793129049,5.511574095730183,4.721776812603686,4.050868117205449,3.4614517718093536,2.707051171826153,2.29067943331088,1.6854586880142692,1.1334787105801047,0.9086367475623307,0.4621676030843409,0.2900041833570767,0.16372617476007145,0.022579083192320853
0.0,46.0,46.0,0.0,120.0,0.0,-0.13321530843844798,0.09689170149549753,0.7754398508997966,-107.01892656884431,0.0,-44.918251641288734,0.8925132631422035,-0.7338488220921333,0.6842499928813524,34.270624069470855,17.560637190127487,5.088133996837478,3.5079378653185787,2.716725225850098,2.565589207207025,1.9383014517052317,1.3571708484312535,1.3249978756091423,0.618905503020134,0.6353184087002893,0.24351965402871212,0.17316589811731772,0.18620030861549786,0.2988674278051348,0.010365419765815823,-0.12286015210654708,7.245646418921688,6.001175737425574,5.579368116292534,4.522432572225688,4.01192526772621,3.449235329842598,2.5953620984595807,1.914888465035112,1.5931113658898108,1.1054750052008466,0.894057499581804,0.4034688139904781,0.19238382406116614,0.08610726865303067,0.17209143983770725
0.0,47.0,47.0,0.0,120.0,0.0,-0.1275895204470776,-0.38974123520972515,-0.5502769402021637,-107.00772794590027,0.0,-44.80365647208663,-0.2454736987678408,0.9813437874921835,0.8187174948853964,34.270624069470855,17.560637190127487,5.032819833790739,3.716375786873818,3.1944545956295394,2.5906207130923384,2.0045429026807513,1.3172296973918636,1.1486897395203501,0.6908351304905685,0.513070579343716,0.5792601404876474,-0.07597358587869618,0.0289859723686708,0.25423397361260225,0.038125032028530945,-0.30453387648417835,7.325377834986885,5.832259567979951,5.317443128757535,4.523589142853739,4.1321349215267205,3.5364235117106215,2.8212614380135754,2.261786717084358,1.5367241604914346,1.223223216017305,0.725115298074887,0.45767647304530246,0.32206026498351625,0.10723275637673345,-0.021919042843230686
0.0,48.0,48.0,0.0,120.0,0.0,-0.8098783215776961,-0.9521014483741594,-0.5269386114920096,-106.93305587980797,0.0,-44.87505729183607,0.09391382527661078,-0.599762323914039,0.9051885565223503,34.270624069470855,17.560637190127487,5.003506306209231,3.123593138252131,3.2502573891153492,2.571355729371362,1.9468431864676372,1.6305965210841462,1.3648777228056137,0.9131165406580477,0.460394136174317,0.24771133010884297,0.11639183536500712,0.18097066850303012,-0.127616042864357,0.007565760538926105,-0.14783893800156858,7.4765896111312395,5.84526963625931,5.26088646061902,4.716037904361765,4.025266258221296,3.4454320313653923,2.908875278751462,2.1911970240345133,1.6322657658397457,1.0635185475901265,0.8543235892834926,0.5520994382490313,0.13277858467504836,0.13104115540392766,0.1252085394881743
0.0,49.0,49.0,0.0,120.0,0.0,0.5612116258612629,0.660900147527917,0.19619390329223574,-106.98930275116541,0.0,-44.91458244905215,-0.5932896024546696,0.3377570826045935,0.5614588814844499,34.270624069470855,17.560637190127487,4.519610642057402,3.651434617488067,3.453236430519496,2.5674480119610603,2.2623067151456238,1.6626822944396649,1.1629078542591238,0.8374394785812151,0.42374570752665086,0.5907137928811013,0.3361226914001605,0.19068756663624517,-0.11682205038499603,0.06053656586366815,-0.24042917279983214,7.358121199031024,5.761848035350121,5.0950765816339665,4.706383507096972,4.327014136253553,3.366134889709719,2.798645120681525,2.1263373086505535,1.6440857581747095,1.2707179551124508,0.6688351499653017,0.6633194700646873,0.19640553160135518,0.08863549596400103,0.04052727414809791
0.0,50.0,50.0,0.0,120.0,0.0,0.5061101197885483,0.7582457791727988,0.43589776750268805,-107.07298139427175,0.0,-45.025561768022285,0.06630048840014191,-0.8852832498513088,0.5499455954245862,34.270624069470855,17.560637190127487,4.826431302691803,3.516793898153821,3.172807663955791,2.2998164627805897,1.9028819008589006,1.6726550891871084,1.458737548105427,0.5646989948903017,1.0029792566894864,0.5298329483305346,0.23678292207213597,0.18011980789496626,0.014774863125840799,-0.3101782442451142,-0.04631985240141697,7.244516166895384,5.967308913563025,5.416398988742328,4.801975700721475,4.176004884506132,3.5490654605224505,2.8132903251905916,2.102289654445428,1.8461006007396332,1.243230007919949,0.9189358102161014,0.4266519484200155,0.3381735316614367,0.18883653803047434,0.065142683717537
0.0,51.0,51.0,0.0,120.0,0.0,-0.24266589601108102,0.25551801020919873,-0.607013913878607,-107.09967864887125,0.0,-45.12143903352633,-0.42905343891573255,-0.13567889006900202,-0.7955395727217169,34.270624069470855,17.560637190127487,5.448549980061679,3.557330584144705,3.0518525735072113,2.4786315826779846,2.2074442639377914,1.5531421387321964,1.539259029210426,0.9739267271727035,0.46192445122785464,0.258677339647528,0.29448563518696796,0.06622000234678609,0.05787930646010275,-0.1631087230335591,0.14973917624696884,7.221006535041373,5.619712027096879,5.498849384027133,4.792852275630749,4.3281329643073665,3.5913079223433906,2.7847127996822074,2.087510756973961,1.7648698076824774,1.230104164715049,0.7736561804335843,0.5315936374644787,0.4228332497899252,0.04888184129687387,-0.03961994458045748
0.0,52.0,52.0,0.0,120.0,0.0,-0.9084945246971659,-0.263771845842121,-0.9980871193763037,-106.92813357149751,0.0,-44.9913544421475,0.9623430790966538,0.46101438740928025,0.42487105477453024,34.270624069470855,17.560637190127487,5.171201159220779,3.631869341924643,3.3701031524438325,2.694761028165453,2.2748098068176748,1.5288641061353785,1.1933443693997263,0.8003971892789981,0.4826207212395136,0.43593432655364794,0.4209156984091242,0.07909067865397551,0.04328051390610668,0.4340440000516977,0.05955115717629644,7.509728269763584,6.00133417430738,5.392707422599467,4.979855126831868,4.191091004405745,3.4517921713314954,2.8804336993241,2.096994693207322,1.6380256948840646,1.1785150364461854,0.8519269054749237,0.3601852573712512,0.3078134434676184,0.1132447331485531,0.006196156112128232
0.0,53.0,53.0,0.0,120.0,0.0,-0.058519948041549696,0.0842389819760554,-0.5604706897636014,-106.89328497594087,0.0,-45.017225552037274,-0.7825570809221024,-0.819347392169991,0.2497080796899258,34.270624069470855,17.560637190127487,5.120786208634718,3.8697923365706846,3.3476887638892867,2.344942152039123,2.089332401054571,1.8475291562366847,1.27150562092606,1.0222327953649528,0.4588429317783489,0.3458224107601776,0.3389940736484266,0.1294289811616563,0.13130331797407568,0.08801391219448744,-0.3131131971533393,7.380264282811192,6.044576185900367,5.5454804672401306,4.881886022862601,4.224052168457689,3.6036353985063414,2.7793987970881715,2.269286151814466,1.595321230319652,1.2379988380489708,1.0194214687554477,0.41589091808363965,0.27402289157392606,-0.003233811542681736,0.008712808075412345
0.0,54.0,54.0,0.0,120.0,0.0,-0.982323726836547,-0.7242788310228803,0.8994158462849207,-107.11223452273728,0.0,-45.020639969607956,-0.27851484004841287,0.8636862564818237,-0.09568654886825634,34.270624069470855,17.560637190127487,5.270851004345085,3.8968378310330785,3.510490206412827,2.7798727132033405,2.2688673480194326,1.5303442628013084,1.187821529372866,0.7312418197873648,0.3423868320296575,0.38291109241813526,0.17771878922162626,0.11060159651287946,-0.07506840608624132,0.032155487427569414,-0.24188371448465099,7.526656195888242,5.85458771267636,5.444868130151457,4.9604263226506315,4.253175617573366,3.3823333951862953,2.814750953402642,2.070725261693677,1.6890995662420074,0.9790818359129589,0.7753240139868519,0.6388965668580415,0.21348174192113273,0.15112028650150383,-0.026996422984019254
0.0,55.0,55.0,0.0,120.0,0.0,-0.5662616578766562,0.04537381116832706,-0.11620829823321888,-107.01968556201336,0.0,-44.97645259844097,-0.47352699488523053,-0.38207425572454334,0.11320184736137251,34.270624069470855,17.560637190127487,4.956733417283128,3.542703007668181,3.6162035176434264,2.977926214811542,2.3204372455361018,1.6577480494897954,0.8660843896597834,0.6904540349664136,0.9015052028059282,0.23096598062538487,0.37043466213827125,-0.03185673220621564,0.2220758224043431,0.0953629773069352,0.211284244071594,7.373059426092172,6.286447844594774,5.5052775903397455,5.124363231386615,4.400371046379293,3.5486245474954017,2.83219487363212,2.1317495952338246,1.757588807206163,1.215223824236231,0.9894511700114814,0.5363300183562083,0.37767015320304265,-0.017216348793968134,0.10319812115276855
0.0,56.0,56.0,0.0,120.0,0.0,0.4572472887320205,-0.7712637144790755,0.8604388218294738,-106.99019787939602,0.0,-45.00910183978442,-0.23603905848316947,-0.5652922969248095,0.5361043343266978,34.270624069470855,17.560637190127487,5.030392890645676,4.017908539826097,3.380021860203539,2.713408676366534,2.300619452148562,1.473181182070675,1.1508780187038605,0.8722961321885934,0.4689030447983986,0.6920923348144408,0.4611049955115427,0.33973240581988484,0.07253947904170029,0.4087440077347179,0.18870651741214273,7.511427541267705,6.095975206009727,5.525818221721409,4.9306954502692495,4.288998518503913,3.542201387055658,3.038491379297789,2.179236048324804,1.6522329475631685,1.1961094096203087,0.861432436158473,0.5753929825384907,0.30450030727275934,0.11994962483132625,0.15702459404086058
0.0,57.0,57.0,0.0,120.0,0.0,0.029109763335150696,-0.9932661215569096,0.9067471636281865,-107.01946809315864,0.0,-45.004604619877156,0.028405939190532154,-0.8163317449565259,-0.2736753731651447,34.270624069470855,17.560637190127487,4.930244566111783,3.8296489117596133,2.972406719487136,2.908276913448841,2.207635585222166,1.7142458127370446,1.229590768854462,0.8161293886686463,0.6994461907195084,0.6414497669730048,0.1562759574027938,0.01821508995298443,0.13081609230053154,0.1937114357767876,-0.16919775165979975,7.4057374764458395,6.406307778918697,5.58583016729009,5.012142887981325,4.116614591358964,3.637984804509113,2.9614749643001357,2.3287008984690196,1.6603176929793861,1.0272119569347105,0.9092178519720903,0.4421377875498903,0.30888228798155765,0.12736144813625067,0.1612179146473622
0.0,58.0,58.0,0.0,120.0,0.0,0.839239202401318,0.14692940139837596,0.26466918127389083,-106.99867717608078,0.0,-45.01645415972861,-0.1925089220475721,0.21872699616494118,0.5580159500859225,34.270624069470855,17.560637190127487,5.078069708728511,4.00766221251344,3.2114928436881773,2.819053562758921,2.169596431839371,1.6411862927458112,1.175697987222319,0.9465096956351897,0.7493274912727458,0.41469665056370864,0.09835444989243447,0.23326804290201084,0.45670536012535,0.15660174964892254,-0.012145379147754178,7.453112666051681,6.297629043264665,5.6913882001167675,4.980246633380219,4.3409493663666945,3.648831917998802,3.0150650942080657,2.226256473004432,1.632965566614258,1.2234752611046542,0.7781100524949658,0.5733738236431286,0.4578343886529215,0.19657818222882484,0.25515878482860443
0.0,59.0,59.0,0.0,120.0,0.0,-0.6301769308839322,-0.08094950693863656,-0.87639619255787,-106.98818650019606,0.0,-45.06403908252133,0.27124411769127477,-0.7637252477531755,-0.7592065146014433,34.270624069470855,17.560637190127487,5.127427097972969,3.6761479087531974,3.2215098599500704,2.77758828191163,2.092865161246414,1.591623770836946,1.5539794877343154,0.7955119253005757,0.7989596684500826,0.24320697910788325,0.3919618710774794,0.13671591522708554,0.19823243363204118,0.07100987517252244,0.2445790160303879,7.623609495672239,5.981002685643681,5.54711262360685,4.9565705298578955,4.421215377584863,3.634272867522193,2.9628629197462115,2.154966201224973,1.8012961758115626,1.1879711158330823,0.9098492202805032,0.5576156084223753,0.22293310302509034,0.06983266163743541,-0.0740270163722807
0.0,60.0,60.0,0.0,120.0,0.0,0.00913621416058108,-0.5598647509976811,-0.727714061212049,-106.94027941654551,0.0,-45.00623448177289,0.645679588067815,0.7088920325931405,0.7997462971897054,34.270624069470855,17.560637190127487,4.997414068934292,3.9162397095469594,3.3038916669266487,2.883607186805961,2.3748877764028147,1.7361938952303606,1.5945279710752853,1.1286414336789876,0.7542241199394667,-0.10984106972605512,-0.05067656536333548,0.5845913479541673,0.32327764693190025,0.042461500677519665,0.05405945281205225,7.428392623764136,6.040307028862541,5.57254444593622,5.176528726050889,4.195172531627464,3.7761867952421126,3.0265657568069746,2.2379497710393754,1.64058183282155,1.1315278844775414,0.7066282566641918,0.45532518684074585,0.38045917902048,0.14450369165039303,0.010907195615495774
0.0,61.0,61.0,0.0,120.0,0.0,0.7204281645562303,0.8048575597776968,-0.26067489454952897,-107.01715648980988,0.0,-44.91158211568769,-0.6149024228665018,0.44301998690685074,-0.5180536506931455,34.270624069470855,17.560637190127487,5.146157415262569,4.159452817521893,3.058572146497718,3.0007672010251687,2.5619481806501905,2.094626025372638,1.517175134648803,0.986219634320355,0.5342047684345589,0.32246007142461575,0.3574577927952971,0.07382255506266905,-0.07167320048560558,0.17252814664061591,0.19402961993933884,7.402066589020654,6.211635986713881,5.68685036501414,5.103439453625094,4.491145308495032,3.7718794458194327,2.86711960787111,2.2618291135826283,1.7964304079466262,1.0469005658570558,0.7833949889261255,0.6318824456331279,0.39051230757372773,0.17144158725945735,-0.019396545039049737
0.0,62.0,62.0,0.0,120.0,0.0,0.8761866175523274,-0.04451918493440865,0.5279309730616473,-106.82710979675966,0.0,-44.9782859315054,-0.8886467550434132,-0.8364281114826311,0.06455841089676362,34.270624069470855,17.560637190127487,5.297813711458375,4.0841718588486415,3.1945415256495067,2.6753924243254983,1.9915242309806391,1.806501006220157,1.5157401273633617,0.8965053388362818,0.8442484904730172,0.3676901353813387,0.26622719399107536,0.052755848427406396,0.0638326445083188,0.06600745278157906,0.03737660394657973,7.5577676838079775,6.3864598025529515,5.8865247260352636,5.057877861819434,4.375898088460753,3.842089891647003,3.060888735416258,2.357860514488079,1.7793154831653961,1.0567323852210104,0.9607726526937983,0.602104320378843,0.24345097626817777,0.0658649484619918,0.02614251051555598
0.0,63.0,63.0,0.0,120.0,0.0,-0.8642747437026748,0.3680679818445636,-0.09335815993855445,-106.9740800357842,0.0,-45.01941078489813,1.0502922316162764,0.993643594571147,-0.1673491020247071,34.270624069470855,17.560637190127487,5.16566336851728,3.913521802047211,3.4327537986891445,2.9478655378819982,2.2122469300028653,1.9601234195545933,1.2470495144713425,0.5222837819462993,0.7518233412597195,0.0743892048374043,0.1598279740270909,0.031217184932147174,0.205823318363334,0.3732839473440645,-0.02631927649055565,7.528095822342307,6.355552710853126,5.559623110572046,5.223706460923521,4.473113719544447,3.7358033703439433,2.769476948337529,2.2556650786143133,1.6858114924624745,1.294229969083403,0.8775561480676769,0.531682183281703,0.3812872958597922,0.1682927273421562,0.10695212023387093
0.0,64.0,64.0,0.0,120.0,0.0,0.6644643057833419,-0.9388514416939064,-0.9048734565432808,-107.0252154398979,0.0,-45.04364765919638,-0.21537856255207782,0.8592053715865446,-0.8440380960518328,34.270624069470855,17.560637190127487,5.421433635189417,4.121942470158532,3.5796487469102076,2.7958279819994454,2.2830525293574198,1.8735806060592461,1.2682658120894146,1.0925108131720744,0.5687681353244333,0.44559986998207607,0.2175426751803957,0.04442597955660478,0.00881193455802979,0.08158033870814273,0.10472690711964523,7.476632937971855,6.430723700535865,5.864055316619163,5.0759425737136326,4.50928333772377,3.8621361704157198,3.0757284667892315,2.357972769347667,1.774258119424924,1.201560369412645,0.7808466043915707,0.4288148329801896,0.5258683380462376,0.1149636133304163,-0.011980569604017194
0.0,65.0,65.0,0.0,120.0,0.0,0.25106680275803384,-0.4016491385522112,0.05036367970135491,-106.97678989037084,0.0,-44.98934766925818,0.2151954303741027,0.9905430802087671,0.6570891372854606,34.270624069470855,17.560637190127487,5.582917442523515,4.191179147298677,3.277739091400891,3.0075621129657595,2.574203544460763,1.9912017660143315,1.266951466921894,0.9435001376613411,0.8557684020682514,0.3078727529386813,0.2712876649489896,-0.017135535924727108,0.1220236786540182,-0.07789259514454161,0.5449613219571011,7.617771644199151,6.433971931631738,5.903915962499222,5.031105014418899,4.263152888115632,3.9747270705343856,3.065034309454416,2.3416559383617734,1.682939590907473,1.1625891828422663,0.8267296248023501,0.5540664235730471,0.3019774777861479,0.2298026530141378,0.056149576686172674
0.0,66.0,66.0,0.0,120.0,0.0,-0.3755638323378392,-0.8392713086121368,-0.9744893397438532,-106.97692717205688,0.0,-44.963190030675904,-0.6651113507241772,-0.7716202347372949,-0.740216241307738,34.270624069470855,17.560637190127487,5.291113036368172,4.167670644970297,3.5834812972589316,3.289983049639445,2.446906153088131,1.8677744494530983,1.039628481567424,0.9189554959817059,0.38871361852050906,0.06442388658910181,0.02359253215882659,-0.03885218870460047,0.22937869181641335,0.09981230122520225,-0.0244613971072332,7.715591910647914,6.577484681302463,5.764133383195581,5.3391914355631505,4.510310101923444,3.8174855341337537,3.0200144723152396,2.5121934133070374,1.763579775845611,1.332982490903612,0.6499890088410565,0.5351956370750786,0.34435422932536824,0.18234388958012762,0.17382529675590191
0.0,67.0,67.0,0.0,120.0,0.0,-0.9324107042217873,-0.40116472881473975,0.8295741834358603,-107.05102755679893,0.0,-44.980962635656056,0.5200203657645518,-0.5642052226075704,0.021543068995090175,34.270624069470855,17.560637190127487,5.597159067916221,4.149746517949142,3.282858387221971,2.7134092629644515,2.1712234793582676,1.6614610582742553,1.3459037155707414,0.7197614579341467,1.2194018021110054,0.4717955344034261,0.3121739437292132,0.22834941925280805,-0.1037177144843246,0.053135507223361265,0.25062133448529134,7.416830949623249,6.575071472027431,5.862590630678307,5.241328312333545,4.556344896682056,3.7720677169130443,3.1405511087951856,2.442307841534923,1.6405841214566523,1.412532548790438,0.8142929385521298,0.5781443594548575,0.23219778469910213,0.09525543157040327,0.15817594707952742
0.0,68.0,68.0,0.0,120.0,0.0,0.1682184666984048,0.1543599772041071,0.3496796127914936,-107.00262494688991,0.0,-45.05626681523161,-0.04638033423361956,-0.00018222446946336568,-0.6254426362860788,34.270624069470855,17.560637190127487,5.510673896151821,4.220129426902291,3.397338443361921,3.0945401710054936,2.5124054963914073,1.8435151754767602,1.4690356221922651,0.840651114694009,0.828341968872862,0.06868729571489729,0.19902861130627006,0.09095060518866988,0.16089705828789008,-0.037081100654394863,0.20701600509763973,7.744412123845606,6.606360928865166,6.023139822017166,5.311419862497328,4.483791308022425,3.8190561569760644,2.983875535572258,2.2401110666161577,1.8256357942172892,1.2235019700854486,0.7783128106122591,0.4721334465826538,0.22510127844810537,0.22419588829220666,0.05517479681891123
0.0,69.0,69.0,0.0,120.0,0.0,-0.8444439393529715,0.013361038622838661,0.8761316625408895,-106.9468684719709,0.0,-45.06710908507827,0.40641131722074053,0.15759823121918548,0.9391239259864579,34.270624069470855,17.560637190127487,5.384814662440499,4.251371054855915,3.665269363521174,3.027216568091685,2.7697921055424253,1.7078396865991932,1.4349903179559815,0.9771441192570076,0.44100760621962265,0.3517949979496606,0.3858491928618473,-0.20924883814089912,0.2009337401017445,0.22955838447753912,-0.2988131358012318,7.835235069565052,6.67193826187512,5.848395843612665,5.466525243983782,4.799589213434768,3.9910512047404967,3.1244876647230377,2.350060527673719,1.7769094936654564,1.2438362386451272,0.8695823190325368,0.5043860522556823,0.3778447461793925,0.24081606906711533,0.12268295919226868
0.0,70.0,70.0,0.0,120.0,0.0,0.3137700586528782,0.8618815871477661,0.11336859302352686,-106.97390837123416,0.0,-44.938898277267256,0.21868652649271966,-0.6289589913370988,0.2901960060513693,34.270624069470855,17.560637190127487,5.484447294195807,4.191892862347344,3.760403166568982,2.886904910992147,2.4391282881803233,1.930720347410399,1.3415637285748327,0.7532615101953004,0.5759998812207137,0.3417768151821222,-0.04135279316022558,-0.028951230874750114,-0.04580384357234972,-0.17206148086535789,-0.17155205737237028,7.874375269540191,6.461341676733454,5.8523434872316304,5.235936623832111,4.857666906115651,3.9183993729472193,3.1643888397972084,2.2814237560973254,1.6267588326371896,1.1424295072262851,0.9662153329482471,0.572262877644756,0.3280098659336353,0.3212561925842405,0.06442741812191856
0.0,71.0,71.0,0.0,120.0,0.0,0.7650513774736829,0.8221843391134382,-0.23086649706835005,-107.0291350416134,0.0,-45.051351837865994,0.6780773459854288,0.9016805984879428,-0.48552474132710843,34.270624069470855,17.560637190127487,5.97337290053968,4.31656082219533,3.7766980628156284,3.207025983071488,2.7001599804303225,2.0429477576333044,1.3670129448831057,1.2092465028989072,0.6400622353735161,0.22906645950279225,0.280270936754043,-0.008050905418520368,0.38148824944368487,-0.18514642254704844,0.13354925102504855,7.972326931510555,6.4082617005707645,6.092844339988046,5.338050804041793,4.701753038454494,3.7547990183864948,3.2094766317608654,2.5562951793208204,1.7618740163473574,1.2299451902602563,0.8599253446213261,0.7019695369520286,0.19106782178246273,0.2913690775866234,-0.08209990346920493
0.0,72.0,72.0,0.0,120.0,0.0,0.9916102668893865,-0.6231982969944274,0.592422410400177,-106.95558811317281,0.0,-45.087872608442,-0.8158638315395237,0.9480626366461071,0.6384919753450151,34.270624069470855,17.560637190127487,5.486963491407805,4.660780478707185,3.985880054723359,3.539018739355135,2.6030019225407517,2.0037075601295493,1.3629518324044096,0.6758787677837357,0.5494120380597567,0.5026841095971712,0.20826656890804746,0.14787237004479142,-0.06882880541036254,-0.13911935185021504,0.25020244255930935,8.081851677438395,6.541718658013475,6.026171457670082,5.272923295670714,4.78916456413118,4.1178817160901895,3.1563106843809554,2.342098781393351,1.8599163160925218,1.4673230145716676,0.8195477821955572,0.6467670460662629,0.35468296192124454,0.14789433632009757,0.06518563481427042
0.0,73.0,73.0,0.0,120.0,0.0,-0.7881358072834179,-0.163578167910587,-0.1392077711089892,-107.00799403411116,0.0,-45.053651538505136,0.16847034546796572,-0.6182507002445747,-0.933730573240289,34.270624069470855,17.560637190127487,5.709713230860401,4.303730901882265,3.5141891214610212,3.142899835298984,2.2056111415026227,1.713019038893893,1.2902293689676205,1.0986270525448116,0.4455996466709156,0.7684445825867967,-0.1075168268536239,-0.06948019599329912,-0.20498174348772982,0.1933807996812063,-0.5521300309307551,7.923555915777557,6.616839024770717,6.2820746917694565,5.456438579515674,4.664495966902963,4.005964656235971,3.0351210807599642,2.395333322191293,1.6939504892104935,1.1064583046314276,1.0376512229333108,0.5813693924094311,0.3861645541844437,0.20247766381868226,0.11826374713912265
