Line_number,Fiducial,Easting,Northing,Height,Elevation,tx_pitch,tx_roll,tx_yaw,txrx_dx,txrx_dy,txrx_dz,rx_pitch,rx_roll,rx_yaw,PX,PZ,S0X_time_1.086e-05,S0X_time_3.256e-05,S0X_time_5.426e-05,S0X_time_8.680e-05,S0X_time_1.411e-04,S0X_time_2.279e-04,S0X_time_3.689e-04,S0X_time_5.860e-04,S0X_time_9.115e-04,S0X_time_1.411e-03,S0X_time_2.192e-03,S0X_time_3.418e-03,S0X_time_5.339e-03,S0X_time_8.301e-03,S0X_time_1.338e-02,S0Z_time_1.086e-05,S0Z_time_3.256e-05,S0Z_time_5.426e-05,S0Z_time_8.680e-05,S0Z_time_1.411e-04,S0Z_time_2.279e-04,S0Z_time_3.689e-04,S0Z_time_5.860e-04,S0Z_time_9.115e-04,S0Z_time_1.411e-03,S0Z_time_2.192e-03,S0Z_time_3.418e-03,S0Z_time_5.339e-03,S0Z_time_8.301e-03,S0Z_time_1.338e-02
0.0,0.0,0.0,0.0,120.0,0.0,0.9762700785464951,9.626579503888294,-6.671138811158043,-107.0,0.0,-45.0,-3.711394345336798,3.9915012044950267,4.979622513286735,34.27749209486002,17.526509587638845,4.562359067788865,2.667325998746883,2.1831277112656813,1.7988971570744414,1.395110043993568,1.002754172447404,0.65528215988288,0.39473211760374155,0.2243679247014209,0.1197883236624831,0.06001429545318805,0.028455962243173073,0.012880156926597936,0.005612491200187171,0.0021117803365246005,6.918797311310479,4.903005829106329,4.266651234800398,3.7365525570519367,3.144812287620534,2.51023021807884,1.8704700151670708,1.3100602546279074,0.8747454835656665,0.5540844043856388,0.3322608498574568,0.18959082426989948,0.10359113348192008,0.05472433943827681,0.02648376875409594
0.0,1.0,1.0,0.0,120.0,0.0,4.30378732744839,11.262713990982029,2.6035303937450642,-107.0,0.0,-45.0,-1.0732432345290563,9.359311332084541,-1.3781094106061067,34.27749209486002,17.526509587638845,4.5653174668452765,2.6800192761372643,2.2003751524645305,1.824674825164432,1.4312611696711466,1.0429200002141858,0.6905589834628078,0.4199404909273666,0.23970716473206713,0.12788907539127722,0.06378148077754599,0.03003582935442316,0.01349229288823311,0.005836447486052778,0.0021819899540353356,6.921091253433411,4.916901210712735,4.2875071979696155,3.770132557449652,3.19712554672868,2.5764429484464446,1.9383310154453033,1.367676737459632,0.9168121858303598,0.5810165135362112,0.34758502249505246,0.19749012424363585,0.1073549947368733,0.056417000478583966,0.02716032707439597
0.0,2.0,2.0,0.0,120.0,0.0,2.055267521432878,0.06621909633511436,10.915668177696944,-107.0,0.0,-45.0,4.564057227959488,9.888015792953588,-0.2935105078609048,34.27749209486002,17.526509587638845,4.568405446804315,2.6927069851152083,2.2157181011065803,1.8452586230172552,1.4605539008665587,1.077442509937705,0.722675698306166,0.44402298952341535,0.2549128898428015,0.13613489453671707,0.06768012375865141,0.03168367691613964,0.01413174614909121,0.006069904290696709,0.0022550915442470978,6.923491641596617,4.9308160029822945,4.306261368395628,3.7970311996888264,3.2391511364795824,2.63253765642553,1.9989757409410298,1.4215405589494041,0.9575566452318565,0.6078037403489812,0.3631040239914899,0.20557304393662848,0.11122348298330127,0.05815782016344782,0.027855411000396953
0.0,3.0,3.0,0.0,120.0,0.0,0.8976636599379368,22.804181736161198,-11.474044321139008,-107.0,0.0,-45.0,-3.1286910824915526,-0.9635663466048072,-1.2175482507653825,34.27749209486002,17.526509587638845,4.571628372891571,2.7055641729765387,2.2302475076175585,1.8625251360422639,1.4844993489224099,1.1070020420789155,0.7516957080828217,0.46681871206856285,0.26984578331560977,0.14445958975754863,0.07168929148785351,0.0333949530947979,0.014797900305516141,0.006312861280632533,0.002331110826391003,6.926003260348778,4.94491735119528,4.324140023660335,3.81974506044733,3.273337529693261,2.6800134750795,2.0529147574106905,1.4715674045309035,0.9967413132868349,0.6342727161312492,0.3787371157724289,0.21381209969013126,0.11518929537816038,0.05994524756229129,0.028568789366584395
0.0,4.0,4.0,0.0,120.0,0.0,-1.5269040132219054,7.199509961481873,0.5213732146234253,-107.0,0.0,-45.0,4.0398395492823695,-8.582604436315833,4.795269293354586,34.27749209486002,17.526509587638845,4.57499160137748,2.7186456999275688,2.244515620092549,1.8777852689437748,1.504389503756472,1.132280255627557,0.7777672172295325,0.4882337413054469,0.28439252021341077,0.1528012964957276,0.07578727308837205,0.03516442875662673,0.01548991765667935,0.006565267923081666,0.0024100654014208435,6.928630903803371,4.959256275574062,4.34174670626922,3.8399684568484904,3.3016928850943907,2.720242569229952,2.10072478921976,1.5177863297931804,1.0341990722844632,0.6602743374514256,0.3944071397856402,0.22217897676598625,0.11924443850094385,0.06177747798151104,0.029300165282992424
0.0,5.0,5.0,0.0,120.0,0.0,2.917882261333123,-3.807247572091015,-11.0379568096454,-107.0,0.0,-45.0,0.4380595007732637,-4.144119371189623,-3.2534161460499424,34.27749209486002,17.526509587638845,4.578500617565342,2.731968173454043,2.2587808237255085,1.8919084928178884,1.5212960314766073,1.1539310586297102,0.8010895534612517,0.5082268291231536,0.2984645355874926,0.16110386104128294,0.07995224710161555,0.03698634056261063,0.016206755192373114,0.006827023399471489,0.002491963973635393,6.931379505532074,4.973847952278015,4.359356179082963,3.8587975175684552,3.325828371342366,2.754460962715665,2.1430030886402403,1.5603056397389945,1.0698225803429817,0.6856839675106916,0.4100419815324066,0.2306451292096299,0.12338036479135871,0.06365247240331626,0.03004917750441968
0.0,6.0,6.0,0.0,120.0,0.0,-1.2482557747461502,5.319660706396217,6.505790435777811,-107.0,0.0,-45.0,-0.4308857835423421,-6.952905886245391,-1.720119990919203,34.27749209486002,17.526509587638845,4.582161077132875,2.7455376221860623,2.2731549741962764,1.9054427016812623,1.5360781886412573,1.1725640700563016,0.8218905938457467,0.5267968224678483,0.3119956794513398,0.16931759976532237,0.08416283869464414,0.038854536346230456,0.01694718455110727,0.007097977328133331,0.0025768058557989887,6.934254187870961,4.988697944950696,4.377084031437266,3.8769078771897667,3.3470006689416922,2.7837680198815065,2.1803412152653885,1.5992867763659615,1.1035536342868437,0.7104003964301834,0.4255755485786324,0.2391823069808102,0.1275881103663848,0.06556798000153209,0.030815402843036886
0.0,7.0,7.0,0.0,120.0,0.0,7.835460015641594,-24.040340084533323,-3.118208915781187,-107.0,0.0,-45.0,3.820414102298896,-1.650272504079764,1.803486660150016,34.27749209486002,17.526509587638845,4.585978821419904,2.759357556437219,2.287682990548468,1.9187166194641916,1.5494007604883446,1.1887338828453247,0.840411925228807,0.5439722985955333,0.32493938235707265,0.1773995719894026,0.08839855954079018,0.0407626152031582,0.017709814862547663,0.007377931262799303,0.0026645806934792898,6.937260225288603,5.003809454661662,4.394975038238717,3.8946967374148445,3.3661596330899632,2.809127636390318,2.213310540307405,1.634925085990357,1.1353734192078375,0.7343440408248876,0.44094833496048075,0.24776300009698363,0.13185842934618727,0.06752156297375578,0.0315983585482525
0.0,8.0,8.0,0.0,120.0,0.0,9.273255210020587,-9.921259166272534,1.9626393557552682,-107.0,0.0,-45.0,-0.41396038231414156,-7.37421343053488,-4.367923816613693,34.27749209486002,17.526509587638845,4.589959881748164,2.7734309346850035,2.302381854698974,1.9319184841660728,1.5617601083594135,1.2029329648459546,0.8568989073529801,0.5598033848819096,0.3372657319907671,0.1853135003534988,0.09264013469443534,0.04270405687217574,0.018493117390134987,0.00766664090188852,0.0027552683962070476,6.94040309695388,5.019185181600195,4.413045329787444,3.9123871833046144,3.3840002080939606,2.83137055943562,2.2424540636899715,1.6674361118365877,1.1652940199390376,0.7574547475669812,0.4561076508023881,0.25636079745076623,0.1361819208475485,0.06951062290580512,0.03239750656434989
0.0,9.0,9.0,0.0,120.0,0.0,-2.3311696234844455,8.008676874634254,-9.50160491357764,-107.0,0.0,-45.0,2.241676366115433,2.0823560804176395,1.0724937401154104,34.27749209486002,17.526509587638845,4.5941104813094835,2.7877605495070625,2.3172579935384885,1.9451514164684438,1.5735143587679155,1.215587964381188,0.871593632719902,0.5743554909738272,0.34895869744890684,0.1930294537463507,0.09686972769138735,0.04467233697649728,0.019295450963074917,0.007963818919723203,0.002848839208676066,6.94368846898619,5.034827624220599,4.431300517579538,3.9300990595118184,3.40101487765364,2.851198872533162,2.268281329034121,1.6970460508199532,1.1933512931961159,0.7796894579992135,0.4710075946730774,0.26495066356163,0.14054914583542807,0.07153242792280096,0.03321225733355428
0.0,10.0,10.0,0.0,120.0,0.0,5.834500761653292,-10.496119639477797,-10.654567219698682,-107.0,0.0,-45.0,-1.0097467829689801,-2.3438388168429185,-0.2235349712358392,34.27749209486002,17.526509587638845,4.598437037687201,2.8023490996471545,2.332314292941378,1.9584696208264785,1.5849136386815996,1.2270594802930863,0.8847295971840996,0.5877045756167156,0.36001362765267103,0.20052338404434883,0.10107107862827472,0.04666102633414605,0.020115087316277286,0.0082691383159354,0.0029452539100063477,6.9471221948657975,5.050739155685003,4.449742792572899,3.9478940519183094,3.4175420670369445,2.8691936268889426,2.2912647752952315,1.7239851867716116,1.2195990411505955,0.8010199020854625,0.4856088381084308,0.2735091401017952,0.14495073199680134,0.0735841399456313,0.03404197415766856
0.0,11.0,11.0,0.0,120.0,0.0,0.5778983950580887,5.900771449942077,-0.3583115805313639,-107.0,0.0,-45.0,4.040443929009577,7.907717685764201,-2.160000232378989,34.27749209486002,17.526509587638845,4.602946166165217,2.8171992203980354,2.3475526190561955,1.971900592763287,1.5961273684756139,1.2376449950721362,0.8965275232975621,0.5999335584201972,0.3704350782956518,0.20777658486612435,0.10522957106984365,0.04866387380052035,0.020950235618706816,0.008582236171409212,0.003044464113456132,6.950710316528878,5.0669220617859745,4.4683733824127145,3.9658026947924423,3.43380758358343,2.885825560340037,2.311836969595225,1.748483314443589,1.2441043532337748,0.8214304256274714,0.4998782811656234,0.28201448097722,0.14937746564857185,0.07566284146152394,0.03488597779446806
0.0,12.0,12.0,0.0,120.0,0.0,1.3608912218786458,-3.5615649527116915,-4.331617864501332,-107.0,0.0,-45.0,1.9002502019122733,9.355893435970039,-2.61586719075942,34.27749209486002,17.526509587638845,4.607644683264406,2.8323135063175426,2.362974598891358,1.9854579776708337,1.6072670339456816,1.2475842724812376,0.907192152352785,0.611129537631091,0.3802349740541229,0.21477512123629697,0.1093322430500928,0.05067487302599094,0.021799065638976763,0.008902717696332291,0.0031464126472758123,6.954459065467445,5.083378565188852,4.487193277818824,3.9838396764975923,3.4499579114862464,2.9014680987398354,2.330388706584118,1.7707664172417852,1.2669439462367653,0.8409160077296923,0.5137886265255689,0.29044673054678316,0.15382037038380925,0.0777655613135565,0.035743551202556505
0.0,13.0,13.0,0.0,120.0,0.0,8.51193276585322,-18.226296788877487,13.212958357584391,-107.0,0.0,-45.0,1.9962205425051671,0.9376980333884433,0.14512743298756714,34.27749209486002,17.526509587638845,4.612539610129144,2.8476945247358136,2.3785818149696456,1.9991486191322791,1.6184040343347337,1.257066324376498,0.9169099790176367,0.6213815578515227,0.38943108186392017,0.22150926403408103,0.11336775583782473,0.05268831415585136,0.022659729153046967,0.00923016045835895,0.003251034001600043,6.958374863490327,5.1001108360861345,4.506203404668244,4.002012057853794,3.4660855645540924,2.9164114960845664,2.347268125945431,1.7910541051461106,1.2882013202359217,0.8594804950393714,0.5273179089109412,0.29878775458704887,0.15827077268853182,0.07988929911277895,0.036613944359961674
0.0,14.0,14.0,0.0,120.0,0.0,-8.579278836042262,-10.085883702198462,7.959757614208957,-107.0,0.0,-45.0,-1.722795984428811,-4.503528602648068,-1.3207241946295865,34.27749209486002,17.526509587638845,4.6176381756379605,2.8633448207837255,2.3943758404591633,2.012976216275825,1.6295829653066933,1.2662370683777209,0.9258479221623128,0.6307787592829027,0.39804575322789604,0.22797295172361595,0.11732633209248695,0.05469882191479887,0.02353037933387736,0.009564118686290072,0.0033582548291933687,6.962464323075378,5.1171209927623655,4.525404656340708,4.020323448242024,3.4822475195287277,2.930876994522783,2.3627809535851805,1.8095575266254253,1.307964552500412,0.8771350591681895,0.5404490072083534,0.30702123311737267,0.16272035514030062,0.08203104797388674,0.03749637909141238
0.0,15.0,15.0,0.0,120.0,0.0,-8.257414005969185,3.498245535063244,7.459908595516421,-107.0,0.0,-45.0,2.567786427368892,1.844608375236735,-0.43480108737344647,34.27749209486002,17.526509587638845,4.622947819224675,2.8792669174217527,2.4103582463850954,2.026943115083315,1.6408310746520685,1.2752069540706361,0.9341528812029125,0.6394088138843645,0.40610488647003673,0.23416329317492882,0.1211996729518951,0.05670138173942944,0.024409187975853133,0.009904127556370074,0.003467994489779815,6.966734247346375,5.134411097155151,4.544797905290221,4.0387760054559045,3.4984780818986674,2.9450301208386347,2.3771918475015545,1.8264776208399107,1.326324569464151,0.8938968703303859,0.5531691590182782,0.31513262337551057,0.1671611980563782,0.08418781536716329,0.038390053847429176
0.0,16.0,16.0,0.0,120.0,0.0,-9.595632051193485,4.543638062408661,12.111592192378005,-107.0,0.0,-45.0,1.360610554471413,7.935223164488196,-1.6252261823576006,34.27749209486002,17.526509587638845,4.628476193427985,2.895463313650419,2.4265306097881596,2.041051131116404,1.6521647328477351,1.2840580476809276,0.9419520704165182,0.6473566055057077,0.4136370611278865,0.24008011866323017,0.124980861702508,0.058691355686465926,0.02529436049997535,0.010249707382580108,0.0035801656288281395,6.97119162973288,5.151983149140023,4.56438401580555,4.05737133099476,3.5147975382197254,2.958992543850337,2.390726708338347,1.8420036714057708,1.343373763783974,0.9097879712658764,0.5654694913871811,0.32310910022094685,0.17158581062041733,0.08635664196190355,0.03929414838536502
0.0,17.0,17.0,0.0,120.0,0.0,6.65239691095876,3.716262442478939,-12.497326936739444,-107.0,0.0,-45.0,-2.5997972662029047,-1.8653330832850337,4.7049369359597755,34.27749209486002,17.526509587638845,4.63423116619186,2.91193648271345,2.442894523613054,2.05530189980129,1.6635937033116495,1.2928502737228704,0.9493539811820497,0.6547031404788347,0.4206728034074196,0.24572558098444527,0.12866426006912815,0.060664489792497375,0.02618414876163441,0.010600367647356295,0.0036946747822178268,6.97584365336512,5.169839081354892,4.584163856403516,4.076110839681952,3.531217775815549,2.9728522075938106,2.4035757340421258,1.8563121693810882,1.3592048545254025,0.9248343297690951,0.5773445769565748,0.3309394801614649,0.17598715260468625,0.08853461840685958,0.04020782830885457
0.0,18.0,18.0,0.0,120.0,0.0,5.563135018997009,7.660040992856679,1.5657740976721968,-107.0,0.0,-45.0,-3.394611775147436,1.0415655338394174,-3.66560568254396,34.27749209486002,17.526509587638845,4.640220822927592,2.928688870959287,2.459451605263283,2.0696970120926985,1.6751238655091938,1.3016266844956554,0.9564498028643893,0.6615246868706084,0.4272439509799007,0.2511038048696818,0.13224540181424113,0.06261691443452838,0.027076861742711296,0.010955610823490568,0.0038114229983948257,6.980697690229489,5.187980755064589,4.60413830876784,4.094995897300494,3.5477458122126113,2.986671684518062,2.4158969649871405,1.8695660050168315,1.373909918978382,0.9390650450672593,0.5887920213616379,0.3386141341420579,0.18035864783592603,0.09071890005017084,0.04113024942818616
0.0,19.0,19.0,0.0,120.0,0.0,7.400242964936382,7.605163500084444,2.5342820686730647,-107.0,0.0,-45.0,2.9639147451733177,-4.566944647877083,-4.031960468216258,34.27749209486002,17.526509587638845,4.646453468328843,2.9457228974089746,2.4762035024197018,2.0842380608926576,1.686758894190589,1.3104177532674461,0.9633151355359497,0.6678921406747539,0.4333830950607463,0.25622058041221213,0.13572088720982375,0.06454513907648338,0.027970874254600847,0.0113149359507296,0.003930306469854951,6.985761300081832,5.206409956955923,4.624308272571191,4.1140278652505975,3.564385938885193,3.000494849784551,2.427820072262873,1.8819139994087435,1.3875795510602478,0.9525116825373351,0.5998120851188069,0.3461248932695298,0.18469419053917535,0.09290671964526631,0.04206056191044368
0.0,20.0,20.0,0.0,120.0,0.0,9.572366844655281,-3.4290782283013037,13.858091356416871,-107.0,0.0,-45.0,4.591666030352226,-0.8911170109994604,-1.5660827120908394,34.27749209486002,17.526509587638845,4.652937627916833,2.963040953861975,2.4931518963289947,2.098926654627353,1.6985012604528336,1.3192447664424343,0.9700118458752496,0.6738706112273722,0.43912308612839174,0.2610830948985258,0.1390882809877708,0.06644604261258331,0.028864633809356714,0.0116778419415149,0.0040512171662612185,6.991042229100957,5.225128396598542,4.64467466713588,4.133208112695378,3.581140979331683,3.014352068832415,2.439450174214182,1.893490769947275,1.400302121822264,0.9652077124282811,0.6104073412277518,0.3534649508060971,0.18898814564533578,0.09509539812189421,0.04299791419484458
0.0,21.0,21.0,0.0,120.0,0.0,5.983171284334471,19.82732979255315,-6.235574196223535,-107.0,0.0,-45.0,-0.418611727399572,-1.965729292408028,0.9102690087049128,34.27749209486002,17.526509587638845,4.6596820492890085,2.980645405362314,2.510298503410935,2.1137644208983173,1.710352807806745,1.3281224321883924,0.9765899445452859,0.6795192102565824,0.4444965960417272,0.2656996970592588,0.14234601555672952,0.0683168603513509,0.02975666583378301,0.012043830599467328,0.004174043462295252,6.996548408263439,5.244137704355897,4.665238431292615,4.152538019634122,3.5980130008668167,3.028264130047294,2.450871511913156,1.9044169051968447,1.41216313178392,0.9771880308699586,0.6205823681354861,0.36062876305935804,0.19323534407396598,0.0972823535248434,0.04394145665534045
0.0,22.0,22.0,0.0,120.0,0.0,-0.7704127549413631,-6.621906497605174,-7.7751366025365956,-107.0,0.0,-45.0,0.9098416532368496,-5.03173069834058,1.5917647185002828,34.27749209486002,17.526509587638845,4.666695703047419,2.9985385909091216,2.527645076023632,2.128753008176364,1.7223150712705424,1.3370608379962206,0.9830893933180525,0.6848910218654781,0.4495357335356247,0.27007968808085125,0.14549330057865248,0.07015516853206531,0.03064557740803467,0.01241240934201137,0.0042986707543047125,7.002287951423952,5.263439429629862,4.686000522541926,4.172018978437425,3.6150037014050977,3.0422451583877885,2.4621508630280977,1.914799409969407,1.4232446532521512,0.988488544948924,0.6303434764950085,0.3676119512147874,0.19743107391189463,0.09946510823923997,0.04489034499873692
0.0,23.0,23.0,0.0,120.0,0.0,5.610583525729108,-3.2067537367186603,-11.991181732035066,-107.0,0.0,-45.0,3.5772264419355455,0.11732767650616793,-1.0274325283195793,34.27749209486002,17.526509587638845,4.673987783385227,3.0167228243593533,2.5451934029664676,2.143894087560414,1.7343894467269572,1.3460668868509371,0.9895417790274686,0.6900332257381645,0.4542717123502192,0.2742331344899023,0.14853003942450163,0.07195886713041304,0.03153005970842923,0.012783093625140247,0.004424982060798046,7.008269153084396,5.283035039403588,4.706961916190637,4.191652395412785,3.6321146101107686,3.0563047279850264,2.473340618928191,1.9247323717415323,1.4336248645897884,0.9991458074819171,0.6396984672625099,0.3744112056804019,0.2015710683087857,0.10164129463209812,0.04584374339205756
0.0,24.0,24.0,0.0,120.0,0.0,-7.634511482621336,19.596167750783607,-14.507111112255775,-107.0,0.0,-45.0,-0.42776546646142943,-3.792383480403771,4.992779939221711,34.27749209486002,17.526509587638845,4.6815677083090215,3.0352003955135,2.5629453100282795,2.159189354674903,1.7465772764465273,1.3551453287155077,0.9959718166017067,0.6949873433568368,0.4587345720135425,0.27817069901007185,0.15145675257566343,0.07372616159024108,0.03240888932631294,0.01315540907399514,0.004552858602705424,7.014500485830806,5.302925917094868,4.728123604768452,4.211439692233376,3.6493471858371125,3.070449362686242,2.4844814881866037,1.9342977953642857,1.4433776789121506,1.0091966908756542,0.6486564180940995,0.38102419412007826,0.2056514908097871,0.10380865924631352,0.0468008273173592
0.0,25.0,25.0,0.0,120.0,0.0,2.798420426550477,15.309699452304287,12.885879503765715,-107.0,0.0,-45.0,4.5187447683273625,-2.5393027223850506,-1.481070038069574,34.27749209486002,17.526509587638845,4.689445119471635,3.053973571396786,2.5809026606930963,2.174640531394341,1.7588798897501958,1.3642994864002682,1.0023986637848927,0.6997895768530593,0.4629529510305094,0.28190348651387426,0.1542745077037947,0.07545554401089083,0.033280928623267314,0.013528893327755032,0.004682180360071635,7.020990597411414,5.32311336175201,4.749486597794732,4.231382306868326,3.666702862107232,3.0846835806791897,2.4956048195171125,1.9435665534575606,1.4525724681656684,1.0186780928091104,0.6572274947008958,0.38744947402270985,0.20966891874834706,0.1059650656863633,0.0477607861557773
0.0,26.0,26.0,0.0,120.0,0.0,-7.132934251819072,10.194429177018314,5.097496397727301,-107.0,0.0,-45.0,0.7575116204487244,0.49940884508528427,2.214066679599524,34.27749209486002,17.526509587638845,4.697629881587656,3.0730445977555108,2.5990673570058376,2.1902493671827457,1.771298620930187,1.3735317562779,1.0088370454958397,0.7044712118242571,0.4669539113726989,0.28544290312241394,0.15698485593943834,0.07714577422209688,0.03414512526952894,0.013903097611336537,0.004812826602468614,7.027748307426032,5.3435985876273415,4.7710519218488,4.2514816938617725,3.6841830657569026,3.099010607370047,2.5067345586790544,1.9525994037962835,1.4612738810093888,1.0276266692249922,0.6654227837644846,0.3936864103745605,0.2136203252324675,0.10810849633496172,0.04872282550534994
0.0,27.0,27.0,0.0,120.0,0.0,8.893378340991678,-19.988655634384944,8.554587360694132,-107.0,0.0,-45.0,3.2076712070131492,5.011900458579749,1.3758269453079288,34.27749209486002,17.526509587638845,4.706132081402543,3.0924157007873463,2.6174413405540937,2.20601764000201,1.783834816412099,1.3828439468829128,1.0152981964717427,0.709059058463608,0.47076281206348597,0.28880052727152616,0.1595897737159311,0.07879586108940599,0.03500051109861446,0.01427758804951452,0.00494467639088297,7.034782603595317,5.364382724158565,4.792820620858378,4.271739324014213,3.7017892235853562,3.113432852151233,2.5178888679501155,1.9614480311643312,1.4695417501389085,1.036078592201338,0.6732541441585967,0.39973509876313823,0.21750306017721913,0.11023705303735577,0.0496861692392197
0.0,28.0,28.0,0.0,120.0,0.0,0.43696643500143395,20.974130687233675,-6.548096827381528,-107.0,0.0,-45.0,4.088437184127384,-3.3298506841744935,3.1305386324746074,34.27749209486002,17.526509587638845,4.714962026186215,3.112089089120581,2.6360265935132365,2.2219471568535814,1.7964898372955065,1.392237503301399,1.0217906376056702,0.7135759091352244,0.47440322856231465,0.2919879921331432,0.16209160953238205,0.0804050443120592,0.03584620039764673,0.014651946741408418,0.005077609049282519,7.042102637578217,5.38546681638089,4.814793756523931,4.2921566836274225,3.719522764140909,3.127952220682493,2.529081444729757,1.9701560784911343,1.4774310821631296,1.0440693317099523,0.6807340735147825,0.4055962940373698,0.2213148307655148,0.11234895688501113,0.05065006131242295
0.0,29.0,29.0,0.0,120.0,0.0,-1.7067612001895291,10.712064977455569,2.592304985589802,-107.0,0.0,-45.0,3.155238187685688,8.483175332415271,4.7622566345382005,34.27749209486002,17.526509587638845,4.724130241722286,3.132066956052518,2.6548251397105536,2.2380397540612758,1.809265060193417,1.401713652789049,1.028320805019642,0.7180409946166563,0.4778969137286156,0.29501687915818225,0.16449303499862805,0.0819727769024854,0.03668138774017144,0.015025772614697378,0.005211504604406779,7.0497177203050745,5.406851825785335,4.836972408815639,4.3127352734958855,3.7373851178912294,3.1425703149830944,2.5403225791201627,1.978760139735643,1.4849921211495551,1.0516334611326563,0.6878755875577763,0.4112713444790037,0.22505368165750614,0.11444254722361565,0.05161376732671352
0.0,30.0,30.0,0.0,120.0,0.0,-4.70888775790746,24.942350328393324,-13.081342016370566,-107.0,0.0,-45.0,-3.4058553655104404,7.246370936718048,3.897936564455403,34.27749209486002,17.526509587638845,4.733647469763904,3.1523514820529135,2.673839045677695,2.254297297402121,1.8221618776178847,1.4112734971957253,1.0348935522152276,0.7224704252742105,0.481263795472494,0.2978986227141379,0.16679699958673438,0.08349870847272119,0.03750534545654154,0.015398682079671398,0.005346244192696727,7.057637316792948,5.428538631632267,4.859357676501093,4.333476607800819,3.755377717074697,3.1572885586307073,2.5516199902610053,1.9872906943208821,1.4922704756112086,1.0588044868052673,0.6946921100714103,0.4167621313032404,0.22871797521552112,0.1165162800019815,0.05257657586390766
0.0,31.0,31.0,0.0,120.0,0.0,5.484673788684333,-17.527584767100315,-0.43117212196131227,-107.0,0.0,-45.0,1.2889843906170038,-9.026194080489429,2.645619743577086,34.27749209486002,17.526509587638845,4.74352466492684,3.172944837534751,2.6930704216732444,2.270721682169953,1.8351816983512639,1.4209180702364828,1.0415125453168228,0.7268776071871783,0.4845220058025508,0.300644425859872,0.16900668860035323,0.08498266939863973,0.03831742082610905,0.015770309503219702,0.005481710433622858,7.065871040407849,5.450528032724116,4.8819506776788435,4.3543822130180745,3.773501995628178,3.1721082730678742,2.562979478900976,1.9957729695449693,1.4993072980210673,1.0656147019099231,0.7011973717970811,0.42207101320176643,0.23230637196482834,0.11856872556903292,0.053537799599132026
0.0,32.0,32.0,0.0,120.0,0.0,-0.876993355669029,18.406302868410712,14.324854192333405,-107.0,0.0,-45.0,-1.015657413803229,-4.927149514863545,1.982484778182906,34.27749209486002,17.526509587638845,4.753772990989808,3.193849185891561,2.7125214226665935,2.2873148332291975,1.8483259478937126,1.4306483720504921,1.048180570051899,0.7312736265436319,0.4876879358494402,0.30326518726775703,0.1711254839705663,0.0864246558883243,0.039117033065462346,0.016140307522387657,0.0056177877690370675,7.074428646537631,5.472820749637033,4.904752550304643,4.375453626907424,3.791759389226582,3.1870307227419454,2.5744054300780697,2.004227723077323,1.5061395058415004,1.0720950648482364,0.7074053169827698,0.42720077556744673,0.235817811469557,0.12059856601607413,0.054496776206139505
0.0,33.0,33.0,0.0,120.0,0.0,1.3686789773729693,-16.875353266181257,11.295157359497725,-107.0,0.0,-45.0,-4.372870479766543,-1.0772897468159606,-1.6450183032410037,34.27749209486002,17.526509587638845,4.764403816571715,3.2150666867980315,2.732194249280226,2.304078705092244,1.8615960689552409,1.4404653894392156,1.0548997671515445,0.7356675984186132,0.4907763115428258,0.3057714392038472,0.1731569275834394,0.08782481594609295,0.03990367017758484,0.01650834721619693,0.005754362768557355,7.0833200256382325,5.495417427407821,4.927764452703703,4.396692397616137,3.8101513353646035,3.2020571408916028,2.585901195534962,2.012671942305824,1.5128000334422396,1.0782751018978705,0.7133300166694596,0.43215458399478995,0.23925149376680038,0.12260459215140909,0.05545286906756797
0.0,34.0,34.0,0.0,120.0,0.0,-9.624203991272896,5.77797821419221,-4.855231444894631,-107.0,0.0,-45.0,-0.7596774811015807,-7.907442225150518,-3.523144217932926,34.27749209486002,17.526509587638845,4.775428710155858,3.2365994997683907,2.7520911486908233,2.3210152820361305,1.87499352193872,1.450370107315549,1.0616718106371874,0.7400669782988395,0.4938002849033099,0.30817329633985996,0.17510468693255385,0.08918343619815292,0.040676885718025975,0.016874118153256613,0.00589132440136333,7.092555195616219,5.518318638669344,4.950987564065558,4.418100082906399,3.8286792734109447,3.2171887436679496,2.597469381100204,2.0211194609444445,1.5193181050336804,1.084182833560437,0.7189855881109678,0.43693594163057886,0.24260686146943175,0.12458570018442781,0.05640546780356881
0.0,35.0,35.0,0.0,120.0,0.0,2.352709941517542,-18.809000857527924,13.847104636244957,-107.0,0.0,-45.0,-2.413159331105923,-3.030480219330059,-4.373639969401903,34.27749209486002,17.526509587638845,4.786859434431732,3.258449787964955,2.7722144154911144,2.338126578262899,1.8885197853749203,1.4603635149236183,1.0684980412166207,0.7444778364604425,0.49677153633098686,0.31048041502054236,0.17697252296444205,0.0905009295287099,0.04143629552586352,0.017237328331328766,0.006028564275159473,7.102144293511035,5.541524887224618,4.974423084918993,4.439678249502342,3.8473446445963453,3.232426737467037,2.6091120600419027,2.0295814960179426,1.525719519747783,1.0898447236081732,0.7243861199677409,0.4415486499509975,0.2458835826190852,0.1265408881867894,0.057353988632670064
0.0,36.0,36.0,0.0,120.0,0.0,2.2419144544484286,17.40041146611172,-8.048951205863865,-107.0,0.0,-45.0,3.4903830842851082,4.801950512353649,-2.5809829579851518,34.27749209486002,17.526509587638845,4.798707939926501,3.2806197222470916,2.7925663925147863,2.3554146381016627,1.9021763562923617,1.470446609060177,1.0753795648924522,0.7489050965869992,0.4997003837814416,0.31270196246429904,0.17876426004377216,0.09177782346557392,0.0421815744594468,0.017597704023623113,0.006165976843382317,7.11209756644147,5.565036612046507,4.998072237584215,4.461428472545769,3.8661488919280584,3.2477723224800137,2.6208309295410706,2.0380671102252954,1.5320269411528957,1.0952856494706802,0.7295456030960583,0.4459967725609231,0.24908153434474697,0.1284692523896375,0.058297874578961885
0.0,37.0,37.0,0.0,120.0,0.0,2.3386799374951384,15.365947936250535,13.479564672470442,-107.0,0.0,-45.0,-4.666953734533038,3.6102896228565164,-0.6771851881870141,34.27749209486002,17.526509587638845,4.810986357899722,3.303111485448676,2.813149471626728,2.3728815362477884,1.9159647505224153,1.4806203956547743,1.0823173249744364,0.7533527408975268,0.5025958952772469,0.31484659524628356,0.18048375800788602,0.09301474925047658,0.04291245316957949,0.017954989545173435,0.006303459582032392,7.122425361782337,5.588854191686659,5.0219362665989165,4.483352335147671,3.885093460044609,3.2632266942535004,2.6326274240359746,2.0465836058767892,1.5382601847055017,1.1005288922975964,0.7344778668763237,0.45028460164301976,0.2522007873593066,0.13036998336768152,0.059236595539759886
0.0,38.0,38.0,0.0,120.0,0.0,8.874961570292484,3.4550369307296656,13.241331141194959,-107.0,0.0,-45.0,4.589827218634735,2.4476885713200964,0.21996273629982444,34.27749209486002,17.526509587638845,4.823706992476957,3.325927276869878,2.833966094480625,2.390529378033934,1.9298865029506245,1.4908858905055666,1.089312154023039,0.7578239846057943,0.5054660017735112,0.3169224463089251,0.18213488630788205,0.09421243153027407,0.04362871493607166,0.01830894695134068,0.006440913137749531,7.133138116539106,5.6129779490738105,5.04601643911437,4.50545142802314,3.9041797950348545,3.2787910442865082,2.6445027962878394,2.0551368572342392,1.5444364978511826,1.1055961448006875,0.739196521095634,0.45441662672513955,0.2552415913063155,0.1322423621539801,0.06016964822775727
0.0,39.0,39.0,0.0,120.0,0.0,3.636405982069668,-4.640835138700016,8.97607762057175,-107.0,0.0,-45.0,-1.446311515280704,4.210568054446913,2.730835540548716,34.27749209486002,17.526509587638845,4.836882312000243,3.3490693169667423,2.8550187532457447,2.4083602997283298,1.9439431677297987,1.5012441196186992,1.0963648108436876,0.7623214228203236,0.5083176079531253,0.3189371196688575,0.18372150024767453,0.095371678609561,0.044330192587427895,0.018659355679213434,0.006578241448920572,7.144246345890548,5.6374081566779,5.070314045257353,4.527727349198956,3.9234093442474243,3.2944665602214713,2.656458174600875,2.063731588284811,1.5505708286388988,1.1105075348243874,0.7437149034293117,0.45839750547995245,0.25820436095193433,0.13408575632280817,0.06109655600132005
0.0,40.0,40.0,0.0,120.0,0.0,-2.80984198852428,-21.541650227243096,3.913438106003735,-107.0,0.0,-45.0,-1.4329310959745714,-5.901526260805965,4.58740923056593,34.27749209486002,17.526509587638845,4.850524939576116,3.372539852219659,2.8763099913047077,2.4263764688566,1.9581363184706564,1.511696119388653,1.1034760064876574,0.76684715307999,0.5111566990508892,0.3208976919420586,0.18524741933559272,0.09649337321188979,0.04501676551794854,0.01900601214155805,0.00671535184174434,7.155760630872311,5.662145042012692,5.094830398453928,4.550181703785181,3.942783556113392,3.310254425910588,2.6684946026570566,2.0723716028584738,1.5566760797705474,1.1152816625140514,0.7480460325632206,0.4622320363177965,0.2610896632027652,0.1358996160725374,0.062016868596120295
0.0,41.0,41.0,0.0,120.0,0.0,-1.259360924013171,9.871438657228182,11.228638998748409,-107.0,0.0,-45.0,-4.8367149731629215,-3.166037702705358,-3.82679519615189,34.27749209486002,17.526509587638845,4.864647641781085,3.396341159784607,2.8978424042841504,2.4445800857784024,1.9724675496782007,1.5222429358028806,1.1106464225409378,0.7714028765527271,0.5139884423231166,0.32281071977782844,0.18671640776026002,0.09757846370422088,0.045688356811817925,0.019348729281949337,0.006852155108594237,7.167691619443787,5.6871888316590695,5.11956688951365,4.572816157291772,3.962303881006882,3.3261557827912953,2.6806130864165487,2.081059966884561,1.5627633477852285,1.1199356485818586,0.7522025670228708,0.4659251325743399,0.2638982049179076,0.13768347033687825,0.06293016217108942
0.0,42.0,42.0,0.0,120.0,0.0,3.9526239185452976,-2.3228658660965564,-6.2093914647660995,-107.0,0.0,-45.0,-3.147676747638161,3.5248496455492564,-3.9299585980620844,34.27749209486002,17.526509587638845,4.879263319065579,3.4204755531057476,2.9196186399962634,2.462973382026684,1.986938475038123,1.5328856261070458,1.117876722969151,0.7759899812510722,0.5168172820117368,0.32468225235078124,0.1881321569788971,0.09862795575013214,0.046344930479257675,0.019687336098690136,0.006988565550691382,7.180049989839431,5.712539697213586,5.144524902299745,4.595632351533413,3.981971769697221,3.3421717907414004,2.6928145818350497,2.0897991730261642,1.5688421395078007,1.1244851928513055,0.7561967694997673,0.4694817981615526,0.2666308214788713,0.13943692294245386,0.06383603825039288
0.0,43.0,43.0,0.0,120.0,0.0,-8.795490567414603,11.102779973517393,10.468306659387547,-107.0,0.0,-45.0,-0.9874049919639125,7.5846952606265425,0.8969472301355079,34.27749209486002,17.526509587638845,4.894384995203418,3.4449453878439167,2.9416413988450194,2.4815586193422057,2.0015507259961303,1.5436252599913107,1.1251675621346031,0.7806096096429458,0.5196470272944143,0.32651784800895217,0.18949827040738398,0.09964290436212142,0.046986488806964995,0.020021677144421587,0.007124501005917888,7.192846418759732,5.738197716228237,5.169705749882157,4.61863184074738,4.001788671886852,3.358303674408514,2.705099983816738,2.0985912732208307,1.5749205705369993,1.128944640026307,0.7600404767457831,0.4729071045545384,0.26928846606905504,0.14115964883564502,0.06473412275407932
0.0,44.0,44.0,0.0,120.0,0.0,3.335334308913353,18.31911629643146,3.5363007575257157,-107.0,0.0,-45.0,4.292914173027139,0.873561076561904,2.4539807394729296,34.27749209486002,17.526509587638845,4.910025797624823,3.4697530714820095,2.9639134390109816,2.5003380899362626,2.016305957462776,1.5544629165081996,1.1325195911296053,0.7852627127774611,0.5224809330310071,0.3283225942117623,0.19081825018585483,0.10062440633036455,0.04761306982248103,0.02035161200758727,0.007259882879252644,7.206091611990353,5.764163005904458,5.195110838809951,4.641816254545184,4.021756040615096,3.3745526032887962,2.7174701948567015,2.1074379575511766,1.5810055528814073,1.133327049414059,0.7637450751015455,0.47620616901414525,0.27187219961004905,0.14285139039961053,0.06562406670723513
0.0,45.0,45.0,0.0,120.0,0.0,3.412757392363188,23.776075250144288,-14.602894267233015,-107.0,0.0,-45.0,-4.0038506977872865,-4.346006981089268,3.481503803469849,34.27749209486002,17.526509587638845,4.926198955112847,3.494901053847875,2.9864375671130117,2.5193141261789087,2.0312058419694354,1.5653996865737323,1.1399334608273133,0.7899500939857953,0.525321772881341,0.3301011300884715,0.19209548594333684,0.10157359301876681,0.04822474486897337,0.020677014780947058,0.007394636139939828,7.2197962619559135,5.79043565392901,5.220741604592341,4.665187234560698,4.0418753273925265,3.3909197441629733,2.7299261041281637,2.116340642682961,1.587102956126735,1.1376442700065237,0.7673214810261424,0.4793841340396536,0.27438318131117406,0.1445119538624513,0.06650554507827611
0.0,46.0,46.0,0.0,120.0,0.0,-5.792348778523182,17.790167119630553,-4.5829944620334135,-107.0,0.0,-45.0,4.453015334790795,-9.395294839880348,4.358320802167885,34.27749209486002,17.526509587638845,4.942917774703822,3.5203918464945025,3.009216646908272,2.5384890912346907,2.046252073870364,1.5764366722403214,1.1474098242381543,0.794672443489538,0.5281719051175898,0.3318576708564214,0.1933332455018136,0.10249162351746549,0.04882161628655853,0.02099777352200871,0.007528689305317873,7.233971035674209,5.817015747756557,5.246599505181964,4.688746426992638,4.0621479856209985,3.4074062609057036,2.742468590616288,2.1253005346883587,1.5932177533869645,1.1419070173301196,0.7707801266817865,0.4824461479910139,0.2768226597762005,0.14614120581423262,0.06737825618686037
0.0,47.0,47.0,0.0,120.0,0.0,-7.421474046902934,-24.4142957907499,-10.555774171555049,-107.0,0.0,-45.0,3.6948853054663218,4.206736579484268,4.83426242260642,34.27749209486002,17.526509587638845,4.960195628550124,3.546228024470308,3.032253597894141,2.55786538200303,2.061446368593859,1.587574987127167,1.1549493378888902,0.7994303656615174,0.5310333313599488,0.33359603347879996,0.19453466742889522,0.10337967814837885,0.04940381519483812,0.021313789709493398,0.007661974416239559,7.2486265546292294,5.84390337553483,5.272686022652081,4.71249548468125,4.082575469852923,3.4240133148543115,2.755098525165649,2.134318678234615,1.599354150598969,1.1461249511763054,0.7741309502252244,0.48539734687299496,0.2791919646189446,0.1477390698386556,0.0682419210421274
0.0,48.0,48.0,0.0,120.0,0.0,-3.691432981516323,-7.0010967760818055,14.454881694547595,-107.0,0.0,-45.0,-0.458376030924482,-9.842317929831193,-1.0019830777547414,34.27749209486002,17.526509587638845,4.978045938175652,3.572412231260404,3.055551395611875,2.5774454298890634,2.0767904627966605,1.5988157566438195,1.1625526626770908,0.804224400348516,0.5339077485950096,0.33531966301032734,0.19570275533491308,0.10423895232351052,0.049971499370798984,0.02162497769943691,0.007794427001677173,7.263773375036504,5.871098632231471,5.299002663374034,4.736436067460249,4.103159235866548,3.4407420650771745,2.76781677173599,2.1433959948711365,1.6055157002633507,1.1503067530495594,0.7773833904863439,0.4882428372781806,0.28149249854101116,0.1493055232647577,0.06909628266709691
0.0,49.0,49.0,0.0,120.0,0.0,-2.725784581147548,11.4995281212029,-0.6488907888003581,-107.0,0.0,-45.0,-1.7329911823173996,-2.54641860358009,-1.1966481647242686,34.27749209486002,17.526509587638845,4.996482157717443,3.5989471840770735,3.07911307220685,2.5972317012891635,2.0922861146564427,1.6101601181811895,1.1702204643883025,0.8090550394209904,0.536796594922637,0.3370316591504225,0.1968403737994083,0.10507065075762441,0.050524851216074466,0.021931264183997237,0.007925986034177358,7.279421967446278,5.898601626393446,5.325550957957824,4.760569842313003,4.1239007408766035,3.4575936686309787,2.7806241881916756,2.1525333126022317,1.6117054008614227,1.1544602023450015,0.7805463856875611,0.4909876804921721,0.28372572982858624,0.15084059404202685,0.06994110540874399
0.0,50.0,50.0,0.0,120.0,0.0,1.4039354083575937,-16.418516136927973,-0.07825903504011933,-107.0,0.0,-45.0,-2.6725587072094315,0.6107442912556351,-3.521913233027276,34.27749209486002,17.526509587638845,5.015517756473149,3.625835679040491,3.1029417169932043,2.617226698093677,2.107935104179048,1.6216092212988622,1.1779534140085728,0.8139227395193047,0.5397010895213148,0.3387348025965571,0.19795024580291912,0.10587598203807111,0.051064075807676114,0.022232587655586705,0.008056593877536187,7.2955826955535334,5.926412486799073,5.352332461164734,4.7848984835577175,4.144801443775329,3.474569280820578,2.793521626825413,2.161731388557274,1.617925783221297,1.1585922504419135,0.7836283758379552,0.49363687776731063,0.2858931852293793,0.15234435774062338,0.0707761742380265
0.0,51.0,51.0,0.0,120.0,0.0,-1.2279697307535926,1.0518303102064657,4.184175491961707,-107.0,0.0,-45.0,1.1446470647687432,8.44222923534386,1.849344386835594,34.27749209486002,17.526509587638845,5.0351662008116165,3.653080596217481,3.127040477027473,2.6374329582068077,2.1237392335193896,1.6331642279098724,1.1857521879201847,0.8188279317941003,0.5426222673434674,0.34043158085992414,0.19903495153371734,0.10665615355478013,0.051589399026628194,0.022528897878464137,0.008186196227854128,7.312265794273994,5.954531368948563,5.379348751797935,4.809423673059343,4.16586280540004,3.4916700554630373,2.806509934740409,2.170990926239901,1.6241789851083517,1.1627090920617003,0.7866373084247176,0.4961953567710206,0.28799644317536033,0.15381693467672058,0.07160129404456049
0.0,52.0,52.0,0.0,120.0,0.0,9.767476761184525,-22.283100583037317,-3.942461816111475,-107.0,0.0,-45.0,-4.669254085244944,-8.210109099341999,1.5676195844083711,34.27749209486002,17.526509587638845,5.0554409355152945,3.6806849044872982,3.1514125576955805,2.6578530560834435,2.139700327315046,1.6448263124644336,1.1936174680355842,0.823771029290463,0.5455610090555183,0.342124213270183,0.20009692843558438,0.10741236679298441,0.052101065759441054,0.022820155369549625,0.00831474204900922,7.329481347158738,5.98295846133945,5.406601432577175,4.8341471004657315,4.187086288823902,3.508897145157809,2.819589954166014,2.180312588555087,1.6304668152849984,1.166816233387303,0.7895806470205945,0.4986679592122349,0.2900371273216451,0.1552584871617204,0.07241628893004284
0.0,53.0,53.0,0.0,120.0,0.0,-7.959103785039439,-15.000173755179997,-10.892991849432033,-107.0,0.0,-45.0,-4.843939355531718,-1.881153560634326,3.620625958512072,34.27749209486002,17.526509587638845,5.076355364635117,3.7086516662051574,3.1760612233174585,2.678489603282814,2.1558202330317076,1.6565966621343,1.2015499419026947,0.8287524325004083,0.5485180667263704,0.3438146749553572,0.2011384723616562,0.10814581299018602,0.05259933816796241,0.02310633088984131,0.0084421835035008,7.347239263233389,6.011693991474795,5.434092130004025,4.859070463465782,4.208473359666875,3.5262517015649517,2.832762522749947,2.1896970075760147,1.636790808230053,1.1709185565749998,0.7924653824289765,0.5010594296449701,0.29201690037651623,0.15666921687286908,0.07322100150400772
0.0,54.0,54.0,0.0,120.0,0.0,-5.822464878103306,-24.0739102769693,9.663531995827366,-107.0,0.0,-45.0,-0.7120427750176219,-9.513736005796844,-4.027420052123594,34.27749209486002,17.526509587638845,5.097922831951192,3.7369840416366626,3.2009897977731567,2.699345249038841,2.172100821319783,1.6684764769992446,1.2095503028005095,0.8337725335033401,0.5514940857465085,0.3455047196361879,0.20216173970055618,0.10885766915740996,0.05308449402377398,0.023387404947459053,0.008568475879499857,7.365549253362816,6.040738231554351,5.461822494223808,4.884195468067379,4.230025486424321,3.5437348756927403,2.8460284738497785,2.1991447918153155,1.643152270636326,1.175020380407671,0.7952980459972234,0.5033744054423607,0.2939374582019577,0.15804936234182085,0.0740152921850146
0.0,55.0,55.0,0.0,120.0,0.0,-6.773809642300074,14.68488516787103,-9.304562642917261,-107.0,0.0,-45.0,-4.319259260252798,-3.1477803131681936,-0.0222309217465817,34.27749209486002,17.526509587638845,5.1201566011313036,3.765685293146467,3.226201665181985,2.720422680900041,2.188543986447309,1.680466970243624,1.2176192497951255,0.8388317190479497,0.5544896234239919,0.3471959011233558,0.20316875034377774,0.10954909446306152,0.05355682510400297,0.023663367313070376,0.008693577515515796,7.384420806574429,6.0700915045995405,5.489794200086839,4.909523830438893,4.251744142163125,3.561347817748057,2.859388636133789,2.2086565320503864,1.6495523205661657,1.179125516978556,0.7980847247368543,0.5056174079285238,0.2958005241683749,0.15939919655680515,0.07479903852664041
0.0,56.0,56.0,0.0,120.0,0.0,3.0621665093079677,-13.803765596980993,0.33956947639368096,-107.0,0.0,-45.0,-2.480590117539071,2.4446211767958985,0.8108192967206307,34.27749209486002,17.526509587638845,5.143069834011906,3.794758789798829,3.2517002736173732,2.7417246312010164,2.205151654073968,1.692569369209769,1.2257574833299005,0.8439303751027044,0.5575051638910546,0.3488895936541359,0.20416139132758818,0.11022122698217268,0.054016635645589714,0.023934216547584618,0.008817449792929945,7.403863201496182,6.09975427917274,5.518009081823051,4.935057451454112,4.273630957344681,3.5790916270894364,2.8728437549158095,2.218232855678674,1.6559919028982324,1.183237328448074,0.800831077286068,0.5077928347066564,0.2976078437614108,0.16071902465810475,0.0755721364178888
0.0,57.0,57.0,0.0,120.0,0.0,-4.934167949204358,-7.732415965154864,-8.270489130757822,-107.0,0.0,-45.0,-2.7883908465391616,-4.418641035428033,-2.584429599600816,34.27749209486002,17.526509587638845,5.166675575520805,3.8242080086275654,3.2774891264109285,2.7632538597992187,2.2219257593260693,1.7047849132403372,1.2339657188903246,0.8490688815201262,0.5605411337177981,0.35058700996599507,0.20514142123753365,0.11087518077257076,0.05446424085841268,0.024199959545406702,0.008940056840763712,7.423885374422263,6.129726903186513,5.54646872675592,4.960797892176029,4.295687261092041,3.5969675044211926,2.8863947302509265,2.2278742778456038,1.6624718701029761,1.1873587629930171,0.803542353589506,0.5099049528593353,0.2993611793771381,0.16200918180030013,0.07633449375054464
0.0,58.0,58.0,0.0,120.0,0.0,-0.6737845428738751,21.404064673279542,-12.06466546517898,-107.0,0.0,-45.0,-2.4680880627714807,-5.805001006887299,-3.309745938708387,34.27749209486002,17.526509587638845,5.190986729070475,3.8540365405370656,3.3035717924791452,2.7850131726576537,2.2388682693621607,1.717114856000071,1.2422446736923232,0.8542476201443956,0.5635979105354367,0.35228921923110995,0.20611047484841283,0.11151204333525792,0.05489996549153234,0.024460611087242255,0.009061365669602202,7.444496002153634,6.1600098768044145,5.575174878587792,4.986746895301208,4.317914537255527,3.614976601159888,2.9000423813146283,2.2375813542163305,1.6689929526310943,1.1914924118348178,0.8062234116157709,0.5119578935816377,0.30106230540782314,0.16327003101819695,0.07708603538900625
0.0,59.0,59.0,0.0,120.0,0.0,-5.111488159967945,10.220720096176642,10.8657455226505,-107.0,0.0,-45.0,-3.6894476878474225,-7.6859353334581275,3.5958083641962144,34.27749209486002,17.526509587638845,5.216016038376933,3.8842480923764473,3.3299519038557195,2.807005416515498,2.2559811764584223,1.7295604650620764,1.2505950712178981,0.8594669733610062,0.5666758330080255,0.3539971627437425,0.20707006830725844,0.11213287338494332,0.055324142455999675,0.024716193408479054,0.009181346018088166,7.465703442636871,6.190603767128387,5.6041293041262294,5.012906213475183,4.340314274410937,3.6331200696611896,2.913787524603335,2.2473546328091687,1.675555795451866,1.1956405458064738,0.80887873720574,0.5139556476159562,0.3027130035055113,0.16450196124780236,0.07782670067503603
0.0,60.0,60.0,0.0,120.0,0.0,-6.820608327089605,-23.408053523434607,14.187584670693909,-107.0,0.0,-45.0,-4.879637771023457,1.5428048804068357,-4.414650777644412,34.27749209486002,17.526509587638845,5.241776068248804,3.9148464896395234,3.3566331565012004,2.8292334795590453,2.273266498422855,1.7421230221252353,1.2590176413371894,0.8647273246957129,0.5697752084292692,0.35571166845251395,0.20802160455913246,0.11273869895098382,0.05573711150172766,0.024966735779900863,0.009299970270600614,7.487515711457637,6.221509211187282,5.633333793230952,5.039277609648799,4.362887966254482,3.6513990635666502,2.927630974279854,2.2571946551450703,1.6821609738683867,1.1998051523380155,0.8115124636451148,0.5159020617372833,0.30431505807506265,0.16570538541858598,0.0785564428052204
0.0,61.0,61.0,0.0,120.0,0.0,-7.792497176713898,-16.765292175104364,13.825039741890006,-107.0,0.0,-45.0,-3.845157028612519,3.90540011809372,-0.2937909608192708,34.27749209486002,17.526509587638845,5.268279185998833,3.9458356788599156,3.383619311147101,2.8517002921100905,2.290726279017978,1.7548038232376306,1.2675131204333456,0.8700290592397892,0.5728963189825165,0.3574334641783529,0.20896637896910275,0.1133305157892877,0.056139217948749966,0.025212274101071287,0.009417213374974084,7.50994045899287,6.252726918400578,5.662790158784878,5.0658628574419176,4.385637112003499,3.6698147381573527,2.9415735425199525,2.2671019571098645,1.6888090065240535,1.2039879689268707,0.8141283913728641,0.5178008361806017,0.3058702519850213,0.16688073862704111,0.0792752282254905
0.0,62.0,62.0,0.0,120.0,0.0,3.1265917893054684,6.073920074988177,12.196664976635368,-107.0,0.0,-45.0,1.1848025951274792,3.4391428119164473,-3.8416599869911474,34.27749209486002,17.526509587638845,5.2955375436694805,3.9772197297112695,3.4109141941741967,2.8744088273321133,2.3083625883918604,1.7676041790258308,1.2760822515293315,0.875372563952844,0.576039426875194,0.3591631895802345,0.20990558506224,0.11390928609059942,0.05653081147299087,0.025452850506040837,0.00953305276056399,7.532984948439886,6.284257672517146,5.692500236689726,5.092663741513172,4.408563216801652,3.688368250713146,2.955616039858144,2.2770770696164018,1.695500366054432,1.2081905132980484,0.8167300076339463,0.519655522956408,0.3073803624963605,0.16802847638622673,0.07998303604326222
0.0,63.0,63.0,0.0,120.0,0.0,-7.236340973027724,3.8614294302083785,8.221419980959162,-107.0,0.0,-45.0,4.742562128180502,8.977220414410148,-0.42941238668632664,34.27749209486002,17.526509587638845,5.323563061272271,4.009002836828102,3.438521698524367,2.8973621019545366,2.326177523517158,1.7805254149297898,1.2847257844159634,0.8807582278808125,0.5792047785306699,0.360901406938849,0.21084032031230437,0.11447593746936836,0.056912244946882545,0.025688512980999383,0.009647468256922092,7.556656034950549,6.316102333037695,5.72246588588569,5.119682057934529,4.431667792127451,3.7070607608758834,2.9697592755310622,2.2871205191297306,1.7022354877755876,1.2124141104710042,0.8193205059097243,0.5214695249972966,0.3088471574098775,0.1691490729462664,0.08067985745755872
0.0,64.0,64.0,0.0,120.0,0.0,-6.06835276639893,-13.10535893127457,-5.005645439140743,-107.0,0.0,-45.0,4.903450015608939,-9.945935722129946,4.7996232634230935,34.27749209486002,17.526509587638845,5.3523674112461554,4.0411893213681624,3.466445784645212,2.92056317701548,2.3441732086380327,1.7935688714431157,1.2934444757807109,0.8861864423164357,0.5823926079949757,0.36264861083359207,0.21177159191838335,0.11503136221643856,0.05728387333524738,0.025919314993471856,0.009760442013298787,7.580960146106727,6.348261836138381,5.7526889883940076,5.146919614569557,4.454952356205126,3.7258934310155225,2.9840040578174647,2.2972328281003196,1.7090147767434953,1.2166599169560097,0.8219028049831546,0.523246096076082,0.31027239143330587,0.1702430196811344,0.08136569520727445
0.0,65.0,65.0,0.0,120.0,0.0,-2.6254965867807183,21.71069989623969,-12.566958300360097,-107.0,0.0,-45.0,-0.9094590462693839,2.94393307788072,-0.7629364654452715,34.27749209486002,17.526509587638845,5.381962004343197,4.073783632341992,3.4946904814665456,2.9440151586232632,2.362351795724736,1.8067359043584177,1.3022390893370015,0.8916576009217265,0.5856031396929515,0.3644052367911583,0.21270032251704452,0.11557641679805312,0.057646052646894735,0.026145315132661995,0.009871958419154003,7.605903263977721,6.38073719512141,5.783171449380658,5.174378231454256,4.478418434416834,3.7448674265974993,2.9983511943739267,2.3074145153368257,1.7158386134691035,1.2209289423037322,0.8244795675185576,0.5249883414345388,0.3116578027692335,0.1713108235374409,0.08204056303760615
0.0,66.0,66.0,0.0,120.0,0.0,6.419864596958703,5.698297798294799,-2.7827648575857804,-107.0,0.0,-45.0,-3.3704557395339463,2.007844741952791,3.571249175045674,34.27749209486002,17.526509587638845,5.4123579771498225,4.106790347739809,3.5232598874081136,2.967721198736851,2.3807154649356974,1.8200278850173603,1.3111103959538457,0.8971720998260956,0.5888365906481112,0.36617166898491443,0.21362735578540756,0.11611192158318488,0.05799913894236682,0.026366576760546677,0.009982004025825587,7.631490909001913,6.4135295004265656,5.813915197238987,5.202059741179294,4.502067559715412,3.763983916550277,3.012801492565916,2.317666096339906,1.7227073585294728,1.2252220682288193,0.8270532180567706,0.5266992190609733,0.313005109924678,0.17235300554133748,0.08270448518451563
0.0,67.0,67.0,0.0,120.0,0.0,-8.057974484138775,1.7816401512479167,-8.032975734871718,-107.0,0.0,-45.0,1.3876175736652927,1.7747921994057627,-3.826844358168061,34.27749209486002,17.526509587638845,5.443566181689969,4.140214175764732,3.552158171714791,2.991684496266756,2.3992664253273652,1.8334462005851142,1.3200591735191092,0.9027303377817912,0.5920931722681703,0.3679482470608734,0.21455346189654667,0.11663866078178467,0.058343487397915804,0.026583167673432398,0.010090567472809196,7.657728126835902,6.446639921452066,5.844922187098706,5.2299659941555765,4.525901279164428,3.7832440781626753,3.0273557565364677,2.3279880822539614,1.729621357574816,1.2295400650791835,0.8296259604314724,0.5283815415467418,0.31431600874142046,0.17337009936219103,0.08335749597221824
0.0,68.0,68.0,0.0,120.0,0.0,6.758898149976076,4.495498817728549,-11.02537095726051,-107.0,0.0,-45.0,-0.0969465345126288,9.255406396804847,-2.287479232381359,34.27749209486002,17.526509587638845,5.475597179267809,4.1740599617810865,3.5813895862861065,3.0159083084682896,2.4180069197731617,1.8469922556528087,1.3290861997536672,0.9083327181434564,0.5953730919392867,0.36973527208886453,0.21547934276670855,0.11715738259679334,0.05867945141914912,0.02679515977543106,0.010197639496595695,7.684619501106788,6.480069769595011,5.876194497391273,5.258098989034844,4.549921320301818,3.8026492203232145,3.0420146993320007,2.338380943321793,1.7365809794849543,1.233883594739483,0.8321997966898204,0.5300379782563198,0.3155921696110753,0.17436264998177695,0.08399964192546812
0.0,69.0,69.0,0.0,120.0,0.0,-8.078031842120739,11.506101475838484,-13.397184546395241,-107.0,0.0,-45.0,4.894097772844315,-9.662566532599206,-0.9620725933266545,34.27749209486002,17.526509587638845,5.508461179560989,4.20833265703738,3.610958467254907,3.040395945433091,2.436939187109266,1.8606674768040345,1.3381922739420193,0.9139796429056892,0.5986765536785288,0.3715330121132028,0.2164056372476689,0.1176687994512177,0.05900738184284529,0.027002628753550053,0.010303212517686252,7.712169069987211,6.513820340955389,5.907734067382011,5.286460431324476,4.574129064650616,3.8222003935977065,3.056779224549592,2.3488452257521684,1.7435865070622643,1.2382532618517013,0.834776535569456,0.5316710588831979,0.3168352350734014,0.17533121217895972,0.08463097319475214
0.0,70.0,70.0,0.0,120.0,0.0,9.529189300267916,-9.402750226019908,6.767830926317362,-107.0,0.0,-45.0,-4.3469579284821975,3.929648614029002,-1.0018785999066928,34.27749209486002,17.526509587638845,5.542168177957726,4.243037378959025,3.640869175764329,3.0651507243321925,2.456065546015216,1.8744732929421086,1.3473781985363136,0.919671518638381,0.6020037594427821,0.37334170661325855,0.2173329258595936,0.11817358852568668,0.0593276261466971,0.027205653774744425,0.010407281051273105,7.740380394554759,6.547892988185436,5.939542875473784,5.315052228891016,4.598526082929974,3.841898783118367,3.0716501408680776,2.359381435128312,1.7506382515334664,1.2426495868219374,0.8373578149487466,0.5332831760089457,0.3180468173864558,0.17627634941833828,0.08525155107287681
0.0,71.0,71.0,0.0,120.0,0.0,-0.6269759670459685,-5.088946889195405,-14.657176241249068,-107.0,0.0,-45.0,2.832344383138131,6.27357299403727,1.7138347867015309,34.27749209486002,17.526509587638845,5.576727824891764,4.278179363906777,3.6711261742937067,3.0901760376941105,2.475388325187581,1.888411156924611,1.3566447821894771,0.9254087549232178,0.6053549097269182,0.3751615706296634,0.21826173546720398,0.11867239232580606,0.05964052774933834,0.02740431718379746,0.010509841333692635,7.76925652681181,6.582289175521581,5.971622966732165,5.343876282385074,4.62311395314943,3.8617455805378325,3.086628258877827,2.36999007473906,1.757736516812854,1.2470730285938614,0.8399451135930442,0.5348765889511425,0.3192284964805568,0.177198632544971,0.08586144512946256
0.0,72.0,72.0,0.0,120.0,0.0,9.535221763806742,-14.507812551243893,8.117422455083286,-107.0,0.0,-45.0,-2.116015026685061,0.19614393243168315,-1.5528187262449231,34.27749209486002,17.526509587638845,5.612149467121216,4.313763981874477,3.7017340013663085,3.115475328743217,2.4949098846083877,1.9024825386841944,1.3659928415094864,0.9311917642400843,0.6087302041147447,0.3769927983305253,0.21919254366074284,0.11916581940028431,0.05994642535737538,0.027598704212432948,0.010610891322432795,7.798800011370661,6.617010437579351,6.003976409979328,5.372934507397098,4.647894263377409,3.8817419831204036,3.101714390742412,2.380671646270499,1.7648816006055141,1.2515239933944564,0.8425397645271201,0.5364534276770039,0.32038181808464417,0.17809863858224784,0.0864607326885677
0.0,73.0,73.0,0.0,120.0,0.0,2.0969103949009202,-15.690349705983191,-10.591600637988748,-107.0,0.0,-45.0,-2.58581379923426,-3.320702608063817,2.1376686841001638,34.27749209486002,17.526509587638845,5.648442151749309,4.349796737184549,3.7326972727386916,3.1410520922942387,2.5146326160875336,1.916688925494065,1.3754232011935659,0.9370209620360807,0.6121298417156826,0.37883556610470037,0.22012578289270426,0.11965444516302308,0.06024565236807149,0.0277889026973349,0.010710430627557934,7.829012887983571,6.652058377590773,6.036605297955912,5.40222883487826,4.672868612115616,3.9018891940935,3.1169093504874956,2.39142665007001,1.772073795387713,1.2560028423038527,0.8451429675851918,0.5380156969625794,0.3215082920629659,0.17897694957228885,0.08704949842694056
0.0,74.0,74.0,0.0,120.0,0.0,4.785271587966033,22.218619499196677,-12.614337522397328,-107.0,0.0,-45.0,1.6250457153267597,5.816803264548099,1.391868992253925,34.27749209486002,17.526509587638845,5.685614633056174,4.3862832692454585,3.7640206826314744,3.1669098756699974,2.5345589438124754,1.9310318222363207,1.3849366941626398,0.9428967667953031,0.6155540215071654,0.3806900352427221,0.22106184436556947,0.12013881280462636,0.06053853632656192,0.02797500280696276,0.010808460444490676,7.8598966972976205,6.6874346655960135,6.069511747506803,5.431761211564821,4.698038608661397,3.92218842299658,3.1322139542828955,2.4022555854053067,1.7793133891974084,1.260509897808758,0.8477558011433294,0.5395652807504987,0.3226093909571575,0.17983415145787865,0.08762783398610806
0.0,75.0,75.0,0.0,120.0,0.0,-9.216244154913586,11.97753975246438,-12.311908972841838,-107.0,0.0,-45.0,-2.5393681500903553,-8.055141487351507,-1.0083885474522694,34.27749209486002,17.526509587638845,5.723675382159531,4.42322935339205,3.7957090050101194,3.193052279644238,2.554691324903507,1.94551275167366,1.3945341616958922,0.9488196001093188,0.6190029426030925,0.3825563542535227,0.22200108167180402,0.12061943427870249,0.060825398436571136,0.02815709677710224,0.010904983488089022,7.891452489866246,6.723141036631378,6.102697899795571,5.46153360040484,4.723405873456757,3.9426408860276854,3.1476290207178046,2.4131589507179405,1.786600666275869,1.2650454494608934,0.8503792330513187,0.5411039466614124,0.3236865487281764,0.180670833005319,0.08819583759760093
0.0,76.0,76.0,0.0,120.0,0.0,-4.343860748471808,-0.4770595691216464,5.1614342206174335,-107.0,0.0,-45.0,1.6585911755918765,-1.1592872454014937,-0.6823987234568074,34.27749209486002,17.526509587638845,5.762632599482069,4.460640901824729,3.8277670949259863,3.2194829594115086,2.5750322499722764,1.9601332547252939,1.4042164535651496,0.954789886748149,0.6224768044646687,0.38443466086060313,0.2229438141897352,0.1210967913492533,0.06110655312334146,0.028335278655078046,0.011000003927965595,7.923680838402629,6.759179288948872,6.1361659205520676,5.491547980985505,4.748972038423207,3.9632478063879346,3.1631553710690277,2.424137243870657,1.7939359075930115,1.2696097587498185,0.8530141307863525,0.5426333506175003,0.3247411596917973,0.18148758476772148,0.08875361372067582
