Line_number,Fiducial,Easting,Northing,Height,Elevation,tx_pitch,tx_roll,tx_yaw,txrx_dx,txrx_dy,txrx_dz,rx_pitch,rx_roll,rx_yaw,PX,PZ,S0X_time_1.086e-05,S0X_time_3.256e-05,S0X_time_5.426e-05,S0X_time_8.680e-05,S0X_time_1.411e-04,S0X_time_2.279e-04,S0X_time_3.689e-04,S0X_time_5.860e-04,S0X_time_9.115e-04,S0X_time_1.411e-03,S0X_time_2.192e-03,S0X_time_3.418e-03,S0X_time_5.339e-03,S0X_time_8.301e-03,S0X_time_1.338e-02,S0Z_time_1.086e-05,S0Z_time_3.256e-05,S0Z_time_5.426e-05,S0Z_time_8.680e-05,S0Z_time_1.411e-04,S0Z_time_2.279e-04,S0Z_time_3.689e-04,S0Z_time_5.860e-04,S0Z_time_9.115e-04,S0Z_time_1.411e-03,S0Z_time_2.192e-03,S0Z_time_3.418e-03,S0Z_time_5.339e-03,S0Z_time_8.301e-03,S0Z_time_1.338e-02
0.0,0.0,0.0,0.0,120.0,0.0,-0.189981557422513,-0.16793060002611448,0.5744229392683367,-107.0,0.0,-45.0,0.86821465236928,0.5289477403394607,0.18551230265105922,34.27075459658479,17.56211432789952,1.685278867185817,1.5160883134738954,1.455022249448169,1.3897441255934304,1.309702272126017,1.2163460280706224,1.1076478549529245,0.9882761130340605,0.8630052981807961,0.7308825819053502,0.5943189435109185,0.4600922527231861,0.3366499424544225,0.2323601093418784,0.14526741735573956,3.2473942253813686,2.9990614923520327,2.9091878060969574,2.8123686843677826,2.69224151494498,2.5497981237753073,2.3803706524463473,2.1892296473361013,1.9819278309540869,1.7543262430788078,1.5071027268723358,1.2487421422395844,0.9926897689578225,0.7562321830433983,0.5358472586256035
0.0,1.0,1.0,0.0,120.0,0.0,-0.13814150525634128,0.47086639659959606,0.7889385562208624,-107.0,0.0,-45.0,-0.504518881972537,-0.35163050897805803,0.3752091192227125,34.27075459658479,17.56211432789952,1.621112315686137,1.4151931105224305,1.3567092756006995,1.2955947729618216,1.2212423929174026,1.1348617386364355,1.034449272031166,0.9242013241443042,0.8084166100297961,0.6861088284890435,0.5593972863721799,0.4344672716139515,0.31912589081588005,0.22122875953424925,0.1390225862791139,3.1667556780549844,2.857390233274754,2.768692237283439,2.67564613168171,2.561236491924429,2.42622484661047,2.2660360406660693,2.085527567836505,1.8898152028446662,1.6748650981152475,1.441171430919239,1.196581343174361,0.9536512094614301,0.7286746149826747,0.5182147033321185
0.0,2.0,2.0,0.0,120.0,0.0,0.7686135511184358,-0.8146785571057826,-0.8370206280943391,-107.0,0.0,-45.0,-0.5070295624232408,-0.6007886459631957,0.9412829485250289,34.27075459658479,17.56211432789952,1.5766572477566498,1.3242118949213082,1.2669461515768548,1.2094168797911486,1.1401368919545587,1.0600362272669588,0.9671163725410453,0.8651436573151747,0.7579862178342326,0.644630986053027,0.5269369539367859,0.4105516277409151,0.30269306334957935,0.21073476379172854,0.13309844669585513,3.113138163241945,2.7275036134763067,2.6376444314850604,2.547723825073084,2.4384663701113647,2.3102844733136214,2.1586465371225523,1.9880123815164663,1.803085160050596,1.5999282128858805,1.3788687769997299,1.1471656897400273,0.9165505481140191,0.7023871020379523,0.5013174335974454
0.0,3.0,3.0,0.0,120.0,0.0,0.44514401400609827,-0.5768601392819195,-0.3828155696648585,-107.0,0.0,-45.0,-0.10079035067144071,-0.6482636087559015,0.5008586198178708,34.27075459658479,17.56211432789952,1.5485636436443326,1.2430758185958903,1.1849772050855247,1.130438618785852,1.0656749276510038,0.991236093885353,0.9051027204609305,0.8106472801550924,0.71134720806644,0.6061684642820991,0.49673763094741946,0.3882138640826478,0.2872732396603281,0.20083617168428097,0.12747608744093342,3.0821328746712586,2.6103672711087222,2.515577388439558,2.4279857209606157,2.3233358649897276,2.2014285111264944,2.0577093403524933,1.896252066266934,1.72136880845208,1.5292127371732367,1.319959350031444,1.1003244371682852,0.8812738349690586,0.6773001820286817,0.48511900139467456
0.0,4.0,4.0,0.0,120.0,0.0,-0.9978015689309898,-0.4559730670117421,0.9233812568070987,-107.0,0.0,-45.0,-0.7192921868707645,0.20658707828630352,0.04519453795902839,34.27075459658479,17.56211432789952,1.5333037811727168,1.171909047550328,1.1102287334437697,1.0579843493679038,0.9972256345247694,0.9278970180837127,0.8479198461273686,0.760303347222386,0.6681692996195453,0.5704676403888331,0.4686173681418781,0.3673338886385495,0.27279448858621413,0.19149412307723196,0.12213784283483473,3.068881774518823,2.507120300230917,2.402286686325719,2.3158910424351675,2.2153016622983017,2.0991535216591326,1.9627710842947406,1.8098485350740598,1.6443257279967578,1.4624387171329778,1.2642250436429052,1.0558989145455926,0.8477147554006427,0.6533487278873971,0.46958502182345013
0.0,5.0,5.0,0.0,120.0,0.0,0.593223694925193,-0.6978277786348965,-0.8210281879814114,-107.0,0.0,-45.0,-0.6952028272548378,0.4060934963362075,0.7992341096835796,34.27075459658479,17.56211432789952,1.527681643113399,1.1107515328220396,1.0423131885396026,0.9914698346081536,0.9342284969378161,0.8695152174074775,0.7951303528147146,0.7137445826365592,0.6281547700743598,0.5372989818588052,0.44241071866697995,0.34780189046637267,0.2591906122152337,0.1826725987370207,0.11706720310910508,3.068913750529874,2.4185554904019053,2.2978480098413554,2.210989239536804,2.1138689781156623,2.0029970782354747,1.8734144502692724,1.728434734834881,1.5716415771981418,1.3993471994523947,1.2114636591241075,1.013741580919321,0.8157740631228914,0.6304716476318702,0.4546830435659082
0.0,6.0,6.0,0.0,120.0,0.0,0.35921577015402884,-0.2502788878620641,0.2535909228444624,-107.0,0.0,-45.0,0.4628426134722028,0.08176197807097241,-0.38204299184726676,34.27075459658479,17.56211432789952,1.5290558196578352,1.0593838663094888,0.9809889671150946,0.9304021545241449,0.8761851896810214,0.8156401603018023,0.7463419392861138,0.6706405553242475,0.5910348816885728,0.5064545058351588,0.41796708090416157,0.32951736796610526,0.2464006429652877,0.17433819252875987,0.11224873170149728,3.0785155047691357,2.344825958607649,2.2025280649409327,2.1129404944711636,2.018589027650528,1.9125343170201108,1.789255072024164,1.6516720088609327,1.5030259110398787,1.3396985028811266,1.1614876263605776,0.973715161125594,0.7853590587877243,0.6086116067886267,0.4403824281714219
0.0,7.0,7.0,0.0,120.0,0.0,0.4939942603424472,-0.6935750503176301,-0.6304637859738365,-107.0,0.0,-45.0,-0.6372282658574191,0.1058972355192509,-0.9129953396076822,34.27075459658479,17.56211432789952,1.5353720590932303,1.0172880723709838,0.9260895678314539,0.8743778144641154,0.8226531057983171,0.7658683439675704,0.7012021903811634,0.6306935520045138,0.5565667393153905,0.47774553243298806,0.39514922303803496,0.3123882569983738,0.2343683883741693,0.1664599032534316,0.10766798891907851,3.094798580730505,2.285417546665175,2.1166335186097927,2.0215247147437982,1.929058819569839,1.827374964280874,1.7099386970103425,1.5792477048795976,1.4382101914065328,1.2832706420756437,1.114122835501225,0.9356918542331154,0.7563831102875687,0.587714771502732,0.42665423757100823
0.0,8.0,8.0,0.0,120.0,0.0,0.3298084104547121,0.5846245840606299,0.30311881633378834,-107.0,0.0,-45.0,-0.9446303227530388,-0.02774772562138894,-0.12764096663484414,34.27075459658479,17.56211432789952,1.5451005318579631,0.9837011919949668,0.8774523319478094,0.8230736512747769,0.7732407110462912,0.7198379212750013,0.659394033502568,0.593634964380041,0.5245305229852053,0.45100069507298296,0.37383196783425193,0.29633014786294093,0.2230420187975145,0.1590089443486193,0.10331146142300424,3.1156161858321556,2.239287428166087,2.040368827089379,1.9366277897456834,1.844923613427308,1.7471606914378845,1.63513861737046,1.510873001183622,1.3769459731232467,1.2298578897349899,1.069207569224777,0.8995526081486678,0.728765211225266,0.5677305707091542,0.41347112916547457
0.0,9.0,9.0,0.0,120.0,0.0,-0.0938073263593533,0.42696627860201297,0.06981702323958228,-107.0,0.0,-45.0,0.7814354312148579,-0.22936410543859442,-0.08871470781420188,34.27075459658479,17.56211432789952,1.5571392954120713,0.9577061216496765,0.8348682970087211,0.7762302065216974,0.7276041365178822,0.6772240525412268,0.6206317789245183,0.559222117355222,0.49472704682888546,0.42606417577945793,0.3539010188458142,0.28126558142336405,0.2123736937119817,0.15195856983867445,0.09916649703947338,3.139426834560131,2.205058783594656,1.9737466536652681,1.8582074814039118,1.7658801174344698,1.6715628870415882,1.5645533702858725,1.4462809232895033,1.3190032513873242,1.1792694639767825,1.0265915265155043,0.8651864545037793,0.7024295743261928,0.5486114758705167,0.4008072579048056
0.0,10.0,10.0,0.0,120.0,0.0,-0.2217915835558728,-0.23340703483020064,-0.8025992553700196,-107.0,0.0,-45.0,-0.6306986713792293,0.4022493444882991,0.7150646900810849,34.27075459658479,17.56211432789952,1.5707162083974846,0.9383216774933271,0.7980591357819451,0.7336311855372479,0.6854439587128935,0.6377349443573013,0.5846576636632251,0.5272354774675676,0.46697560277113587,0.40279413768416483,0.33525191163196794,0.2671234157789838,0.20231922276994546,0.14528391506813365,0.0952212444846884,3.165154630644379,2.181202132708356,1.916558387923156,1.786250111784064,1.6916775517636233,1.600281047795548,1.4979046725490766,1.3852245328181292,1.2641689564904526,1.131328329299015,0.9861349297056055,0.832489898480274,0.6773052568518823,0.5303127969044953,0.3886381848801521
0.0,11.0,11.0,0.0,120.0,0.0,0.17164123212858695,-0.8068810749516153,-0.8158067118952059,-107.0,0.0,-45.0,-0.5845913528471667,0.43736116922605905,-0.43826693886778245,34.27075459658479,17.56211432789952,1.5853032806933542,0.924574231333033,0.7666765218930804,0.695083528704096,0.6465012928024445,0.6011085343062885,0.5512388239038976,0.4974761921017675,0.441112052698578,0.38106133077368975,0.31778907559603775,0.25383825587572756,0.19283775815326643,0.13896185088735852,0.09146459763659381,3.192067343880339,2.166174519491733,1.8683906206360847,1.7207299152197586,1.6221146171533036,1.5330418265881292,1.4349355515875657,1.327475277817669,1.2122455813980435,1.0858701009475578,0.9477077072399077,0.8013663587385024,0.6533258153297279,0.5127924930339463,0.3769407919948635
0.0,12.0,12.0,0.0,120.0,0.0,-0.18703181666242852,-0.8991455406488551,0.18614573996690953,-107.0,0.0,-45.0,0.7193132088776264,0.8199506772298442,0.698861022752703,34.27075459658479,17.56211432789952,1.600547681147249,0.9155468525327111,0.7403154755855893,0.6604013745000373,0.6105528792935923,0.5671097168930433,0.5201646355729218,0.469763918038396,0.41698713749959054,0.3607478501510364,0.30142499380229565,0.2413499393218379,0.18389151513220717,0.13297085008280868,0.08788614400236422,3.21967849907263,2.158512727786618,1.8286675484292467,1.6615787588921973,1.5570321527995457,1.4695984991995703,1.3754086621964556,1.2728214940903138,1.1630499287233178,1.0427420436240726,0.911188745277241,0.7717256530695057,0.6304289871450568,0.49601099739547017,0.3656932022923803
0.0,13.0,13.0,0.0,120.0,0.0,0.06761512565036254,-0.5555241182198227,-0.43650415763581507,-107.0,0.0,-45.0,0.7108429510428869,0.41209402747875945,-0.09942404842464425,34.27075459658479,17.56211432789952,1.6162189780073042,0.9104084962501874,0.7185338637015598,0.6293953151081215,0.5774053794812454,0.5355279509808508,0.49124437903058654,0.4439349029789802,0.39446497576878825,0.34174602877040594,0.28607944967317595,0.22960307244253134,0.17544551805634415,0.12729086495687694,0.08447611704660099,3.2476727726072494,2.156887787600894,1.7967023734723473,1.6086688949815693,1.4963027051328122,1.4097304363451404,1.3191048025651098,1.2210670437730808,1.1164119657010152,1.0018021561825643,0.8764652019038149,0.7434835257937616,0.6085563967550139,0.4799310543369621,0.3548747055354734
0.0,14.0,14.0,0.0,120.0,0.0,-0.594520650304009,0.569282967398685,0.35182710148643337,-107.0,0.0,-45.0,0.8259786791506996,0.5899278713058265,0.7646714534720176,34.27075459658479,17.56211432789952,1.6321702994110474,0.908427906539731,0.7008725578471132,0.6018668145220588,0.546889392144178,0.5061750816952404,0.4643051941955415,0.4198402876583278,0.37342172891139114,0.32395744885895367,0.2716788508244681,0.218546611280559,0.16746736929180608,0.12190321506435824,0.08122535206910601,3.275851269964198,2.160130861755523,1.77174666705018,1.5618077061291344,1.439818863589594,1.3532421783260493,1.265821643320297,1.1720300757781612,1.0721737777986795,0.9629183345036725,0.8434318783677444,0.7165612132826784,0.5876532844806083,0.46451756842181824,0.344465688659867
0.0,15.0,15.0,0.0,120.0,0.0,0.34756543942220164,-0.1495253623251771,0.6846770602808994,-107.0,0.0,-45.0,0.5195378290541743,-0.6492293009251244,-0.8111669780375812,34.27075459658479,17.56211432789952,1.648310601654687,0.9089768387765559,0.686873152170602,0.5776067889888683,0.5188537467579366,0.4788832479675667,0.43919029497744505,0.3973446001935483,0.35374441268586154,0.30729205818336375,0.2581556214812742,0.20813348284147298,0.15992703887645132,0.11679048420519508,0.07812524534794815,3.3040925872559472,2.167239706166089,1.753032057892436,1.5207415381407254,1.3874821261729526,1.2999618623449418,1.21537266109346,1.1255418947446514,1.0301886128473052,0.9259676053182785,0.8119906423084703,0.6908850442992045,0.5676682560136426,0.4497374642370664,0.3344475707565059
0.0,16.0,16.0,0.0,120.0,0.0,-0.5873418769747036,0.9220085287672002,0.6351938363605223,-107.0,0.0,-45.0,-0.30239983690495875,0.07104995179292306,-0.4063024551143213,34.27075459658479,17.56211432789952,1.6645853801823265,0.9115263541876326,0.6760919472544886,0.5563970596483855,0.49316050535484357,0.4535028069459748,0.4157574098241752,0.37632441856341997,0.3353298378775899,0.29166737903315165,0.2454476559453588,0.1983202424050544,0.15279667289442186,0.11193642585674879,0.07516771628871657,3.332325815771203,2.1773728599897026,1.7398023756515995,1.485165287033233,1.3391935525517074,1.2497389542142312,1.1675862387775213,1.0814459294675967,0.9903200080365299,0.8908354244357927,0.7820498984331841,0.6663860721500681,0.5485530509388538,0.4355595561751887,0.32480274226506595
0.0,17.0,17.0,0.0,120.0,0.0,0.5512246189853109,-0.7894496914224978,-0.4169170449127775,-107.0,0.0,-45.0,-0.8011142669296225,-0.13718200523648338,0.01756927971085398,34.27075459658479,17.56211432789952,1.6809635644381467,0.9156389790859428,0.6681100274412182,0.5380134665612895,0.4696809185422857,0.42990026413590904,0.3938774127547164,0.3566671811039001,0.3180836649411504,0.2770077993112184,0.23349782647394382,0.18906676318728996,0.1460504187764733,0.10732587630458347,0.07234517234332757,3.3605122594840218,2.189836705993266,1.7313365575629656,1.4547348136945095,1.294846850760693,1.2024414082128512,1.1223048731456753,1.0395967957511398,0.9524409922577671,0.8574150335538858,0.7535241024967028,0.6429997359176914,0.5302623287192437,0.42195442742605066,0.31551450808598164
0.0,18.0,18.0,0.0,120.0,0.0,0.6448664952981262,-0.1356945942708323,0.047445822926302395,-107.0,0.0,-45.0,0.11416973642790662,0.9511743142083824,-0.08165973896690848,34.27075459658479,17.56211432789952,1.6974288060602747,0.9209587041633535,0.6625398366755719,0.5222296856001969,0.44829240397315906,0.40795623881825444,0.3734331092953695,0.3382701281740549,0.3019195592597046,0.26324393645547706,0.22225353970222356,0.18033595504742442,0.13966426591524134,0.10294467479921061,0.06965047648183806,3.3886333206952624,2.2040689250314207,1.7269636383627522,1.4290799984687295,1.2543240176641555,1.1579524822794114,1.0793844243300919,0.999859450470382,0.9164333565455041,0.8256068704897854,0.7263333147968039,0.6206655482932891,0.5127534707259599,0.40889431747667504,0.3065670343406251
0.0,19.0,19.0,0.0,120.0,0.0,0.48718016456202373,-0.14950048300944818,0.8690258430440709,-107.0,0.0,-45.0,-0.6515210237458553,0.8423028581435377,0.46893928636427673,34.27075459658479,17.56211432789952,1.7139738066904693,0.9272001742223539,0.6590288803132054,0.5088210814478027,0.42887648355647695,0.3875635140958868,0.3543181450412789,0.32103936050585175,0.28675843527759637,0.2503120660701482,0.21166633641666774,0.17209350929755113,0.13361590014764727,0.09877959012829671,0.067076917018758,3.416682639134306,2.2196206829210126,1.7260714404995965,1.4078170092449105,1.2174932917360974,1.1161674670962787,1.0386933503940534,0.9621084329738699,0.8821869859676081,0.7953180282184343,0.7004027897246833,0.5993268077622613,0.4959863970149961,0.39635301747316615,0.2979452985293514
0.0,20.0,20.0,0.0,120.0,0.0,0.004660167945806704,0.45260424311781144,0.07260965866684677,-107.0,0.0,-45.0,-0.7508559761363516,0.8549043499166782,-0.7938045444031909,34.27075459658479,17.56211432789952,1.730596699047962,0.9341379611586188,0.6572612036433687,0.4975681895472559,0.41131753688698997,0.36862522294800654,0.3364360103844828,0.30488900131236985,0.2725277792266231,0.23815360813589367,0.20169153007943916,0.164307666992872,0.1278845708022955,0.09481825304997715,0.06461817961156971,3.4446610951267367,2.2361390508309977,1.7281105061041442,1.3905589907582514,1.1842089815325607,1.076990563907055,1.0001118887267377,0.9262271875981729,0.8495992471982082,0.7664617585237594,0.6756625982212859,0.5789303330983366,0.4799233966634496,0.3843057728511538,0.28963504285511626
0.0,21.0,21.0,0.0,120.0,0.0,-0.4096681459438929,0.18946299882510176,-0.23241947799065277,-107.0,0.0,-45.0,-0.17634823550443635,0.2756921050581087,0.8142677759530588,34.27075459658479,17.56211432789952,1.747298784435228,0.9415964827146901,0.6569572282556174,0.48825961961681386,0.39550219535325315,0.35105321198720574,0.31969912190147987,0.2897404502665811,0.259161041495638,0.22671466451594438,0.19228788002776295,0.15694900836384967,0.1224509691400124,0.09104909408378385,0.06226832126379987,3.4725736987613787,2.2533505762502477,1.732594582485203,1.3769248453270386,1.1543126695974257,1.0403320904401931,0.9635311678690511,0.892107458216504,0.818574426977558,0.7389570163985566,0.6520472802851353,0.5594262183057184,0.46452897057911924,0.3727291926889619,0.2816227304966654
0.0,22.0,22.0,0.0,120.0,0.0,-0.21626241351613507,0.7348242004069292,-0.49846896466940516,-107.0,0.0,-45.0,0.978649861381214,-0.5267745735679357,0.7069604624063159,34.27075459658479,17.56211432789952,1.7640831474944878,0.9494408920792284,0.6578724270152385,0.48069431113973293,0.3813192010442834,0.33476660932876257,0.30402796764890727,0.27552171827013117,0.2465970908719715,0.2159456022055806,0.18341729573437804,0.14999026130157922,0.11729711713231332,0.08746128620166344,0.06002174617840875,3.5004276947047774,2.271046515020221,1.7390987096061297,1.366546077160768,1.1276353149458644,1.006106127884208,0.9288522533945045,0.8596487434787384,0.7890232175177169,0.71272804161127,0.6294955249515188,0.540767606311846,0.4497696857899363,0.3616011652815292,0.27389550463042134
0.0,23.0,23.0,0.0,120.0,0.0,-0.8210187203477752,0.5931241756303884,0.06316796280919457,-107.0,0.0,-45.0,-0.8875107836096596,0.3059371775622999,-0.9484229644538296,34.27075459658479,17.56211432789952,1.7809538266641574,0.9575690940214141,0.6597952186060589,0.47468315683993895,0.3686595738479075,0.31969060681061406,0.28935030925615857,0.2621668327277095,0.23477972389802354,0.20580067740776717,0.17504456892286333,0.14340612702887273,0.11240626562708725,0.08404469200317069,0.05787318331972062,3.528231434279123,2.289069953379493,1.7472557171603529,1.359071847039249,1.1039998481213324,0.9742286590560398,0.8959851464610689,0.8287578003526624,0.7608622455182269,0.6877039741308006,0.6079498754114244,0.5229104798605893,0.4356140403044669,0.35090077947308845,0.26644115001441654
0.0,24.0,24.0,0.0,120.0,0.0,0.5444978697061136,-0.19998061935713096,-0.32495745547572197,-107.0,0.0,-45.0,-0.15890305234468372,0.5499370284712937,-0.9324165325255587,34.27075459658479,17.56211432789952,1.7979153294278027,0.9659049249141232,0.6625443759909033,0.47005005687651924,0.35741695857687017,0.3057554526932311,0.27560043779525506,0.24961530394200848,0.22365722343691286,0.19623769607679892,0.1671371306904555,0.1371731212856635,0.10776280104440394,0.08078981499652889,0.055817665553678425,3.5559937216773676,2.3073048575922313,1.756751739673854,1.3541724686036536,1.083223941835902,0.94461619679278,0.8648477624971073,0.799348183901189,0.7340136417758806,0.6638185003823868,0.5873564571586644,0.5058134681895936,0.4220323377120769,0.34060825132326333,0.25924805696106634
0.0,25.0,25.0,0.0,120.0,0.0,0.13933095796074912,0.4395823338064535,-0.48557442622302394,-107.0,0.0,-45.0,0.9508277301790002,-0.7117133128155981,0.9291670960950595,34.27075459658479,17.56211432789952,1.8149723570090375,0.9743924546945566,0.6659661725581902,0.4666324868943759,0.3474880543790406,0.2928956403209489,0.26271848291738126,0.23781164426847054,0.21318196124175962,0.18721770706761456,0.15966483110620475,0.13126942953148749,0.10335215982923587,0.07768775464125517,0.05385051024688078,3.583723446869775,2.3256669638682843,1.767321201382564,1.3515416037635724,1.0651227286256815,0.9171848650864509,0.8353649205600848,0.7713398127230149,0.7084046484509633,0.6410095275995913,0.5676647272459575,0.48943766819831963,0.40899657076166684,0.3307048557145955,0.2523051875381474
0.0,26.0,26.0,0.0,120.0,0.0,0.7350373076882821,0.4415170436043361,0.6258270884463266,-107.0,0.0,-45.0,-0.9958831219389432,-0.827613817307981,-0.2032976394256798,34.27075459658479,17.56211432789952,1.8321296534981224,0.9829913194460396,0.6699314337095723,0.46428166720908626,0.3387730567880779,0.2810492713317945,0.25064977589466,0.22670493277846923,0.2033100398988198,0.1787047244695812,0.15259973902925514,0.1256747748227812,0.0991607499630628,0.07473016483885384,0.051967301214630654,3.6114293879197295,2.344096345914179,1.778741602084489,1.3508974070966142,1.0495113145657042,0.8918498730981602,0.8074673724251916,0.7446585517470304,0.683967260977538,0.6192188838292215,0.548827242898504,0.47374647892611876,0.3964803132218441,0.3211728625402411,0.2456020438490127
0.0,27.0,27.0,0.0,120.0,0.0,0.44039424895910617,0.5988325076940442,-0.7367451477489855,-107.0,0.0,-45.0,0.9405125546289033,0.36497455169015214,-0.10177030900770068,34.27075459658479,17.56211432789952,1.849391927150197,0.9916729665287214,0.6743326174565367,0.4628624155188455,0.33117606644336195,0.27015756848809735,0.23934426733656847,0.21624841930710378,0.19400096999379596,0.170665476095565,0.1459159601354846,0.12037029716084272,0.09517587890373085,0.07190921558593986,0.05016387191713699,3.63912011092767,2.3625514585447336,1.7908283428505924,1.3519828443281559,1.0362070006838877,0.8685253116543186,0.7810908959303144,0.719235806662963,0.6606379014762574,0.5983920414225409,0.5307994478815331,0.4587054482634304,0.3844586193833283,0.31199547713865483,0.2391286382537533
0.0,28.0,28.0,0.0,120.0,0.0,0.7488487207682955,0.472696632044721,0.514234954164625,-107.0,0.0,-45.0,0.8454081034498753,-0.6019562962525815,-0.7508985982370684,34.27075459658479,17.56211432789952,1.8667638124361559,1.0004176839402665,0.6790810125908913,0.4622527564004198,0.32460543711403916,0.26016451237746513,0.22875599982174205,0.20639916283849058,0.18521737876022792,0.1630691754440182,0.13958947135532712,0.11533844322938178,0.09138568738336296,0.06921755752942067,0.04843628981109028,3.666803924663983,2.3810044429403407,1.803429759441238,1.354565378603791,1.0250311708366442,0.8471242002075532,0.7561754709564666,0.6950081268077384,0.6383571204279352,0.5784778620938412,0.5135394751511407,0.44428213091393304,0.3729079306171153,0.30315678466790086,0.23287546540284657
0.0,29.0,29.0,0.0,120.0,0.0,-0.8772867416006676,-0.43825052362906725,0.5503055096961371,-107.0,0.0,-45.0,0.40335239169521064,-0.3895379677072357,-0.7831225531933934,34.27075459658479,17.56211432789952,1.884249854396668,1.0092122867888011,0.6841041151013483,0.46234335035056306,0.31897404943618146,0.25101657733842037,0.21884263481277083,0.19711770015247,0.17692474683084788,0.15588731475703596,0.13359797011528854,0.1105628655504139,0.08777908854837657,0.06664828918625663,0.04678084177119752,3.694488864823826,2.399437484003067,1.8164224762153882,1.3584361863933518,1.015810838045299,0.8275587166563423,0.7326645498210679,0.671916815533094,0.6170693233507328,0.5594283618377573,0.4970079644394526,0.43044595671175917,0.3618059884499206,0.2946416981360453,0.2268334759639078
0.0,30.0,30.0,0.0,120.0,0.0,0.5506407083366889,-0.9380980404088692,0.28845195062036266,-107.0,0.0,-45.0,0.34791188464277867,-0.8117531075540481,0.6198145769671579,34.27075459658479,17.56211432789952,1.9018545047399427,1.0180483423172417,0.6893432212477003,0.4630367948589524,0.31419950638863875,0.2426625442938352,0.20956503224703327,0.18836774148753005,0.1690911700426995,0.1490934770643993,0.12792073694391087,0.10602833018518268,0.08434571197442273,0.06419492661112228,0.04519402050299542,3.722182693656231,2.417840026249071,1.8297071504836127,1.3634090355734891,1.0083798631063217,0.8097405503996465,0.7105044276303193,0.649907548797119,0.5967225193178881,0.5411984941667085,0.48116789353846007,0.4171681084759627,0.3511317536621411,0.28643590982596656,0.22099405193047306
0.0,31.0,31.0,0.0,120.0,0.0,-0.260975079760577,-0.07571851350984304,-0.3077305069875431,-107.0,0.0,-45.0,0.7643449246439216,0.21026084375470933,-0.7327387447927707,34.27075459658479,17.56211432789952,1.9195821238116397,1.0269208276525448,0.6947512580557128,0.46424684068346367,0.31020425282142056,0.23505337115145036,0.2008868802872835,0.18011589065149372,0.16168714355417757,0.14266316533632822,0.12253851015261355,0.10172063219418341,0.08107585213286407,0.06185137531412665,0.04367251187440895,3.749892907110973,2.436206676744051,1.8432046440580514,1.3693189327517248,1.002579872306731,0.7935813286519504,0.6896437127808802,0.6289300038966704,0.5772680883562314,0.5237459502622761,0.4659844221533603,0.4044214086547871,0.3408653309537147,0.27852584587301005,0.21534898340952646
0.0,32.0,32.0,0.0,120.0,0.0,-0.19240892214530625,0.7291584160243672,-0.9020227516600707,-107.0,0.0,-45.0,0.2501717716646228,0.43297965870665744,0.8968929823631258,34.27075459658479,17.56211432789952,1.937436985279954,1.0358271290171173,0.7002908582354616,0.4658975583912166,0.3069156251249251,0.22814210462165052,0.19277437197015898,0.1723313875368126,0.15468536582147074,0.13657364707004493,0.11743337143527158,0.09762651814832603,0.07796042092487253,0.05961190424789281,0.042213183099172505,3.7776267453219305,2.454535648080691,1.8568526333808895,1.3760206254027025,0.9982609077011582,0.7789930760072745,0.6700328935605546,0.6089375009131203,0.5586605650589008,0.5070309747352878,0.4514247472962879,0.39218021407565207,0.3309878987598437,0.27089862377248,0.20989044679159757
0.0,33.0,33.0,0.0,120.0,0.0,-0.05870297601521446,-0.48752997030921286,-0.32403430645775333,-107.0,0.0,-45.0,0.5093657232383324,0.6776907865270243,-0.6285436389859194,34.27075459658479,17.56211432789952,1.9554232819067732,1.0447663059004553,0.705932676094555,0.4679224833184762,0.3042658391022698,0.22188382041081675,0.18519592495394535,0.1649858713856933,0.14806056025429604,0.1308038128114176,0.112588641349554,0.09373361505292183,0.07499090393477784,0.0574711216988526,0.04081307171041668,3.80539120429638,2.472827618806691,1.8706026507225422,1.3833870265598647,0.9952818456433318,0.7658886766412747,0.651623993719768,0.5898866596538922,0.5408574361003256,0.4910161957671574,0.43745796928485353,0.3804203181738076,0.32148164383229993,0.2635420126109857,0.20461098421392382
0.0,34.0,34.0,0.0,120.0,0.0,0.9726594578159764,-0.027993813707047455,0.816857729356125,-107.0,0.0,-45.0,-0.997911981985161,0.5175272781899505,-0.9840004944436058,34.27075459658479,17.56211432789952,1.9735451316077317,1.0537385575988225,0.7116539334385483,0.4702637612650462,0.3021919248585307,0.21623558158959644,0.17812194024548092,0.15805316342282047,0.14178931262544298,0.1253340472667573,0.10798878374945416,0.09003036510837248,0.07215932008634295,0.055423952931755956,0.039469375267478825,3.8331930477844973,2.4910849114600144,1.884417535450027,1.391307615123085,0.993510618677679,0.7541823168773985,0.634370307890392,0.5717370747344325,0.5238189497257429,0.47566646846792743,0.4240549674964239,0.36911886012408834,0.3123297002328566,0.25644439583126566,0.19950348423336142
0.0,35.0,35.0,0.0,120.0,0.0,0.5640907978019314,-0.2809271019820898,-0.5908024577146995,-107.0,0.0,-45.0,0.7949845051938522,-0.018575445000002855,-0.3658212042975886,34.27075459658479,17.56211432789952,1.9918065834392686,1.0627448419924341,0.7174371792853458,0.4728713123188175,0.3006356174914555,0.21115640741220731,0.1715245956622268,0.1515090676539322,0.13584992254386968,0.12014611179495831,0.10361931833354877,0.08650596578713099,0.06945818441454872,0.05346561944923199,0.03817944174337927,3.8610388188734737,2.5093109085827807,1.8982692653430298,1.3996868527662052,0.992824273642463,0.7437898928896726,0.6182262066646094,0.5544510110627898,0.507507935672205,0.4609487303419901,0.41118828510812383,0.3582542403468923,0.30351609241377697,0.24959473635448134,0.19456116363138024
0.0,36.0,36.0,0.0,120.0,0.0,0.15943350642736442,0.4796160642117058,0.13713506470051384,-107.0,0.0,-45.0,0.8612388773979198,0.3919597870160625,-0.08664708304094582,34.27075459658479,17.56211432789952,2.010211623367415,1.0717866071745519,0.7232692440527654,0.47570202605686984,0.29954321187840943,0.20660724694108323,0.16537766982796637,0.1453311887400619,0.13022226751527485,0.11522303718962652,0.09946674055837003,0.08315031475634299,0.06688047369161039,0.051591619739946706,0.03694076054440595,3.8889348511295183,2.5275096444042977,1.9121371325436802,1.4084426484801438,0.9931088957258865,0.734629374032073,0.6031470008323186,0.537993121457389,0.4918896343391495,0.44683186780644896,0.3988320221237723,0.3478060419020048,0.29502568208624014,0.2429825438972019,0.189777550278876
0.0,37.0,37.0,0.0,120.0,0.0,-0.08323426856779981,0.09606243912253887,-0.5716622141660908,-107.0,0.0,-45.0,-0.2997373662677587,-0.016798827223661217,-0.005635889438853514,34.27075459658479,17.56211432789952,2.0287641797735287,1.0808656055309807,0.7291403673160582,0.4787189978687248,0.298865389124402,0.2025509535183377,0.15965639267279616,0.1394987659207974,0.1248876783061858,0.1105490257672874,0.09551844824201709,0.07995395922032329,0.06441959466950715,0.049797711399521126,0.03575095411695894,3.9168872792373457,2.545685524287263,1.9260062262083306,1.4175048935774286,0.9942594247887143,0.7266211167505926,0.589088854527352,0.5223301875287001,0.4769315343472262,0.43328659276341186,0.38696173605253464,0.3377549573228479,0.2868441186014264,0.23659784433236797,0.18514646699341447
0.0,38.0,38.0,0.0,120.0,0.0,0.08036687528277575,-0.18781245333271257,-0.291727513277664,-107.0,0.0,-45.0,-0.31334422112425697,0.05930245822092961,-0.3469516917122799,34.27075459658479,17.56211432789952,2.0474681286944163,1.0899837671889432,0.7350434779125917,0.4818908131992195,0.29855702140992446,0.1989522574543773,0.15433731867340866,0.13399252199276254,0.11982882449725957,0.10610936187329963,0.09176267425059444,0.0769080492971836,0.062069354722649704,0.0480798945180504,0.03460777010018485,3.944902049138071,2.563843135712909,1.9398661836071918,1.426814083208315,0.9961793868558321,0.7196881273918032,0.5760087376818863,0.5074308843503852,0.462603217893782,0.4202853282881763,0.3755543496599883,0.32808272047945786,0.27895779259072206,0.2304311509546697,0.1806620163261316
0.0,39.0,39.0,0.0,120.0,0.0,-0.011804130464925677,0.2032630595630096,-0.1326115384384583,-107.0,0.0,-45.0,0.17036703788270624,0.43606782407312683,0.9804220318392474,34.27075459658479,17.56211432789952,2.0663272988088073,1.0991431155869598,0.7409736057696956,0.48519088403910315,0.2985769611428279,0.19577773532056236,0.14939821939505554,0.12879452636541858,0.11502960925923672,0.10189033000337201,0.08818842472022197,0.0740042950800715,0.05982393469357847,0.04643439623689657,0.033509073986060435,3.9729849276831652,2.5819871238481205,1.9537101726958286,1.4363200348634781,0.9987805604741832,0.7137562746417201,0.5638644090905954,0.49326556888052114,0.4488762135281695,0.40780210256103794,0.36458806526147397,0.3187720430915099,0.2713537926314602,0.22447343752106275,0.1763185662197697
0.0,40.0,40.0,0.0,120.0,0.0,-0.8105670614604745,-0.5702214419273224,-0.9468477172577967,-107.0,0.0,-45.0,-0.022524438165326233,-0.1645023641964185,-0.30620363969831077,34.27075459658479,17.56211432789952,2.0853454761852,1.1083457124725817,0.7469274060685978,0.48859683994376285,0.2988878195245967,0.19299577498741188,0.14481799225388187,0.12388807122536252,0.11047507251185847,0.09787913981681001,0.0847854223209092,0.07123492706602992,0.057677863762043154,0.04485765638544224,0.03245284225145621,4.001141511825069,2.600122111945503,1.96753407155625,1.4459807097840913,1.0019825947275445,0.7087544539852424,0.5526144224243804,0.47980609159794385,0.43572385613043746,0.3958124502403438,0.3540422850704104,0.30980655554319037,0.2640198647228269,0.21871611294651047,0.17211073648333658
0.0,41.0,41.0,0.0,120.0,0.0,0.4123167008007129,-0.32372144352081555,-0.48404388629659967,-107.0,0.0,-45.0,-0.04276852988759772,0.029772316562499457,-0.9366944374604262,34.27075459658479,17.56211432789952,2.1045264088050395,1.117593623127767,0.752902777999058,0.4920899741873611,0.2994557389116134,0.1905765360919731,0.14057658278505789,0.11925755984947403,0.10615130173375946,0.09406385738882989,0.08154405411633708,0.06859265966480976,0.05562599617359587,0.043346314115821336,0.03143715592935024,4.029377237363582,2.6182526523316385,1.9813358131590657,1.4557611395243197,1.0057125931193895,0.7046147076321222,0.5422181486180282,0.46702563040845707,0.4231211539872164,0.38429332054728754,0.34389753715185867,0.3011707516798056,0.2569443743731424,0.2131509975438224,0.16803338603246476
0.0,42.0,42.0,0.0,120.0,0.0,0.07259446721805429,-0.6765084197731515,0.709571543601808,-107.0,0.0,-45.0,-0.9975638309251522,0.9469856143704118,-0.9734074103106882,34.27075459658479,17.56211432789952,2.123873810873369,1.126888895254659,0.7588985622186417,0.4956547443207882,0.30025016269423643,0.18849190599271534,0.13665491806145372,0.11488840612100328,0.10204534978184082,0.09043334211408735,0.07845532361616184,0.0660706575264485,0.05366348967813854,0.041897195460344074,0.030460194588807776,4.057697387265241,2.6363831978704226,1.9951148673026746,1.4656324569969812,1.0099046752769836,0.7012723039540119,0.5326358091216322,0.45489854555646553,0.41104466292516834,0.3732229914068907,0.3341354065646253,0.29284993729202297,0.2501162711150477,0.20777030070441718,0.16408160084808496
0.0,43.0,43.0,0.0,120.0,0.0,0.7531515560294659,0.6371542360416487,0.9864406887063133,-107.0,0.0,-45.0,-0.29825536901365,-0.13945244366568277,0.6294097805987529,34.27075459658479,17.56211432789952,2.1433913669277223,1.1362335469068996,0.7649143030638891,0.4992783253599763,0.3012436058296613,0.1867154515168398,0.13303484924743234,0.11076694432322211,0.09814515915405003,0.0869771887326231,0.07551080665549655,0.06366250445031894,0.05178578554184122,0.040507301742413314,0.029520230695577146,4.086107099571686,2.6545180868383618,2.008871835090115,1.475571029079312,1.014499526467029,0.6986657807395231,0.5238285155073406,0.44340025404732814,0.3994723674928238,0.36258098906265745,0.32473847130468353,0.28483018201754073,0.24352505527895696,0.20256659992431703,0.1602506826091237
0.0,44.0,44.0,0.0,120.0,0.0,0.7911913586325463,0.033081733778989264,0.1659987443383628,-107.0,0.0,-45.0,-0.8266414656516261,0.03294961720006384,0.04325347914443167,34.27075459658479,17.56211432789952,2.1630827357551805,1.1456295602764701,0.7709500634626387,0.5029502130508313,0.3024114286433841,0.18522236695589556,0.12969910158502773,0.10688034831344861,0.09443949219201102,0.08368567400306275,0.07270261077024955,0.06136217465993221,0.049988590007580054,0.039173798777320905,0.028615624327233836,4.114611374912664,2.672661536363753,2.0226081347276677,1.485557686172283,1.0194439432123659,0.6967369565989403,0.5157583118334031,0.43250712193750546,0.38838356918379263,0.35234801265292814,0.3156902426892036,0.2770982744119289,0.2371607468679524,0.19753282108648842,0.1565361379579168
0.0,45.0,45.0,0.0,120.0,0.0,0.3318890794043885,-0.6352962732067069,0.5577210662099545,-107.0,0.0,-45.0,0.4331066542978266,-0.10884358643182934,0.9893372756608527,34.27075459658479,17.56211432789952,2.182951554127205,1.1550788791694098,0.7770062822951458,0.5066618741042356,0.3037316160517233,0.1839894188474909,0.12663123039092422,0.10321655921585235,0.09091786677166434,0.08054970759659777,0.07002333776751987,0.05916400624729599,0.048267857089754854,0.03789400680440998,0.027744818218704476,4.143215083639492,2.6908176411640334,2.0363257606483534,1.4955770429114428,1.0246903818259028,0.695430914714657,0.508388216971996,0.42219637277336586,0.37775878167580734,0.3425058633033033,0.3069751098448311,0.2696416799605421,0.23101385638898153,0.19266221991701749,0.15293366835977595
0.0,46.0,46.0,0.0,120.0,0.0,0.9314072262167954,-0.06598268648322603,0.8992816885263222,-107.0,0.0,-45.0,0.2425230345334599,-0.607839945263146,-0.1252469812500241,34.27075459658479,17.56211432789952,2.203001440361772,1.1645834087270373,0.7830836656006168,0.5104064399359339,0.3051845639475677,0.18299488811425396,0.12381558189061412,0.09976422081350919,0.08757049707287205,0.07756078682924095,0.06746604921767227,0.057062676608239105,0.046619772598996204,0.036665391096747206,0.026906333115772407,4.171922972595224,2.708990375427062,2.050027100901809,1.5056169034433138,1.0301965154005066,0.6946959628965017,0.5016822648011542,0.41244601044381185,0.3675796330276128,0.3330373773506202,0.2985782879864688,0.2624485018217248,0.22507535750596092,0.18794836453847266,0.1494391605206916
0.0,47.0,47.0,0.0,120.0,0.0,0.5402982253907438,0.5474180125625012,0.9083559980057885,-107.0,0.0,-45.0,-0.045840179798658065,0.15667126467878423,-0.7154156367769349,34.27075459658479,17.56211432789952,2.2232359977223193,1.1741450164518683,0.7891831045008126,0.5141784402501469,0.3067528741273176,0.18221851013185994,0.12123725793108371,0.09651262186744183,0.08438823905455972,0.07471095488949353,0.06502423461942905,0.05505317970607364,0.04504073930111913,0.03548555319872273,0.02609876341578719,4.200739671538145,2.7271835964489677,2.0637148003701635,1.5156677442387727,1.035924803684572,0.6944835736066491,0.49560554074644214,0.40323475474492976,0.35782877473511776,0.3239263633690455,0.29048577019411476,0.2555074441083196,0.21933666139032326,0.1833851190492314,0.14604867732949828
0.0,48.0,48.0,0.0,120.0,0.0,0.8020542465667249,0.2841312879079483,0.009722133600650773,-107.0,0.0,-45.0,-0.5364582450570805,0.46442322087647114,0.18320528663925484,34.27075459658479,17.56211432789952,2.243658817663023,1.1837655339404147,0.7953056140045649,0.5179735727426649,0.3084211588139026,0.18164141327744393,0.11888208379697814,0.09345164464136847,0.08136254029187898,0.07199276225411708,0.06269178201161782,0.053130805015360466,0.04352736312267556,0.034352222745908115,0.02532077307630593,4.229669699235261,2.7454010491601624,2.077391659655178,1.5257222672492052,1.041842079309566,0.6947483072976713,0.49012421364145686,0.3945419880254572,0.34848979750429815,0.31515754271738966,0.2826842824155488,0.24880777752962902,0.21378959265360895,0.17896662806256902,0.14275844929305942
0.0,49.0,49.0,0.0,120.0,0.0,0.38780756330850585,-0.4782103132343225,0.9739558316853609,-107.0,0.0,-45.0,0.5315516962068181,-0.8807136159540407,-0.1627587494778875,34.27075459658479,17.56211432789952,2.2642734829297764,1.193446758954642,0.8014522879689044,0.5217885052416175,0.31017585554494836,0.18124605647650435,0.1167365785098396,0.09057171896415428,0.07848539385731367,0.06939923101652865,0.06046295082542901,0.05129111801059307,0.04207644032275391,0.03326324982507021,0.02457109177377337,4.2587174692427,2.763646371015078,2.0910605614423057,1.5357750162643906,1.0479191529995302,0.6954477220810259,0.4852055622673695,0.3863477113797131,0.33954715355473186,0.3067164933688033,0.2751612414421115,0.2423393072298418,0.20842636675516912,0.1746873021439765,0.13956486643504584
0.0,50.0,50.0,0.0,120.0,0.0,-0.7105622332066552,-0.6903762490747882,-0.34836094578004295,-107.0,0.0,-45.0,-0.05507549535826639,-0.4477681330026224,-0.5851497494289544,34.27075459658479,17.56211432789952,2.285083570526067,1.203190457614075,0.8076242664339721,0.5256207067275507,0.31200505294346864,0.18101616622621147,0.11478792711865739,0.08786378121615848,0.07574929594967038,0.06692382188068068,0.0583323467893257,0.04952994207641655,0.04068494555733077,0.03221659783553342,0.023848511295635668,4.28788729538929,2.7819230969433932,2.1047244178021636,1.5458220495517065,1.0541304396682722,0.6965422724254936,0.4808179962413016,0.3786325089707957,0.33098608522708556,0.2985895968195454,0.2679047156234196,0.2360923426713944,0.20323956878577698,0.17054180408946673,0.1364644706307725
0.0,51.0,51.0,0.0,120.0,0.0,-0.8153947264988708,-0.14122986648900704,-0.8865735766282539,-107.0,0.0,-45.0,0.6073656189621259,-0.5313422495793729,0.24469143852886033,34.27075459658479,17.56211432789952,2.306092654552632,1.2129983665864048,0.8138227123347426,0.5294683038572328,0.31389832766842163,0.18093667352983345,0.11302395459571063,0.08531923767959293,0.073147206994293,0.06456040359849204,0.05629489871540327,0.047843341726667314,0.0393500207685284,0.03121033681609294,0.02315188215046226,4.31718339697947,2.800234664200122,2.118386133267098,1.555860662199492,1.0604536066856245,0.6979951992843438,0.4769310711626605,0.37137751919380113,0.32279255963224185,0.29076398790308283,0.26090338810479674,0.2300576694231017,0.19822213353516363,0.16652503599160035,0.13345394835235402
0.0,52.0,52.0,0.0,120.0,0.0,-0.07993663948544993,-0.21339343333399086,0.7369929104212716,-107.0,0.0,-45.0,0.04694100014157554,0.5861872757593596,0.27158533196121315,34.27075459658479,17.56211432789952,2.3273043089293743,1.2228721952136479,0.820048795239915,0.5333299598391644,0.3158465926520016,0.18099365113326132,0.11143310103765705,0.08292993174567326,0.07067251595528319,0.06230322465123571,0.054345837011118024,0.046227607029214655,0.03806896483666713,0.030242637204429216,0.022480110381742517,4.346609903730776,2.818584417036401,2.1320485796514497,1.5658891520151617,1.0668692450596446,0.6997724137706479,0.47351549810660887,0.36456441152034175,0.31495320905016466,0.28322750735974417,0.25414652238840946,0.22422652272319604,0.19336732675813448,0.1626321270436717,0.13053012380005538
0.0,53.0,53.0,0.0,120.0,0.0,-0.1608424562992723,-0.2602633155730123,-0.48436404940206756,-107.0,0.0,-45.0,0.005576207070690842,0.5693330696153454,-0.31125905979560575,34.27075459658479,17.56211432789952,2.348722110007631,1.2328136275460888,0.8263036802949455,0.5372047727575321,0.31784195656768305,0.1811742514118473,0.11000439794097829,0.08068811452194918,0.0683190076164674,0.06014688699502935,0.05248067377407,0.04467923914233753,0.036839223938041656,0.02931176399852413,0.021832154572037247,4.376170860460599,2.836975611161554,2.145714579501324,1.575906623309064,1.0733605638282468,0.7018423762439613,0.47054314768478067,0.3581753679968767,0.30745527676358736,0.27596865703116735,0.2476239300354754,0.21859056269675162,0.18866872756003786,0.15885842203588277,0.12768995239725184
0.0,54.0,54.0,0.0,120.0,0.0,-0.3945532133900682,0.5922269026937073,-0.8730685026640694,-107.0,0.0,-45.0,-0.5130281019566618,0.303951536933907,-0.7779305055520598,34.27075459658479,17.56211432789952,2.370349639080383,1.2428243242759862,0.8325885209696552,0.5410921907026301,0.31987759433607227,0.18146664521485506,0.10872744537597909,0.07858641843112912,0.06608083260270545,0.058086321708037285,0.050695184340092084,0.04319493687633671,0.03565838255595458,0.028416071291879997,0.02120702302509675,4.405870231535992,2.8554114179932495,2.1593868957946873,1.5859128234023816,1.0799131075740285,0.7041759724386645,0.46798704898448573,0.35219306849663795,0.30028656799532144,0.2689765575635417,0.24132594034255767,0.21314185111552797,0.18412021182810903,0.15519947050046942,0.1249305146278393
0.0,55.0,55.0,0.0,120.0,0.0,-0.7000548268693942,-0.28125267573084956,0.8438296872203366,-107.0,0.0,-45.0,0.7334957479064836,-0.9818150479358627,0.852875531311609,34.27075459658479,17.56211432789952,2.3921904847975672,1.2529059245731975,0.8389044545475186,0.5449919413293935,0.32194762836263285,0.18185996193612877,0.10759238992696288,0.07661783343759933,0.0639524799271428,0.05611676639238205,0.04898539016631776,0.04177158420130958,0.03452415509677102,0.0275539971565146,0.020603771114432894,4.435711905099622,2.873894928705095,2.1730682260949363,1.5959080072109117,1.086514496662815,0.7067463880535176,0.46582138375696813,0.3466006789455709,0.2934354056080999,0.26224090851471576,0.2352433718396962,0.20787282959607153,0.1797159366404397,0.15165101646571494,0.12224901019627088
0.0,56.0,56.0,0.0,120.0,0.0,0.9252094817071084,-0.47869572531232785,-0.6925702924957424,-107.0,0.0,-45.0,-0.7763060291937638,0.7967555224536096,0.1908591708788534,34.27075459658479,17.56211432789952,2.4142482454931384,1.2630600478293887,0.8452525995584269,0.5489039737240055,0.324047020110557,0.18234423104326675,0.10658990330015723,0.0747756855793362,0.061928751863335275,0.05423374419734889,0.047347542941329986,0.04040623862856552,0.03343437806658271,0.026724058849623904,0.020021498787620325,4.465699697083995,2.892429158085697,2.186761199817124,1.6058928257608815,1.0931541895534238,0.7095289830318529,0.46402147625985274,0.34138184185482384,0.28689059022192404,0.2557519507683191,0.22936750547192516,0.20277629913907397,0.17545032558919665,0.14820898878142091,0.11964275249163793
0.0,57.0,57.0,0.0,120.0,0.0,-0.5367180651879155,0.9536209940626879,0.965863729945774,-107.0,0.0,-45.0,-0.32290476197814977,-0.4669867473389955,-0.6606067451764877,34.27075459658479,17.56211432789952,2.436526531430143,1.273288295318846,0.8516340545626842,0.5528284107057138,0.32617147154142556,0.18291032526365275,0.10571116152722217,0.07305361752097701,0.06000474095395116,0.05243304434246666,0.04577810982399214,0.039096120399146776,0.03238700276760942,0.025924848321643757,0.01945934821635664,4.495837355025501,2.9110170482238065,2.2004683776192877,1.6158682349762126,1.0998232663268404,0.712501166590615,0.4625637791745377,0.33652066859496016,0.28064136440531234,0.24950043116372456,0.22369005933867123,0.1978454009195987,0.17131805495923988,0.1448694919809523,0.11710916333836507
0.0,58.0,58.0,0.0,120.0,0.0,-0.003965950842457211,-0.08449760211847424,0.9413844613016409,-107.0,0.0,-45.0,0.19370635766684297,0.08089314588138663,-0.40462279937665135,34.27075459658479,17.56211432789952,2.459028966969596,1.2835922517835439,0.8580498978523022,0.5567655099231736,0.32831733590395834,0.18354990559401138,0.10494782471231882,0.07144557087837346,0.058175808980041904,0.0507107040296424,0.04427375972120831,0.03783860241834169,0.03138008847668463,0.025155028005072137,0.01891650158299134,4.526128561688917,2.929661472032539,2.214192252201596,1.625835421531049,1.10651423243172,0.7156422739022025,0.46142585602075287,0.3320017329395449,0.2746773806027792,0.2434775692544369,0.21820316487739258,0.1930735982439016,0.16731404070742512,0.14162879764724856,0.11464576801716725
0.0,59.0,59.0,0.0,120.0,0.0,0.6387543232064261,0.6779620793724224,0.2791433457281136,-107.0,0.0,-45.0,0.5929865709092956,-0.45906721835824316,0.9274381006364292,34.27075459658479,17.56211432789952,2.4817591926685654,1.2939734869491653,0.864501187756223,0.5607156323191648,0.330481537315032,0.18425536827068126,0.10429201728604234,0.06994577009609972,0.05643756772670522,0.04906299164293436,0.04283135052274531,0.036631200880051736,0.030411796071123764,0.024413326864961088,0.01839217899488065,4.556576938512384,2.9483652366236885,2.227935250000652,1.6357957429815193,1.1132208415339542,0.7189334451941332,0.46058636048184415,0.3278100654880941,0.2689886724707321,0.2376750261098871,0.21289934438881508,0.18845465959424937,0.16343342619176104,0.13848333625238873,0.11225019054097163
0.0,60.0,60.0,0.0,120.0,0.0,0.6793957261486674,0.23845112120559464,-0.43647636385389466,-107.0,0.0,-45.0,0.0311410303538997,0.26521778772223836,0.12917477182295212,34.27075459658479,17.56211432789952,2.5047208673125696,1.3044335569775476,0.8709889633266557,0.5646792167331609,0.33266149855525645,0.1850197938104051,0.10373630874102771,0.06854870768725442,0.05478586139235218,0.047486391142876797,0.04144791721840953,0.035471566529379196,0.029480382069976354,0.02369853669337183,0.0178856365185045,4.587186048882356,2.9671310865409075,2.241699733419042,1.6457506797740242,1.119937936285589,0.7223575079064904,0.46002501303852195,0.32393114865077355,0.2635656293068608,0.232084875076989,0.20777148981106705,0.18398264268841885,0.15967157060310197,0.13542968944223419,0.10992014917138228
0.0,61.0,61.0,0.0,120.0,0.0,0.03403753052835534,0.011629433833462377,-0.6897737970434326,-107.0,0.0,-45.0,-0.8228150196846675,-0.8143474378984938,0.13025567393951265,34.27075459658479,17.56211432789952,2.5279176698869708,1.3149740058599422,0.877514245251036,0.5686567595873298,0.33485507649180424,0.1858368982059916,0.10327369483264373,0.06724913066965385,0.05321675049972956,0.04597758756971195,0.04012066082939594,0.034357476515949684,0.0285841930611425,0.023009508631391732,0.01739616432584205,4.617959401247184,2.9859617068588236,2.2554880033428923,1.655701797072427,1.1266613057873613,0.7258988624342718,0.4597225752883469,0.32035091194016996,0.2583989732734089,0.22669957441852998,0.2028128426591048,0.17965187948552175,0.15602403805536455,0.1324645827395618,0.10765345216221943
0.0,62.0,62.0,0.0,120.0,0.0,0.01237935230905074,0.02287671420440196,-0.41620365473172094,-107.0,0.0,-45.0,0.31896917932433144,-0.7801778989157333,0.024928520688131117,34.27075459658479,17.56211432789952,2.551353301491845,1.3255963667545712,0.8840780368834075,0.572648798758566,0.3370605045420442,0.18670098633774676,0.10289757923450824,0.06604202805439069,0.051726497177341076,0.044533453576533905,0.03884693809154283,0.03328682679424713,0.027721660487104224,0.022345149903497216,0.016923084946004554,4.648900452077728,3.0048597261537244,2.2693023017819787,1.6656507146543096,1.1333875585048991,0.7295433718804369,0.4596608223049944,0.31705572736956816,0.25347973913176025,0.2215119417458231,0.19801697505392105,0.17545696207441552,0.15248658729329373,0.12958487864079976,0.1054479937174436
0.0,63.0,63.0,0.0,120.0,0.0,-0.7141794828012984,-0.9227202525398499,0.08926698758362206,-107.0,0.0,-45.0,-0.7601703404133116,-0.5344480491189869,0.6689199395474703,34.27075459658479,17.56211432789952,2.575031487204449,1.3363021632713228,0.8906813253247119,0.5766559008776004,0.3392763416009842,0.18760690763995114,0.102601755643163,0.06492261926196144,0.05031155168991489,0.04315103691932153,0.0376242518336164,0.032257625030717746,0.026891295764109795,0.021704420750147387,0.01646575161560032,4.680012608682678,3.02382771935067,2.2831448145255124,1.6755990833977734,1.1401140094063076,0.733278256154253,0.459822513366617,0.3140324048032473,0.24879925622399354,0.21651513016324772,0.19337777177334173,0.17139272938533073,0.14905516197955576,0.1267875700830775,0.10330175015158138
0.0,64.0,64.0,0.0,120.0,0.0,0.5898094447330653,-0.32664810730644955,-0.5183422819281223,-107.0,0.0,-45.0,-0.20526517628486185,0.7044405960036593,0.9416772123435126,34.27075459658479,17.56211432789952,2.5989559778932585,1.3470929107059217,0.8973250825067556,0.5806786514173568,0.34150142687201884,0.18855001404189514,0.10238039032951078,0.06388634335795478,0.04896854010609754,0.04182754883622517,0.03645024199862129,0.03126798398054098,0.02609168571155059,0.0210863315454955,0.01602354672173894,4.711299231885971,3.042868210451125,2.297017673747639,1.6855485671176234,1.146838580114682,0.7370919906678468,0.460191361357518,0.31126818714302334,0.244349132455909,0.21170260604250726,0.18888941326267034,0.16745425466939026,0.14572588152557195,0.12406977425978141,0.10121277624146663
0.0,65.0,65.0,0.0,120.0,0.0,-0.8421945233000323,0.13382053780768466,0.6696882564409183,-107.0,0.0,-45.0,0.7995697455462321,0.047895888067294834,0.3284702871615066,34.27075459658479,17.56211432789952,2.6231305519872183,1.3579701172256795,0.9040102662523288,0.5847176470377522,0.34373484006248584,0.18952612018504977,0.10222800513691335,0.06292884901494417,0.04769425300057424,0.040560353253363955,0.03532267726057451,0.03031611529990152,0.025321488270044712,0.02048994008806418,0.015595880332001467,4.742763638573115,3.061983675145122,2.310922960524941,1.6955008287154612,1.1535597109091102,0.7409742098109844,0.46075200112255466,0.308750745267575,0.24012124005512994,0.20706812834479607,0.18454635954917847,0.1636368336945955,0.14249503243285438,0.12142872676421322,0.09917920175879757
0.0,66.0,66.0,0.0,120.0,0.0,-0.2071887264896517,-0.8251162345016971,0.7874204004981065,-107.0,0.0,-45.0,-0.6131563877918844,0.020927437610707367,0.5802609911109513,34.27075459658479,17.56211432789952,2.6475590172037,1.3689352850087395,0.9107378212959771,0.5887734897445662,0.34597586643164757,0.1905314659017723,0.10213946092735827,0.062045985119893884,0.04648563509633301,0.039346956758829356,0.03423944719318834,0.0294003237622355,0.024579428488329287,0.01991434905305622,0.015182188806063692,4.774409104112928,3.0811765433117166,2.3248627072469485,1.7054575197852992,1.1602762834586011,0.7449156153191813,0.4614899570296245,0.3064681726676159,0.23610770289681754,0.20260572940964564,0.18034333500945898,0.15993597361041104,0.13935906011380528,0.1188617760422108,0.09719922817365612
0.0,67.0,67.0,0.0,120.0,0.0,0.22090025148490522,-0.37717337300202436,0.30941952481611623,-107.0,0.0,-45.0,0.06683556674912605,-0.11193398559107037,0.8154933604490673,34.27075459658479,17.56211432789952,2.672245212238495,1.3799899113386682,0.9175086802579423,0.5928467824971926,0.3482239662078697,0.1915626809265608,0.10210994147803883,0.061233791957369776,0.04533977576079721,0.03818499929067182,0.03319855495055952,0.02851900184938643,0.023864294760567714,0.01935870359580844,0.014781933484028289,4.806238864660811,3.1004492014115796,2.338838899912798,1.7154202729673105,1.1669875532323382,0.7489078895931089,0.46239160997257817,0.30440897974157227,0.23230088520807216,0.19830969713007293,0.17627531394309015,0.1563473824364984,0.13631456116301172,0.11636637813580804,0.09527112551969331
0.0,68.0,68.0,0.0,120.0,0.0,0.9319025722375216,0.7573832689708362,0.3583297948445694,-107.0,0.0,-45.0,-0.4043592358752577,0.5616336237747195,-0.3908396046173277,34.27075459658479,17.56211432789952,2.6971930084208693,1.3911354896562262,0.9243237645688566,0.5969381259656513,0.3504787479227689,0.19261675179818372,0.10213493783119496,0.060488492908283197,0.044253900277033686,0.03707224548837892,0.03219811042325975,0.02767062469085062,0.023174935297023982,0.018822189096601095,0.014394599446832992,4.83825611934923,3.119803994775607,2.3528534803145713,1.7253906964705263,1.173693090593959,0.7529436139769274,0.46344416402520283,0.3025620877337585,0.2286933814799345,0.19417455843485643,0.17233750690990304,0.1528669591343462,0.13335827605191003,0.11394009170113671,0.09339322941227013
0.0,69.0,69.0,0.0,120.0,0.0,0.313325299801519,0.6265884355617652,0.04803186704590656,-107.0,0.0,-45.0,-0.7156962911792093,0.6542172469857781,0.5425256189664969,34.27075459658479,17.56211432789952,2.7224063113366963,1.4023735105701707,0.9311839853459247,0.6010481161924416,0.3527399452422364,0.193690990899995,0.10221023310021782,0.05980648661203826,0.04322536181823316,0.03600657666080574,0.031236323836220218,0.026853745326363143,0.02251025481232242,0.018304029037741833,0.01401969434441852,4.870464032370886,3.139243229793538,2.366908348112075,1.7353703702930992,1.1803927296552765,0.7570161919596241,0.46463561293641276,0.30091682231069145,0.22527800743292786,0.19019506400021488,0.16852534779147807,0.14949078422350975,0.13048708222146865,0.11158057328481508,0.09156393821134208
0.0,70.0,70.0,0.0,120.0,0.0,-0.024064169401614377,0.7218252823575828,-0.5520370445501424,-107.0,0.0,-45.0,0.3905139358530825,-0.5343870891535287,0.45802864263152565,34.27075459658479,17.56211432789952,2.7478890624224035,1.4137054628289567,0.9380902442230284,0.6051773429610972,0.35500739690660943,0.1947830075763547,0.10233188773490134,0.0591843395469037,0.04225163406014372,0.03498598332671411,0.030311499757513845,0.026066990268966663,0.02186921141665339,0.017803483004452447,0.013656747287609355,4.9028657349596045,3.1587691760066616,2.3810053628059196,1.745360843759065,1.187086524033901,0.7611197772258895,0.46595470663771804,0.29946290678180615,0.222047791898155,0.18636617411500306,0.16483448154043692,0.14621511090698625,0.12769798754913958,0.10928557284405369,0.08978171032136097
0.0,71.0,71.0,0.0,120.0,0.0,-0.3988641224140195,-0.4519570242121824,0.7746983495126669,-107.0,0.0,-45.0,0.8264475839027356,-0.18503883385146502,-0.658527838864831,34.27075459658479,17.56211432789952,2.7736452405323497,1.4251328342552068,0.9450434341380269,0.6093263887117564,0.357281029424385,0.19589068125521342,0.10249622524842017,0.05861877898943993,0.041330304372132684,0.03400855828703642,0.029422031489609448,0.025309055347462417,0.021250813696354797,0.017319844801683013,0.013305307799930242,4.9354643272737455,3.1783840681086497,2.3951463456164337,1.755363634065412,1.1937747087284154,0.7652492064512261,0.46739091791619447,0.29819045497890767,0.2189959694909595,0.18268304562559032,0.16126075258360067,0.14303635667286785,0.12498812416784649,0.10705292949660165,0.08804506162091973
0.0,72.0,72.0,0.0,120.0,0.0,-0.6405806881945861,0.6503496574953409,0.45722391999782186,-107.0,0.0,-45.0,-0.44376924077396973,0.8637535019513287,0.9547343273789006,34.27075459658479,17.56211432789952,2.7996788634821814,1.436657112644853,0.9520444400808012,0.6134958278759134,0.35956084219518275,0.1970121365005335,0.1026998184081019,0.05810668631890895,0.040459067533092884,0.033072490190751855,0.02856639581690011,0.024578701808751265,0.020654117971283567,0.01685244067952278,0.012964944825825893,4.968262880186673,3.198090107858729,2.4093330812759253,1.7653802255952613,1.200457667392585,0.7693999367094088,0.4689344093895661,0.297089963814584,0.2161159739681093,0.17914101988895492,0.15780019384727184,0.13995109534185096,0.12235474261615573,0.1048805674875658,0.08635256301529928
0.0,73.0,73.0,0.0,120.0,0.0,-0.9810072253941342,-0.6141462423652908,-0.9130702925177159,-107.0,0.0,-45.0,-0.8793669260235104,-0.9596475517540399,-0.8742109854301032,34.27075459658479,17.56211432789952,2.825993989570456,1.448279786632828,0.9590941398054997,0.6176862265286871,0.36184689476779985,0.19814571991319077,0.10293947589147082,0.05764509063699957,0.039635719923489056,0.032176057558828235,0.02774314808534218,0.02387475266204351,0.02007822571727731,0.016400627660359705,0.012635245791968059,5.001264436988448,3.2178894659112096,2.4235673197411907,1.7754120698037248,1.207135904355892,0.7735679873386706,0.4705760009046358,0.2961523055440781,0.21340143217228455,0.175735611665069,0.1544490163748243,0.13695604953245927,0.11979520630009201,0.10276649236085948,0.08470283810544683
0.0,74.0,74.0,0.0,120.0,0.0,0.7195637876107326,-0.21709984169775343,-0.36807043695079855,-107.0,0.0,-45.0,0.9344085947378185,-0.9024794663383204,0.15883836251996852,34.27075459658479,17.56211432789952,2.852594719080823,1.4600023465271672,0.9661934045101764,0.6218981422782974,0.3641392959679294,0.1992899787952623,0.10321222940828892,0.05723116267695848,0.038858154149499106,0.03131762323310726,0.02695091759188937,0.023196089248293354,0.01952228114285815,0.01596379196142317,0.01231581571855966,5.034472015002824,3.2377842835654262,2.4378507778324514,1.7854605855244197,1.2138100208004996,0.7777498860955921,0.47230713746591024,0.2953687197578996,0.2108461584793468,0.17246249888242995,0.15120359950842344,0.13404808351794173,0.11730698624826028,0.10070878732385723,0.08309456096732264
0.0,75.0,75.0,0.0,120.0,0.0,-0.375536750561543,-0.3240592817092365,-0.4984399793510148,-107.0,0.0,-45.0,0.34315926932639673,0.6044752030205722,0.11252713903029954,34.27075459658479,17.56211432789952,2.8794851957668666,1.471826285113348,0.9733430994866744,0.6261321243298156,0.36643819465715527,0.20044364149003446,0.1035153212885388,0.056862208979438764,0.03812435405946077,0.0304956292192545,0.026188403263081694,0.022541648019459133,0.018985468910093464,0.015541347506772765,0.012006276377730857,5.067888607123248,3.257776674440065,2.4521851408040876,1.7955271595781293,1.220480694564342,0.7819426194124061,0.4741198577880014,0.29473080513418304,0.20844414967454453,0.16931751321345784,0.14806048160818425,0.1312241964507806,0.11488765614307887,0.09870560979448409,0.08152645403585765
