Line_number,Fiducial,Easting,Northing,Height,Elevation,tx_pitch,tx_roll,tx_yaw,txrx_dx,txrx_dy,txrx_dz,rx_pitch,rx_roll,rx_yaw,PX,PZ,S0X_time_1.086e-05,S0X_time_3.256e-05,S0X_time_5.426e-05,S0X_time_8.680e-05,S0X_time_1.411e-04,S0X_time_2.279e-04,S0X_time_3.689e-04,S0X_time_5.860e-04,S0X_time_9.115e-04,S0X_time_1.411e-03,S0X_time_2.192e-03,S0X_time_3.418e-03,S0X_time_5.339e-03,S0X_time_8.301e-03,S0X_time_1.338e-02,S0Z_time_1.086e-05,S0Z_time_3.256e-05,S0Z_time_5.426e-05,S0Z_time_8.680e-05,S0Z_time_1.411e-04,S0Z_time_2.279e-04,S0Z_time_3.689e-04,S0Z_time_5.860e-04,S0Z_time_9.115e-04,S0Z_time_1.411e-03,S0Z_time_2.192e-03,S0Z_time_3.418e-03,S0Z_time_5.339e-03,S0Z_time_8.301e-03,S0Z_time_1.338e-02
0.0,0.0,0.0,0.0,120.0,0.0,-0.6431615722588724,5.814704539932247,4.741772168434284,-106.09405408548963,0.0,-45.14737720422201,4.273262597493748,-5.30021020285774,-1.517724182516961,34.26675005680039,17.578289281573518,2.970940881776503,2.6457654231939105,2.55678333512589,2.313255482947179,2.322769159288634,2.035739014122573,1.913430165479332,1.6443787691439635,1.402431787681938,1.1751603257978076,0.9254591503426151,0.6866431819995016,0.5029795071135124,0.34086337470727773,0.20939243119231715,4.683780134673298,4.441916319875991,4.295370475946471,4.066423782963823,3.915977338085214,3.7245066959829893,3.621450978676171,3.060314835482456,2.902380940703074,2.467354414816187,2.083289488260849,1.7338604131013102,1.3095510078636623,0.992541731400151,0.7047599021095612
0.0,1.0,1.0,0.0,120.0,0.0,6.1814170477412524,18.844575040116766,1.4850977247925705,-109.0900310840672,0.0,-45.04199430150898,0.4202846869142235,6.811655288679873,-3.1037840205539844,34.26675005680039,17.578289281573518,2.5014110068092617,2.1390784056182657,2.082762738280885,2.0084948231529762,1.8827913807554253,1.7130294463755926,1.5714699093105748,1.3461906361160627,1.1904558548508977,0.9875602434281477,0.7842797133130599,0.6134339266069243,0.45649709197197696,0.2965021325984921,0.1916530744205587,4.289294408149196,3.855728459158804,3.778468515578581,3.6365428996205313,3.6021169353977234,3.3822644094386427,3.0511755808105137,2.865411952140764,2.5006553660384085,2.1934815687458573,1.8233405640067581,1.5583369854134184,1.206098778859665,0.9235339233923319,0.6421542501960185
0.0,2.0,2.0,0.0,120.0,0.0,-0.7095003179499866,2.792978909588534,-3.9820854753229273,-106.60520080724027,0.0,-44.993120796530675,7.795152620969452,-3.1092514173635344,-1.2034773751638204,34.26675005680039,17.578289281573518,2.2406575421368236,1.842448899124888,1.766231618449645,1.7041711772987238,1.6511649264318147,1.4712224944127192,1.3114067283942394,1.1581154773147624,0.9979906874332953,0.8498320955806656,0.6672869875586018,0.5422131009382646,0.39229001994233703,0.24735931613476744,0.1694380660592079,3.9728946311620117,3.3682743984328845,3.2891004536124138,3.204369014578307,2.9310818784525,2.9205843238073506,2.7147547409229764,2.477417280607496,2.207975342259748,2.0730321217243617,1.7643249582944986,1.4038793346033873,1.1150447468581772,0.8163544705141196,0.5878068344546177
0.0,3.0,3.0,0.0,120.0,0.0,-5.463367180675764,13.70107766470494,12.23329441773322,-105.83626102662306,0.0,-44.0425648515603,4.080642168288248,0.597785007957734,1.000217933502575,34.26675005680039,17.578289281573518,1.9631723411868747,1.6057665753290633,1.4085912278829404,1.3995851779945754,1.3781583207987922,1.2151214542233184,1.1185094448363941,1.0237575066556226,0.8974678070817418,0.7465948637533429,0.6201374421611879,0.4738611660536081,0.3150575366494495,0.24606512622728494,0.14368214800150525,3.5766045126334496,3.073099692542694,2.983125389267838,2.9418176859526635,2.6852326462632985,2.6281594657365908,2.4504938261724116,2.1985936729512074,2.0026720685211665,1.7806705330613668,1.5420124208470045,1.2228599869244963,0.998750420794209,0.7897804058312002,0.573019886333712
0.0,4.0,4.0,0.0,120.0,0.0,-6.690404742145118,6.921701720632562,10.603186816014183,-107.51538844547817,0.0,-45.203509123836554,0.3183054551877085,-3.496364824534817,0.5397807289031569,34.26675005680039,17.578289281573518,1.7464379714691027,1.3594089944422385,1.284663239686354,1.2301039673443148,1.1709382581729064,1.0473628742995558,0.949448441398324,0.8849518566840098,0.766413767357774,0.6488216280963891,0.527230454796779,0.42339048762115183,0.2949618676213311,0.2061094727676373,0.11359795680166396,3.3924234269241555,2.841379525334515,2.581809042675889,2.519187890521187,2.39851938789516,2.3821334805744896,2.1580266523964857,1.961357569812955,1.8247563148625632,1.6308276461912632,1.3575993959149564,1.1670075602514833,0.8966929696022585,0.6934776914240292,0.4874222453353
0.0,5.0,5.0,0.0,120.0,0.0,9.908844136825856,-9.465305973706068,-2.422886452282947,-107.84784967289006,0.0,-45.090342046043716,4.589752517810688,-3.1467257913400655,2.96981956467027,34.26675005680039,17.578289281573518,1.6130633174373796,1.1840276329973258,1.1078996743358815,1.0286064410105529,1.0079962907457463,0.9114388912504611,0.8289661090457617,0.7385747090488936,0.6584103455882142,0.5785286044398446,0.45680958868213045,0.39623282083214967,0.28133581738906666,0.19708281540424152,0.12183244112770672,3.2070722673913834,2.49910755264774,2.426428844399518,2.337099900518731,2.2822558951206666,2.0326222161605796,1.990262743588662,1.885365187523365,1.5883451856332411,1.523256435276411,1.21432711014848,1.0572663125924395,0.8457116417341588,0.6366848479890777,0.49196075634783065
0.0,6.0,6.0,0.0,120.0,0.0,-8.453257924464195,-11.65454259841104,9.194281605121521,-105.556790330872,0.0,-45.369136667411624,0.26523255324830375,-4.7094531968986875,4.413329822489164,34.26675005680039,17.578289281573518,1.4255389744888969,0.9946320685088165,0.9577433133078369,0.8803556613578236,0.862743114670776,0.7931330051357404,0.7337429611876529,0.6466583978785898,0.5716778504384367,0.4762150937669557,0.41666045402414664,0.3171697072549649,0.24918815530889069,0.1680256480865394,0.1315174255874921,2.9684517548973326,2.303793479592224,2.163906718281886,2.032360823954474,1.9240720565537972,1.861371476086392,1.6953134488903234,1.6550634252803365,1.450391222123686,1.3128484057083232,1.1585686045226797,0.9616404483944365,0.7724309179019196,0.5987583487733771,0.4118597196289578
0.0,7.0,7.0,0.0,120.0,0.0,0.9725725930046245,6.681555972484887,-5.54073326654458,-108.40826877176568,0.0,-45.507292109552935,-2.8290926171529205,-7.133194754947192,2.838136482083982,34.26675005680039,17.578289281573518,1.3700289700588582,0.9250211175480323,0.8400630756073286,0.789529971179435,0.7763473700682538,0.6752942916689036,0.6058096427753847,0.5590863834754427,0.49359235292226933,0.44725740574819195,0.370437538416496,0.28630759757485547,0.2065555116364798,0.13727238874065514,0.11244204466966981,2.818696451184189,2.1028898313071527,1.9281296860749884,1.8752786717798684,1.8167837577243091,1.6611899203572411,1.5619789688663364,1.4135118193497684,1.3896252537924425,1.2170174760213974,1.072037573221684,0.9262769843739351,0.7192899995358576,0.5754735085214421,0.40302085682677447
0.0,8.0,8.0,0.0,120.0,0.0,0.9528645458712113,-9.36682224146943,-3.9413529363854867,-107.2457654691333,0.0,-45.539854816210934,0.33864025980648904,1.1927654312797742,-3.7725182716300676,34.26675005680039,17.578289281573518,1.2522502514965632,0.838347967595698,0.7366514545039105,0.6807235720411772,0.6301587253624711,0.6183527227785022,0.5685789051698611,0.4936547246000579,0.45064475064529924,0.38784107665675,0.33779947998019727,0.21711415244897989,0.19851557792867391,0.1282194654770546,0.08939718766001799,2.687434654408924,1.915262704142954,1.7198614492553526,1.6814257382417264,1.6275159089068536,1.5730578368011714,1.4154484334764805,1.3397446101212862,1.2291136974014414,1.0296107346644139,0.9148620057374084,0.8178075202310342,0.6413814835043056,0.5101541410291645,0.3635053845670974
0.0,9.0,9.0,0.0,120.0,0.0,-8.669846177961238,21.767756601271664,0.8496115265571493,-106.68747482474842,0.0,-46.35463868187411,-3.0880832959972815,4.3093175432743855,2.1251224138581986,34.26675005680039,17.578289281573518,1.1683039915544386,0.7324065554778438,0.6398586414138321,0.5891905737973788,0.5889061696248766,0.5041669873484954,0.49660924260548184,0.44179793396899464,0.41688548566294614,0.33687609328019924,0.26527699986093456,0.2425208023439723,0.19277997663105612,0.13659700939387723,0.07990700814745838,2.5294082159829796,1.753251904531674,1.645045302406659,1.5590828202090359,1.467781101967228,1.384261023989866,1.2693822293661068,1.2205521983538277,1.0816446868082343,0.9736428521924924,0.9008790159229951,0.7252713685981115,0.6248729211591142,0.4950289976577477,0.3420143972619989
0.0,10.0,10.0,0.0,120.0,0.0,2.260320798915103,-14.61572897465302,-12.667480403141425,-106.5075143025381,0.0,-45.628228721678596,2.773850701772859,-7.9122691416955515,-2.2511877418618043,34.26675005680039,17.578289281573518,1.0774788214025879,0.6196306248500881,0.5722182862525486,0.5231747779494818,0.5026459744449503,0.4722044785310743,0.42806447613084253,0.3739121370163199,0.3239517531791105,0.3016143464443285,0.23501748593357172,0.20209335840912415,0.16766339159137744,0.10988708908647996,0.08644257146842206,2.4485254421880174,1.7546303740313156,1.5044208393729024,1.3903667669247834,1.3379362914545334,1.242444068702328,1.183562868519213,1.0669608656324543,0.9720965889945882,0.9234714227441366,0.7960248094357039,0.7027341340875833,0.5468624618083724,0.4668104052077386,0.33973451812260214
0.0,11.0,11.0,0.0,120.0,0.0,-6.356262212370083,-10.297810295928317,11.445177713229196,-107.04584017562958,0.0,-44.434484448527925,-0.7346948684360125,-4.714855105884965,-4.7775271225957,34.26675005680039,17.578289281573518,1.029379880860913,0.5998155470736424,0.5303550867795329,0.4670380392760472,0.4611556478709425,0.41329078750123416,0.3607607276636345,0.3168906460980204,0.31506088378482644,0.26778449337441285,0.21399148258193998,0.18344775734613736,0.13376946415781996,0.09761461186619,0.0840690927133877,2.3856052204176943,1.6256690992516787,1.3775767740361724,1.3052040102105122,1.2327734653178322,1.1662272431322618,1.083232746919151,1.0091409884725189,0.9285541494732473,0.8548152778292396,0.7498491555725592,0.6523343005256601,0.5028261906208426,0.3849104367475429,0.3204229831740116
0.0,12.0,12.0,0.0,120.0,0.0,-1.6078801081645206,0.03939810478985706,-0.19831917377993769,-105.91191652537198,0.0,-45.56888850423324,-2.530378340410897,-3.834926213241392,-2.5640072881404787,34.26675005680039,17.578289281573518,0.9435736586418224,0.5907736671665934,0.47976213532603396,0.41498694606204006,0.39225223143134874,0.3523665207989852,0.32181302769383097,0.300337517714613,0.27540410553423234,0.229970491623685,0.20369899538348166,0.14123476455260012,0.13838963878648336,0.071010448650905,0.05083081225107858,2.2052241772528567,1.533205889832912,1.3049258557207821,1.177667827719178,1.0981309820135863,1.0749147371223768,0.9710774289828418,0.9264497380467278,0.8491403052956871,0.785857207948557,0.6786855561792903,0.5832828214482918,0.4663988924109059,0.3919783503061185,0.28905625501371257
0.0,13.0,13.0,0.0,120.0,0.0,4.153504358626975,12.870093977733553,-12.310804682863061,-104.68097976167748,0.0,-46.928747985025424,-0.4119247765218286,7.421044451872973,-2.6215729829952004,34.26675005680039,17.578289281573518,0.8612489462556666,0.5384801375518234,0.4409344560459801,0.3685156976971848,0.3223079469384454,0.3100650049968833,0.3182090040398506,0.2880393537031484,0.23329795225583624,0.20924175352498084,0.2050583234542446,0.15703050890440473,0.11828572908106788,0.08642385839444677,0.055968985650883554,2.1466125229833,1.414832641253434,1.245605086128382,1.1276299538095957,1.017517911559637,0.9880838973666078,0.918090865017903,0.8291914575965008,0.7857143265566717,0.7150952322691466,0.6171620953520037,0.5428259773516153,0.44637794482452825,0.3556772211543774,0.2534554915150378
0.0,14.0,14.0,0.0,120.0,0.0,2.062952647432928,-9.774198044104192,2.0360903504175205,-108.3728236817153,0.0,-43.70031091690984,-1.935395445176177,5.539742523608197,-3.336519480287551,34.26675005680039,17.578289281573518,0.838816564428098,0.4997583428803266,0.37876538471020865,0.32378141347598566,0.30030787554846927,0.2650233040960694,0.27222430986599533,0.22803480617411795,0.20889481336648213,0.2100205781750087,0.15796203434539863,0.13010945172118807,0.12172428552606532,0.081013322442228,0.03439596931763191,2.013300940267826,1.4192435701065191,1.1230848737994654,1.0058015120552446,0.9032910263004839,0.8557379813452746,0.8508058799366873,0.8089287756651901,0.6763852822750438,0.6734683793755739,0.5933612171790746,0.5102757463555231,0.4434660632668042,0.37369101879953237,0.2703492656026845
0.0,15.0,15.0,0.0,120.0,0.0,-1.5131242274895058,-4.585053789829104,10.851057806253035,-106.01809227480659,0.0,-46.32618191384816,-0.576251382484144,-3.702186258531004,0.5075897439445498,34.26675005680039,17.578289281573518,0.7660824462646559,0.44188323093964327,0.3582537385126201,0.3073577990617861,0.27473985727884787,0.2656813651517805,0.22775421083340058,0.20824578639426847,0.1893619826048362,0.18952990874200532,0.16216729586064535,0.12598661315261445,0.0806754504784649,0.08051142040034884,0.05096163268920909,1.911716936720151,1.260576716409855,1.0942158599788148,0.9230479654752084,0.8565792062846471,0.8253750255066399,0.7865474430955565,0.6885275106304111,0.6917682970389456,0.5791728955202207,0.546030234545609,0.4540093735498357,0.3910060435792317,0.297506626438247,0.23714662952382495
0.0,16.0,16.0,0.0,120.0,0.0,-0.38359959915650776,0.61389135676691,-6.514570299568172,-105.58317741336181,0.0,-44.71507844936629,-4.594434773969597,-1.1780628732878995,-4.639484090360827,34.26675005680039,17.578289281573518,0.6886095718881811,0.42437612963814186,0.3132423386857827,0.25872196404311765,0.2501569939549453,0.2167769226646638,0.21253333049379647,0.19630289418658625,0.1649844208050424,0.1438161238817941,0.1230991259880528,0.10431996318203517,0.09816678889549137,0.05501919917517685,0.04597513817956048,1.8110900721949956,1.2376666550884468,0.9829393297433184,0.8584357941331082,0.7904460632628104,0.7450699642488885,0.721739813318778,0.670250706561378,0.612297738765624,0.5395771864503038,0.47446961328064957,0.42138122534932176,0.35144798688489265,0.2972809709144361,0.23319129437824843
0.0,17.0,17.0,0.0,120.0,0.0,2.763667021306448,0.10310123043456088,-5.289586542148157,-107.8269272678276,0.0,-44.38931159669704,3.9972692207914404,-0.47759091725310654,-0.2776827267613813,34.26675005680039,17.578289281573518,0.6866426237381781,0.408461524908322,0.2969859500799224,0.25397465059044344,0.21724498368930323,0.20015012856843256,0.20263533558618163,0.17574622904713155,0.1551556609674494,0.1352570129416574,0.11762684047917064,0.10316412083998105,0.08459886772661362,0.0632467847983599,0.04110389396100447,1.7401662892166627,1.2170567244666417,0.9662718028092958,0.8542041648203363,0.7421307047822754,0.7026665531433918,0.6844854786877776,0.5857590150304025,0.5810873679588114,0.5210806387497717,0.4724139014142485,0.3655516204776712,0.32310188914078053,0.27227949725614575,0.2169159048666588
0.0,18.0,18.0,0.0,120.0,0.0,8.889629584782853,12.444148214453534,-9.450575196963609,-110.10574613058434,0.0,-45.106063016748735,-2.254817804543562,-2.170154030674718,1.506668082476522,34.26675005680039,17.578289281573518,0.6276706186067728,0.40842017777103223,0.3048133112906969,0.23284154587065753,0.21354619099544736,0.18111437034781608,0.1788268535791514,0.15871219816939358,0.14656688408543966,0.11863886874343393,0.12110913703121311,0.08669567787048163,0.07824416783656293,0.06525017277465667,0.04880821235928095,1.6569292483743985,1.1960184565719953,0.9258776178748497,0.7800346848157256,0.7056706028619768,0.6617477022292508,0.5976745390643105,0.578216102625092,0.5153453961686963,0.48605998273274814,0.417211829427821,0.37443660732682477,0.30982821455017906,0.2689569669884027,0.20651152975151094
0.0,19.0,19.0,0.0,120.0,0.0,2.839468293456129,-9.174480655836526,-10.443066072994428,-107.27846005283804,0.0,-45.48099361411171,-0.26587622299865954,-3.0757973845577924,-3.8878857862434666,34.26675005680039,17.578289281573518,0.6092349394225555,0.37842586217283075,0.2796515624192122,0.21272016853057293,0.19257823219867345,0.14931296760518234,0.14589582168433815,0.12873455607337178,0.14758776987584776,0.11931406487874074,0.08931489096177676,0.10567544040570905,0.05332382441074337,0.0743976112166172,0.03916519909105084,1.5957056609570044,1.074241769310949,0.8894656891310407,0.6810167067646895,0.6667003506119321,0.6030284459946506,0.5578718054144063,0.5621980222284326,0.4898148789664551,0.4595335088288908,0.40295064686010307,0.34689564617640306,0.2713090439439796,0.24074095081158525,0.19643814079568278
0.0,20.0,20.0,0.0,120.0,0.0,-6.742651740309011,8.91678065946352,5.595362294729696,-106.99152387178569,0.0,-44.965982641380634,-3.9811516206042277,-3.0631986256583517,-0.048672699835253574,34.26675005680039,17.578289281573518,0.5657942149488461,0.3461833559387937,0.24840112739268036,0.19626661713222457,0.17365591602230346,0.18155351221050836,0.1272960498039482,0.1123503338312149,0.1251492183914521,0.10746848968086295,0.10476955665617649,0.0795614632202965,0.04099074131366442,0.05295202695896044,0.029657303461107596,1.4725886319820503,1.0458870672399503,0.8700684660070679,0.7118727998791385,0.6082886664821375,0.5754549141298617,0.5308068944019253,0.5030891797642211,0.42589037250761713,0.42228218303191767,0.3422793548735749,0.33054267088695855,0.2800699113978024,0.23298768623338337,0.17375066782981707
0.0,21.0,21.0,0.0,120.0,0.0,6.951503616429665,-24.0551110338943,13.700257254493543,-105.85973323590713,0.0,-45.912574816379646,-7.148873133533972,-3.0814423246822216,-1.0269248389258943,34.26675005680039,17.578289281573518,0.5085202437769635,0.3152479347630792,0.2349191754669751,0.18771514476036272,0.15395413251935866,0.15168237411001456,0.13976961921676292,0.11966832305916364,0.11471358353904502,0.1115458555340279,0.0829722436378999,0.0655722823764636,0.05596820920476191,0.01920069505493273,0.014207203575248559,1.4690151600218322,0.9939621144877859,0.8059576625959275,0.703061436797984,0.5984588458300659,0.5595417700333062,0.44968272461628533,0.43595616787485864,0.3920085065667874,0.3816125390697113,0.3531906774299206,0.28193428709883983,0.2637104652061163,0.20981343076059353,0.17768847661071033
0.0,22.0,22.0,0.0,120.0,0.0,-9.033061635219982,21.64923231258397,-5.702371608084709,-107.11928690176107,0.0,-44.221661463522025,-1.0060283925778126,8.66755631152861,-1.2904995331006255,34.26675005680039,17.578289281573518,0.4737715462383135,0.30776886301387507,0.22507401578436773,0.16509147807327848,0.13934160913666888,0.11973033626975085,0.10866489787592687,0.11102004914840057,0.1252195165529119,0.09030164076058078,0.0648535392699111,0.06195129242265645,0.049036520235245705,0.034881165177906286,0.032829109344672876,1.4278679946210382,0.9763102501362024,0.7620809763585344,0.611983861505208,0.5398082349434945,0.4789842567086885,0.4592509445448274,0.39296253762441047,0.3841227619345653,0.3674304803356379,0.3362980136478488,0.295706227511049,0.21789420978219146,0.20242347122824172,0.15189936898929998
0.0,23.0,23.0,0.0,120.0,0.0,8.037766741734732,12.134006955803443,-11.755635400160909,-108.1153726110121,0.0,-45.13102270029461,3.945962373854962,-3.1298607197795487,2.3270553312357656,34.26675005680039,17.578289281573518,0.465845592110479,0.28379463819545053,0.21783972977332625,0.16815113084948927,0.14859565673116823,0.12289885657978858,0.09661589071340489,0.11520386436981578,0.0802855200955056,0.08737238294078736,0.062855713419862,0.048416805595955355,0.04218229802724839,0.054818259695123245,0.03346028063800155,1.3616526912061546,0.9444616215752604,0.7295082505830268,0.6388764869750586,0.5262749826372559,0.46074235593653773,0.45163677557421006,0.39378507291137427,0.373349228856144,0.3503274403617724,0.3331201652321455,0.2999400222050561,0.22782154416944264,0.19156719188778243,0.14121534172469608
0.0,24.0,24.0,0.0,120.0,0.0,-0.2466522330255181,15.927222491612774,8.239272511540456,-106.53961826603671,0.0,-43.77989714941836,-1.3256420698103597,4.625589323075783,-1.1024508850914092,34.26675005680039,17.578289281573518,0.45288258748071203,0.273903883299775,0.2308024993301977,0.14828780113582501,0.13879609739372978,0.09734609789710577,0.10067836939110537,0.06949962549560236,0.08590151040566602,0.07230670529627772,0.0464435005094037,0.06339318089412758,0.03548045114139576,0.032155171776841164,0.01746898611102031,1.290564482304203,0.8834967378962562,0.7112368886740237,0.6061885935872487,0.5160295040441436,0.4302929928850492,0.3884783768395545,0.3621712062340788,0.3517011340828225,0.31287332819554636,0.26081710549117876,0.2478068587399374,0.19368766248953123,0.17765540554908243,0.16618085416936454
0.0,25.0,25.0,0.0,120.0,0.0,5.722301984803266,-8.693362919743098,-14.415773159575027,-107.417557301092,0.0,-45.381405981635936,0.27064800472580564,2.953212440522641,-3.3605528376991636,34.26675005680039,17.578289281573518,0.4196189434548576,0.26441222136608966,0.17678667297569456,0.14474927364227896,0.10945364584743572,0.10949441879693905,0.08216638446472452,0.08793453200817365,0.08679852506444825,0.08426011568532686,0.049674490895462234,0.06311614672462201,0.057156340017785356,0.04776029160079692,0.02274627853969871,1.233542592927925,0.8652106666366859,0.7113937258820517,0.5856434424684718,0.4583511541023119,0.3952991662880744,0.3718045755405851,0.33534645423128684,0.30732288889482534,0.29153507572432685,0.26135472461153675,0.24368813550205456,0.2167119018064901,0.16570500250551723,0.13721019540395427
0.0,26.0,26.0,0.0,120.0,0.0,6.698088400168654,-14.460900001331673,4.6400465715185994,-106.44840120620601,0.0,-43.662515218316486,-5.818012880719433,-4.985178296470584,-2.2364824948961495,34.26675005680039,17.578289281573518,0.37963441098566564,0.22352197008585994,0.20003325219532977,0.13003693455344814,0.09917058988914101,0.0882212383755829,0.07257343217207415,0.08056643670825193,0.0745937160696704,0.06256975881316076,0.05729895733811059,0.039088413524573366,0.034027843084443586,0.02551526629864997,0.016616413895715706,1.2012994983036118,0.8459842254978697,0.6636185332035803,0.5363082941060003,0.4222106727114689,0.37429799535426883,0.34155815128560046,0.34254804224039564,0.31717176703983313,0.26008665830967104,0.2511287116679604,0.24504015718976757,0.20366441237712574,0.17968540091522103,0.1439770799940192
0.0,27.0,27.0,0.0,120.0,0.0,7.363587891851985,17.351720239651186,-12.886779047682886,-107.8892507603034,0.0,-46.22883423869169,3.054921058490422,3.3187151155666523,-4.289784502715931,34.26675005680039,17.578289281573518,0.35666499391992307,0.2240801801482767,0.1797424058261774,0.12034441354979009,0.08877576007552374,0.07887392695640058,0.09640466581983763,0.07174924279301227,0.06163438990538208,0.044061913058483684,0.04362833448514719,0.03185358119270652,0.05222011785466861,0.025724061994475512,0.022402064503932652,1.1719458042609256,0.7889353984055392,0.6290399638865815,0.5068120584667779,0.40488598474531284,0.35750171202121167,0.32005839434651895,0.314078599595105,0.319465474635683,0.27579671472215034,0.23188915241409724,0.20976413819136658,0.18655969038861825,0.14034980681535283,0.11264042023608026
0.0,28.0,28.0,0.0,120.0,0.0,2.1792428691635237,-3.7178892859616113,-7.047959558523782,-107.93357022777457,0.0,-45.15516784998654,-0.6757736715531077,-0.9216852831757105,-2.5513186415925917,34.26675005680039,17.578289281573518,0.395906598674061,0.21695400358475764,0.18144656317237193,0.14267604264210146,0.0937849310605072,0.08821223257793169,0.05165767423976746,0.06750991269873764,0.04951653423793342,0.04323336307597478,0.0412921479695748,0.014970389942522262,0.03657370167283401,0.03428152763716846,0.022764354030750972,1.114786093801657,0.8333628456949457,0.6065392809707097,0.4949593850866443,0.4105297153863305,0.3361384369371014,0.29859410394124836,0.28554659735231935,0.2611773044154932,0.2645620268243675,0.2194359734300383,0.2086475661331505,0.16899977291146068,0.14916984233055566,0.12510436873969139
0.0,29.0,29.0,0.0,120.0,0.0,-9.544438443398581,11.640159771106788,-0.1759693152249131,-106.85782995779307,0.0,-43.99270735800869,-4.741195381747447,-6.616734827681794,3.552847353535501,34.26675005680039,17.578289281573518,0.3194491112631934,0.20756874421500632,0.16647460105954304,0.11328411455924947,0.09291802575103894,0.06378504843475322,0.04680243119995846,0.045060645255718804,0.06006721511249952,0.05598772698940194,0.03277599396145707,0.03908777348002211,0.024559305754340004,0.04557617366395243,0.03863886922611372,1.0630402768529428,0.7820666407216557,0.6068472259621843,0.48009361688362023,0.39530874323792603,0.3346176746165824,0.2843606012841007,0.2766864892173895,0.24540634515485715,0.21890768099546523,0.2237478083770728,0.20574570268137599,0.1709721826897077,0.13680208795862678,0.1234828211641225
0.0,30.0,30.0,0.0,120.0,0.0,-7.582429853433199,13.335946779993549,1.6287617579583653,-106.13779921734013,0.0,-45.614430497240804,7.43772856813641,1.3993303313341539,1.3420619300580334,34.26675005680039,17.578289281573518,0.3128492689876915,0.19060962209365745,0.13545593026776864,0.09509020186309834,0.07505921401039126,0.08404808805111241,0.06340159684861764,0.050075933150817084,0.05575883101314315,0.03372908093521219,0.032440723484541065,0.03011447142748088,0.019771337337386695,0.0443734969673031,0.017120023072537342,1.0192451468568233,0.719870910286825,0.5865947588342451,0.4675889291569722,0.37313266683434165,0.3124475185252859,0.2742943026419635,0.2672320930800329,0.22525324139283612,0.23840746602142043,0.19741312299760141,0.17451110876732173,0.13975626912508166,0.13144359831340915,0.11901699843339894
0.0,31.0,31.0,0.0,120.0,0.0,-8.335201450376575,-16.014044036577207,-8.249404491298403,-107.11447938892132,0.0,-44.91601523087493,2.8065899364818616,5.6552254593054805,-3.449342006040197,34.26675005680039,17.578289281573518,0.2739967797241949,0.19104463069600688,0.1349851513084751,0.10067295172715832,0.07785142141293411,0.07172544031449886,0.06117099596588248,0.06446698587533051,0.030105265420043305,0.045248941665091545,0.04042892412259286,0.024028321472858556,0.01681845864047531,0.006156402275502069,0.0007719700680673056,1.0005952042853765,0.716900556406879,0.5945168015525082,0.4170481627280565,0.36368255306706954,0.2975698192449595,0.25918616590510035,0.22278848566985476,0.21906400350243357,0.2151689906400381,0.19347271658034498,0.17078885158822996,0.14934261927803774,0.11754858107093631,0.09109415512353236
0.0,32.0,32.0,0.0,120.0,0.0,2.952978388113861,-21.17993210893293,-1.5267933816287922,-106.21680347188382,0.0,-45.64623742275624,3.79767382494844,6.2672320996291795,0.21088531864866944,34.26675005680039,17.578289281573518,0.2790682591566939,0.18387987771342143,0.14874940794782937,0.11604434499740635,0.08672371395419179,0.0581931621787383,0.031266646171257434,0.05664319462085435,0.05069947919238268,0.0473886661210936,0.019348212350503366,0.03280248119097938,0.03296264769652131,0.011588100405715089,0.013471087191995648,0.9145221165530194,0.679529740369289,0.6099456887136936,0.43238857767436156,0.34559166213483417,0.2988382151039746,0.2358813596407488,0.2522990897452173,0.20360194350715724,0.20342606473977295,0.19231586591687744,0.16472563798513232,0.13021057439839626,0.11316005338816612,0.08446380044662527
0.0,33.0,33.0,0.0,120.0,0.0,9.847190776009711,-24.409478251412004,1.2540379294354622,-107.87152038540103,0.0,-45.07562856582082,1.4026014911783613,-7.361316423797552,0.02377621592923873,34.26675005680039,17.578289281573518,0.28035513387691086,0.16847161458885201,0.12264546951271695,0.08756540077694609,0.07660454224877593,0.07597510135189664,0.06167267328958588,0.04085682497666715,0.03495249471196711,0.02268259942564138,0.04451894654326986,0.028491344160239136,0.013957376338865965,0.01630031560456425,0.0020003121868860576,0.9143384707684072,0.6395537597299593,0.5483212892318343,0.4211327759538279,0.3469484885104935,0.2728930761044241,0.23767488053293526,0.21783150834526815,0.2061219454908933,0.1922367138285503,0.16423293362938113,0.12046862664649208,0.1196276242833407,0.1254543157258948,0.08830696965905999
0.0,34.0,34.0,0.0,120.0,0.0,5.988593938658616,-4.7252738446846365,9.9249897290697,-107.05390187607327,0.0,-44.27610292689444,-5.786098779235521,-5.346930972343555,-0.3172331329798439,34.26675005680039,17.578289281573518,0.25708126214802296,0.18011552925386298,0.131748301362838,0.09589430201772724,0.07750934032494747,0.042498869205853704,0.046674679466036914,0.02620862306353191,0.06080087656806207,0.026196038399753055,0.021319730052977187,0.04320121572262557,0.011253616450650662,0.0028519340015526404,0.028996685392039243,0.8816568918619343,0.6493470113277536,0.5287481625110483,0.4171321151232765,0.3471919994026761,0.24861591501996377,0.22474008639793458,0.19582923369556093,0.19596014993490474,0.19131636453428202,0.1668254262316915,0.14957111771167578,0.12253636915258928,0.08680779831786192,0.07703105414224257
0.0,35.0,35.0,0.0,120.0,0.0,-5.808219591040129,-1.3358110622388075,12.99896891096677,-106.26038417171469,0.0,-44.75444432474404,-0.9949719573331901,2.3798305284651438,-3.2278458714116987,34.26675005680039,17.578289281573518,0.2560491107104685,0.1534732730001373,0.13014259253133648,0.10096110306746627,0.08030246976612336,0.04892941293336996,0.02961864047111657,0.035283707135428714,0.033560583139426586,0.039764312274266585,0.03474530986937903,0.028720519524069885,0.01787758713460933,0.00515904876200109,0.005699019717193549,0.8728000011118191,0.6062878002231169,0.5241090676136044,0.4096494024484759,0.31678958230198184,0.2587306080673285,0.2206530242635407,0.1844996900429138,0.17377944824918468,0.15380317884343206,0.1641844074371656,0.13838636542327443,0.12829910766901487,0.10159512765664272,0.07265438947512562
0.0,36.0,36.0,0.0,120.0,0.0,8.221911589547801,4.626707983826943,13.170406488531455,-107.27360861458564,0.0,-46.412224459216475,0.5593621062041718,1.9221952342758648,0.37137702865613154,34.26675005680039,17.578289281573518,0.2432526720953577,0.15219260494726508,0.12388749937904363,0.09140595452668374,0.062375059727771465,0.062473588600647265,0.03408108802629306,0.028977396280016263,0.03400049952027647,0.02457975386840868,0.02968848610741846,0.012205433697309899,0.0178570804865924,0.01867239690232502,0.018297530166311953,0.7881710214400043,0.6103360368569033,0.4827013447655986,0.3849730772608586,0.2967519161695019,0.24205031226541582,0.19834467059253696,0.1844827841230432,0.18087503787376644,0.17551042313629778,0.1526949297747888,0.11249776701244744,0.10116762150787043,0.08589594987350585,0.07860986814693846
0.0,37.0,37.0,0.0,120.0,0.0,3.557542673311291,22.432001479564498,-4.533410191061964,-106.8363006194917,0.0,-46.884319074099395,7.529843571278225,-4.709056087308934,-2.2634821868816832,34.26675005680039,17.578289281573518,0.2377277669427588,0.162028058889123,0.11266331168268279,0.07187727469225325,0.053152142885673895,0.049123663864491685,0.018274204186253695,0.049000616391565846,0.039899491951387096,-0.006615761660575755,0.00922297944007608,0.019939327785715163,0.019961682386573337,0.004400498420744928,0.022999333474423074,0.7896851613782372,0.5213612249339264,0.49014014777886944,0.36794809963497765,0.30684994551830136,0.22501170359045128,0.20386357539390718,0.20545267659352925,0.1648502648762439,0.1340594314980313,0.13531436472067468,0.10717219883564529,0.12486153094921801,0.0861161168746038,0.08078226370830692
0.0,38.0,38.0,0.0,120.0,0.0,-8.322143481167544,-8.498181041443924,-3.750470562146578,-107.36047908116484,0.0,-44.71613824198113,4.321255506690172,9.921404604134885,-3.3419257907720756,34.26675005680039,17.578289281573518,0.21021300456058575,0.13667116693753328,0.10462938846551104,0.09193543709105402,0.060329339230637796,0.04331961824720458,0.03262999442292172,0.015578110849073934,0.038768148899280284,0.036712455356186176,0.04138373294744205,0.024150603320043096,-0.0035131414152938453,0.012590365140809127,0.004621476191859214,0.7401759885327743,0.5413288548172545,0.4363760901783688,0.3768568123005363,0.2696392009286568,0.22761275547833146,0.17882591737248754,0.17267072629989813,0.1646483086813438,0.12143187054080246,0.1359043954498016,0.09283357845402891,0.10648920223943611,0.08867943106626766,0.08556841350357816
0.0,39.0,39.0,0.0,120.0,0.0,8.392232861180954,-21.281700238834134,10.49572924546315,-106.30075432265258,0.0,-43.92381769763645,-2.520957074473206,1.3921933990846505,1.4344162909568823,34.26675005680039,17.578289281573518,0.21238796632086127,0.12359705806801004,0.10997790016937906,0.07268034600428479,0.05753257536652897,0.030095437901039794,0.038787584058719744,0.010238395215818687,0.0198046543691646,0.02334128072974184,0.006437631721506645,0.028168716643740377,-0.0008411960907216791,-0.0012377332839244633,0.018605248365657433,0.7575902933235714,0.5558500330295633,0.45917065468623036,0.36808714707430695,0.28587476527151073,0.211126931140375,0.20033662980073874,0.14606658371518122,0.15048152824221592,0.14757467678127373,0.1177465984086729,0.09300349759424234,0.09854725228556317,0.0839018256890378,0.08154001759965165
0.0,40.0,40.0,0.0,120.0,0.0,-3.9872994838950993,1.5959668245970455,14.312819859326115,-107.40087584464533,0.0,-44.79021392211813,0.7587315747620176,0.9352886234541913,-0.4874864221547712,34.26675005680039,17.578289281573518,0.20609851246861338,0.12165396409819253,0.10554874624755105,0.07384778744399761,0.06839009257195425,0.054467569397836764,0.02172165531023828,0.01256949532684766,0.054055651400280805,0.03833572276020647,-0.009156892093354692,-0.013595889352445899,0.038478095453423955,0.010625319503567012,0.03892019521502869,0.7037949090384537,0.5330179764515376,0.4116531962014931,0.3740146712664275,0.27415807940150616,0.22321703811271065,0.1751503247775142,0.14499266143984166,0.13671472035779136,0.13189640731012822,0.11685400633178411,0.09175169717533936,0.09602794061484354,0.07696213287664189,0.07787914243833421
0.0,41.0,41.0,0.0,120.0,0.0,-0.27423587482032374,5.798361040052601,10.909308206766479,-107.54728243038025,0.0,-47.200421352583405,-0.10707508780610109,7.0086007343911625,-1.8206906086477637,34.26675005680039,17.578289281573518,0.19368984649724624,0.11761974416882068,0.09279533865998314,0.10327169598126856,0.07281307832259364,0.04620192490932205,0.00023760721460194464,0.024212772179468354,0.014296720820576104,0.015115238458781205,0.013542491956372589,0.015034710397177277,0.033355128565827556,0.005682460154770718,0.0022939639574625767,0.6996564551643818,0.4762456193682431,0.43323479101587664,0.36105090566030484,0.2530406418802672,0.19007798590639377,0.17340511620900284,0.16809302345202642,0.14162087394107553,0.11467057348066395,0.11801419853811043,0.10444371558659485,0.09935507203101422,0.07808501657949277,0.06933874779776399
0.0,42.0,42.0,0.0,120.0,0.0,-5.003987159656019,-9.058079904597705,-11.025664057825075,-108.32917645846085,0.0,-43.724516570549184,-2.4957237572823154,2.932162003620517,-0.38293429319225414,34.26675005680039,17.578289281573518,0.185742796063429,0.11131138629059913,0.09449484779242305,0.05551676428859588,0.06659976024533354,0.08524528729900749,0.028681972354726495,0.021278726076383824,0.038914447715825806,0.034453441172595314,0.023701507400424832,-0.0073837272122520715,0.019180905499472545,0.018371261671908067,0.009473037339361112,0.6901724690379392,0.4982936490250658,0.404970315721462,0.33728132070199346,0.2556058215531114,0.19951584597490307,0.17955824765241093,0.1416887560921303,0.12965881780548746,0.1333384185158949,0.104109900759003,0.09851837694686921,0.08920580557948427,0.09454088738692978,0.058139111534886434
0.0,43.0,43.0,0.0,120.0,0.0,8.157886133544125,8.990574218258551,-4.745435088988588,-108.104563002174,0.0,-45.43607078904161,-4.3750113276103,-3.4485044913147522,-4.799014976448311,34.26675005680039,17.578289281573518,0.1433239047228146,0.11151968119367484,0.08467757653425584,0.06551764595594402,0.060912095211099304,0.020574401428277732,0.015045965964322177,0.03140106576204205,0.03003658448402568,0.013428083795253613,0.022919402094344603,0.00649192990269765,0.005969578847505502,-0.006543213846683235,-0.0070519376845896795,0.6616571534827672,0.4766710213977883,0.39802530892585947,0.3448162548884992,0.24856957300268362,0.20216079706784518,0.1433274032667597,0.13466772871318164,0.12394267344046281,0.11886927894625005,0.10221307016322871,0.11427508347790646,0.09438683547382129,0.06328438476844338,0.057423103105407006
0.0,44.0,44.0,0.0,120.0,0.0,6.299905414909933,-7.164574969086075,0.7111347076587329,-105.6702642873376,0.0,-44.18448929741329,3.738003754025327,8.41778065345332,2.8947794065400068,34.26675005680039,17.578289281573518,0.1775023474061401,0.10282301576182372,0.08651884635803622,0.060110700074303317,0.030313276565666847,0.021711276157092334,0.036882556934133136,0.020447004981556965,0.03149686420602235,0.01731652057757419,0.0031997089123200033,0.008394325480681412,0.018129346524013632,0.018769883045413115,-0.002793538729069636,0.6333615414117743,0.4574796152489985,0.39267249045419544,0.3175307396218554,0.21792414852892206,0.19573617439297036,0.13876003631956346,0.11860684663565307,0.11754409519928093,0.09032915058666462,0.06465544309111776,0.10521439542006521,0.07747573183015075,0.06622010173659171,0.04596897479072504
0.0,45.0,45.0,0.0,120.0,0.0,2.3301579546486177,-9.551592257625252,-8.362665570252634,-107.82647922689938,0.0,-45.028839119131405,1.1325354821598816,0.5652587459833285,-3.446977580615629,34.26675005680039,17.578289281573518,0.16839277217535187,0.09136139820942439,0.07610091700387121,0.05314217159243882,0.03490474542028725,0.04275699330068025,0.02997265855733677,0.01907389368933554,0.011310875991345417,0.012785718497383714,0.020283039590856287,0.007642803336249558,0.007908843411484543,0.01400739433345665,-0.005813604883075421,0.6206525033525939,0.44726203009348,0.38140260560325073,0.32980115378431646,0.23612565254593965,0.20556518132543314,0.1261997833077675,0.10661449480153622,0.11172143628704025,0.12065301282918478,0.09075920369268164,0.09626013097519522,0.08207264040208422,0.07285546029296783,0.06977352916030166
0.0,46.0,46.0,0.0,120.0,0.0,-4.830147727623022,-20.080050751932667,-0.06467353605286341,-107.60323840615997,0.0,-46.76722425541142,0.8391402457170027,4.691975739935618,4.090608673857318,34.26675005680039,17.578289281573518,0.1566545119829076,0.08779912653649392,0.08352462066210493,0.04962359772874843,0.040992645277503806,0.028081951386558508,0.04101413362622126,0.004454237054187345,0.01751438047655771,0.028172506803840727,0.010899696543487585,-0.006493142712638393,0.00784816588840749,0.028716243363323197,-0.0012988084550723923,0.634085922733557,0.4388816127751347,0.35361473158111784,0.28764499611927785,0.238110906505254,0.1783263869567737,0.10106506631301548,0.11884659133876312,0.12130130816768642,0.0949083999333956,0.06850575886325129,0.0790382085811005,0.07639838327210063,0.0732956352044109,0.0581978266368361
0.0,47.0,47.0,0.0,120.0,0.0,-3.7641933410733213,3.9061322465258,-3.9278843740129155,-106.85600307067452,0.0,-44.752306182114424,-5.7706917145884535,-0.6787360185287419,-1.9148545152033956,34.26675005680039,17.578289281573518,0.15786635061582152,0.1078140594120193,0.08191616208523948,0.08226293048140065,0.04404733722430136,0.02282985969958769,0.020399779366397062,-0.0020081048294930647,0.014535435062323503,0.014081402623653877,0.008629593419892327,-0.004849375523080686,0.007587904905159009,0.01793617079632239,0.025902077424926402,0.5863954099468713,0.42998235557857023,0.34175318778344205,0.2859081443885173,0.2084982365087215,0.17385747986909228,0.13071630908896453,0.11336934560988393,0.1035461639401455,0.09737761405725308,0.07085644596535726,0.08149724814815298,0.07635911688233098,0.07143661518915964,0.055860986721019926
0.0,48.0,48.0,0.0,120.0,0.0,3.3467960518711273,-3.6315962375510047,-12.13092612490272,-108.2441627450751,0.0,-43.9478114644658,-6.332282302683874,-7.406871513802282,-2.370894578003131,34.26675005680039,17.578289281573518,0.16102602363757554,0.08611487244940179,0.06985909631110403,0.06109297623493683,0.027657114056185192,0.02091470786609499,0.02327554449416291,0.037679188240305736,0.025619494312811637,-0.009546240520164074,0.014532256189303273,0.01853386239936253,0.023672294206421973,0.021973260222726054,0.008191878803784589,0.585035009704141,0.4242993252744881,0.3511320101185209,0.2714370145225485,0.21379313137005976,0.1835797394194709,0.1187338988050624,0.09957267196936914,0.09505187586651559,0.10314172665976792,0.09406280815428113,0.07030066271807343,0.06770359284564705,0.06451125125528746,0.05758808040929528
0.0,49.0,49.0,0.0,120.0,0.0,-5.934337172338726,11.441461297916554,9.052277841921729,-106.21173742153384,0.0,-44.280855019876384,-2.1245213057631958,-8.099432218814165,-4.1348856808290835,34.26675005680039,17.578289281573518,0.13410306190670782,0.11224688735247251,0.06556754836756808,0.04794715842617591,0.04978319595813716,0.02424339096049184,0.021618297909183737,0.04394891137171732,0.027893182377196863,0.011928908381248214,0.029059208603734742,0.005678053872171787,-0.005568478918408594,-0.00017236499681509438,0.024288548511711527,0.5443874842317872,0.3913638939709901,0.32905510404932115,0.2857260290455988,0.21937480531604728,0.1640181974578212,0.14212609924071665,0.08375204579659898,0.07017354621314822,0.0776440432664259,0.08458858827072564,0.06935521047566122,0.06897634059252016,0.05702818468522171,0.054206433292747505
0.0,50.0,50.0,0.0,120.0,0.0,-0.38945997641163643,-0.5591786869873339,-8.392009372466376,-106.77131693362561,0.0,-46.66861505774081,-1.0480264456625197,1.4266020779576642,-0.405306359958713,34.26675005680039,17.578289281573518,0.11915984233436397,0.08026661104018598,0.06487256620369916,0.06720754644432916,0.050670156579107284,0.026241251757401832,0.02209598336316321,0.01897617696237493,0.020903158412856036,0.021016309981802914,0.009026738590299267,0.009374484938411167,0.006101126558675606,0.02978732374116688,0.017555948746852873,0.567948108784111,0.3804445240737367,0.31865173222951115,0.2984161410830806,0.22009050034796995,0.164117743991497,0.13146707186756124,0.11477012849363079,0.07870986360236203,0.07489478279492834,0.06525533456175545,0.052945029404184635,0.046290954689684166,0.043215711241950415,0.06363256555889403
0.0,51.0,51.0,0.0,120.0,0.0,1.4184619601940813,-13.554546755594982,-5.115504410308407,-106.52688767847624,0.0,-44.9365835101689,1.6462743970432343,-9.003529000131461,2.345338820097517,34.26675005680039,17.578289281573518,0.13645546775014242,0.0823351540977323,0.06169283039819223,0.03542356246499333,0.020208045553273393,0.013584767192988206,0.020348599941456425,-0.010077851478664619,0.01402742275406383,0.01204497678960429,0.014904502773045065,0.017432884676274348,0.021541255917777086,-0.008058119545549657,0.00956528151315583,0.5355028251080219,0.40070285027224983,0.3405824523955564,0.2550957754796179,0.20354927423230623,0.15395943916566784,0.09827775954248166,0.09823699327875254,0.08342521441948762,0.08907184388279413,0.05659855273396758,0.07241869909696982,0.05479267840636588,0.05806895732427908,0.02887953495341585
0.0,52.0,52.0,0.0,120.0,0.0,-6.314063421004534,-8.843330665720323,13.369437196416001,-105.82999089743365,0.0,-45.39622534052435,-4.504406614893683,4.992464053247389,1.1820606872431885,34.26675005680039,17.578289281573518,0.1385664015702202,0.09384381692836961,0.0707222544400648,0.04983345796307951,0.03662431113003658,0.035360827023121544,0.0156810670284461,0.003716198880752558,0.009645554627835406,0.016527078318620853,0.020498759185471525,-0.0009521115444781052,0.043132760862558524,-0.004336817217626633,-0.003119576866829429,0.517130797478986,0.364496759562827,0.3396733783614825,0.25134143856774865,0.19626682199288395,0.16540823026899307,0.10790899092835629,0.10959404059897628,0.0845278422854172,0.06537425547513026,0.058024891700784655,0.06741572254765457,0.07646916990273009,0.04514221690136883,0.029717093579134893
0.0,53.0,53.0,0.0,120.0,0.0,9.517084248532136,-16.82991183054567,2.8931810105374964,-106.68601516223615,0.0,-45.91313947151974,2.1001050055169737,6.1284207158993915,0.4892730941549486,34.26675005680039,17.578289281573518,0.10495330969904287,0.08881701558391082,0.08164329635394432,0.04915442679115536,0.03305872973221312,0.018741154245960137,0.027383619470443703,0.01667098335273031,0.014735864509895003,0.013773575433382819,-0.004548671757500773,0.024791346644354707,0.022450931760730916,0.007461212267455916,-0.0017026699350841815,0.5247827851204854,0.36910479000603236,0.3262682194365895,0.26206177956199295,0.21513902735525514,0.18296510999751692,0.09853134755832775,0.09308276980956488,0.08118892137805185,0.05942873466248964,0.048569900242766,0.06396016409385429,0.0471589065695171,0.03857070595482344,0.04020172303927652
0.0,54.0,54.0,0.0,120.0,0.0,-7.126143453851523,22.74811978219138,2.438045067859541,-107.35680860396967,0.0,-45.32571858283063,-0.17355863260520865,-6.329023760766981,1.5956078465896306,34.26675005680039,17.578289281573518,0.11289048084659957,0.0725792050458006,0.0855139097887417,0.05374025992935158,0.025509135023764125,0.03012177116918614,0.016142948951434918,0.01352097849655087,0.00516976068967381,-0.004181065525840279,0.01862107753237678,0.023622199934664773,0.0076123665220754365,0.026785403724811696,0.005271428983079743,0.4918093477931636,0.3308506669839767,0.3171455060022202,0.23285649799813407,0.20793031647950658,0.1462743051402114,0.10828526235817147,0.10132274289414223,0.07209141984336533,0.08178104223426749,0.06956076830986019,0.03821354789308539,0.07444039153321479,0.04003251040493678,0.043860898075598224
0.0,55.0,55.0,0.0,120.0,0.0,-5.0322895660444855,-20.26411917637652,-2.6585078043017614,-106.65653066427072,0.0,-44.05060076076356,0.26584655247287703,8.93096543766281,-3.271293950007851,34.26675005680039,17.578289281573518,0.11461933683306891,0.05231733197626329,0.046078023268940574,0.04351750078128428,0.022335209714397262,0.014938292334055707,0.010085521907104593,0.013262166537044208,0.005854744165779294,-0.006962981321686868,0.0015009239489051406,0.0014301144912513882,-0.0017593586499010288,0.008561406506470403,0.014480873651679592,0.4910744465722135,0.33848967442009725,0.2960581262856763,0.23085126433847666,0.19834872612513932,0.13061163305343626,0.11170992459706523,0.0929373817093928,0.0985701037967488,0.060786222953429635,0.09120691385785701,0.04593424793822408,0.05769898824520999,0.05300661214832268,0.04200575298300215
0.0,56.0,56.0,0.0,120.0,0.0,2.841489275445978,-22.93834680880325,-1.7575713688023633,-107.78728485353541,0.0,-45.1860646716372,-2.1325186092506687,-8.727917149235303,2.960114160260635,34.26675005680039,17.578289281573518,0.12083651098008154,0.03678744293869195,0.04798676495592015,0.017833872064309173,0.032536480783306294,0.04161958957782726,0.030236305563373603,0.022844725140920674,0.015020163615194062,0.01290230102232038,0.0006638918476828456,0.014398133313385865,0.009346667803957615,0.021366753083597114,-0.00192144623706052,0.4625850136976113,0.33628825732402023,0.2756971614520571,0.2405154093083253,0.17053931824184543,0.12610714705660556,0.1276411497419107,0.09801673563715803,0.07960427039581135,0.0647129107655508,0.0503141936262114,0.07020077715721948,0.03859266996885101,0.041137203564050484,0.03252628676215759
0.0,57.0,57.0,0.0,120.0,0.0,-1.0526624426458966,22.672010479395325,8.323422887779671,-106.87620225058379,0.0,-44.52276835819116,5.748115919982579,-4.416963718357585,1.9107097224856062,34.26675005680039,17.578289281573518,0.11995610595255511,0.04704268891979209,0.055199792983799206,0.04276544965378716,0.012615400968956567,0.0023770771211968564,0.016703625123970386,0.008836237899653567,-0.010014679697182899,-0.0038865454117401176,0.004920605791574212,0.0023170589561404527,0.00859409732303328,0.00794185309383666,0.012132897924559108,0.474161090012126,0.34148009886749414,0.25515241063010735,0.2384772602770833,0.17544515233397015,0.14062965180917392,0.12109316946910656,0.10692502742305321,0.07752683335821492,0.03469978338591928,0.07115503451464195,0.04627554607970044,0.03536153394394048,0.028874750726857103,0.03155665610697768
0.0,58.0,58.0,0.0,120.0,0.0,-6.464564251198032,-18.869433961283217,5.291680471279186,-107.94169295288953,0.0,-44.26918715440168,4.039104902315435,3.116132784197948,-1.7095393523953373,34.26675005680039,17.578289281573518,0.11035324743477345,0.05753669297938088,0.04870581931548835,0.04579003566323841,0.006161241212816974,0.03972918584438126,0.008924783627379095,0.005658879051081785,0.02235509005815116,0.0029445943769791415,0.0324890356209961,0.009148529050114563,0.006971306218427547,0.008189953292394716,0.0008025508268412001,0.44712701791581544,0.31380210069763737,0.26445543411459593,0.2475660829280078,0.19066602361678073,0.13490878496866285,0.12040486950278745,0.08229523800490465,0.07450916076266255,0.07028304637823009,0.0710366182820032,0.052634394959551606,0.05640583913021753,0.06487802525969236,0.055367527233673275
0.0,59.0,59.0,0.0,120.0,0.0,-6.407963792345641,-15.490536457378756,-4.543328162399581,-106.59051566877822,0.0,-45.364640615338445,-3.5324830594645134,2.8078926711445042,-2.6917350766600903,34.26675005680039,17.578289281573518,0.09503315672699092,0.04939945555728985,0.020356430392923376,0.04668853970430133,0.015522787288015054,0.011420760357392583,0.011318211450428713,0.008362501031771071,0.0010930816486407757,0.010924533691110017,0.01104525728588105,0.01415899244666039,-0.013497472720896738,-0.008836651143311466,-0.005376657018522171,0.46017075587731326,0.2933609214833562,0.2759375597448886,0.24119006608511767,0.15781075005303097,0.14060219671021199,0.08434592997200374,0.0796054393162925,0.06202893179771651,0.0834195617681633,0.039483898271362165,0.045474968601459866,0.048210835470134036,0.0379283173787815,0.0346455756553362
0.0,60.0,60.0,0.0,120.0,0.0,-2.182897917110722,24.119987081822373,-7.169548790626968,-109.06130175818446,0.0,-45.168096061660265,-0.8241759389911842,-8.212369710389613,-1.841716703525468,34.26675005680039,17.578289281573518,0.10956214273039847,0.048435706396468756,0.0405071877034269,0.05219564715655625,-0.002565604145096989,0.02720422038312066,0.00024056658203908815,0.021562416714703582,0.00965989877820885,-0.0009362902274107354,0.0067818072012546205,0.005107563955711472,-0.0083219237048208,-0.01119339553634835,-0.006987612886022693,0.4117971495277941,0.3032262780201101,0.24227413311122636,0.2222200814698097,0.16782728454172102,0.13682438708765635,0.09960989315858591,0.0810957828016122,0.04805557495904007,0.07349617513528599,0.06602631668225685,0.05130902924334985,0.03466854974459231,0.03071175519250771,0.030839815372990936
0.0,61.0,61.0,0.0,120.0,0.0,9.321692957657593,-5.412065521717313,-10.149197898993211,-106.18130523577295,0.0,-45.67239777040254,-2.9449001189689534,2.637979586112941,-3.0728004528018396,34.26675005680039,17.578289281573518,0.10490215421031371,0.059119911962688065,0.03373884888880964,0.03910954310929095,0.03541294855030324,0.016442903527593283,0.02746956577275899,0.024576714626844305,0.010036837126600117,0.006510667646784493,-0.0012269775302746486,0.014362673872787796,0.015314590879420192,0.020358642864604155,0.014792550243876233,0.42304372340526114,0.272293492496052,0.2788989938451869,0.21662750888265456,0.1625187498140711,0.15210778884204068,0.11096262678100216,0.06693007209555346,0.06841583140548023,0.04008288112542285,0.05111097154759853,0.06496528480741916,0.0445187858681217,0.04452439225615321,0.023775586572365188
0.0,62.0,62.0,0.0,120.0,0.0,-8.341809090018991,-7.976400395941074,-6.585647508855155,-106.72006945586763,0.0,-43.14207743463126,-3.0305484227501913,4.118541065203612,-1.170128141122814,34.26675005680039,17.578289281573518,0.11547568301398663,0.05925458257855659,0.031157376331609248,0.03415456263438781,0.02611133814653869,0.03967930730021124,0.012079548814500591,0.002930541689750923,0.014512949561623408,0.0006505334034614457,0.0031087674109693602,-0.005346522542107433,0.008444511113016686,-0.00012564539315090655,0.0013024403706047567,0.40876315290041837,0.2776506017063558,0.2409314763987143,0.21865017624474545,0.16504048449259912,0.12016238896572717,0.08990507336943951,0.06077395547025248,0.06680744124350577,0.06990737186668378,0.06640519534117456,0.05599314484696384,0.04585038538059792,0.04004335372115351,0.033052645339380925
0.0,63.0,63.0,0.0,120.0,0.0,1.6203230374491362,0.5886726421107333,5.004746164663626,-105.32232764246693,0.0,-44.64587722071515,-4.125076223140869,-6.947089669277069,0.28811676757030025,34.26675005680039,17.578289281573518,0.0920843092364186,0.06108098357539589,0.039246302092374556,0.028940635162005707,0.052845155779703945,0.02127416056261865,-0.0093047695584744,0.01943841339409367,0.006454349455851522,-0.0010735182586324391,0.012317596485972223,-0.00010329631792524961,0.021502299088249393,0.004659958770844325,-0.0023729187572481534,0.3978367815827656,0.2601572998762119,0.2561061526515814,0.1868165157701403,0.15395797136727307,0.12246437018042688,0.11364693037461296,0.05946462987134048,0.05173959509557928,0.04979393397089746,0.04412734617875865,0.06334784295599424,0.028029432024888862,0.024883813942197262,0.05943112663511305
0.0,64.0,64.0,0.0,120.0,0.0,8.702574593786668,3.0029371670910976,-4.553567278159971,-107.99169432955503,0.0,-43.63940265024877,-0.6625852011484237,4.073574142920721,-2.008148644205029,34.26675005680039,17.578289281573518,0.08473811131296519,0.06764381075814643,0.04492054584315288,0.025491606098846153,0.019725161915930073,0.015984889643437767,0.031119720572486284,0.010017500755555369,0.003568410525683587,0.010549242887869481,0.00967231824497997,-0.01171628529516689,0.021524122050205336,0.012770584269979303,0.019846782514901035,0.41665798888302835,0.28479049124719485,0.23588487062331898,0.20759456172851454,0.15898476495537978,0.1215850965072231,0.08615811629701137,0.08143558179719985,0.03410756471595647,0.04939032841122845,0.0564688751045095,0.04829129797253585,0.0335170652969498,0.030431445129029937,0.02639877594835659
0.0,65.0,65.0,0.0,120.0,0.0,7.702166468293239,-4.955788785729563,8.349277727746138,-107.68528812684666,0.0,-44.14245593669055,4.086111806309315,-1.941764862267954,-3.6308168809078136,34.26675005680039,17.578289281573518,0.08960538610626011,0.0451617519754074,0.03602935230765925,0.008910923275513547,-0.0008334599962933793,0.022352714391854153,0.026329210253380628,0.0010271908756581197,0.006271737755974338,0.010089318642390176,-0.008086632430290586,-0.01438828728451888,0.007991059219892935,-0.001198008981212619,0.023494073806875716,0.38666162326588943,0.24784259456209595,0.22705744664602073,0.1765242179646467,0.13865359550293327,0.1080160543020274,0.09026303519062846,0.0609715760718688,0.04804166241576694,0.04151558999590921,0.04657249843528766,0.045916249438703316,0.04685939760162152,0.0223521105542039,0.03483008414827669
0.0,66.0,66.0,0.0,120.0,0.0,6.215013083438588,6.989603164817364,10.802173194435127,-106.12395024792069,0.0,-46.53761712767795,2.658277493248713,2.9643642221570836,-0.15596043082750022,34.26675005680039,17.578289281573518,0.08437189972618017,0.043501356939284995,0.020269391375200067,0.03871189240301376,0.02300117536478165,0.012159549961797468,0.002410669763209493,-0.011447250343366569,0.01119835261323962,-0.0051268849359823645,0.010750583165933504,0.012434095344876057,-0.004095588391706872,-0.016718434749243265,0.006574628237183227,0.40223472534016885,0.255739776721653,0.2351688920329899,0.19355471756221612,0.16532811948578363,0.11631772062858599,0.07760538431688593,0.07351439433842409,0.02489574836404763,0.05420192894796361,0.04860118112010463,0.04865800221997718,0.041623998417744994,0.016217618793646263,0.03545040261660176
0.0,67.0,67.0,0.0,120.0,0.0,-5.613411548319178,17.324983108060763,3.379067624763273,-106.68517367626421,0.0,-43.81478301716713,-5.141467119250108,2.2046811250811764,-4.638510201710021,34.26675005680039,17.578289281573518,0.06316664664088445,0.04435641979041321,0.038926803665982446,0.035118918764845984,0.01808241029481933,0.01744262597357784,0.017466387385217684,-0.005642012352765367,0.02153691349339527,0.0056377341546664465,-0.008272143955363175,0.00802386688045872,-0.004942797279266402,0.005009971148113536,0.003910063017481681,0.3607441597948377,0.23946498689475618,0.20686871333222168,0.18531070692460597,0.13840160925979705,0.08502638329280016,0.07003536029842516,0.06574561230234094,0.05918441588583326,0.030599098958206686,0.04938480433054195,0.03319369159622445,0.04995685442492803,0.02325139480356986,0.029108334709347213
0.0,68.0,68.0,0.0,120.0,0.0,4.926375603987873,8.641021028152373,-6.393065904841023,-106.39547583573089,0.0,-45.83880385445225,-2.0394102400870375,-3.8007108482561662,-0.7006917838923918,34.26675005680039,17.578289281573518,0.08026801598284809,0.040334243371260486,0.041565650284700405,0.0254102100723035,0.03864115008965723,0.019383565669384234,0.008871482613017317,0.005867355639680064,0.011279833251345347,0.025248680178192283,-0.006889791173361495,0.017004379437793305,-0.008209384309564433,0.0032453894665372476,0.0038533298340247472,0.3611885957992514,0.23732693506058763,0.21982754968150325,0.18153290061003327,0.13783073856081526,0.1329913053252571,0.09316428696661627,0.04729075507907205,0.03333612305161161,0.05051478810889035,0.027608956968462793,0.01796732398796542,0.032421432217932825,0.03853655209761062,0.017029628356205175
0.0,69.0,69.0,0.0,120.0,0.0,0.5979659261534191,-20.858692254298433,-7.5608348823527685,-107.86861856148329,0.0,-44.34692304941153,5.879833587988113,6.668324866352318,-2.1377772163874473,34.26675005680039,17.578289281573518,0.0815642523091018,0.02569954286686297,0.05374834607025754,0.029765407803344662,0.025598892408901504,0.031328018778237904,0.010944679312089799,0.0010387310059310935,0.007011764839010768,-0.0069742501312824575,0.02042398458716262,0.0055441466083886014,-0.010692927499414074,0.01990081688602421,-0.0031530852255990663,0.3737085697867765,0.2673002279283541,0.21206174099107974,0.17731549217582374,0.16469104059477768,0.1290247626964937,0.09802847642811974,0.03828235311011518,0.04013244448972772,0.016762768893533505,0.031419251806586675,0.03733231192472264,0.01102473690727174,0.03139640663251944,0.022576865580199466
0.0,70.0,70.0,0.0,120.0,0.0,8.165927517384677,6.878105070991069,10.175866108211128,-107.6712832375119,0.0,-45.57079481313009,-4.590748995729834,1.5973228368935626,-1.621636123895632,34.26675005680039,17.578289281573518,0.06785590676406755,0.032856718098534334,0.038361487242533604,0.03411332285823983,0.018828440687958258,0.03962406774819467,0.03496769316897594,0.007307056433214773,-0.005081193714410913,0.011111734050453365,0.000862950631349313,-0.008960692437988166,0.0026542886896450614,0.005557860749174944,0.0035590207313791903,0.3486022681741795,0.23838175534175243,0.19555010287936936,0.16389144584314685,0.15822610555499428,0.12317502111135605,0.06357227559187384,0.0534082047956651,0.07345018913919774,0.04686934022223932,0.043775138996611535,0.04538899944149151,0.027956890856147654,0.021179959712565373,0.01729177318370691
0.0,71.0,71.0,0.0,120.0,0.0,-0.4473008949193602,-3.967658578371779,9.458861003757356,-106.95505077746478,0.0,-44.84795899544234,-1.803008603368307,8.574321978013813,-2.221878820490819,34.26675005680039,17.578289281573518,0.0734946090324448,0.05159952566603913,0.012939846817882652,0.011509129470864247,0.024032301239856432,0.0017656379701710464,0.0192340608978344,0.009663941654482564,-0.005002805955007957,-0.006764816274838511,0.00672273721468155,-0.004737502080991572,-0.0014765611238771745,0.0083630330362464,0.010750523653678939,0.3552794704675413,0.23394637642486932,0.1881114138832887,0.17457069598385816,0.15512753623546552,0.11617638885807334,0.06978423839720554,0.06771415874987871,0.0415130517643888,0.037792143687013925,0.04122572253471016,0.015966620735559277,0.03213212456769077,0.0019439843417140522,0.041845649132115956
