Line_number,Fiducial,Easting,Northing,Height,Elevation,tx_pitch,tx_roll,tx_yaw,txrx_dx,txrx_dy,txrx_dz,rx_pitch,rx_roll,rx_yaw,PX,PZ,S0X_time_1.086e-05,S0X_time_3.256e-05,S0X_time_5.426e-05,S0X_time_8.680e-05,S0X_time_1.411e-04,S0X_time_2.279e-04,S0X_time_3.689e-04,S0X_time_5.860e-04,S0X_time_9.115e-04,S0X_time_1.411e-03,S0X_time_2.192e-03,S0X_time_3.418e-03,S0X_time_5.339e-03,S0X_time_8.301e-03,S0X_time_1.338e-02,S0Z_time_1.086e-05,S0Z_time_3.256e-05,S0Z_time_5.426e-05,S0Z_time_8.680e-05,S0Z_time_1.411e-04,S0Z_time_2.279e-04,S0Z_time_3.689e-04,S0Z_time_5.860e-04,S0Z_time_9.115e-04,S0Z_time_1.411e-03,S0Z_time_2.192e-03,S0Z_time_3.418e-03,S0Z_time_5.339e-03,S0Z_time_8.301e-03,S0Z_time_1.338e-02
0.0,0.0,0.0,0.0,120.0,0.0,0.9762700785464951,8.890826839811503,-5.646123540176923,-107.0,0.0,-45.0,4.065554992211789,-1.974809983927825,-1.8961917402018855,34.23589759221103,17.60751837456324,5.80383370462406,4.15427434616485,3.429199960526782,2.9157251743816435,2.5375751039467143,2.2557391690433906,1.9950821039716446,1.7371397002769173,1.4821432273901491,1.2248233286692187,0.969093118499366,0.7273732209475875,0.51404985380089,0.3415748357219249,0.2043959312216876,7.604909546565382,6.148759088687644,5.408093068665583,4.822077056790425,4.351804052691709,3.9877331932451465,3.6471071808883355,3.301187435491097,2.9453455882599138,2.5676987715970583,2.1683280129223426,1.7612213902692146,1.3681045405928032,1.015329335676054,0.6974363980369825
0.0,1.0,1.0,0.0,120.0,0.0,4.30378732744839,-11.499601340391758,5.890304664463784,-107.0,0.0,-45.0,2.740473326986388,8.585828346054278,-1.2696513611925253,34.23589759221103,17.60751837456324,5.818257182618903,4.159071043199888,3.415042767712903,2.877860938258741,2.482203390088899,2.196125923795835,1.9393321284809233,1.6881952805646327,1.440853573353173,1.1915503992405063,0.9437769991043423,0.7093771603902163,0.5022049396200083,0.3343712747932491,0.2005556084448696,7.6223984884499005,6.159434374916843,5.400820035553132,4.787934858120451,4.2927844164682885,3.917765091409654,3.577191715302147,3.236185588424641,2.8871699872898526,2.5175695943663725,2.1270708914133594,1.729066182804622,1.3445567768195053,0.9991635299155928,0.6874542541985373
0.0,2.0,2.0,0.0,120.0,0.0,2.055267521432878,11.759701106129747,-3.6674448212255726,-107.0,0.0,-45.0,-1.6685484797135808,-8.007701395574573,0.24970442254264213,34.23589759221103,17.60751837456324,5.832687462635247,4.165328989599495,3.4045889296376104,2.844733524446512,2.430870149949261,2.1393936235773543,1.8857840028316522,1.6410514237653633,1.4010210933363787,1.1594039716276945,0.9192763018442267,0.6919257630377229,0.4906918767826709,0.3273515226540781,0.1968021879809515,7.639798507694015,6.171298099432613,5.397037380288743,4.7587414495731934,4.2382256671326175,3.850854220275943,3.509476317887393,3.1730061993782033,2.8305506197985872,2.468735394092721,2.0868396706172705,1.6976727665386344,1.3215326816742516,0.983329314433186,0.677655722855212
0.0,3.0,3.0,0.0,120.0,0.0,0.8976636599379368,23.109427255871914,-9.611889673210957,-107.0,0.0,-45.0,-4.188986100120032,8.90603066958159,2.5059502292898745,34.23589759221103,17.60751837456324,5.847115928475159,4.172718763682544,3.397327464726787,2.8159804331145275,2.3834474724809436,2.0854764816428504,1.8343581940918265,1.5956341057654313,1.3625862919002354,1.128339646768892,0.89556046980646,0.6749999004857266,0.47949991470925024,0.32051017717086555,0.1931334142739146,7.657104529312358,6.1840613924163055,5.396245224832399,4.734116503547033,4.188031861450987,3.78700315765815,3.4439265075805836,3.1115989022014476,2.7754409973710907,2.421157459280296,2.0476044044192636,1.6670198027579208,1.2990184375201164,0.9678186101729557,0.6680367929408207
0.0,4.0,4.0,0.0,120.0,0.0,-1.5269040132219054,-12.562342824002098,-14.259638148260063,-107.0,0.0,-45.0,-0.9275882858619262,7.3897706109326435,-1.6649253420872467,34.23589759221103,17.60751837456324,5.8615378837049645,4.180976215090583,3.3927988886827753,2.7912422624637965,2.3397942283563604,2.0343103811157905,1.7849810030238091,1.5518732599249532,1.3254925172995757,1.0983150278460603,0.8726002454757492,0.6585812022143772,0.46861869329452077,0.31384201308854837,0.18954709649008372,7.674314472865229,6.197493768608673,5.397995810028087,4.713680183494828,4.142081196284033,3.726208826726378,3.380512181905321,3.0519159286015434,2.7217963542876493,2.3747984123550623,2.009336142710913,1.6370866336446124,1.2770006417306226,0.9526235617130414,0.6585935525471259
0.0,5.0,5.0,0.0,120.0,0.0,2.917882261333123,3.8078667208918446,-12.982511056102542,-107.0,0.0,-45.0,-2.677658578290573,-0.916752061848964,4.241587666207636,34.23589759221103,17.60751837456324,5.8759510544838776,4.189891717365842,3.39059416556051,2.7701681836253798,2.2997578705528445,1.985831471524555,1.737584093569308,1.5097026044604929,1.2896858155968962,1.0692896204333062,0.8503676095149041,0.642652022565584,0.4580382274616314,0.3073419757899013,0.1860411065466582,7.691428090017237,6.211413257802892,5.401892111323189,4.697060093079265,4.100229613951521,3.6684607591527554,3.3192070341214164,2.993912114541818,2.66957359809778,2.329622163035705,1.9720068954874581,1.6078532584877199,1.2554662930388194,0.9377365305113461,0.6493221862797018
0.0,6.0,6.0,0.0,120.0,0.0,-1.2482557747461502,4.6020965635919495,5.381783204957021,-107.0,0.0,-45.0,-3.6751236524201705,-3.465982364634799,3.623185468359024,34.23589759221103,17.60751837456324,5.890354635638396,4.1993005984038705,3.3903524914993644,2.752420204703983,2.2631765706322495,1.9399750493151167,1.6921039829544762,1.4690594796927823,1.255114793931796,1.041224738271245,0.8288357226841797,0.6271954092620009,0.4477488923586297,0.3010051752810236,0.18261337719974544,7.708446226756621,6.225677694731473,5.407585310839651,4.683896608123619,4.062314712902627,3.613739848966147,3.25998787291939,2.9375448957295203,2.618731264236648,2.2855938637002633,1.9355895983423086,1.579300310780448,1.2344027783598206,0.923150088363358,0.6402189726841298
0.0,7.0,7.0,0.0,120.0,0.0,7.835460015641594,3.6125952895436697,-1.389094663318641,-107.0,0.0,-45.0,-4.465728182131747,-5.345117414418863,-4.513097040244714,34.23589759221103,17.60751837456324,5.904748692831937,4.209074798284289,3.3917582990921447,2.7376763417491508,2.2298815018170464,1.8966747282367058,1.6484815068651086,1.4298846912110645,1.2217304925731147,1.0140834143021635,0.8079788707333949,0.6121950733939701,0.4377414091709449,0.29482688039552785,0.17926190019024563,7.725370362980787,6.24017718377194,5.414771536730133,4.673846790538875,4.028159704709104,3.56201758837921,3.2028338813613093,2.8827742850107883,2.569229474955761,2.242679866604135,1.900058079323241,1.5514090361677415,1.2137978600704813,0.9088570110662743,0.6312802817408486
0.0,8.0,8.0,0.0,120.0,0.0,9.273255210020587,-13.845918367969084,1.0973763332616642,-107.0,0.0,-45.0,2.2559436421057875,2.2892941295374865,-2.4635747574317723,34.23589759221103,17.60751837456324,5.91913379432749,4.219115729393755,3.3945377826624226,2.725632839278635,2.199699122803486,1.8558618863810814,1.6066612758839194,1.3921223553961388,1.1894862653608849,0.9878303166220319,0.7877724121120413,0.5976353608031408,0.4280068315243323,0.2888025132101706,0.17598472444605817,7.742202330247076,6.254827692474145,5.423188179199805,4.666587099023751,3.99757722691492,3.513255747211366,3.147725852621446,2.8295628259179297,2.5210299025507803,2.200847682832438,1.8653870271155268,1.5241612712089745,1.1936396637306572,0.8948502722832614,0.6225025724271249
0.0,9.0,9.0,0.0,120.0,0.0,-2.3311696234844455,22.63745057584925,11.900138791210264,-107.0,0.0,-45.0,-4.8857254137496895,-9.338508170489888,-0.5386448734079803,34.23589759221103,17.60751837456324,5.9335107882931295,4.229348264853752,3.398455173985449,2.7160055880643528,2.1724533565548576,1.8174653633067066,1.5665911392853575,1.3557197444336724,1.1583376680798865,0.9624316690338515,0.7681927283513128,0.5835012247944652,0.41853653245376654,0.2829276436646589,0.17277995433912688,7.758944142020288,6.269565689312004,5.432610013259735,4.661815105286059,3.9703728822311444,3.4674064385854204,3.094645437498272,2.7778755185881874,2.474095736519118,2.1600659429114217,1.8315519605133022,1.4975394229226766,1.1739166662311642,0.8811230376020238,0.6138823903446204
0.0,10.0,10.0,0.0,120.0,0.0,5.834500761653292,-2.6437310691186333,14.71016842190113,-107.0,0.0,-45.0,2.705807485027762,-9.687878711063435,-3.953721112575259,34.23589759221103,17.60751837456324,5.947880670756424,4.239715751932106,3.403308941654484,2.7085308811141418,2.147967593328765,1.7814113726239327,1.5282216707909069,1.3206271288161404,1.1282423542171882,0.9378551759193577,0.7492171769786086,0.5697782001115196,0.40932219191476915,0.2771979843785876,0.16964574799590806,7.775597893691509,6.284343719387619,5.442845296986783,4.659250406569466,3.9463484251575918,3.424412503819046,3.043574433719152,2.7276797164773714,2.4283916539316075,2.120304359047668,1.7985291991352585,1.4715264490822861,1.1546176843540055,0.8676686587815066,0.6054163654111507
0.0,11.0,11.0,0.0,120.0,0.0,0.5778983950580887,17.32043362355639,-8.493090468045782,-107.0,0.0,-45.0,-3.5305335459962492,-1.4240855500352438,-1.5152401096650294,34.23589759221103,17.60751837456324,5.962244508975966,4.250175932452622,3.408928042568005,2.702965635721124,2.1260664758051258,1.747623591776585,1.4915056884778384,1.2867976162551866,1.0991599774662484,0.9140699511785008,0.7308240468304622,0.5564523781134446,0.40035578481446593,0.2716093856584999,0.16658031565995965,7.7921657050568385,6.299126802521758,5.453731966801444,4.658634901970247,3.9253045567558167,3.384208146902001,2.99449414077272,2.6789449944467014,2.383883792011289,2.081533689000392,1.7662958353339526,1.446105839235083,1.135731863730527,0.8544806681809534,0.5971012096152327
0.0,12.0,12.0,0.0,120.0,0.0,1.3608912218786458,9.973963765875219,4.892346093003024,-107.0,0.0,-45.0,-4.204779174132442,-8.638518520505595,2.4009752561768245,34.23589759221103,17.60751837456324,5.976603398022531,4.260697648229179,3.41516831843662,2.6990871937933503,2.106577446360535,1.7160233905063542,1.4563978181471642,1.2541869868046747,1.0710521002682223,0.8910464510153655,0.7129925156346019,0.5435103830952316,0.3916295695405472,0.2661578306882786,0.16358191810525172,7.8086496881154,6.313889537663742,5.46513401473145,4.659732575527201,3.907043317723658,3.346719751639924,2.9473847972590055,2.6316429906954757,2.340539721714606,2.043725701614558,1.7348297072438643,1.4212615964184692,1.1172486681835672,0.8415527733653155,0.5889337148319924
0.0,13.0,13.0,0.0,120.0,0.0,8.51193276585322,-10.128152457243317,-7.10032869788548,-107.0,0.0,-45.0,-4.103969657613947,-4.961180235078142,1.8051448114282582,34.23589759221103,17.60751837456324,5.990958439023086,4.2712582245165835,3.4219091171649403,2.6966928042171485,2.0893320407113913,1.686530165935512,1.4228541049308496,1.2227535253102593,1.0438821074969435,0.8687564104007182,0.6957026097318116,0.5309393496971068,0.38313607696698726,0.26083943089605904,0.1606488651668606,7.825051941653679,6.328613809768901,5.476938102615881,4.662328894229041,3.89137008957467,3.31186682384903,2.9022251102361234,2.5857472265869585,2.2983284210579855,2.0068531440312727,1.7041093729154844,1.3969782195494382,1.0991578694399902,0.8288788518813158,0.5809107507110334
0.0,14.0,14.0,0.0,120.0,0.0,-8.579278836042262,15.68989098512386,-14.38047001602814,-107.0,0.0,-45.0,1.7204780735391445,-5.576781693078323,1.2238442856600482,34.23589759221103,17.60751837456324,6.005310722245938,4.281841367763272,3.429050108317919,2.695598831042891,2.074166992935769,1.6590617317355283,1.39083168363127,1.1924578497232496,1.0176151252110388,0.8471727828962221,0.6789351658417684,0.5187269013476652,0.37486809991630804,0.2556504214917091,0.1577795140684359,7.841374509621953,6.343286964411465,5.489050453513698,4.66622997255748,3.8780952342337516,3.279562990253945,2.8589918859141408,2.5412329089483765,2.2572202467892013,1.9708897106633454,1.6741140854580363,1.373240686470974,1.0814495371988067,0.8164529461988106,0.5730292625700559
0.0,15.0,15.0,0.0,120.0,0.0,-8.257414005969185,-5.174712957650769,7.751359615084244,-107.0,0.0,-45.0,-2.5463279014715523,-4.9361761255429615,2.1052840272234565,34.23589759221103,17.60751837456324,6.019661321937865,4.292435574692232,3.436508450951629,2.695639827526827,2.060925061821275,1.633534768689153,1.3602884960575852,1.1632627416420613,0.9922179424864748,0.8262696839217213,0.6626717947147165,0.5068611296985824,0.36681868305848586,0.25058715716771385,0.15497226812916487,7.857619403490276,6.35790042372087,5.501394031615639,4.671261489500973,3.867035389643254,3.2497170397129764,2.8176597522005333,2.4980767213786432,2.217186903475886,1.9358100138085073,1.6448237691746572,1.3500344376248212,1.0641140295438605,0.8042692588118192,0.5652862694297175
0.0,16.0,16.0,0.0,120.0,0.0,-9.595632051193485,19.05515985555808,-5.399485475325964,-107.0,0.0,-45.0,-0.7946053331990157,-7.378895375694845,-2.9507631304029824,34.23589759221103,17.60751837456324,6.034011293924648,4.3030328845328505,3.44421620633889,2.6966674648857376,2.049455688944187,1.6098652834627714,1.3311830648444614,1.1351329767461262,0.967658936774328,0.8060223370752871,0.6468948466021764,0.4953305749980482,0.3589811132279473,0.24564610795815503,0.15222557534561257,7.873788596586289,6.372448606941412,5.51390601568916,4.677267501886986,3.858014473379273,3.2222339448974955,2.778200977103396,2.4562566093431064,2.178201408939685,1.9015895559459453,1.6162189966124278,1.3273453603386762,1.0471419836862572,0.7923221474943276,0.5576788620503452
0.0,17.0,17.0,0.0,120.0,0.0,6.65239691095876,4.063643631792935,-3.4960831748430614,-107.0,0.0,-45.0,0.5736879132391692,-9.759275542046915,-1.583018851352679,34.23589759221103,17.60751837456324,6.04836167395193,4.313627927818102,3.45211803717921,2.6985493879826135,2.039615477297807,1.5879690668449564,1.3034743173077905,1.1080351584760588,0.9439080018015243,0.7864070234244395,0.6315873784307136,0.4841242073612476,0.3513489101403885,0.24082385524965672,0.14953792702585308,7.889884021276002,6.386928111782416,5.52653556334779,4.684109179858358,3.850864422988725,3.197015847696881,2.7405853726035567,2.4157515650722217,2.1402380553771305,1.8682047035983969,1.5882809664961257,1.3051597737047946,1.030524307025011,0.7806061207059716,0.550204201030818
0.0,18.0,18.0,0.0,120.0,0.0,5.563135018997009,19.086768092742638,2.649513406608172,-107.0,0.0,-45.0,3.6055117382879374,-7.690314057225038,1.7624248227746282,34.23589759221103,17.60751837456324,6.062713477185639,4.32421721055896,3.4601691847544958,2.70116803413491,2.031268511595936,1.5677621375477597,1.2771214551572734,1.0819375568162752,0.9209364775369955,0.7674010336001548,0.6167331225855117,0.47323140889553916,0.34391581749204425,0.23611708793865632,0.14690785647926108,7.9059075691042215,6.401337100560509,5.539241852082557,4.691663504349471,3.8454257097105833,3.1739629885958456,2.7047802749371153,2.376541417326337,2.1032723657828103,1.835632662623608,1.5609914825127442,1.283464414029244,1.0142521685140127,0.7691158331425921,0.5428595149635079
0.0,19.0,19.0,0.0,120.0,0.0,7.400242964936382,9.626579503888294,9.931453657085711,-107.0,0.0,-45.0,2.270442627113283,2.3696051902549584,3.7923476303132713,34.23589759221103,17.60751837456324,6.077067698164224,4.334798580178601,3.4683337060900263,2.704419443044199,2.024286543788966,1.5491611601903157,1.25208386555927,1.0568099537336402,0.8987170818873765,0.748982622516674,0.6023164572180684,0.4626419566397747,0.3366757944248525,0.23152259872957215,0.14433393774776554,7.921861091268443,6.41567484415357,5.551992379583278,4.6998219611872,3.8415476593814164,3.1529745660115487,2.670750591267327,2.3386066304571917,2.0672810455533863,1.8038514547675035,1.5343329329186857,1.2622464208310966,0.9983169903242638,0.757846081427416,0.5356420986407128
0.0,20.0,20.0,0.0,120.0,0.0,9.572366844655281,11.262713990982029,3.8694553077344622,-107.0,0.0,-45.0,-2.2967209476128536,9.485124256361004,0.436780538280952,34.23589759221103,17.60751837456324,6.091425310974837,4.345370831403242,3.4765829522559497,2.7082120812579777,2.018549063734257,1.5320838301508795,1.2283210683419807,1.0326234966986172,0.8772238438675217,0.7311309665427231,0.5883223779978399,0.4523460062789536,0.3296230073416266,0.22703728056864647,0.14181478437730036,7.937746399258159,6.429941386966358,5.564761502595274,4.708489257055049,3.8390886111065443,3.133949517443317,2.6384589020907567,2.301928116452505,2.032241929419823,1.7728398952797617,1.5082882709475027,1.2414933233702752,0.9827104397907351,0.7467917999382228,0.5285493113111884
0.0,21.0,21.0,0.0,120.0,0.0,5.983171284334471,0.06621909633511436,11.179519663421857,-107.0,0.0,-45.0,-3.685172007088724,9.806900031217879,-2.173003490544634,34.23589759221103,17.60751837456324,6.105787269544708,4.35593341867171,3.4848942666320553,2.7124656993413563,2.0139432733269023,1.5164492206981532,1.2057926940043975,1.0093505614395226,0.856432038093515,0.7138261229487631,0.5747364712336138,0.44233407659705093,0.322751822056165,0.22265812320837636,0.13934904822822186,7.9535652655788045,6.444137303610879,5.57752919185597,4.717582076519446,3.8379159411122816,3.1167872184730236,2.6078656088244876,2.266487062836818,1.9981339240871283,1.7425775713738965,1.4828409959996662,1.22119302768266,0.9674244216339237,0.7359480567662154,0.521578574985419
0.0,22.0,22.0,0.0,120.0,0.0,-0.7704127549413631,22.804181736161198,-6.793738955530927,-107.0,0.0,-45.0,-4.44625679578802,-1.8189180925387678,-4.697647419940174,34.23589759221103,17.60751837456324,6.120154507998,4.366486248683346,3.493249880908879,2.7171102355174734,2.010363980607555,1.5021780900054367,1.1844584872887618,0.9869646247858402,0.8363181205366926,0.697048991455954,0.561544888295669,0.4325970346323286,0.31605679626384975,0.21838220989768686,0.13693541832344155,7.969319424522614,6.458263524292461,5.5902799801001,4.727027894324105,3.8379059760074723,3.10138809890647,2.5789291165195865,2.2322647784932768,1.9649369471514249,1.7130448213064071,1.4579751355976112,1.201333804101215,0.9524510704467233,0.7253100498024315,0.5147273727881775
0.0,23.0,23.0,0.0,120.0,0.0,5.610583525729108,7.199509961481873,8.941405017376912,-107.0,0.0,-45.0,-1.9840136551905752,-6.740911479067893,2.103368289742134,34.23589759221103,17.60751837456324,6.134527941055644,4.377029532542803,3.5016359865302604,2.722084775811694,2.007713428557536,1.4891931473624511,1.1642783313437726,0.9654401481628367,0.8168596655536187,0.6807812777164797,0.5487343212743446,0.42312608150100794,0.30953267231905984,0.21420671419311973,0.13457261973310103,7.985010572967945,6.472321211063778,5.603002080441216,4.736763853033143,3.838943816632693,3.0876541777838984,2.5516060424191775,2.1992425587077675,1.9326318630081452,1.6842227138533925,1.4336752280891516,1.1819042752422824,0.9377827434376061,0.7148731029475736,0.5079932473571322
0.0,24.0,24.0,0.0,120.0,0.0,-7.634511482621336,-3.807247572091015,-9.430921670821434,-107.0,0.0,-45.0,-2.3788185076032176,2.7752351473305854,-4.9211589649155965,34.23589759221103,17.60751837456324,6.148908464466894,4.387563681708134,3.5100419599492354,2.7273365776082596,2.005901071552176,1.4774192791912066,1.1452122878901467,0.9447524720220154,0.7980353042674542,0.6650054585614801,0.5362919798145224,0.41391273885669516,0.30317437030628663,0.21012889688649602,0.1322594124946166,8.000640371196887,6.486311671292101,5.615686653397219,4.746735712703652,3.8409230908515344,3.0754895207363284,2.5258514420240115,2.1674015700460627,1.9012004165621543,1.6560930279765844,1.4099263060810054,1.162893404436947,0.9234120134216542,0.7046326624411615,0.5013737992861175
0.0,25.0,25.0,0.0,120.0,0.0,2.798420426550477,5.319660706396217,13.583749709158337,-107.0,0.0,-45.0,-0.43859433199520304,-0.1938930690252576,-1.273209301790045,34.23589759221103,17.60751837456324,6.163296955465195,4.398089235748329,3.5184597212583477,2.732820160920383,2.0048433108196515,1.466783736409013,1.127220649256967,0.9248777212403402,0.7798246644203063,0.6497047488619632,0.5242055690686241,0.40494883595442605,0.29697698139250206,0.20614610304466802,0.12999459056695184,8.016210443723676,6.500236298016146,5.628327202230081,4.756896876480604,3.843745651082581,3.0648006243476487,2.501619045361235,2.1367227550737042,1.8706251656025357,1.6286382324929904,1.3867138805810377,1.1442904845882644,0.9093316620512045,0.6945842933061792,0.49486668561186303
0.0,26.0,26.0,0.0,120.0,0.0,-7.132934251819072,-24.040340084533323,5.624648291634458,-107.0,0.0,-45.0,1.8328133554768042,9.78819554568863,0.30537214562781756,34.23589759221103,17.60751837456324,6.177694273242062,4.408606812913395,3.5268832072893312,2.738496469520756,2.004463198767184,1.4572162853270518,1.1102639986502025,0.9057927213025437,0.7622083118450567,0.6348630698593841,0.5124632687133988,0.39622649728981735,0.2909357614488649,0.20225575915710547,0.1277769808180349,8.031722380127515,6.514096529484183,5.640919077951551,4.7672074937411315,3.84732123009352,3.0554967329133587,2.478861497207953,2.1071867564255116,1.8408894127166562,1.6018414655907112,1.3640239258243112,1.1260851274363355,0.8955346732781595,0.6847236759052829,0.4884696183429432
0.0,27.0,27.0,0.0,120.0,0.0,8.893378340991678,-9.921259166272534,-8.534769686593247,-107.0,0.0,-45.0,1.9562544563885718,-8.693915856964395,4.22111461767193,34.23589759221103,17.60751837456324,6.192101259432819,4.419117076850861,3.535307942010606,2.7443321023232192,2.00469012069537,1.448649324684618,1.0943032755159252,0.887474924898059,0.7451676937197826,0.620465018835365,0.5010537129778523,0.38773813078523456,0.2850461249303946,0.19845537038724875,0.1256054420442281,8.04717773588392,6.527893822189547,5.653459077174905,4.777633640596529,3.8515670665706256,3.047490093367012,2.45753059605205,2.078773859327564,1.8119771375948177,1.575686514066391,1.3418428647539555,1.1082672532144378,0.8820142270404093,0.675046602604882,0.4821803630297588
0.0,28.0,28.0,0.0,120.0,0.0,0.43696643500143395,8.008676874634254,13.421117714667727,-107.0,0.0,-45.0,-2.164811534178334,5.664688766276262,-4.105054549670999,34.23589759221103,17.60751837456324,6.206518738608297,4.429620714591558,3.543730688869922,2.7502986140001027,2.005459461221219,1.4410179716487865,1.079299843348925,0.8699023484181487,0.7286850837704978,0.6064958400040249,0.4899659716314211,0.37947641649645786,0.279303639002736,0.1947425179236577,0.12347886402083764,8.062578033189034,6.541629633266494,5.665945117865253,4.788146576126666,3.8564075102187867,3.0406961542601514,2.4375775275445926,2.0514639513663337,1.7838729305261918,1.5501577921947902,1.320157555123529,1.0908270806805522,0.8687636931646723,0.6655489745434355,0.475996737374447
0.0,29.0,29.0,0.0,120.0,0.0,-1.7067612001895291,-10.496119639477797,6.925674203104734,-107.0,0.0,-45.0,-1.200730440998795,-4.232030053370122,-0.940576780317163,34.23589759221103,17.60751837456324,6.220947519017081,4.440118422534406,3.5521491717887317,2.756371882926002,2.006712261763549,1.4342601195962599,1.0652155575454916,0.8530535178484829,0.7127435295502715,0.592941396534004,0.47918953187917257,0.3714342958159788,0.2737040179053182,0.19111485642718842,0.12139616658378836,8.077924767410858,6.555305425969531,5.6783760068635925,4.798722111407864,3.861773665822468,3.0350337539353056,2.4189530631579834,2.02523648556784,1.7565619390810903,1.5252403163401635,1.2989552769412502,1.0737551174311872,0.8557766254686504,0.6562267985177618,0.4699166106793649
0.0,30.0,30.0,0.0,120.0,0.0,-4.70888775790746,5.900771449942077,-7.381750722149225,-107.0,0.0,-45.0,-3.1884903826309694,-5.17162759846852,-4.756868002898422,34.23589759221103,17.60751837456324,6.235388392352665,4.450610896679471,3.5605618518192577,2.7625315424554673,2.0083948738462056,1.428316471055859,1.0520128325936344,0.8369074227821726,0.6973268020731133,0.5797881435711033,0.4687142811342005,0.36360496114336516,0.2682431175422674,0.18757011157038583,0.11935629873510009,8.093219392851607,6.568922618394384,5.69075116223151,4.809339902636879,3.867602844914616,3.0304251205631645,2.4016078421865696,2.0000705033741024,1.7300297762188133,1.5009196931316136,1.2782237176944093,1.0570421508511914,0.8430467561013446,0.6470761839033727,0.4639379004124304
0.0,31.0,31.0,0.0,120.0,0.0,5.484673788684333,-3.5615649527116915,-8.600640678975541,-107.0,0.0,-45.0,2.885455123065187,3.2500914306535194,-1.5738901565840968,34.23589759221103,17.60751837456324,6.24984213482042,4.461098827690449,3.5689677516210896,2.7687604740091927,2.010458613811521,1.4231305478604523,1.0396547051908505,0.8214434788358983,0.6824193476982017,0.567023102255629,0.45853049058863704,0.3559818460111028,0.262916930289003,0.1841060776658683,0.11735823778489501,8.108463334650342,6.582482611990511,5.7030705035517215,4.819982992661694,3.873838253266237,3.026796013595013,2.3854925210811286,1.975944612845822,1.704262483253561,1.4771820895860088,1.25795096155219,1.0406792390375565,0.830567990032518,0.6380933397484962,0.45805857248604037
0.0,32.0,32.0,0.0,120.0,0.0,-0.876993355669029,-18.226296788877487,0.5460214179198974,-107.0,0.0,-45.0,-4.431519235667597,-5.078736300180711,1.2223105883979493,34.23589759221103,17.60751837456324,6.264309507591689,4.471582897578024,3.5773663171424306,2.7750443562206795,2.0128594215854556,1.4186486817508963,1.0281048939892954,0.8066414968680855,0.6680062425198278,0.554633834627063,0.4486287995626501,0.34855861563610585,0.2577215800074233,0.18072061538000223,0.11540098851553661,8.123657989856945,6.595986790324127,5.715334326813202,4.830637338474677,3.88042858723105,3.024075757154159,2.3705579571169153,1.9528370011908156,1.679246475240747,1.4540142100347526,1.2381254776078225,1.0246577021950096,0.8183343997488635,0.6292745719264323,0.45227664006919926
0.0,33.0,33.0,0.0,120.0,0.0,1.3686789773729693,-10.085883702198462,-14.230118458364053,-107.0,0.0,-45.0,1.9699724172498732,3.317182351183753,-2.2093205177140165,34.23589759221103,17.60751837456324,6.278791257163238,4.482063777743341,3.585757309813008,2.78137126650224,2.015557526942877,1.414819987903823,1.0173278546861966,0.7924816584179558,0.6540731493137865,0.5426084193715915,0.4390002005826916,0.34132915787918405,0.2526533172603317,0.17741164952874483,0.11348358237228051,8.138804726128082,6.609436511905986,5.727543196360875,4.841291377910405,3.887327617174138,3.022197226858114,2.356755387796797,1.9307254619671734,1.6549684854357045,1.431403274364068,1.2187361082097845,1.0089691143794086,0.8063402201355208,0.6206162803683781,0.4465901620932876
0.0,34.0,34.0,0.0,120.0,0.0,-9.624203991272896,3.498245535063244,-8.775897736766717,-107.0,0.0,-45.0,2.7869539594110337,0.34617034404577574,-2.9025005034436493,34.23589759221103,17.60751837456324,6.2932881158008405,4.492542128007725,3.594140723337373,2.7877313308557046,2.0185171257934655,1.4115963236434301,1.0072888298010765,0.7789444967005086,0.6406062770539784,0.5309354283829523,0.42963602514354493,0.33428757459459085,0.24770851471641897,0.1741771669525073,0.11160507667997736,8.153904882442834,6.622833109731371,5.739697869337904,4.85193566204844,3.89449380131673,3.0210968251833443,2.344036585291823,1.9095874255320424,1.6314155179342809,1.40933699463404,1.19977205793418,0.9936052955165986,0.7945798435285704,0.612114956387489,0.4409972420792475
0.0,35.0,35.0,0.0,120.0,0.0,2.352709941517542,4.543638062408661,-2.2594359374548123,-107.0,0.0,-45.0,2.7740756184875313,-1.5182202312830135,-3.8429676667290638,34.23589759221103,17.60751837456324,6.307800801968286,4.503018596171016,3.6025167199653185,2.7941164175417836,2.0217060683977994,1.408932234543148,0.997953892915036,0.76601088238281,0.6275923430235533,0.5196039041044388,0.4205279301150732,0.3274281733514099,0.2428836627378408,0.1710152144670424,0.1097645538844236,8.168959769796615,6.636177891228311,5.751799238156797,4.862562534282141,3.9018899139789136,3.020714435008972,2.3323539952621988,1.889399995747258,1.608574804595895,1.3878035515544676,1.181222882883556,0.9785583037151134,0.7830478149355663,0.6037671800851645,0.4354960269975536
0.0,36.0,36.0,0.0,120.0,0.0,2.2419144544484286,3.716262442478939,-3.7749005899732335,-107.0,0.0,-45.0,-2.4057743565464507,1.09375617322838,0.7714024402034179,34.23589759221103,17.60751837456324,6.322330020741587,4.5134938178727415,3.6108855821199075,2.800519870401954,2.0250955610179457,1.4067848899040882,0.9892899872285625,0.7536620134514417,0.6150185375091777,0.5086033376305895,0.41166788475506505,0.3207454595098856,0.23817536514261162,0.16792389688746215,0.10796112081756816,8.183970671873901,6.649472138435824,5.76384828712396,4.873165851470908,3.909482690050117,3.0209933547493377,2.3216608603304416,1.8701399915674484,1.5864337663171744,1.366791570926707,1.1630784802720424,0.9638204278631901,0.7717388274179653,0.5955696178369488,0.43008470615999045
0.0,37.0,37.0,0.0,120.0,0.0,2.3386799374951384,7.660040992856679,-1.0927372690556787,-107.0,0.0,-45.0,-1.2618686206743854,-4.258969601607405,1.95270005904686,34.23589759221103,17.60751837456324,6.336876464208368,4.523968416618247,3.619247676034682,2.8069362777862064,2.0286598821088044,1.405114009416638,0.981264958429537,0.7418794085281512,0.6028724910430104,0.4979236475532646,0.4030481582914547,0.3142341286366735,0.23358033513436965,0.16490137512262423,0.10619390798578522,8.198938845700377,6.662717108305306,5.775846060080088,4.8837407427918595,3.917242487016988,3.021880218136997,2.311911328684627,1.85178399225648,1.5649799786494714,1.346290100166527,1.1453290782595467,0.9493841805003628,0.7606477176293936,0.5875190198554743,0.4247615101423414
0.0,38.0,38.0,0.0,120.0,0.0,8.874961570292484,7.605163500084444,-6.671138811158043,-107.0,0.0,-45.0,0.8759963519638898,4.131494125459579,1.7195714059582237,34.23589759221103,17.60751837456324,6.351440811852715,4.534443003889132,3.627603424701639,2.8133612732486184,2.032376113809348,1.4038817826390804,0.9738475819694611,0.7306449030425867,0.5911422441355745,0.48755515954178374,0.39466130803933536,0.30788905924374377,0.2290953913924216,0.16194586433723485,0.10446206888047409,8.21386552227543,6.675914033063917,5.787793636538025,4.894283402152318,3.925142965447033,3.0233249013936527,2.3030605484427467,1.8343083851044275,1.5442011416884904,1.3262885850255237,1.127965226001505,0.9352422909540109,0.74976946150398,0.579612217828087,0.41952470973704814
0.0,39.0,39.0,0.0,120.0,0.0,3.636405982069668,-3.4290782283013037,2.6035303937450642,-107.0,0.0,-45.0,-2.2717809757553296,-1.702862613328719,4.488610207205074,34.23589759221103,17.60751837456324,6.366023730925802,4.544918179293686,3.6359532879738716,2.819791364414908,2.03622388919196,1.4030527827643327,0.9670075849274956,0.7199406477253891,0.5798162194240586,0.47748858665026106,0.38650016802024684,0.30170530583634614,0.22471745431521756,0.15905563217914673,0.10276477931026377,8.228751907185964,6.689064120607301,5.799692114314456,4.904790910301439,3.9331607884563984,3.0252804202272414,2.2950647485180204,1.8176894146456404,1.5240850541090465,1.3067768466270966,1.1109777838846633,0.9213876987310955,0.7390991700891655,0.5718461226268212,0.4143726149349932
0.0,40.0,40.0,0.0,120.0,0.0,-2.80984198852428,19.82732979255315,10.915668177696944,-107.0,0.0,-45.0,-1.2914720078211128,-2.789088790282155,-4.972967861064973,34.23589759221103,17.60751837456324,6.380625876802723,4.5553945307350245,3.6442977481147025,2.8262237866893694,2.040185155469678,1.402593875993687,0.9607156627023992,0.7097491089398852,0.5688831961448941,0.4677150103478149,0.37855783805341325,0.29567809225610414,0.22044354241077185,0.1562289970693655,0.10110123675407932,8.24359918120254,6.7021685549058105,5.811542597075105,4.915261083074454,3.941275340375608,3.0277028188196153,2.287881306796899,1.8019032325045579,1.5046195911726357,1.2877450589289885,1.0943579139235935,0.9078135471550417,0.7286320855177543,0.5642177220884553,0.40930357393550026
0.0,41.0,41.0,0.0,120.0,0.0,-1.259360924013171,-6.621906497605174,-11.474044321139008,-107.0,0.0,-45.0,-3.0294571981436036,6.573138291114756,1.47196653894036,34.23589759221103,17.60751837456324,6.395247893325998,4.565872634587479,3.6526372994519347,2.8326563787422607,2.0442439531412546,1.4024741276952217,0.9549434908153909,0.7000530704248821,0.5583322868267219,0.4582258622686564,0.37082767329079735,0.28980280530590224,0.21627076882779891,0.1534643265524898,0.0994706597344362,8.258408500858913,6.715228496417859,5.823346185558568,4.9256923425061165,3.9494684645617593,3.0305510527195274,2.281468806483286,1.7869259471176302,1.4857926864994202,1.2691837267176944,1.0780970702971018,0.8945131772377295,0.7183635771140904,0.556724078862567,0.4043159721837331
0.0,42.0,42.0,0.0,120.0,0.0,3.9526239185452976,-3.2067537367186603,0.5213732146234253,-107.0,0.0,-45.0,-0.40144116243992656,8.499338239063842,1.0039223709763956,34.23589759221103,17.60751837456324,6.409890413136066,4.576353055878456,3.6609724410931515,2.839087476994287,2.048386210869641,1.4026647063938138,0.9496637321354787,0.6908356360735036,0.5481529160899241,0.4490129066796084,0.36330327416998853,0.2840749886437454,0.2121963380216179,0.15076003570528412,0.09787228721025887,8.273180999015931,6.728245082508688,5.835103971522489,4.936083607852173,3.9577242200849234,3.033786867328949,2.2757870814803303,1.7727336726945897,1.4675923173687713,1.2510836642313987,1.062186990008074,0.8814801217762925,0.7082891376295343,0.5493623283254522,0.3994082314346103
0.0,43.0,43.0,0.0,120.0,0.0,-8.795490567414603,19.596167750783607,-11.0379568096454,-107.0,0.0,-45.0,-4.553876987458859,-9.079853782254062,0.8873960997028814,34.23589759221103,17.60751837456324,6.42455405798931,4.586836348476295,3.6693036718970444,2.845515826585865,2.0525995557370154,1.4031387865195248,0.9448500398556187,0.682080233422672,0.5383348014317259,0.44006822366244225,0.3559784767610633,0.2784903369333175,0.20821754254915664,0.1481145856012708,0.09630537798859619,8.287917785410954,6.741219427874937,5.846817033679199,4.946434203852827,3.966028656835714,3.037374673465416,2.2707972516801327,1.7593025768891162,1.4500064932931624,1.2334359744982577,1.0466196836545716,0.8687080996642723,0.6984043796026917,0.5421296765579324,0.39457880884246593
0.0,44.0,44.0,0.0,120.0,0.0,3.335334308913353,15.309699452304287,6.505790435777811,-107.0,0.0,-45.0,2.9979588457061803,-5.34746014340469,4.627703198402424,34.23589759221103,17.60751837456324,6.439239439063887,4.597323055285549,3.677631487086094,2.8519405065800982,2.0568731383961723,1.4038714507303711,0.940477056555564,0.6737706175743501,0.5288679358711613,0.4313841930076137,0.34884734348559643,0.2730446902394253,0.20433175998764957,0.1455264818292341,0.09476921015460482,8.302619947193662,6.754152624975522,5.8584864350645915,4.956743783854982,3.9743696084555737,3.0412814212972266,2.2664617490161443,1.7466089267468323,1.4330232475977909,1.2162320294657496,1.0313874263039784,0.8561910104067729,0.6887050318399636,0.5350233983850945,0.3898261960756686
0.0,45.0,45.0,0.0,120.0,0.0,3.412757392363188,10.194429177018314,-3.118208915781187,-107.0,0.0,-45.0,-4.230435530133673,-3.0296126101487353,-4.831283266299603,34.23589759221103,17.60751837456324,6.453947157253816,4.607813708451151,3.685956376036115,2.8583608673964225,2.0611974725407203,1.4048395925240746,0.9365204096875857,0.6658908753124972,0.5197425723256752,0.42295347881479295,0.34190415418797887,0.2677340286570021,0.20053644997185158,0.14299427306367926,0.0932630805192099,8.317288549449406,6.7670457444692955,5.870113221423144,4.967012265677332,3.9827365023778243,3.045476473780373,2.2627443351069076,1.7346291325871521,1.4166306317322026,1.199463450985257,1.0164827484658399,0.8439229288290514,0.6791869360123038,0.5280408354760678,0.3851489184553753
0.0,46.0,46.0,0.0,120.0,0.0,-5.792348778523182,-19.988655634384944,1.9626393557552682,-107.0,0.0,-45.0,0.18835148831526016,6.299329587404948,1.964824307014501,34.23589759221103,17.60751837456324,6.468677803451686,4.618308829572244,3.694278820895754,2.864776478703928,2.06556428804238,1.4060218197602405,0.9329567038159263,0.6584254292187676,0.5109492095906923,0.41476901479399725,0.3351433975410148,0.262554467162749,0.1968291513448559,0.14051654968531183,0.09178630408383731,8.33192463571102,6.779899835659047,5.881698420299916,4.97723977835134,3.9911201861818255,3.0499314805744144,2.2596101112858387,1.7233397895546256,1.4008167120393422,1.1831220927043138,1.0018984271623783,0.8318980999682034,0.6698460433641771,0.5211793945020112,0.3805455341177622
0.0,47.0,47.0,0.0,120.0,0.0,-7.421474046902934,20.974130687233675,-9.50160491357764,-107.0,0.0,-45.0,-1.9318990045480389,9.70982855286595,3.136786497018635,34.23589759221103,17.60751837456324,6.483431958820459,4.628808929925818,3.70259929577986,2.8711870862182534,2.069966397050047,1.4073983596292445,0.9297635099314872,0.6513590416251359,0.5024785797946425,0.40682399025943916,0.32855976276950555,0.25750225067898885,0.19320747941781588,0.13809194244969894,0.09033821352167978,8.346529228460172,6.792715926940938,5.893243040613666,4.987426618100993,3.9995127694015093,3.054620253277367,2.2570255217726505,1.7127177166451273,1.3855695687112175,1.16720002290717,0.9876274770986123,0.820110934137669,0.6606784115309121,0.514436545350455,0.37601463319893536
0.0,48.0,48.0,0.0,120.0,0.0,-3.691432981516323,10.712064977455569,-10.654567219698682,-107.0,0.0,-45.0,0.7754294883137547,9.379434093407035,0.09807196621584158,34.23589759221103,17.60751837456324,6.498210195054816,4.6393145106996005,3.710918266350447,2.877592576042511,2.074397572309536,1.408950965526134,0.9269193521508621,0.6446768182730744,0.4943216372046213,0.3991118368062635,0.3221481316771133,0.25257374933967797,0.18966912333406938,0.13571912120235619,0.08891815867492625,8.36110332961922,6.805495026257787,5.904748072548409,4.997573212133862,4.007907479889693,3.05951864269605,2.2549583506997193,1.7027399930733347,1.3708772966676863,1.1516895083329821,0.9736631419366976,0.808556002154535,0.651680201460846,0.5078098193943341,0.37155483704188097
0.0,49.0,49.0,0.0,120.0,0.0,-2.725784581147548,24.942350328393324,-0.3583115805313639,-107.0,0.0,-45.0,4.594333408334251,8.098966910998538,-1.6603513040319084,34.23589759221103,17.60751837456324,6.513013074632622,4.64982606323306,3.7192361896518085,2.883992945371178,2.07885243694264,1.410662826216611,0.9244036920945192,0.6383642115765856,0.48646954826172634,0.3916262156584913,0.3159035709632529,0.24776545394896227,0.18621184353341486,0.13339679363852777,0.08752550606745514,8.3756479210347,6.818238121554356,5.916214487648497,5.007680089005714,4.016298533818141,3.064604418756628,2.253377713662727,1.693383991900409,1.3567280081053092,1.1365829989900667,0.9599988856811341,0.7972280307198744,0.6428476744387107,0.5012968078139121,0.3671647974247643
0.0,50.0,50.0,0.0,120.0,0.0,1.4039354083575937,-17.527584767100315,-4.331617864501332,-107.0,0.0,-45.0,1.455702444560039,-4.068874698719402,2.9084016322740496,34.23589759221103,17.60751837456324,6.527841151057193,4.660344069265158,3.7275535141059493,2.8903882785363506,2.083326364917197,1.4125184776173432,0.9221969112231787,0.6324070234106103,0.47891368272988166,0.38436100567457837,0.309821324818053,0.24307397162307723,0.18283346931241956,0.13112370410604438,0.08615963843245561,8.390163964953286,6.830946181232473,5.9276432390377165,5.0177478544912555,4.02468101838735,3.0698571535595405,2.252254044420422,1.6846274108854844,1.3431098364757332,1.1218731139744946,0.9466283841832845,0.7861218979427596,0.6341771892069328,0.49489515996998806,0.3628431958099345
0.0,51.0,51.0,0.0,120.0,0.0,-1.2279697307535926,18.406302868410712,13.212958357584391,-107.0,0.0,-45.0,-4.646375642445091,9.840224868289482,-4.027570743675754,34.23589759221103,17.60751837456324,6.542694969091105,4.670869001187189,3.735870679603829,2.8967787275189973,2.0878153914439626,1.4145037174537252,0.9202802913951436,0.6267914073673315,0.4716456058475598,0.3773102919952003,0.30389680778463085,0.23849602160679056,0.17953189647688084,0.12889863244965835,0.08481995425451556,8.404652404491351,6.8436201546039515,5.939035261708716,5.027777172045136,4.033050786327231,3.0752581079923713,2.251559077324428,1.6764483005622945,1.3300109416674974,1.1075526282919312,0.9335455167748751,0.7752326289989594,0.625665199181549,0.4886025818267452,0.3585887426130394
0.0,52.0,52.0,0.0,120.0,0.0,9.767476761184525,-16.875353266181257,7.959757614208957,-107.0,0.0,-45.0,-0.6959756049193881,-5.011599178870975,-0.5796436227007469,34.23589759221103,17.60751837456324,6.557575064982446,4.681401322299001,3.7441881176492164,2.9031644961748553,2.0923161325493713,1.4166055230047232,0.9186359938906589,0.6215038704408578,0.4646570713778655,0.3704683553162493,0.2981255978789125,0.23402843125599845,0.17630508508269854,0.12672039289534015,0.0835058673256751,8.419114164098948,6.856260972339082,5.950391472847836,5.037768747071519,4.04140436128757,3.0807901222328424,2.2512658260170797,1.6688250895733616,1.317419516180522,1.0936144606731675,0.9207443580411289,0.7645553919158847,0.6173082497595881,0.48241683442259375,0.3544001764916201
0.0,53.0,53.0,0.0,120.0,0.0,-7.959103785039439,5.77797821419221,7.459908595516421,-107.0,0.0,-45.0,0.1001685231825018,-7.881876902355356,0.19952374570838227,34.23589759221103,17.60751837456324,6.572481966684608,4.691941487067063,3.752506251527323,2.9095458275362858,2.096825713094197,1.4188119720959658,0.9172470371328117,0.6165312741159938,0.45794001545893387,0.363829661768482,0.2925034299581952,0.22966813217845822,0.17315105726158553,0.12458783297307253,0.08221680631501875,8.43355015001917,6.868869546908925,5.961712772173545,5.047723314338292,4.049738853243722,3.0864375104010877,2.2513485588939095,1.6617366073195425,1.3053237920987688,1.080051662366211,0.9082191697446853,0.7540854934757177,0.609102975714825,0.47633573238757204,0.3502762636526375
0.0,54.0,54.0,0.0,120.0,0.0,-5.822464878103306,-18.809000857527924,12.111592192378005,-107.0,0.0,-45.0,0.36177494703451973,9.01905222110788,1.9395641093454756,34.23589759221103,17.60751837456324,6.587416194070678,4.702489941382764,3.76082549648114,2.9159229936492785,2.1013417025347163,1.4211121674587406,0.9160972733182005,0.6118608348496334,0.4514865511632501,0.3573888533839656,0.2870261893303677,0.22541215652506885,0.17006789512820406,0.12249983247670984,0.08095221435133541,8.447961250743491,6.881446773019538,5.973000042275777,5.057641627974939,4.058051883076188,3.0921859595552905,2.2517827717880228,1.655162104003079,1.2937120486830334,1.0668574068811698,0.8959643929116301,0.7438183752293811,0.6010460986789329,0.47035714250568006,0.3462157971784067
0.0,55.0,55.0,0.0,120.0,0.0,-6.773809642300074,17.40041146611172,-12.497326936739444,-107.0,0.0,-45.0,1.8139251060383792,-5.331594890638074,-4.091142679675905,34.23589759221103,17.60751837456324,6.602378259143878,4.713047122819704,3.769146259885695,2.9222962874896914,2.105862057754312,1.4234961645334356,0.9151713641548216,0.6074801239438788,0.4452889636812514,0.35114073912834726,0.2816899055964226,0.22125763342445864,0.16705373876545718,0.12045530245956176,0.07971154861845024,8.462348337463835,6.893993528036801,5.984254148949532,5.06752445358223,4.066341515521204,3.098022433166581,2.252545158296063,1.6490812681579854,1.282572620422255,1.0540249806585196,0.8839746400910236,0.7337496096144537,0.5931344247050387,0.46447898232075235,0.34221759637033317
0.0,56.0,56.0,0.0,120.0,0.0,3.0621665093079677,15.365947936250535,1.5657740976721968,-107.0,0.0,-45.0,-2.224039022682339,3.795365301555009,-2.7224049846213907,34.23589759221103,17.60751837456324,6.617368682352793,4.723613470145237,3.7774689417455067,2.9286660043733304,2.110385054483963,1.4259549121568889,0.9144547540575757,0.6033770676249125,0.4393397056547899,0.34508028660673223,0.27649074668744583,0.21720178556133712,0.1641067842835147,0.1184531842642361,0.07849427992697035,8.476712248483668,6.906510648852774,5.995475915642466,5.077372543510815,4.074606209472013,3.1039350922497793,2.253613569835467,1.6434742445433137,1.2718939047490174,1.0415477747230582,0.8722446877927055,0.7238748961691055,0.5853648419120095,0.4586992187838705,0.33828050593936215
0.0,57.0,57.0,0.0,120.0,0.0,-4.934167949204358,3.4550369307296656,2.5342820686730647,-107.0,0.0,-45.0,-3.711394345336798,-8.832872820388227,-0.8969843730987437,34.23589759221103,17.60751837456324,6.632387946421755,4.734189396346172,3.785793932878642,2.935032470850834,2.114909293452752,1.428480161203615,0.9139336495009074,0.5995399435517689,0.4336313944820863,0.33920261379684885,0.27142501324424384,0.2132419258567109,0.1612252819558349,0.11649244858614835,0.07729989242860602,8.491053834441093,6.918998998619401,6.006666197068107,5.087186685122206,4.0828447385687285,3.109913170531575,2.254967005947517,1.6383216390949864,1.2616643724420786,1.0294192768137707,0.8607694691443782,0.7141900578440684,0.5777343182010847,0.45301586694360163,0.33440339586895496
0.0,58.0,58.0,0.0,120.0,0.0,-0.6737845428738751,-4.640835138700016,13.858091356416871,-107.0,0.0,-45.0,-1.0732432345290563,4.614181982549523,1.2329467302013066,34.23589759221103,17.60751837456324,6.6474365387240475,4.7447753141992255,3.7941216178762085,2.9413960112031154,2.1194336146527077,1.4310644257528833,0.9135949890890752,0.5959573807763442,0.42815680797445016,0.33350298196707023,0.2664891330397118,0.20937545431145071,0.15840753441726665,0.11457209456824083,0.07612788316898836,8.505373919413232,6.93145940827456,6.017825814071253,5.096967649258339,4.091056168150557,3.11594692553769,2.256585558598655,1.6336045366536422,1.2518725745708155,1.0176330648563716,0.8495440667168849,0.7046910373934755,0.5702398990525198,0.44742698867264286,0.33058516037486857
0.0,59.0,59.0,0.0,120.0,0.0,-5.111488159967945,-21.541650227243096,-6.235574196223535,-107.0,0.0,-45.0,4.564057227959488,7.6344042466767945,3.8696078121741753,34.23589759221103,17.60751837456324,6.662514941786798,4.755371630457455,3.8024523741919927,2.947756950763474,2.123957072931263,1.4337009199086626,0.9134264181678153,0.592618356957504,0.42290888152710066,0.327976788676302,0.26167965570849,0.2055998549450179,0.1556518949326371,0.11269114892683851,0.07497776174436618,8.51967330986372,6.943892689887487,6.02895556850929,5.106716198328677,4.09923980963573,3.1220275527109536,2.2584503813339825,1.629304507986438,1.2425071514592856,1.0061828008894933,0.838563705584866,0.6953738938523871,0.5628787053900371,0.441930691434236,0.32682471741289626
0.0,60.0,60.0,0.0,120.0,0.0,-6.820608327089605,9.871438657228182,-7.7751366025365956,-107.0,0.0,-45.0,-3.1286910824915526,-4.5512620906807495,1.1882616824137653,34.23589759221103,17.60751837456324,6.6776236313126285,4.765978744792954,3.810786572172305,2.9541156152125265,2.12847890976852,1.436383501697892,0.9134162627747492,0.5895121953271747,0.4178807054360526,0.322619561278543,0.25699324766589626,0.20191269285003904,0.15295676572845757,0.11084866510708093,0.07384904995873748,8.533952797176175,6.956299640136129,6.040056246996504,5.116433086743314,4.107395183568883,3.1281471099588014,2.260543654056017,1.6254036161024914,1.2335568412400575,0.9950622257577773,0.8278237466046566,0.6862347990921833,0.555647931514296,0.4365251270851667,0.32312100812746397
0.0,61.0,61.0,0.0,120.0,0.0,-7.792497176713898,-2.3228658660965564,-11.991181732035066,-107.0,0.0,-45.0,4.0398395492823695,-2.418862078451429,-3.6653852906506557,34.23589759221103,17.60751837456324,6.692763076398937,4.776597050029036,3.8191245751902736,2.9604723288541113,2.1329985264567006,1.439106621508352,0.913553503361429,0.5866285612738585,0.41306552241500355,0.3174269508721846,0.2524266872203974,0.19831161135534087,0.1503205963856198,0.10904372246687892,0.07274128148702308,8.548213158086174,6.968681040656421,6.051128621198396,5.126119059402651,4.115521988411952,3.1342984483817204,2.2628485461861803,1.6218844211403123,1.2250104881274482,0.9842651544934643,0.8173196799188593,0.6772700344506797,0.5485448431024811,0.43120849071431416,0.3194729962925314
0.0,62.0,62.0,0.0,120.0,0.0,3.1265917893054684,11.102779973517393,-14.507111112255775,-107.0,0.0,-45.0,0.4380595007732637,-2.514076333581679,4.805801327872825,34.23589759221103,17.60751837456324,6.707933739764122,4.787226932366155,3.8274667397779325,2.9668274133368744,2.137515460678975,1.4418652737533195,0.9138277486165066,0.5839574584740541,0.4084567253214851,0.31239472665358353,0.24797685987872747,0.1947943292916571,0.1477418822907908,0.10727542548835192,0.07165400154831669,8.562455155106807,6.981037658377425,6.062173448124132,5.135774850623787,4.123620073337029,3.1404751473038934,2.26534917953442,1.6187299835793765,1.216857050434592,0.9737854723268412,0.8070471186938585,0.6684759874342019,0.5415667752712601,0.42597901951558054,0.3158796677670998
0.0,63.0,63.0,0.0,120.0,0.0,-7.236340973027724,18.31911629643146,12.885879503765715,-107.0,0.0,-45.0,-0.4308857835423421,4.975765150802662,3.7178573475549292,34.23589759221103,17.60751837456324,6.723136077982028,4.797868771601292,3.8358134157575297,2.9731811867243394,2.1420293661116157,1.444654951661393,0.9142292094848083,0.5814892246039172,0.40404785505504803,0.3075187706518829,0.24364075383869363,0.19135863835546182,0.14521916314417257,0.10554290301576036,0.07058676658889652,8.576679536946234,6.993370245842551,6.0731914704180925,5.145401183405684,4.131689414575133,3.1466714534775693,2.2680305910711605,1.6159238658966637,1.2090856082819545,0.963617131279201,0.7970017930946928,0.6598491484891076,0.5347111307006295,0.4208349916941778,0.3123400299650479
0.0,64.0,64.0,0.0,120.0,0.0,-6.06835276639893,23.776075250144288,5.097496397727301,-107.0,0.0,-45.0,3.820414102298896,-5.243855149219224,0.027207611453240688,34.23589759221103,17.60751837456324,6.738370541725593,4.8085229413403425,3.844164946373102,2.9795339628353434,2.146539994707185,1.4474716050802572,0.9147486734672294,0.5792145266636863,0.3998325985946536,0.30279507282246765,0.23941545566468048,0.1880024005666816,0.14275102152135577,0.10384530751895805,0.06953914397468784,8.590887038914868,7.005679541516656,6.084183416651126,5.154998768954648,4.139730094915218,3.152882224318376,2.2708786957753953,1.6134501327853172,1.2016853709544317,0.9537541472924561,0.7871795445003955,0.6513861078407014,0.5279753778161791,0.4157747254050846,0.3088531113388091
0.0,65.0,65.0,0.0,120.0,0.0,-2.6254965867807183,17.790167119630553,8.554587360694132,-107.0,0.0,-45.0,-0.41396038231414156,-6.56293801904714,4.22347981796633,34.23589759221103,17.60751837456324,6.753637576020235,4.819189809203194,3.852521668423127,2.985886050792248,2.151047181348331,1.4503116011756916,0.9153774792771828,0.5771243559474946,0.39580478714663153,0.2982197264770201,0.23529814614097447,0.18472354581628878,0.1403360814870923,0.10218181438142854,0.0685107116928673,8.60507838331988,7.0179662700793894,6.095150001611733,5.164568306407927,4.147742285985801,3.1591028750179118,2.2738802497141783,1.6112933500489794,1.194645683872948,0.9441905978505891,0.7775763199617511,0.6430835523978436,0.5213570490274039,0.41079657772267164,0.3054179608766025
0.0,66.0,66.0,0.0,120.0,0.0,6.419864596958703,-24.4142957907499,-6.548096827381528,-107.0,0.0,-45.0,2.241676366115433,-1.0141670262452394,0.4138079375713577,34.23589759221103,17.60751837456324,6.76893762050712,4.82986973702108,3.860883912394773,2.99223775472729,2.1555508305917512,1.4531716879015826,0.916107491920591,0.5752100226906502,0.3919583943782635,0.2937889240287593,0.23128609629802527,0.18152006950003818,0.1379730072589082,0.10055162121202749,0.0675010580623448,8.619254279844066,7.030231142704805,6.106091926597198,5.1741104827060935,4.155726232987314,3.165329329371321,2.277022813491308,1.6094385822807131,1.1879560351541303,0.9349206200491569,0.7681881669023266,0.634938262721923,0.5148537390197081,0.40589894364048695,0.302033647612792
0.0,67.0,67.0,0.0,120.0,0.0,-8.057974484138775,-7.0010967760818055,2.592304985589802,-107.0,0.0,-45.0,-1.0097467829689801,-3.9106318524536103,4.233060678891631,34.23589759221103,17.60751837456324,6.78427110971588,4.840563081025807,3.869252002600043,2.998589373607822,2.160050905249801,1.4560489601128352,0.9169310782582812,0.573463150425902,0.3882875347155079,0.28949895303216455,0.22737666360676537,0.17839003023481792,0.13566050191854634,0.09895394717955605,0.06650978145281593,8.633415425906248,7.042474857327697,6.1170098797043915,5.183625972575607,4.163682241576472,3.1715579741516775,2.2802947161868747,1.6078713894308638,1.1816060617387578,0.9259384090707142,0.7590112280625732,0.626947110059167,0.5084631030978899,0.4010802551001851,0.2986992601510535
0.0,68.0,68.0,0.0,120.0,0.0,6.758898149976076,11.4995281212029,-13.081342016370566,-107.0,0.0,-45.0,4.040443929009577,6.783782445173049,3.298973686033431,34.23589759221103,17.60751837456324,6.799638473345778,4.851270192030425,3.877626257314003,3.0049412011498258,2.1645474165833614,1.458940828190876,0.917841083102117,0.5718756700792782,0.38478646168645936,0.28534619249726917,0.22356728833613282,0.1753315476543408,0.13339730616931833,0.09738803236935124,0.06553649001214111,8.647562507000092,7.054698098897002,6.127904536119932,5.193115438591756,4.1716106666352335,3.1777856168594596,2.283685019894537,1.6065778223633291,1.175585555075608,0.9172382170256618,0.7500417366856355,0.6191070534355226,0.5021828555788673,0.3963389800487085,0.29541390620000413
0.0,69.0,69.0,0.0,120.0,0.0,-8.078031842120739,-16.418516136927973,-0.43117212196131227,-107.0,0.0,-45.0,1.9002502019122733,-5.245163479687225,4.682864102942974,34.23589759221103,17.60751837456324,6.815040136553613,4.861991415600844,3.886006988914986,3.011293525795755,2.169040415903366,1.4618449890503793,0.9188308058889112,0.5704398138351049,0.38144956629492016,0.28132710945941375,0.21985549006891497,0.17234280028104898,0.13118219713751417,0.09585313716109367,0.0645808014017686,8.661696197008292,7.066901539616643,6.1387765584090115,5.202579531298793,4.179511902685019,3.1840094466731244,2.2871834849493227,1.6055444174947184,1.1698844663529149,0.9088143521198468,0.7412760119426716,0.6114151368136015,0.4960107682316137,0.39167362152277563,0.2921767121209443
0.0,70.0,70.0,0.0,120.0,0.0,9.529189300267916,1.0518303102064657,14.324854192333405,-107.0,0.0,-45.0,1.9962205425051671,0.04778914978522941,4.197828107781584,34.23589759221103,17.60751837456324,6.830476520246019,4.872727092217935,3.894394504026741,3.01764663073849,2.173529987400539,1.4647593993962018,0.9198939779696977,0.5691481087986752,0.37827137541092926,0.2774382557862174,0.2162388643710451,0.16942202347135074,0.12901398721609453,0.09434854162706745,0.06364234253996524,8.675817158489362,7.079085839174542,6.149626596802422,5.212018889369767,4.187386375733371,3.190226998426943,2.290780535926222,1.6047581906059323,1.164492911274102,0.9006611781122918,0.7327104545945275,0.6038684863113208,0.48994466876217013,0.3870827167598207,0.2889868224874098
0.0,71.0,71.0,0.0,120.0,0.0,-0.6269759670459685,-22.283100583037317,11.295157359497725,-107.0,0.0,-45.0,-1.722795984428811,8.851671993958607,-4.639661825714305,34.23589759221103,17.60751837456324,6.845948041373213,4.883477557429594,3.9027891036623257,3.0240007939773865,2.1780162420430567,1.4676822511006973,0.9210247405456357,0.5679933704838191,0.37524655016736985,0.2736762652043935,0.2127150796094731,0.16656750743143908,0.12689152294896666,0.09287354495014062,0.06272074935259704,8.689926042934486,7.0912516449603125,6.160455289480949,5.221434139792956,4.195234536364029,3.1964361194434034,2.294467228477862,1.6042066299107487,1.1594011743787687,0.8927731140284365,0.7243415428857535,0.5964643074821039,0.483982439341901,0.3825648363345381,0.28584339965617506
0.0,72.0,72.0,0.0,120.0,0.0,9.535221763806742,-15.000173755179997,-4.855231444894631,-107.0,0.0,-45.0,2.567786427368892,2.6799539548932145,-3.2522799583906004,34.23589759221103,17.60751837456324,6.861455113220509,4.894243141992218,3.9111910833694905,3.030356288395926,2.1824993124000627,1.4706119485737807,0.9222176232761066,0.5669686961514258,0.3723698843536636,0.27003785052994894,0.20928187391373987,0.1637775953011208,0.12481368395421813,0.09142746486076782,0.061815666531229684,8.704023490992506,7.103399592272488,6.1712632628565665,5.230825898075019,4.203056853903153,3.2026349390498834,2.298235217068632,1.6038776884611707,1.154599712913114,0.8851446340964226,0.716165828666322,0.589199882656569,0.4781220151770191,0.3781185833201898,0.28274562334944475
0.0,73.0,73.0,0.0,120.0,0.0,2.0969103949009202,-24.0739102769693,13.847104636244957,-107.0,0.0,-45.0,1.360610554471413,7.345788109249295,-1.1086532289881426,34.23589759221103,17.60751837456324,6.876998145693548,4.905024172001108,3.9196007333773473,3.036713381853262,2.1869793482657096,1.473547088000993,0.9234675235792527,0.5660674580236013,0.36963630279934423,0.26651980108616824,0.2059370522763824,0.16105068130323616,0.12277938188472941,0.09000963709232024,0.060926747298309894,8.718110132661794,7.115530304516087,6.182051131849595,5.240194768453881,4.21085381151422,3.2088218406130222,2.3020767236527013,1.6037597759645226,1.1500791602570264,0.8777702678761008,0.7081799337355766,0.5820725683457455,0.47236138311767434,0.37374259247395775,0.2796926902478873
0.0,74.0,74.0,0.0,120.0,0.0,4.785271587966033,14.68488516787103,-8.048951205863865,-107.0,0.0,-45.0,-2.5997972662029047,8.804193787095347,4.521426972954208,34.23589759221103,17.60751837456324,6.892577545592744,4.9158209690092605,3.928018338744025,3.0430723372838853,2.191456512973368,1.476486438328248,0.9247696866402714,0.5652832963969776,0.3670408597418271,0.263118980294718,0.2026784837873326,0.15838520895636218,0.12078755942467946,0.08861941485410911,0.06005365317920776,8.732186587448526,7.12764439339152,6.192819500161182,5.249541344116183,4.218625902091884,3.214995435928494,2.3059845073340357,1.6038417500827293,1.1458303289175422,0.8706446005525078,0.700380546402535,0.5750797927059422,0.46669858030486966,0.3694355294454846,0.2766838135942509
0.0,75.0,75.0,0.0,120.0,0.0,-9.216244154913586,-13.803765596980993,13.479564672470442,-107.0,0.0,-45.0,-3.394611775147436,5.015297237727038,-1.9997108052407042,34.23589759221103,17.60751837456324,6.908193716872279,4.926633850134151,3.9364441795051044,3.049433412801513,2.195930980303106,1.4794289238760718,0.9261196861382568,0.564610112677281,0.3645787371739637,0.25983232342605384,0.1995040989974661,0.15577966934865156,0.11883718932049993,0.0872561683214621,0.05919605378088763,8.746253464491966,7.139742459076003,6.203568960540414,5.2588662074158945,4.2263736248410595,3.221154541809049,2.30995183503811,1.6041129072798204,1.1418442131002469,0.8637622733677723,0.6927644182560199,0.5682190530654281,0.461131692853597,0.3651960900079561,0.27371822280722874
0.0,76.0,76.0,0.0,120.0,0.0,-4.343860748471808,-7.732415965154864,13.241331141194959,-107.0,0.0,-45.0,2.9639147451733177,3.9915012044950267,-3.3953235611239894,34.23589759221103,17.60751837456324,6.923847060879024,4.937463128152048,3.9448785308225056,3.055796861804273,2.2004029318976874,1.4823736084703902,0.927513405698204,0.5640420623561072,0.36224524316818746,0.25665683549620355,0.19641188740653412,0.1532325994707336,0.11692727344491144,0.08591928414225568,0.05835362657700975,8.760311362658278,7.151825090398624,6.214300095045378,5.268169930091647,4.234097482441835,3.2272981587194476,2.3139724532172683,1.604562973279383,1.1381119908719495,0.8571179841673756,0.6853283611377878,0.5614879135130489,0.4556588545706602,0.3610229993109466,0.2707951631053499
0.0,77.0,77.0,0.0,120.0,0.0,-7.596068775736622,21.404064673279542,8.97607762057175,-107.0,0.0,-45.0,4.591666030352226,9.359311332084541,3.8630466608655993,34.23589759221103,17.60751837456324,6.939537976566974,4.948309111579547,3.95332166313362,3.062162933079414,2.204872555113123,1.485319680981707,0.9289470210710352,0.5635735479495309,0.36003581017499664,0.25358958929782427,0.19339989507069938,0.15074258060575305,0.11505684189271957,0.08460816495932298,0.05752605669923077,8.774360870605479,7.163892865010446,6.2250134752975095,5.277453073481381,4.241797978713639,3.2334254513128844,2.318040560604646,1.6051820931896876,1.1346250259291781,0.8507064880387538,0.6780692443113611,0.5548840025489983,0.45027824570578423,0.356915011154381,0.26791389514057334
