Line_number,Fiducial,Easting,Northing,Height,Elevation,tx_pitch,tx_roll,tx_yaw,txrx_dx,txrx_dy,txrx_dz,rx_pitch,rx_roll,rx_yaw,PX,PZ,S0X_time_1.086e-05,S0X_time_3.256e-05,S0X_time_5.426e-05,S0X_time_8.680e-05,S0X_time_1.411e-04,S0X_time_2.279e-04,S0X_time_3.689e-04,S0X_time_5.860e-04,S0X_time_9.115e-04,S0X_time_1.411e-03,S0X_time_2.192e-03,S0X_time_3.418e-03,S0X_time_5.339e-03,S0X_time_8.301e-03,S0X_time_1.338e-02,S0Z_time_1.086e-05,S0Z_time_3.256e-05,S0Z_time_5.426e-05,S0Z_time_8.680e-05,S0Z_time_1.411e-04,S0Z_time_2.279e-04,S0Z_time_3.689e-04,S0Z_time_5.860e-04,S0Z_time_9.115e-04,S0Z_time_1.411e-03,S0Z_time_2.192e-03,S0Z_time_3.418e-03,S0Z_time_5.339e-03,S0Z_time_8.301e-03,S0Z_time_1.338e-02
0.0,0.0,0.0,0.0,120.0,0.0,2.9244612703106085,19.389624089131715,4.845293128079096,-106.7177725421879,0.0,-44.68336724680016,4.842080646556693,-8.417606017347389,2.569842665436731,34.2040194976165,17.630926776418704,5.620253480348919,2.9613926332964615,1.880232395070628,1.2670985308731868,0.7590909928885495,0.47212484664287957,0.24449498590415386,0.15838278773771747,0.08937520474268221,0.035872243430846655,0.02291421505435519,0.0033802125962495815,0.013736521594996429,0.018778269580104354,0.008665019575181305,8.28405733495347,5.416768907328008,4.030419566976612,3.1538989883050013,2.1253301583486874,1.4843918731269239,0.968102508352757,0.633737902720397,0.4355529834613592,0.25071632653200504,0.15303680817665494,0.07940440857366647,0.053583277629280744,0.01595996696486894,-0.009347516389008307
0.0,1.0,1.0,0.0,120.0,0.0,0.288323867872073,-22.228827309415998,2.5860978366750835,-107.65144805321697,0.0,-43.62124940761193,4.5439054180402305,-1.8645392713204227,4.595090253582178,34.2040194976165,17.630926776418704,5.700386253956225,2.9597827350618804,1.9151750707356205,1.2474277169179284,0.7434441782532114,0.44585280361319696,0.26747826017404264,0.15037271477497788,0.07528319513259508,0.03801490638468966,0.029013000512726005,-0.003253054323479696,0.002004745990480607,0.011035951448786888,-0.0021022617257197384,8.21764477745157,5.393883825751584,4.2015728715637515,2.9348045911853036,2.1318632369984605,1.505072941841738,0.9802450560357097,0.6258020358792288,0.4038464860348224,0.24840531177193953,0.15610464817013053,0.07732414449248545,0.03138557631901439,0.03205777704482808,0.017798162169636932
0.0,2.0,2.0,0.0,120.0,0.0,1.8234247877253313,16.07570992743524,-2.620629947668796,-107.16849999257589,0.0,-45.42388063195207,0.0028297099346583643,6.459106936252319,1.520064994786888,34.2040194976165,17.630926776418704,5.854023228127417,3.034644462406933,1.9570861269714264,1.2119123932636138,0.7357370948750456,0.4328613512659063,0.23880259082186797,0.13729012859657472,0.07894426645076816,0.05698615114157905,0.018383125114213923,0.02181518937293315,0.019631896363480218,0.001636396969766709,0.002612515932317812,7.956237066529532,5.295099666528764,4.001716961703847,3.0578496798046904,2.131695706194762,1.4773854281370944,0.9788124058952608,0.6335175122577682,0.3780982973250152,0.25326812202796384,0.14810271420166266,0.07726575124053123,0.04510012761538523,0.027071065728654267,0.010090717196064547
0.0,3.0,3.0,0.0,120.0,0.0,4.964338504322008,18.231220697887572,-4.86812931849482,-107.95401567443142,0.0,-45.683277108576505,1.3207557846708973,-9.45035693865947,-3.1635015747536457,34.2040194976165,17.630926776418704,5.895698546298008,3.12735052636506,1.9784292958835108,1.2628574408245694,0.7166352469463912,0.4375203651964855,0.242542031998287,0.12548250798937752,0.06733421098769515,0.03908696199542874,0.02730533681152457,0.0079858466185167,0.0006773311164880655,-0.015463438870881275,-0.0019380140901207486,8.11761223409522,5.5999473726665325,4.1758383909683445,3.099223777876991,2.1189901516447307,1.4525388047536028,0.9293417479916526,0.6187132257187146,0.41458960386526456,0.225497685137309,0.1404295933140958,0.09406743386768884,0.052079321264949116,0.04249374886778437,-0.0027905307902068854
0.0,4.0,4.0,0.0,120.0,0.0,2.7659575933023213,-21.669968337235357,11.4560007403146,-107.58957559559657,0.0,-47.39267573357935,-2.4537670975013524,3.460054257379584,2.4900786917279083,34.2040194976165,17.630926776418704,5.63762714884333,3.2296592247229285,2.020190875027562,1.2849122021636294,0.7566929672679193,0.40288564947596356,0.2236248131503995,0.11184934651950833,0.07099286377282314,0.02472040091749156,0.02926306215543102,0.004054405074417373,0.00104723859505067,-0.021636328607897302,0.00024153918916215396,8.105422915527964,5.743185175146682,4.197622717096195,3.1805909299228787,2.175219848063847,1.406778479741003,0.9373246965102029,0.5716173680564713,0.3673134323237678,0.24079029993576298,0.14662781512921416,0.09448744499722114,0.06126982572660347,0.033338956574008496,0.016581627455043366
0.0,5.0,5.0,0.0,120.0,0.0,2.5486855083533317,9.68396458467457,-5.136945095673266,-107.40505357072512,0.0,-43.65660953238799,-3.3437107780276523,6.751275896210505,4.042054447665006,34.2040194976165,17.630926776418704,5.7514822180863465,3.277258522160633,2.072084890320464,1.3553682768527324,0.7447184427689564,0.4466328846870172,0.22588066659895087,0.14075387901435435,0.06953200280145411,0.06237196514630346,0.02215930235358682,0.018389322079259352,-0.0098849779479415,0.02060598277540685,0.01962729525932148,8.528451586714676,5.640259311884431,4.2787745464516,3.190799815361788,2.1447168768227223,1.4314103229607467,0.9010328937403124,0.5661676293531721,0.37880718646395456,0.2251814592489168,0.13132896577029865,0.07887851374054838,0.05577107160669389,0.00754213279253137,-0.003983005474201745
0.0,6.0,6.0,0.0,120.0,0.0,-7.155966607710306,9.2404669538491,-3.0275289680652495,-108.89350210816397,0.0,-45.43042204080652,-9.075316121728868,7.118819890235759,-1.160633350862963,34.2040194976165,17.630926776418704,5.771690343870422,3.187186247647471,2.29022267537501,1.3775064291485628,0.7492231769894532,0.43393188648424186,0.21934954779303528,0.13157101339515412,0.0719512061996805,0.05128997843430923,0.014555634881598434,-0.0011765102959170569,-0.000650049652226971,0.018317027998597225,-0.005779758249278644,7.806122151578381,5.767622386094968,4.402423681189766,3.2582724767887323,2.1747621707486027,1.3948904455052513,0.8761426794982343,0.5701160823606359,0.3663807223792634,0.25984961641826976,0.12409982076444857,0.0764979800221246,0.03744209432847448,0.023605177651563527,0.0027107147620479832
0.0,7.0,7.0,0.0,120.0,0.0,9.206269912613624,3.7228166401772853,-12.955132009917815,-107.25928240079489,0.0,-44.9893822157763,-7.86841316122627,-8.60582272630943,-1.0735772032190685,34.2040194976165,17.630926776418704,5.880752395088917,3.3685303591159763,2.2876676464994175,1.3600730780509875,0.7757261473934693,0.39722589386823004,0.2154907153017044,0.1129674423522782,0.0681305548790136,0.02265998422870929,-0.0024816915475041994,0.015578380729772582,-0.01906009011524813,0.0061159805856338565,-0.0038529219156933645,7.834640374576492,5.879032654449774,4.544667044051686,3.184997861750005,2.256544471839765,1.387021460780601,0.8738190270840919,0.5373030306383304,0.3405848476702348,0.22547513554117846,0.12790807492918035,0.07945670239406664,0.056173728436572964,0.025680090721694974,-0.01030505962535422
0.0,8.0,8.0,0.0,120.0,0.0,0.24267716489918278,-13.163519408798141,7.756256505480518,-107.55642180105562,0.0,-44.981002550789384,-7.002599939001218,5.408850204761276,-3.6460195344623694,34.2040194976165,17.630926776418704,5.805011430470881,3.4126773380079096,2.2674876002661652,1.4122245768173531,0.7731331740268503,0.4306862322536648,0.21224289069322097,0.1081110121087962,0.05042745160802955,0.023391690371869084,0.019888882614919202,-0.0011569740723081368,-0.009276877404396795,-0.014743854868858677,-0.014286527181266018,8.30689279535308,5.965562684688079,4.433973174840106,3.355074320682577,2.142285786997702,1.4184253587732127,0.8735225743660894,0.5578806861203074,0.32552267309292693,0.22424665792299356,0.13583990270823537,0.07152606940054872,0.049674248713324834,0.009888830554819752,-0.007464188185363636
0.0,9.0,9.0,0.0,120.0,0.0,-3.9076519990742264,18.330493460384304,-8.414580402349817,-107.5321366521403,0.0,-44.868412188319496,-1.546994975072732,9.883649715481695,4.772217530488929,34.2040194976165,17.630926776418704,5.8933715274219285,3.461478027937449,2.240781283137084,1.5213812719906796,0.8310368547106091,0.42192784474336487,0.22670523274439267,0.11154844351610306,0.06684996561329445,0.02895981278046831,0.009317690371867051,0.0005971423028099908,0.008273799742188498,0.01061251088839995,-0.007649369563122126,8.21409404795818,5.7960791041672195,4.539343092384027,3.4177557098877958,2.3057883263505423,1.4475974614141147,0.9111546746875255,0.5483642138865477,0.3525035924304413,0.20618003146276734,0.12671025629367522,0.08316682425031141,0.05658629053304898,0.022388418637786935,-0.00502720708768881
0.0,10.0,10.0,0.0,120.0,0.0,-2.9981477955998663,-12.016563560789727,4.715013970136738,-107.3610735577036,0.0,-44.7599880051672,3.492996776116876,-7.849222638640445,-1.5065410334865783,34.2040194976165,17.630926776418704,5.84572568448543,3.4562066664998476,2.3215986165720004,1.5413562168737576,0.8671853327842571,0.474093365135887,0.24345975640706544,0.11538404557823344,0.058578957363523296,0.03241127481431585,0.014603267190756176,0.013256201012873555,-0.0044730582262078105,-0.015006634421630864,-0.0038088458756117775,8.188605752712304,5.825758442209224,4.632389431929241,3.3874327226094225,2.2966865777672933,1.443556298813506,0.9202640647935006,0.5519615428123377,0.3490107637628646,0.19655288330377804,0.13564321145529507,0.06972046147262631,0.02797712082537961,0.02477465342767037,0.006820223344933774
0.0,11.0,11.0,0.0,120.0,0.0,-7.080644201004221,-3.759803681557184,13.353778697405957,-106.24847320249836,0.0,-44.66443583961846,1.7032765801298206,7.524031351161302,-1.1112437593758475,34.2040194976165,17.630926776418704,5.8175003568028085,3.456599847880188,2.3614090018688145,1.4832447313239916,0.8701097980721173,0.46800373251424443,0.21523174796252173,0.11292578617929346,0.06805222838807239,0.01757516386871972,0.0016332183308865132,0.004997827729829067,0.0037644165492773645,0.012975722844261874,-0.005431184449032753,8.020783411604443,6.213927008289566,4.56153159914799,3.3814211231596776,2.3744248429615062,1.4912280302131877,0.9035474369971526,0.5233818384162131,0.34350353719252985,0.2194928864608018,0.11265580857833649,0.07902301461783283,0.04408313322157701,0.01783537967051748,0.017334127558312765
0.0,12.0,12.0,0.0,120.0,0.0,-0.33139246791860444,24.502921491483697,5.7806146884530385,-108.04646904524492,0.0,-45.40726605067279,-2.316654011051419,-7.621252183484906,0.6736031827900968,34.2040194976165,17.630926776418704,5.701665985599625,3.494087524395285,2.326743931823434,1.531416983192082,0.921229188383857,0.46048237556904215,0.23429750802648436,0.11311669230344315,0.047174133861228165,0.06759511705920658,0.01891085209830112,-0.006234872132269618,-0.00595566290148984,-0.01350639260529828,0.014770781072888924,8.089748454460125,5.767974138878628,4.643063456521479,3.4475461301133277,2.360736803718145,1.4521783752169064,0.9080164235611655,0.5304633145649835,0.3342892906165096,0.19867475420631683,0.09298852207579464,0.04623580120945655,0.039701156157789554,0.023676680616926106,0.009161598450035797
0.0,13.0,13.0,0.0,120.0,0.0,8.65613656371287,-24.288246807469655,-1.1950288594951992,-106.73771070166747,0.0,-44.00961667226943,-0.4265435512648841,-9.569418289174314,-4.399707116673545,34.2040194976165,17.630926776418704,5.749112761089645,3.420513206028194,2.4566147727320566,1.61262601557659,0.9038071322015196,0.4613458028640691,0.2131635733438649,0.12336495703141946,0.04437400478574692,0.02257236389075185,0.014104398155634896,0.0018550023117649634,-0.004517395465236435,0.0033787537061425316,-0.0015736072465578122,8.382294510308045,5.902492889396717,4.698330760545022,3.4005178222773544,2.3931123877581757,1.4940393225600304,0.9193890070341505,0.542626269541404,0.32933649902313844,0.19660021785786755,0.11882498448256609,0.09580045885841876,0.029812013521346672,0.028079149800228867,0.011389993955314783
0.0,14.0,14.0,0.0,120.0,0.0,6.247050160319727,-16.225595960161073,-7.087280038303842,-105.01231140819819,0.0,-44.824098036484926,-4.6008493701900495,4.189713027823183,-0.24824164263330495,34.2040194976165,17.630926776418704,5.763164720469429,3.5217172014640292,2.4386886066575286,1.6156635058475408,0.9082869695150717,0.5056175946279511,0.22826259543660796,0.12999789475570891,0.042459551307288325,0.020021957911695046,0.017677303058099697,0.015672084298005776,0.00350395379651194,0.009117745667378902,0.00980473488163939,8.271158529685264,5.816737666224179,4.617907017558975,3.579476280609362,2.4560967214264187,1.5209937065032935,0.9089987302244633,0.5421011825963442,0.3200322751710871,0.19581576723003363,0.12474216689597739,0.08531649954689792,0.03765220728044781,-0.0033173158231343536,0.002356612896076216
0.0,15.0,15.0,0.0,120.0,0.0,6.245121685252936,13.960674979016062,0.4606285405233983,-106.64317353815917,0.0,-43.83556503226876,9.385096075758504,-3.437419598638738,2.67888988763713,34.2040194976165,17.630926776418704,5.79913425928693,3.459279736884414,2.4017243477244943,1.6178760381340167,0.9529451783350729,0.5069127731774289,0.23449227184232008,0.11318883331919943,0.04990813371194432,0.0017474814595273593,0.010157312172470047,3.8667969041137305e-05,0.012052410415084714,-0.004333839517321039,0.007139449092483585,8.108352164726504,5.846424381271461,4.503940216683048,3.539567787113762,2.431900946784589,1.5976319615280206,0.938039677715183,0.5586974046212643,0.312391877103112,0.20568830252544068,0.12892141403565308,0.08551673049893349,0.055258576252242966,0.03196760451403555,-0.0027079043809416937
0.0,16.0,16.0,0.0,120.0,0.0,3.078729246849072,-12.791259944883643,0.2456978669203913,-107.73453459831227,0.0,-44.89994585824073,4.676920235548375,2.000548441103726,3.6622214282997927,34.2040194976165,17.630926776418704,5.779690277180205,3.226117351509554,2.489330620420677,1.593529848243002,0.9630989647334373,0.46325992135728783,0.20832223145762974,0.09542889455078007,0.06388373969871673,0.040045136668097434,0.0017335469936849753,0.025219291035214683,0.0032708121434589883,-0.0040489607522551044,-0.006715449404484978,8.489439154518962,5.856951591167405,4.601450006329244,3.7066308405275015,2.4652556066091154,1.5615056248661894,0.9468942788878637,0.5719863106112717,0.32532778709910676,0.1853635936524802,0.10044302356165255,0.047075691935626204,0.05071543792527361,0.02633409615928184,0.01667571604876936
0.0,17.0,17.0,0.0,120.0,0.0,8.460824339468513,-5.732383243369082,2.9847567518260085,-107.01955153949555,0.0,-45.468008135060614,3.605527852808433,-4.838694605798295,2.9916535238259474,34.2040194976165,17.630926776418704,5.733376025450762,3.353945915594445,2.4545593709322,1.6159200078940636,0.9809906409472341,0.48766223522090313,0.24002946849947285,0.11237707647640492,0.04939832639853041,0.004892188075487049,0.026634852699712934,0.004313088896054829,0.014458781228900121,0.0047156856458161105,-0.00013086832168269559,8.237695712666168,5.7883524582364725,4.729698675416251,3.644947396283325,2.463273406614661,1.565357178377808,0.9055557092620622,0.5741571439880234,0.3401853301535395,0.17875273516374396,0.12585119708018747,0.07515614145877907,0.02029028592056808,0.01671030299237624,0.030242228826190112
0.0,18.0,18.0,0.0,120.0,0.0,-8.434699922483846,-23.57198052732825,2.0915481446505666,-108.37698252747872,0.0,-46.37907484026874,-1.051362091689824,8.016226133024826,-2.2952139976933728,34.2040194976165,17.630926776418704,5.827209557043297,3.48811613199008,2.4750458204719994,1.6642090380790413,1.0203582412251857,0.5100781130973038,0.2503312763294216,0.13158643660494942,0.05850374785523845,0.0412490144660701,0.02997557375893538,-0.007842089353767416,0.004606310893377572,0.00626312963757561,0.021904161263695016,8.241842738746074,5.78671748242177,4.790694359231267,3.7226980439281157,2.523684268824527,1.6179751283269301,0.9860421651305381,0.5620316559047426,0.34993914386765,0.17906792975878977,0.11593757090527641,0.08022513763304703,0.046428974987121924,0.039686511919510184,0.011637445933520403
0.0,19.0,19.0,0.0,120.0,0.0,7.621542318142858,1.2304601931344976,-5.016595026370354,-106.67031064339945,0.0,-44.649522155161534,-8.340450774636619,-2.9447534080262727,4.65032782434802,34.2040194976165,17.630926776418704,5.8774361657250225,3.597444497660927,2.492839161679917,1.6821851727606307,1.0110395351303219,0.5226892982454675,0.22950732733348858,0.11519777163895562,0.05220156198005785,0.026243647560652696,0.017202487047721718,0.004448281166007421,0.014610513676298245,0.008475897488047196,0.010161792350492254,7.683411724310011,5.574414100037193,4.760382513612623,3.58968793446678,2.6086939987297906,1.6671823684557858,1.0044289692352584,0.5588947235807321,0.31578686241136933,0.19646312933845034,0.11181202601644098,0.07076570136559523,0.044817630377685706,0.02871712926885723,0.0012696851259524928
0.0,20.0,20.0,0.0,120.0,0.0,-8.882155713678763,24.052199683683178,3.183204179839077,-107.2662521290029,0.0,-44.90877874987157,-2.2449058715555017,-8.245586856033293,-4.226864531232889,34.2040194976165,17.630926776418704,5.897862366372244,3.6854199779353394,2.3962448008421644,1.6487036347548993,0.9788901888691105,0.5247453453697911,0.2502710184953908,0.0939494676100628,0.05112725430713916,0.03314706236276954,0.01563132321517643,0.0074504195019997905,0.012346809003099502,0.01952267825886952,0.005376377812471154,8.313321885109318,5.603347946359029,4.746280112761943,3.6167824153544004,2.632560165400855,1.679685640511674,0.9985035503692878,0.5893110308709849,0.3393506672865249,0.1936582512207222,0.12810626051808396,0.051738122270198916,0.046764302978871894,0.013562634870165301,0.0002057833040419281
0.0,21.0,21.0,0.0,120.0,0.0,7.249568522052392,24.335702294838548,3.83553262272126,-106.56948397523975,0.0,-45.70958777215104,5.993393012712836,-8.341681247523516,-3.694652948215218,34.2040194976165,17.630926776418704,5.758108101374168,3.4236291689953706,2.5026842915882144,1.7052217233667102,1.0002084324143925,0.5512968890201828,0.26199274018365454,0.10459275563919981,0.06481662236655275,0.04202348982045668,-0.0003084642099192188,0.0024788014404463444,-0.023924712648568408,0.0005032187299709572,-0.015088863726608212,8.123700200658536,5.931172112443354,4.7449679487714,3.544250538337301,2.578436005645488,1.7396309433675814,1.024017650650436,0.578033230456251,0.33849993075548757,0.18050255723527353,0.1063609040859802,0.05956539059467533,0.03965882670073168,0.01243328989794974,0.006886781042651365
0.0,22.0,22.0,0.0,120.0,0.0,-0.15607656446739426,12.763063292249477,-2.82337152983326,-106.145988100924,0.0,-44.5174563701042,3.901999616689709,-7.214744060056506,-1.462671890471002,34.2040194976165,17.630926776418704,5.884568420831266,3.4311156689210187,2.578074026367704,1.6458743494267154,1.0466208604680354,0.564236174149582,0.26841409627647433,0.11559846412391765,0.07711336508019921,0.02624315327332618,0.0002863225198858309,0.014492760415277781,0.0011479274392048283,0.00471919572634687,-0.02053638956631612,8.20619560419051,5.922045462141615,4.773442051637049,3.70687680357382,2.6597454296058265,1.7181093626604464,0.9990502731662377,0.5980614322579376,0.332028664253468,0.20530219276952416,0.09915250080736235,0.05803588638373661,0.02703408060994498,0.026986446259180577,0.017295744759474825
0.0,23.0,23.0,0.0,120.0,0.0,1.2707783434076028,12.885116876221481,12.565757001145961,-107.03908224756974,0.0,-46.97075370826582,-1.7563810422731958,-4.327476537494153,0.18983679149631882,34.2040194976165,17.630926776418704,5.7276957524089855,3.386945372760593,2.483365748293423,1.6406245884604933,1.0271042637415306,0.5581494450188832,0.2582826603310473,0.09284172932448569,0.0447124869572261,0.04678246528654146,0.011680202355378215,-0.002093197175287222,0.0154060207707339,0.011809748714012426,0.007398299297282521,7.830077306941902,6.082008242880401,4.710148138175214,3.749231047254358,2.703547875816999,1.711695776638816,1.0139773368418312,0.5769260582827382,0.3449571952119925,0.18216883638986242,0.09580127229861173,0.08288219086866258,0.05502894517280841,0.02760661206207893,0.02071299182718338
0.0,24.0,24.0,0.0,120.0,0.0,9.950873432027723,9.137349618142132,-12.704336087071773,-106.69278321902407,0.0,-46.77381048340435,1.983515969119316,1.1918558479737342,1.0877635019673138,34.2040194976165,17.630926776418704,5.618175862951763,3.485272691371003,2.385367234383131,1.663109545305422,1.0698656057888745,0.5609330879520059,0.2716414460565317,0.13626659696688465,0.0710209848760488,0.041076752577547754,-0.004405178073408563,-0.006568397649207408,0.013257375994042715,0.003534304338100246,0.0035842123293408344,7.979851779782642,5.916411293079415,4.839929587412715,3.661459727137787,2.671106504962554,1.7401286592817728,1.056121658784369,0.5847127386502018,0.3395440014143259,0.18569859266109517,0.09796393369910149,0.07050398100641009,0.04320883908260778,0.031387510582742244,0.013779291714490266
0.0,25.0,25.0,0.0,120.0,0.0,8.23111564046619,-18.258393955591025,-7.950745404474649,-106.7741945995619,0.0,-43.72189464185081,-0.4271610894596538,7.529265758024572,-4.593585231401752,34.2040194976165,17.630926776418704,5.709842868104199,3.420554232110627,2.416045075782259,1.6726223777846199,1.0504394346314654,0.584125534096163,0.2704043759984236,0.11565518436324254,0.040464097286860026,0.045901729687503875,0.029318984143664163,0.020208859747563535,0.01798683111449451,-0.005888849681394225,-0.0006588241832711291,7.860872472465137,5.807881836609325,4.737577875423312,3.635679162276228,2.7186686666236866,1.69410039892105,1.0765559911989868,0.6109682394130649,0.34836924998970276,0.18575809153210543,0.12348868127951587,0.0521981682712028,0.0345039603676237,0.029821602768279838,-0.0016741907296534287
0.0,26.0,26.0,0.0,120.0,0.0,-6.004332204978109,-0.8041037910543096,-7.645459093180999,-106.35075709351673,0.0,-43.929094971549816,-0.670891483860363,5.8107971555172515,2.2699439692544114,34.2040194976165,17.630926776418704,5.963296491430729,3.3305051742268894,2.475412920481981,1.6763903537614524,1.0486483323855031,0.5842957668989436,0.27900684395212266,0.12823260606238276,0.05570128697917078,0.04496487762378622,0.039176086252967916,0.018999898855189858,0.00437919513820908,0.004784071916658025,-0.0073271854623339705,8.206880938498005,5.960242500527853,4.640904071111586,3.6464917489084057,2.691490140047292,1.7806555587941848,1.1044671811372928,0.6307172084659853,0.3464849063662197,0.2027713322499863,0.10500224357997154,0.05319234173985515,0.026131307415874196,0.004327377942723067,-0.002862438241011381
0.0,27.0,27.0,0.0,120.0,0.0,1.7852316483711732,3.006529506694733,2.0835704476356263,-109.11978846018486,0.0,-46.158007213545304,-2.661175106563161,6.719728541688422,1.1052641180732161,34.2040194976165,17.630926776418704,5.628863833920346,3.461472603420085,2.4382704386138987,1.6867971730088793,1.0624389538299028,0.5840647353599215,0.29209616743957223,0.14301460983318473,0.0892068483299143,0.03568389035800183,0.020373360094766195,0.028211904289778017,-1.8223597123535017e-06,0.024607500814304586,0.008128807076517884,8.1596465800384,5.810151590291612,4.847569019864557,3.769582370885723,2.771548548863859,1.79632481182517,1.0680310778479527,0.6135742879369148,0.34412685488671746,0.18940215243589534,0.12359524676974674,0.06282756410191155,0.04862747808233192,0.012688908557593347,0.014282550833797508
0.0,28.0,28.0,0.0,120.0,0.0,2.2657636992047365,4.25931018161765,10.456753313072365,-107.78374108156481,0.0,-45.081372461622536,5.374877738756295,-6.625503946713776,1.7530180104591118,34.2040194976165,17.630926776418704,5.942659059959832,3.4895991967704325,2.5023086474308114,1.679490901089595,1.0611332862124856,0.6089443287908245,0.29339285197194265,0.12550642923451935,0.06336916926481131,0.021017345943539843,0.017796108672674782,0.019179161413851974,0.018104121576566844,0.02484919176012523,0.0027878978396723543,8.300976798036345,6.025860504859155,4.760430610719245,3.795666205675098,2.733206238473501,1.8362692767172335,1.0802515403510708,0.6311081810588539,0.36538732715975536,0.1961419495485629,0.10900406917515663,0.04849130068710686,0.0308463747945099,0.028451763865063942,0.018435553980743515
0.0,29.0,29.0,0.0,120.0,0.0,-2.1961198408860216,-3.5644914564043404,-3.8308342413514644,-105.7616021540105,0.0,-46.36235683312273,3.5376967047910526,-8.543693335869499,0.44906637556699636,34.2040194976165,17.630926776418704,5.692426491628306,3.554463712863456,2.3630595873771205,1.7145113963413177,1.0394667789563519,0.599728075555334,0.2995485543083549,0.13864610744677117,0.05344753824040043,0.01654728966439248,0.03312823864911812,0.0035441364276613827,-0.00033104855335956175,-0.008083236978098537,-0.013818620382426332,8.094702014842275,5.980592412382263,4.809138601288975,3.6204654329754025,2.6980698335824074,1.7392132146633392,1.1177294391635384,0.6303774637763382,0.3643302186536071,0.21329411950588412,0.10405017792990423,0.05406569051363642,0.024498136315717324,0.015578518271493811,0.010559720802446581
0.0,30.0,30.0,0.0,120.0,0.0,-4.892887185760541,14.323314670534678,-10.061439969135364,-106.52893402273897,0.0,-44.64744573638205,-6.6147726535045095,-2.7063349785724373,4.071721165978143,34.2040194976165,17.630926776418704,5.875446545476608,3.4838608532358233,2.3652740382730673,1.7311139076276234,1.0477024857425505,0.6145117306223361,0.3146858695661138,0.1507565945003593,0.07588912750603119,0.0038138799518421043,0.023020656941552343,0.01629121474671571,-0.009784380602146061,-0.009654320409864183,-0.00916461856427995,7.89010688293265,5.861750876858124,4.7047372039501205,3.7787786867381867,2.7160935719492065,1.8195088824344825,1.0016530233680099,0.6385506297655729,0.36875665819378584,0.20880315678645206,0.09144542764929313,0.06533628132353063,0.04344776342114937,0.006195699857226377,0.007827673669048893
0.0,31.0,31.0,0.0,120.0,0.0,7.989534083213687,-8.229096343278915,14.230459914172123,-105.8271886353466,0.0,-45.70985848099836,6.061572811413807,0.8313254151997267,2.272379224508385,34.2040194976165,17.630926776418704,5.557344950287489,3.4930525970332877,2.3764067916813136,1.6389960799175218,1.073227624339786,0.5848916872076932,0.329584770458355,0.14336005286301448,0.09278253401663727,0.010595813720943467,0.006042460222915009,0.007994981759431257,0.009038399629171908,0.0073155631256465155,0.0037344261999618534,7.944825799707054,5.897533103333605,4.672728163036053,3.66366926953591,2.612318691709542,1.7997725711468744,1.1189372295595654,0.633075381512392,0.37921506726701787,0.2157678414211104,0.1171888123880391,0.06576735547357929,0.01127756317820295,0.024941821313644818,-0.0014636327043298404
0.0,32.0,32.0,0.0,120.0,0.0,-0.400584274589308,17.15994066485044,-14.703966958389078,-107.95071294775624,0.0,-46.330295712617456,0.6690653621731035,9.556236459363689,2.318049132556002,34.2040194976165,17.630926776418704,5.827185531466996,3.4470797160998408,2.4043912876278504,1.661680822613126,1.0775723867590228,0.5836604485493986,0.3198878381502911,0.12956558289471892,0.06533563924699891,0.05699945255234199,0.0025199596415464015,0.008844360976180396,0.0030694972959674433,0.01563343261795047,0.01502547819732863,8.078241653541902,5.984570993803563,4.561730918653008,3.6690477670689874,2.69862731001825,1.7781669549663637,1.1553024342203386,0.687850267394835,0.3779695832894706,0.1946951813785612,0.10239660017530773,0.06323634402344533,0.04538476513322381,0.013908129813655629,0.03282370336305601
0.0,33.0,33.0,0.0,120.0,0.0,-8.84678653835675,-24.541784873195873,13.728347395235538,-106.76833650509296,0.0,-46.073281519451314,2.2687273060752418,8.302461927145416,1.0034909188595904,34.2040194976165,17.630926776418704,6.097625584912857,3.5375861318975264,2.422587813402958,1.7554208739505461,1.0790181109641737,0.6062918719148891,0.30891456813423024,0.15612984904456872,0.0809470877481949,0.030433854649972333,0.0287100731568795,0.00443304421397105,0.001635894810608225,-0.021049005707561994,0.005857528660941047,7.900024381605111,6.005403024610313,4.928129501214881,3.6297401538080365,2.6959552201398407,1.7848245314704865,1.1903072243714534,0.642934729181555,0.3509858803607918,0.20402910163899002,0.11516106217645518,0.066465782800093,0.023908818259430094,0.014469759495321474,0.01840161226380324
0.0,34.0,34.0,0.0,120.0,0.0,6.619952463102138,-2.462000926014589,7.93486239803347,-105.41481790278985,0.0,-44.296877188873566,2.99170692277142,2.9207672243993894,-0.6410859667347566,34.2040194976165,17.630926776418704,5.812051109613725,3.414427418444674,2.419396101399676,1.6353456359051266,1.0548011080142874,0.6383526137288627,0.31661487186035187,0.1460618820011424,0.06523351735215002,0.01631087491040975,0.007272129133986387,0.0037909589984693975,0.01266276124871741,0.0020023696073271677,-0.03996647553809492,8.292239186009398,5.946370054037273,4.659568890700042,3.583643694989507,2.672652196690675,1.7299815469359934,1.124312224475849,0.6629764317611563,0.36235613388876786,0.19532066474254456,0.12419210359512618,0.06048250708241107,0.047023759305724507,0.02196053216737821,0.005822122276574334
0.0,35.0,35.0,0.0,120.0,0.0,-0.35385908224754736,-16.015125689030903,6.938195619175545,-106.02383869781896,0.0,-43.37213910005448,1.497437797430356,1.056190138614582,4.8142117082338665,34.2040194976165,17.630926776418704,5.638313065985484,3.3383801788550542,2.451488309369928,1.7008118047214382,1.0769012248963274,0.6179385512055305,0.3377297390873276,0.16176944217474554,0.06523625550522498,0.017613240849761853,-0.01075483204741767,0.022762750105478274,0.0017903981631977334,-0.018329385676442943,-0.013183239936956265,8.476940016563184,5.979274756524478,4.744859451791395,3.819650589137017,2.713548845785489,1.7745727346291449,1.1590252328814141,0.6899429291839392,0.3623985570760111,0.20910045576752853,0.11223115667086377,0.07979507362361012,0.04723147356219017,0.02181252058526901,0.026156517120487166
0.0,36.0,36.0,0.0,120.0,0.0,6.8178023920537925,-13.940232300914419,-14.869422696601132,-107.62578290111801,0.0,-44.678307614895374,-3.0363744611433754,0.9809356325137628,-1.938120842870581,34.2040194976165,17.630926776418704,5.896100957697198,3.516539939873348,2.4437494434922065,1.6212335192847827,1.0479044320913118,0.6279281746145328,0.3268658214074169,0.14077671756376858,0.07674845860930574,0.016069486781871818,0.007037851911083477,0.017518725097643628,-0.009353912213957358,-0.005003346600426177,-0.0030164100048758456,8.17010778515975,5.848816538623256,4.563069615822203,3.625244338648064,2.717651099622564,1.8855243435767044,1.1790547232739332,0.6443505452419203,0.3582017336729192,0.21339168501751687,0.09520073078621784,0.07080288660018715,0.02567355769077072,0.020861435255044296,-0.005571626091312598
0.0,37.0,37.0,0.0,120.0,0.0,-6.441386605513674,-0.5315759211527649,4.252894221788178,-106.2290549115872,0.0,-46.66228148490015,-0.050557412691174086,-9.444097276838,4.534944101540985,34.2040194976165,17.630926776418704,5.8772697580318995,3.35406415194818,2.4080469880051467,1.681333435306381,1.0519306440013514,0.623652890100453,0.3233551919180806,0.16411797895699987,0.0726115178559732,0.008036507779507589,0.0020483968217681284,0.019265879194856235,0.009726597575343141,0.01167644312940053,-0.012269120729924253,8.268683833765149,5.847055567164948,4.782959039886259,3.668979582572913,2.71513971622494,1.8532377881848576,1.1895615555488308,0.6732447737771092,0.3560614383371121,0.19359980823944434,0.11281674977098144,0.061239154003577254,0.03737284020703893,0.024907660511917343,0.025356217651394897
0.0,38.0,38.0,0.0,120.0,0.0,-1.3042337313414283,13.488419287532423,-3.925175973352257,-108.21062015564372,0.0,-45.58617202801099,5.05918237803703,3.0577404229352787,2.295946311835298,34.2040194976165,17.630926776418704,6.059508034736265,3.4441548322055224,2.413135102215841,1.6811360539640539,1.048200573740358,0.6187052558086592,0.32959790668071126,0.13770339483018737,0.07334692365263286,0.04354251391569762,0.008406263732397942,0.0033086675083130986,-0.006444777381546795,0.0070380163718182535,0.008561288080465544,8.140211253212842,5.9192722189742,4.676088935842423,3.7468421875812887,2.7746880947587176,1.8743912814345374,1.2185212205030767,0.6841164324729504,0.3859629683723815,0.19446925486484953,0.12137547664039267,0.05080858518743964,0.05151373883801451,0.002394785033096666,0.00946679214959851
0.0,39.0,39.0,0.0,120.0,0.0,-1.643488828559148,-24.93155662320489,-10.319285556060553,-107.15763549042805,0.0,-44.283738059913574,4.9813421100694235,-9.693853227596001,-4.458436868337673,34.2040194976165,17.630926776418704,5.783188803490502,3.3988885928345787,2.5378906082822326,1.6999055842072828,1.0280629899583773,0.6315866687672225,0.3312946328895626,0.15245438251509932,0.07519282233355674,0.012002511641755007,0.029147745415356217,0.0034051035662543035,-0.0032778579840808757,0.004490074555261532,0.010738312420206021,7.71112138522347,5.872797801286712,4.727537167635692,3.764737738413023,2.644166823549904,1.892377993243434,1.1822886819758478,0.6873924130469385,0.4113270250388693,0.21592890547853685,0.12131074584663891,0.06327253217574576,0.052286479522013124,0.019548178102811405,0.009833666657384239
0.0,40.0,40.0,0.0,120.0,0.0,-7.28164705204672,9.066180207205981,0.9968841636332506,-104.40779357118515,0.0,-44.44031388201424,-6.274945102154382,-1.9838111830999399,2.2773258540338635,34.2040194976165,17.630926776418704,5.781659976042071,3.508522228495284,2.3978719773473154,1.7029454411584748,1.0632990039147603,0.6170279894438286,0.3321093090812785,0.16682490098149283,0.06893588264539127,0.03130397182852407,0.014466950968736295,0.009742982525738297,0.00010613857939694403,0.001484611845574084,0.007511126712706286,8.18700594915699,5.988204984899377,4.731980626018772,3.7219409721843633,2.686331706448335,1.843227143983694,1.1313095873230945,0.6979404699197616,0.39789991250102674,0.21597499538333115,0.1162209526018343,0.06747475655003272,0.03385670422682505,0.021507347169534227,-0.007911052788938557
0.0,41.0,41.0,0.0,120.0,0.0,2.1765658823004514,-8.527285671473805,2.0866496088507844,-106.40535910529043,0.0,-44.60398641392817,0.2456988238201938,-0.5274846866839855,-1.1104282669511378,34.2040194976165,17.630926776418704,5.921832545769795,3.5916575958307746,2.3986664028108184,1.6963095813316362,1.011789133771762,0.6220968122183976,0.33946685721864894,0.15716213974613558,0.07509126234167605,0.028406325300105596,0.005407517880500767,0.02090154336893477,0.00727825282151851,-0.00471112850003862,-0.0006400588712714802,7.985786765158115,5.921952789737925,4.623503930659846,3.5956266278287963,2.7318603279143665,1.8837451785124157,1.1499571143415501,0.6860120061307335,0.3843177176595307,0.22824001926786974,0.13014685250740693,0.06228523422917022,0.02705710034024239,0.021715225630022317,0.029144089378612646
0.0,42.0,42.0,0.0,120.0,0.0,3.0068031810021587,-22.398152205229536,-0.8281639580058116,-107.81999701904009,0.0,-45.1563261508761,2.8069125907765295,-4.504390171282077,2.494390580160327,34.2040194976165,17.630926776418704,5.765056871302477,3.515023975695253,2.325521501432112,1.668396935536918,1.0462887473551854,0.6197340090756368,0.3513098150815993,0.17017198432207215,0.06725890690453645,0.036167644443952665,0.029674453976994898,0.0015168442390103539,-0.0033193375690716695,-0.008379931452189899,0.021953490250383283,8.210201338030737,5.989559137101549,4.865442832079291,3.5899064454960015,2.594274682525206,1.8393355707024532,1.1851009714741956,0.7200746713388303,0.40005369678654057,0.20295692889539516,0.10557084367779566,0.05101114294178305,0.03461615635849817,0.03914238687916226,0.00986060536859977
0.0,43.0,43.0,0.0,120.0,0.0,9.520992220276646,-10.90546161265214,-2.8637850364315547,-105.6383610004011,0.0,-44.243652127565724,5.709048854081049,4.730663437271456,-2.6068562237041393,34.2040194976165,17.630926776418704,6.00429410809762,3.3650217225518215,2.402562605847933,1.7179855557169808,1.015395798518583,0.6323403926365444,0.3175660397424361,0.15537668473467708,0.061507780847894246,0.01768733925764357,0.040152892485713396,0.0015333453318696543,-0.002040783585610227,-0.004647178955612051,0.012146813076490647,8.125056283247954,5.7977080080250705,4.661144563108743,3.6490713805573005,2.722241573031342,1.857431177296372,1.2425960954509978,0.7257876635250216,0.3953244208473341,0.21496126398442897,0.11992694457916814,0.06518389170643243,0.03806376241701461,0.0026353951879857125,0.005106555969056551
0.0,44.0,44.0,0.0,120.0,0.0,5.057388669749567,-17.438843084714534,2.692056696887505,-106.11186187324435,0.0,-44.12170662635022,-0.48967938212930007,8.62522862919245,4.5543373627859935,34.2040194976165,17.630926776418704,5.902492777091955,3.3736427146283865,2.474717961908141,1.6666414944470325,1.0187042319280963,0.6510510210905913,0.35137546346029275,0.16624889752781938,0.08581746756917942,0.052579882712151235,0.0019175198171829892,0.0011465607471578387,0.006781043177334803,-0.01672028776718223,-0.0038905656637928266,8.161838240190063,5.955274308940761,4.809237273599585,3.729103041189457,2.7063250302732054,1.8367114262276913,1.2115253930048817,0.7368441952438539,0.4007075847179585,0.2216060914795812,0.11998246992116383,0.05405127362801044,0.03257753450713058,0.026020239554753036,-0.004769333176464002
0.0,45.0,45.0,0.0,120.0,0.0,9.636487300334853,3.9823619440584146,-14.075068368260535,-106.83861666235121,0.0,-44.33863934889776,1.263763750999615,-3.3403746504070853,1.7374632327839468,34.2040194976165,17.630926776418704,5.827835589856967,3.4134725501600967,2.3578338613062577,1.727083457814972,1.0249505310002651,0.6284911222552234,0.32814598249923854,0.19108362217302804,0.08016673192569643,0.0158857099644702,0.010502856620631539,-0.00917423882067026,0.02508005158093336,0.00903882581005644,0.0027327999136194884,8.149150101917828,5.880270544286161,4.772123377060748,3.5254546181080086,2.723168798858434,1.8143939641067754,1.187381428196886,0.7382439140579634,0.40815393522072735,0.21368703299240874,0.11558637047335207,0.03673349437988149,0.037735526553351426,0.026011458062985868,-0.016848486993974725
0.0,46.0,46.0,0.0,120.0,0.0,-1.6441823350014388,-16.922172546548243,-2.1442804669387563,-107.78475816110455,0.0,-45.91630619402898,-3.737295440553699,-9.042291480223902,0.26269616987186684,34.2040194976165,17.630926776418704,5.86315380262174,3.3908972876184804,2.503679067504113,1.7090545465155815,1.0560320177713223,0.6143727763455038,0.33246223368626066,0.15964047734479478,0.06645479141142256,0.02795768553368109,0.008762072089694935,0.012947026110473386,0.006018022755307512,0.010123645444107203,0.014379894107950167,8.008924948325749,5.81291422911334,4.725741022476977,3.6537652790793587,2.630241645508876,1.9513771579367492,1.2184702084743024,0.7129260129474693,0.4236024353458587,0.2204433910150452,0.1084665773230902,0.06804111462945672,0.04576977265319379,0.023897142563516285,0.01928001198556898
0.0,47.0,47.0,0.0,120.0,0.0,3.1385169941206925,-3.1030446796527684,-13.226134298107613,-107.12450187267913,0.0,-43.00631483684138,-2.7697085811445405,5.011120016797861,-0.4988091137033077,34.2040194976165,17.630926776418704,5.683004988196976,3.507991735371531,2.4412644483315282,1.6563315456757437,1.0706462345283694,0.6151494670166818,0.3312016065575495,0.16609432544903566,0.077304049122946,0.01963394203332693,0.012879203252596462,0.020678762525915072,-0.004979350240440531,0.0087558059798496,0.006490360150495894,8.054802499859736,5.821739612319029,4.899197370005542,3.740921055369774,2.715017113827883,1.8766978069457663,1.2180531427668266,0.7116524847850789,0.4203301664953868,0.22575205989866795,0.1241708580513173,0.04316716058501214,0.027414348104961687,0.016285603924097728,0.007531507102474978
0.0,48.0,48.0,0.0,120.0,0.0,5.514379664014266,11.694176351844341,9.170134067901195,-107.30798181382548,0.0,-44.295398147207194,6.43938015420538,9.102739699513013,3.935100287880111,34.2040194976165,17.630926776418704,5.710206652265026,3.3471532743167725,2.440764821228776,1.7435450863069972,1.0510632521221162,0.6266309170766273,0.3491266921738462,0.17031347392407412,0.07662867495804782,0.03822699917481604,0.011542668582313096,0.0022224528805850634,0.005758615413761781,-0.01333529998791016,-0.002283829092886132,8.131913929226254,5.783188561454332,4.829992638011542,3.70762949208101,2.78131088146104,1.81425096900132,1.2290862612641904,0.7481898012374246,0.4496585253580494,0.23370068399896343,0.1042583426700934,0.054317385118501746,0.052439791207061326,0.00645011546343415,0.02642036946726736
0.0,49.0,49.0,0.0,120.0,0.0,-9.48074220544213,13.510384513946967,-10.147843209672125,-107.23073290005993,0.0,-44.470102410168835,-4.334336153407331,3.305243190498569,1.4266411082317116,34.2040194976165,17.630926776418704,6.084506096775529,3.567142010644253,2.408662414624443,1.6979067477168588,1.030812486003077,0.6262923003251963,0.3406613338931102,0.1525694224341434,0.08590716662760213,0.021710366579589767,0.017153156427341994,0.0002713183432099184,-0.002741297962563696,0.002206394718525541,0.02852503555218791,8.231600924545209,6.076544487885605,4.754227046987413,3.7124793308911506,2.661776566460606,1.809858111520208,1.2044392683415366,0.7114858725251562,0.4671317465470092,0.2182183221508997,0.11807298024858137,0.060015348213280945,0.033157700885698915,0.02693418408499303,0.0254060387695082
0.0,50.0,50.0,0.0,120.0,0.0,3.0659158425708064,16.468794666200132,9.244189310817259,-105.97419806189876,0.0,-45.35174713942018,-1.3315259900008916,2.285468432561011,3.187383197091261,34.2040194976165,17.630926776418704,5.819144710971081,3.5147747750919778,2.4621775549543976,1.76763244077435,1.0637027022269763,0.6364689458449914,0.33134514208039045,0.18932984785995463,0.08061754824495646,0.03223852963254744,0.015380126826756874,0.014803811113773935,-0.005890742348934707,-0.006371954842232297,0.01327402289463673,8.354898080643189,5.910696363725652,4.723333670062343,3.745946748770702,2.76901009481798,1.9308115994637796,1.233566244907562,0.7540762394085181,0.4263346474558088,0.2348310859733013,0.11259062241044539,0.0708088999252523,0.031551423719955535,0.008851996935318145,-0.01290706869826837
0.0,51.0,51.0,0.0,120.0,0.0,-0.28392395673584403,23.601525010556827,-14.170506199775264,-107.35447104068756,0.0,-45.252970398412,1.1940524527919032,-0.6134979064796262,3.020514002794636,34.2040194976165,17.630926776418704,5.90779664811994,3.213503665504623,2.4650943934318645,1.664533505677975,1.0764214618314742,0.6072576364345289,0.3571494267141813,0.17562315628196293,0.06798729282708882,0.02841521451419304,0.00931264459652209,0.0007881454383809302,0.018504439344426655,-0.00635241521773372,0.0019625876826836197,8.191120602944526,5.894629854429189,4.496170548613978,3.7556846454469617,2.789850872087819,1.8587943687547035,1.180710282738506,0.7560429125355268,0.4302566221724339,0.24039819707968033,0.11058583667834163,0.06894668522363583,0.03171929312778562,0.02612714621807929,0.006787105378198848
0.0,52.0,52.0,0.0,120.0,0.0,-4.379808084191936,22.354075327046857,8.350019259703835,-106.53962067648064,0.0,-45.68193519680925,-4.671441605305278,-3.967459556202286,-0.9410948404781116,34.2040194976165,17.630926776418704,5.80772213506301,3.4489390955030057,2.3709310117400215,1.6597636886847955,1.0561470524947159,0.5844818902125067,0.335172047708998,0.1804459547225942,0.07477887233878841,0.046188738709569806,0.009387967321217975,-0.003972800625376758,-0.012869932142864866,0.0007613681511690532,0.015269298705431462,8.072638439091357,5.812539638718574,4.726444594087628,3.6351063936589014,2.743492995733554,1.8892782317193813,1.2271944769298948,0.7845097790123413,0.4286106675681938,0.2262258492844033,0.12564372969971443,0.05103011614975489,0.024545892702530717,0.020116552607674698,-0.001085368663906839
0.0,53.0,53.0,0.0,120.0,0.0,-4.176257084577076,22.587877373591084,13.751263634788142,-106.88416370074012,0.0,-44.54883778001681,0.4628898558235399,6.6532626375126895,2.4007196844685463,34.2040194976165,17.630926776418704,5.71548759512196,3.276214143723892,2.3889289497106,1.653279505927035,1.057909489007505,0.6208572362842838,0.3486960837213477,0.17787910667703993,0.09585783339097957,0.034188608117747155,-0.0001673154625231963,-0.018809589404150458,-0.02440839272322895,0.012441726858273442,0.010150758632099927,7.95755538277902,5.785179660612335,4.69436365590773,3.6031049705886544,2.7412873155482247,1.9087785068711882,1.190264158827424,0.7584570047928539,0.44203326515669167,0.2147001036897003,0.11239363547110151,0.05961398085463293,0.03615191652282605,0.026984079312727144,-0.005037774381048528
0.0,54.0,54.0,0.0,120.0,0.0,-1.938948162953407,22.0356814982408,-7.304938398250107,-108.53498875286454,0.0,-45.369506258737644,4.1240989868578986,-5.291924750031343,-3.3060165174818055,34.2040194976165,17.630926776418704,5.809902808246654,3.4476335591671763,2.4341854226851942,1.6440529297651736,1.0579650068654636,0.6261603607760398,0.33643309282179773,0.15478353060470718,0.08345856388611247,0.027382911033900118,0.009124804757246297,0.019427068256483243,0.0006268640728752648,0.0026603646696723203,-0.006104835254106137,8.064061471258896,5.804402753784603,4.815898496147575,3.834304032100336,2.667265931240641,1.9314051882028642,1.2048929369220103,0.7367905832978819,0.44160017844081134,0.2422775916240353,0.12168218821514265,0.0662236907071898,0.04623648413594261,0.018350500695688242,-0.00016341249241543648
0.0,55.0,55.0,0.0,120.0,0.0,9.537124489861274,-0.8648393224312727,-4.510943238569544,-106.46741990214579,0.0,-44.71641690867878,-3.2864161005338186,1.9221926257567734,-2.1787632205649574,34.2040194976165,17.630926776418704,5.788452877559038,3.5255467186695473,2.4573715461030763,1.6929798277020864,1.078759924752647,0.663921084980807,0.35469421359193853,0.18534564296994424,0.09339203736309061,0.03721765343003993,0.007948526959111274,0.006490767807407874,-0.00487195549015291,-0.0044005285544039905,0.00838323615042829,8.48942909990881,5.670136786627819,4.662674500618604,3.601613576537811,2.6626040075360926,1.8880217552293483,1.2049194721527494,0.7425424457130246,0.4478609753261101,0.2631999637235365,0.10536303738235953,0.06648926347906844,0.033514988054862103,0.008597703415972088,0.010470799926874007
0.0,56.0,56.0,0.0,120.0,0.0,-5.99282639764356,24.712000085350745,3.1467445788435526,-107.32381840125294,0.0,-44.903492332373744,-7.441584609318227,-1.998815107213618,2.3311485247161166,34.2040194976165,17.630926776418704,5.9133130718391165,3.505031128359424,2.3823098658687525,1.648665720100307,1.0793892372869796,0.6118491860192234,0.33012839253069254,0.177994077616554,0.07639175302780875,0.04853062787063673,0.006972092629592213,0.005685119645081983,0.015128019490415649,-0.012281332497365915,-0.0038364193116840325,8.232282845766509,6.186993926230571,4.639904820696868,3.6820281131351758,2.7010866029327047,1.8486707938973082,1.2032397006243523,0.7178002618549317,0.42714792519332345,0.23189934519226468,0.14618117764887592,0.052679240145570044,0.028198886189519184,-0.0034144776439167905,0.001556659828150897
0.0,57.0,57.0,0.0,120.0,0.0,-6.334771596154418,6.536207070163165,8.600662832180774,-107.78476814296707,0.0,-44.049871380023674,-0.34949555538384236,0.16071550763540543,3.623966014942857,34.2040194976165,17.630926776418704,5.835913888143266,3.5017369895286534,2.4444933613454842,1.7207091409196538,1.0269013941687934,0.616709118889969,0.3542566102313164,0.17436441418851523,0.08058484895380587,0.04234263588232454,0.015302380506037203,0.009992318232961992,-0.0011073328678831763,-0.031086372449284572,0.010710335221856855,8.040498343003382,5.996106122032383,4.769257121427183,3.6788678223156044,2.706257667874349,1.893017307580602,1.2361578752071396,0.7663762364077723,0.45301124742542903,0.23969739550845756,0.1177139077374885,0.052776081192880395,0.02154784706573188,0.013227890231230922,0.02119683260856719
0.0,58.0,58.0,0.0,120.0,0.0,-0.6756856070568489,6.6373616143512955,-6.026928706691821,-108.08831292499,0.0,-47.56144766392107,-3.1756727031243566,-8.562598497590376,-2.179827601357357,34.2040194976165,17.630926776418704,5.985996240240022,3.4378429174936858,2.390720993331294,1.6974662060850931,1.034739460758521,0.6081631239693582,0.36319458350378303,0.17248953059793787,0.10333248503970612,0.03986882809604732,0.007766838111714974,-0.010242224281602392,-4.9373137632880044e-05,0.009780271965685686,0.0015272929522197188,8.227420559891707,5.707780383411902,4.564942195690351,3.618351112337111,2.5834394827182057,1.8909859424892796,1.2139422324209397,0.7620452860380319,0.44870065224834166,0.24756154388589258,0.11918482854076144,0.06782250956826696,0.043544343860916004,0.0015222592613001705,0.010137485808634798
0.0,59.0,59.0,0.0,120.0,0.0,3.014071938215226,-2.8948960992025263,12.313796018772148,-107.35999526876319,0.0,-44.42091356808844,-5.720579550428864,-6.31053084052337,2.2409474360629877,34.2040194976165,17.630926776418704,5.813345585330815,3.3570040351940147,2.3897138872595827,1.6891126672033168,1.0300388608210014,0.6332284340848289,0.3432670903021902,0.18010329227322397,0.08498511030110817,0.029577428397242832,0.013749903854697522,-0.006991539761263723,0.023513714612726867,0.0026527323844068307,0.01202214876292539,8.00275804806661,5.771976469304292,4.760916731818649,3.679634745463695,2.758931012890656,1.8509219533950998,1.220701723563268,0.8053692827098673,0.45376157278556034,0.25102842589843577,0.12283218664604108,0.03589938276495882,0.017800479910441085,0.00591509758600928,0.0037846344264511316
0.0,60.0,60.0,0.0,120.0,0.0,-4.568295787646619,-17.44869972796938,-8.17399251967881,-106.65211796454693,0.0,-44.59120761873055,2.366472981275706,3.570485310326738,3.5401172342140477,34.2040194976165,17.630926776418704,5.843208961733637,3.4459480122573747,2.40749833252532,1.661307820761705,1.0953720719738393,0.6328093908018277,0.33827702142580923,0.182512547345096,0.09260788960586457,0.04933798976564407,0.02687694524029863,-0.004624399311323494,-0.007600966160394131,-0.007458211090846422,-0.004114907940796685,8.01135657949966,5.913639371013124,4.778652899951577,3.7788834119722634,2.691338176417835,1.8701554124002484,1.1978787587408903,0.7803460986472291,0.4606047078440787,0.2324313262530277,0.1274208461626456,0.05633434191780769,0.0236653666985856,-0.012236177595070327,0.010854662509383646
0.0,61.0,61.0,0.0,120.0,0.0,4.6348820791207945,-3.366185869397686,-13.908893485271763,-106.16510505537576,0.0,-46.24758925717951,-5.977403201273919,-3.1524978149930565,4.47946037660336,34.2040194976165,17.630926776418704,5.959998092827063,3.498844904138492,2.4089363018123073,1.748208039628126,1.0484075490173672,0.6593501677057234,0.3548172244798191,0.1831611980527481,0.0848385540065107,0.04863721264973761,0.0119162678803665,0.018957347791759043,-0.00446669241704233,0.0023674597728837116,0.01660008547875987,8.063921452427303,5.775279966365106,4.84554940393023,3.7243184205331095,2.807188717563429,1.799635456672761,1.2381720376045866,0.7708625018657077,0.44352550898489884,0.25073953097724194,0.14280153992051414,0.04742673672945785,0.03802910168702623,0.02919629940642034,0.008523680844974943
0.0,62.0,62.0,0.0,120.0,0.0,-9.898724306420569,21.070140522597406,13.36729438023129,-107.19206050229158,0.0,-46.31860433834635,3.0019544409493477,5.024744417491004,-1.604222292020748,34.2040194976165,17.630926776418704,5.840037437441621,3.4297305514057004,2.4171856138184067,1.6921301827149815,1.097628724023573,0.5753675185967202,0.33767099479876506,0.1794552303644388,0.08079401957080054,0.028061039712636703,0.011172693429789684,0.009275958589443167,0.009191566246297474,0.031017328516307407,0.018500647468183834,8.053260031567772,5.997036265481428,4.6383715066988325,3.676958841837517,2.7225672868126063,1.9007488252380222,1.2390256151262555,0.7510536701389129,0.4794893554550973,0.2664532139230739,0.13027489293346106,0.0656233826970562,0.04712425957078518,-0.016953215794621272,0.013028032114232884
0.0,63.0,63.0,0.0,120.0,0.0,7.540593936191577,-1.1449126264493223,-12.797019924885348,-108.61580217542476,0.0,-42.693210497486376,1.517395120575287,1.4905842013106039,-3.529778678894133,34.2040194976165,17.630926776418704,5.716103549255681,3.5008702940616736,2.4716021736938174,1.6930142334220997,1.083231905559845,0.6384131668875263,0.35816241887257827,0.19572094833356465,0.07561541325057466,0.030344632483450023,0.01034222558831899,0.018046706293656498,0.00814982124216807,-0.004976020131880095,-0.012558653839742955,8.184848395985869,5.782623273763752,4.862347147957692,3.7499589841386216,2.820329701789227,1.8651675898836106,1.2151003584558298,0.7751423058217589,0.4479655553833867,0.2596915000003572,0.13313788184296496,0.06789473751638123,0.01871694134820069,0.017579660235001852,-0.00471870921353594
0.0,64.0,64.0,0.0,120.0,0.0,-8.435786064766775,21.85077873929955,-14.017886554446427,-107.4275300410908,0.0,-45.5290445562474,-1.2184543931747776,6.9937990196153486,3.523241968123589,34.2040194976165,17.630926776418704,6.04450201368107,3.399605223487506,2.5425236214483102,1.7270403254724658,0.9937854119370221,0.63982328320033,0.36338600796913145,0.1943279547145751,0.07974334856809515,0.06274984416438766,0.021684133954020777,0.004134365059051383,-0.004034086051545663,0.002018669793453561,0.01912327829752052,8.348053498702658,5.809894205153396,4.626465247555522,3.7914452610696814,2.6840468513858555,1.8699054073830088,1.2416637243644475,0.7442580249359279,0.47547480489076477,0.25340818828665523,0.13972430843600833,0.07510397384759604,0.041206644094764974,0.01006708165756728,0.020714882080016508
0.0,65.0,65.0,0.0,120.0,0.0,5.9743197802407515,1.380916932604535,-6.086542794452967,-107.91560600754238,0.0,-45.45322744314461,-0.8674798507277066,2.6039059541517062,-3.1399520337523237,34.2040194976165,17.630926776418704,5.954875529050362,3.437681578999673,2.4909620372435026,1.7450985092843732,1.0710113988849768,0.6156531572744087,0.35312327660876563,0.15750584653815275,0.07822708195168125,0.05259545739348695,0.02668311178545299,0.014972130760595115,0.007705251321732535,-0.002523580908105243,-0.0011281263940568194,8.179288197806928,6.175537712325612,4.566056530921037,3.794285081929559,2.706153421191627,1.8140618917555602,1.221851373268157,0.759386233723406,0.4835442398673153,0.2409532829954064,0.13362330440383588,0.06814279175565016,0.014815501767796318,0.020880191684506992,0.012037683918219128
0.0,66.0,66.0,0.0,120.0,0.0,-2.166601673620006,0.3718723581665806,0.7782350835449847,-108.54719893266412,0.0,-46.421997603277404,-5.137915983005404,-2.2969476684020096,-3.533379217262942,34.2040194976165,17.630926776418704,6.074115151662566,3.2996643157672607,2.474222684912094,1.6861406755669863,1.0458426507954928,0.6297838642164144,0.34240440812001643,0.16465283925555185,0.11367401852098954,0.04021662806812752,0.019146357599959852,0.004236671524015422,-0.011100030437709029,0.003314285137005224,-0.013772986091060875,8.260436047082695,5.932855244107695,4.8112760306395215,3.5969790313550782,2.800948866885882,1.8039453173984157,1.226207411446814,0.7632955511661756,0.4571862389377525,0.25748308234898903,0.1193599282834549,0.05552739733473701,0.035086379900201324,-0.007458264445136205,-0.009331973100696653
0.0,67.0,67.0,0.0,120.0,0.0,-4.077493331886181,16.344629554303573,-5.026154704812953,-107.0337640478329,0.0,-44.575753433074794,-8.47044727760128,-0.9704447185595768,4.2990308866440134,34.2040194976165,17.630926776418704,5.672893372364784,3.404318278201851,2.4247064505797096,1.6643133159124543,1.0191639218724942,0.6472734638001426,0.36413672536000286,0.1720475856773277,0.07492738807669068,0.05006678978894538,0.0006502199778916778,0.013270646619681315,0.014060396295136682,0.0063191834985433775,-0.010420361290897932,8.16589402652571,6.057433427871298,4.603633675648319,3.7385651181331574,2.724042665553282,1.8570438725044143,1.2588584403873464,0.7511195477812902,0.49217331504306033,0.2707892144973071,0.16244022606194425,0.06836733481243586,0.03914699887529395,0.015390684225657456,-0.0010049915585725166
0.0,68.0,68.0,0.0,120.0,0.0,-9.573690169830067,-2.00414489403758,-3.0390622387794792,-106.6702689817991,0.0,-46.11471214560561,3.7133237809469235,-5.309756642496726,1.9062582525833243,34.2040194976165,17.630926776418704,5.656970999428839,3.387395463693589,2.454110947392705,1.6573925842215789,1.0738507028630488,0.6116125057350985,0.3520436503908878,0.19511588109826675,0.10485813052154855,0.022569668204998745,0.010449784958709466,0.009577581776762843,0.008384530252424324,-0.01045447130990224,0.00033439802407246436,7.9838493300732285,5.904803856651604,4.789619828743436,3.650094105092061,2.7205196163435192,1.7861616602249584,1.2524213759899514,0.801166167393598,0.48056928061916954,0.2670544154330141,0.14954408134724279,0.05431420870712397,0.03479523156881342,0.011777495546123139,0.020371849263084864
0.0,69.0,69.0,0.0,120.0,0.0,4.771534532692591,3.5257272042271595,-14.606333333136947,-106.8487660352259,0.0,-43.838205680880804,-4.303190070331026,-0.16062946629572394,1.3196768794840725,34.2040194976165,17.630926776418704,6.072035132467858,3.331791163826857,2.452453541599327,1.729532711434469,1.0910356854472407,0.6414272048377595,0.3549989908024496,0.1800247312994496,0.0819503650693873,0.05052333606953655,0.030444645337716857,-0.002229281987213596,0.020438510910055985,-0.021057149923645116,-0.005532081351466729,8.420026606871794,5.836984904401857,4.669655967355479,3.7679668993827855,2.7514881170754766,1.9075419695101101,1.2750719267634176,0.7819403195165384,0.4495595891766136,0.2634618402467513,0.11793591516589456,0.05801947952636557,0.03202145682611373,0.015893327109262535,-0.007035409735737616
0.0,70.0,70.0,0.0,120.0,0.0,7.729182035462131,-24.489310808017628,10.238529688889486,-107.11760834575134,0.0,-43.63924090158331,-0.9820466045402159,-7.55320235517019,2.6941512328928425,34.2040194976165,17.630926776418704,6.128477493674923,3.44588967279052,2.4598718070895993,1.6704170632644937,1.0461372776572635,0.6008633609559888,0.34349372075879425,0.17378273062534413,0.10620617576554454,0.05505123964380872,0.0014742026146188913,0.028032788641819524,-0.001802670217086823,-0.004361203442812609,-0.009787936694778348,8.127675759275737,6.029887248640052,4.662089256303723,3.5977189862166385,2.6075806141412086,1.8547943201065664,1.2103344936579614,0.7579572412508517,0.4683347306364243,0.25462307107872184,0.12828935696618546,0.07333683683316815,0.024523512950231523,0.02148228971018068,0.0273335013380566
0.0,71.0,71.0,0.0,120.0,0.0,-5.409465769928747,6.266712341606613,7.230446436401266,-106.95594403916984,0.0,-45.16478807245251,1.4706401613809361,6.41211334261137,0.34136832536434447,34.2040194976165,17.630926776418704,5.897033915526376,3.629478092531421,2.376166240011655,1.7214966728806542,1.1054993630845045,0.6226515209008938,0.3243371999185415,0.19736996078126626,0.09349246434667177,0.054643402138546106,0.00710861905204793,0.010170998230608328,-0.005228434922276714,-0.008069805878962335,0.007589357947237866,8.215760800294671,5.776232087166241,4.583461463819031,3.70336318794691,2.693826163161967,1.902690868299081,1.1938256164513488,0.771389938723205,0.502240720258289,0.26906240663727443,0.12994221871054348,0.08546377601153614,0.056472819998844306,0.037542446599652106,-0.01466036732141624
0.0,72.0,72.0,0.0,120.0,0.0,5.551914386971317,15.060488137982738,-8.501766557000291,-106.92786858565589,0.0,-45.65050874267486,-5.424389933511042,-9.22846699289636,2.8058673592832086,34.2040194976165,17.630926776418704,5.914207213512462,3.3593358116590113,2.4226950347371226,1.7258221018496454,1.0649729632768576,0.6264601855354123,0.36169724619437904,0.1884063105567461,0.09197083999200163,0.03069669074879263,0.009452716449336783,0.020794411924941403,0.009152830504306535,0.011605151246774019,-0.010979282934367071,8.084145897745305,5.820299399900722,4.850462620750521,3.7692537512159414,2.706044125331304,1.86357764694945,1.2323940940472273,0.773364389488421,0.47033991816002824,0.28274676003286825,0.1502534206698064,0.04818266775780479,0.03832427954390381,0.02339523140750422,0.005288570231177967
