Line_number,Fiducial,Easting,Northing,Height,Elevation,tx_pitch,tx_roll,tx_yaw,txrx_dx,txrx_dy,txrx_dz,rx_pitch,rx_roll,rx_yaw,PX,PZ,S0X_time_1.086e-05,S0X_time_3.256e-05,S0X_time_5.426e-05,S0X_time_8.680e-05,S0X_time_1.411e-04,S0X_time_2.279e-04,S0X_time_3.689e-04,S0X_time_5.860e-04,S0X_time_9.115e-04,S0X_time_1.411e-03,S0X_time_2.192e-03,S0X_time_3.418e-03,S0X_time_5.339e-03,S0X_time_8.301e-03,S0X_time_1.338e-02,S0Z_time_1.086e-05,S0Z_time_3.256e-05,S0Z_time_5.426e-05,S0Z_time_8.680e-05,S0Z_time_1.411e-04,S0Z_time_2.279e-04,S0Z_time_3.689e-04,S0Z_time_5.860e-04,S0Z_time_9.115e-04,S0Z_time_1.411e-03,S0Z_time_2.192e-03,S0Z_time_3.418e-03,S0Z_time_5.339e-03,S0Z_time_8.301e-03,S0Z_time_1.338e-02
0.0,0.0,0.0,0.0,120.0,0.0,-0.189981557422513,-0.16793060002611448,0.5744229392683367,-107.02769867134644,0.0,-45.0278140780849,0.8105175508988054,0.5289477403394607,0.18551230265105922,34.27075459658479,17.56211432789952,1.9048260761527234,1.4729107819232732,1.5640128932514898,1.330615688262792,1.6364187143723403,1.2584856774270796,1.0494670004723654,0.9480889799672818,0.8265058796859872,0.5407860686827803,0.21275341175664259,0.3789316138299325,0.6872714929107424,0.3957443567820421,-0.026832232345290863,3.3904108688567414,3.17645992157602,2.88136294848147,2.7257269676508975,2.5260635020589044,2.469226186300179,2.503595828677044,2.01173576377507,2.104729063778957,1.7155978940907395,1.436353993301754,1.2095601102203406,1.040169495159215,0.764545720512214,0.41735112195462387
0.0,1.0,1.0,0.0,120.0,0.0,-0.13814150525634128,0.47086639659959606,0.7889385562208624,-106.9795204890248,0.0,-44.948181644935616,-0.5083142002105105,-0.35163050897805803,0.3752091192227125,34.27075459658479,17.56211432789952,1.4959325577557534,1.4827853427687088,1.5284266934159159,1.684396472735556,1.2965900113016409,1.2562058863296923,1.1580121286214091,0.8798629169815391,0.5044424186699297,0.7503532018799308,0.7570552456341875,0.5680918312507759,0.11928060552291206,0.2959621441570573,0.5382321380740737,3.1988841966119965,2.7931878752906014,2.8203314456537276,2.7418202006101495,2.7433054677614446,2.4654558439624137,2.216157517722861,2.0699195709774556,1.6971546031648774,1.6441002966536926,1.4329757190120522,1.1097645287692086,1.0419283252743743,0.7112516398480684,0.5230084159673994
0.0,2.0,2.0,0.0,120.0,0.0,0.7686135511184358,-0.8146785571057826,-0.8370206280943391,-106.99801556212435,0.0,-44.92519998376372,-0.35355979738802934,-0.6007886459631957,0.9412829485250289,34.27075459658479,17.56211432789952,1.7144477040587789,1.3251415818532748,1.3755584847242415,1.3073328367625972,0.9031544284629394,1.2580422877209323,0.7744258989976545,1.0780187407945752,0.8878670827730804,0.6643157583875686,0.1614007417909608,0.3664778836424406,0.04427178021043371,0.33148456262657255,0.3141739079631316,3.039957314108547,2.6800320191862808,2.6762136602430564,2.6252611175488143,2.378350155317151,2.2040268113927257,2.155824216741148,2.116145384715076,1.7111571086537034,1.5781955633893299,1.342490557273532,1.0576057070104268,0.9236973405366404,0.7731624927531425,0.4940864491136058
0.0,3.0,3.0,0.0,120.0,0.0,0.44514401400609827,-0.5768601392819195,-0.3828155696648585,-107.05726699059807,0.0,-44.96577745553343,-0.23877729000510828,-0.6482636087559015,0.5008586198178708,34.27075459658479,17.56211432789952,1.5920000164645882,1.4981791345214144,1.4559102018870607,0.8900814920684359,1.1616424077826044,1.1254282582302313,0.9377188106478378,0.9733814631550979,0.7587098599710758,0.8105840821193037,0.6379622712537723,0.19997668692401765,0.36925893787865877,0.12196848483475779,0.3525558829643663,3.2325255193078943,2.5567725555302068,2.5809253178926213,2.594471182991233,2.317447187593199,2.0549814544494294,1.9687753895980615,1.905698970728952,1.6583054174882088,1.408872228960951,1.1732095922920724,1.257324149099625,0.8615811462734086,0.6422101466162268,0.5209434051192849
0.0,4.0,4.0,0.0,120.0,0.0,-0.9978015689309898,-0.4559730670117421,0.9233812568070987,-107.05864063582152,0.0,-44.99461334782299,-0.625221697824109,0.20658707828630352,0.04519453795902839,34.27075459658479,17.56211432789952,1.9623189154574348,0.9803791780585438,1.3554558046015528,0.9568667074826854,1.0133418218797852,1.104611041444277,0.9250447538729245,0.9617094814613438,0.8728965604575352,0.5884825750173157,0.6070944134084709,0.6000091628984723,0.2764129737129381,0.47229303148740553,0.19014448408119722,3.0291032067185557,2.587157391632161,2.405424662571492,2.3869545260340415,2.0397535640158364,1.9611447330984066,1.8863972789709993,1.5896973899331541,1.5283196027577974,1.5625672837750688,1.2952173853020421,0.9912711886394007,0.6595922740298095,0.6147528399243821,0.5107683794463599
0.0,5.0,5.0,0.0,120.0,0.0,0.593223694925193,-0.6978277786348965,-0.8210281879814114,-106.94630076225306,0.0,-44.96498856449088,-0.7718304195797921,0.4060934963362075,0.7992341096835796,34.27075459658479,17.56211432789952,1.5499136882679339,0.9237268401632608,0.9681708380703158,1.1850046913835524,0.9698383131691084,1.0101629283122602,0.7436590761452231,0.6843550334551274,0.7325589852451914,0.3145028205783027,0.6552551105958966,0.5185065055237073,0.2803996715153276,0.3893034846619689,0.05820412309522487,3.0024331896870358,2.4953695070237245,2.4521517284994134,2.1113968419433795,2.12514544582187,1.8971954276522303,1.7226039609739252,1.6531536616441564,1.4769822211169588,1.4968471450846361,1.2829297065232534,1.1122317694443542,0.8392545714311817,0.6019307557020753,0.6175357550039738
0.0,6.0,6.0,0.0,120.0,0.0,0.35921577015402884,-0.2502788878620641,0.2535909228444624,-106.9987126708856,0.0,-45.09507202988266,0.44828284470669816,0.08176197807097241,-0.38204299184726676,34.27075459658479,17.56211432789952,1.3113182111614377,1.4301920069594358,0.9793909745853718,1.044123882600271,0.7424403022970899,0.7918191503022053,0.7579344998353608,0.48399635750504477,0.7340589432313864,0.44393160121784814,0.4956986203316798,0.4753516760119864,0.34487481565241906,-0.0814081349678129,-0.020233931406316102,2.997641339478502,2.2525238807751555,2.27790038216538,1.9902341313797702,2.0782406485474745,1.7972665881608572,1.66454484507059,1.4762445824638346,1.4977933901222216,1.1878726467003875,1.1797393923345334,0.9387803566075857,0.6754718675424679,0.6013553029503347,0.5413375257917541
0.0,7.0,7.0,0.0,120.0,0.0,0.4939942603424472,-0.6935750503176301,-0.6304637859738365,-106.98024383345626,0.0,-45.03356324539379,-0.7145213817547929,0.1058972355192509,-0.9129953396076822,34.27075459658479,17.56211432789952,1.6034319699032227,1.120567892954568,0.936172774303053,0.8543576710753148,0.7232512596950963,0.9024497344193085,0.7770320756610117,0.44142222190751157,0.7356763009886774,0.3930229932270985,0.40361840829564766,0.2717712720020595,0.19362741306727704,0.17092644700899817,-0.15935288180210722,3.1243101554115906,2.286869548360399,2.102329876008138,2.134840662145147,1.8676051777724796,1.6594973969573008,1.5436584348645201,1.620650322530713,1.3074683065669224,1.236797186134702,1.1375783182488675,0.6271823979054099,0.7951916913400828,0.4879139522748117,0.33816906459451324
0.0,8.0,8.0,0.0,120.0,0.0,0.3298084104547121,0.5846245840606299,0.30311881633378834,-106.97005560535533,0.0,-45.03727500829149,-0.9648154916050304,-0.02774772562138894,-0.12764096663484414,34.27075459658479,17.56211432789952,1.5193181639003253,0.5952739061527226,0.9303163406760261,0.5166973142578739,0.6739879838953104,0.9688614238305363,0.7198599505597901,0.44544893719878276,0.34998330251028437,0.6001347834583022,0.287160798039655,0.42716373392095375,0.07259524417385044,0.28761549316662444,0.3572661280527533,3.074178167002393,2.3289171699646607,1.9542781812864058,1.8915206745170594,1.8166714207480916,1.9072335901869122,1.5790649392099092,1.522326124883329,1.4079641913247936,1.3786514024235161,1.0920502793517672,1.0506033997553896,0.8132768634726648,0.4112319406638955,0.45252572647293887
0.0,9.0,9.0,0.0,120.0,0.0,-0.0938073263593533,0.42696627860201297,0.06981702323958228,-106.85258764827127,0.0,-45.032585800436735,0.6927136597386216,-0.22936410543859442,-0.08871470781420188,34.27075459658479,17.56211432789952,1.5074828459087002,1.2391644465424076,0.959064417455667,0.7311668793300486,0.9049113064123341,0.9240431409628997,0.7793809668675531,0.9388392193177391,0.774413674193089,0.5932625150792619,0.7496780393092137,0.35262161255567975,0.20972303684734772,0.09881689203021359,0.3466108254645614,3.0973690807925025,2.276718425668243,1.9016807146103054,2.063043199257167,1.7697064333637196,1.886250379144097,1.684796323470745,1.4913838313218803,1.2808602619698772,1.252467860318477,0.9781548113299406,0.8934179139066754,0.6794159530994016,0.4512228427262417,0.3927364017171632
0.0,10.0,10.0,0.0,120.0,0.0,-0.2217915835558728,-0.23340703483020064,-0.8025992553700196,-106.92333445212728,0.0,-44.937147762008564,-0.642146137909313,0.4022493444882991,0.7150646900810849,34.27075459658479,17.56211432789952,1.5717207820194368,0.7659034518293915,0.9917577023320766,0.8202512762161868,0.5883490899603039,0.6535884323437592,0.5934820581080086,0.6190864009062548,0.37165442607742416,0.176062251189847,0.48400925910837655,-0.08419060151386404,0.17339257970423225,-0.03875170988783869,-0.1479694794141781,3.063918988465428,2.14988746443423,2.1052828792288256,1.834367400093386,1.6871671363810434,1.6407889854915594,1.4541830698257652,1.3003981977297854,1.2183739155137063,0.9447289452725948,0.9762244033783432,0.6955888492405998,0.7380733781521125,0.45735616235402743,0.3885611613576458
0.0,11.0,11.0,0.0,120.0,0.0,0.17164123212858695,-0.8068810749516153,-0.8158067118952059,-106.99578112003842,0.0,-44.9802891622987,-0.4726772249978438,0.43736116922605905,-0.43826693886778245,34.27075459658479,17.56211432789952,1.6015491997465987,0.5155596360935935,0.9903165090936555,0.8520736126841257,0.7049066853483327,0.4518636310650857,0.6067234382606087,0.4461081478311878,0.8631307867721101,0.27639901466949957,0.2980734303350039,0.32155031376359333,-0.06547509487130151,0.21883188581383659,-0.16788816170246335,3.1878257258226905,2.301955130286693,1.9573040342752384,1.7234505207609891,1.5857982964660382,1.4823997076659199,1.2743591990995347,1.402502467378965,1.2489844458575092,1.1375941041880333,0.9278654126312956,0.940694139459026,0.6223426400754007,0.47254027087710687,0.44629594922492144
0.0,12.0,12.0,0.0,120.0,0.0,-0.18703181666242852,-0.8991455406488551,0.18614573996690953,-107.0044139614621,0.0,-45.05619997842415,0.7336603516099498,0.8199506772298442,0.698861022752703,34.27075459658479,17.56211432789952,1.6840373858083446,0.8320857299208031,0.75200999626652,0.7664951982811394,0.5254586088994225,0.6378067959094679,0.23108175606455428,0.7293592293487463,0.43874556164542317,0.14061488973529648,0.3635250263588888,0.240282441988979,0.20430847337965238,0.056081348391726765,0.09907188355103036,3.158754430468118,2.0601829994396264,1.739204308914433,1.8332789863222105,1.514476921918157,1.6563174512769003,1.5103960427211482,1.3666042387322286,1.0880198186914212,0.98029570557058,0.8014512982956985,0.7463983954625011,0.4408366515134844,0.5257398033732752,0.48591934077348375
0.0,13.0,13.0,0.0,120.0,0.0,0.06761512565036254,-0.5555241182198227,-0.43650415763581507,-106.99167188057947,0.0,-45.033729631339256,0.7244656381560663,0.41209402747875945,-0.09942404842464425,34.27075459658479,17.56211432789952,1.564653580463973,0.7513724056129693,0.7661288522665691,0.5272126491467662,0.7886527881698296,0.5872631319367687,0.3062060939708504,0.5541112363801024,0.4610613513006473,0.39234539908216215,0.1976993698722853,0.17351687474140995,0.39253338988192976,0.2981658564156294,0.06180112246911815,3.1947086512990057,2.2669205047129797,1.8115470195255925,1.7210914633677004,1.3806665682564527,1.6239091563114785,1.3287065186141709,1.209815763682502,1.0857756868119144,0.8606865146802178,0.8601005510796024,0.6239482307777514,0.650973943072958,0.34869221285010155,0.347511854398678
0.0,14.0,14.0,0.0,120.0,0.0,-0.594520650304009,0.569282967398685,0.35182710148643337,-107.07578167968647,0.0,-44.94011532295045,0.847676026924176,0.5899278713058265,0.7646714534720176,34.27075459658479,17.56211432789952,1.6369212129598,0.9060518888807215,0.39667175395606213,0.45498664622116447,0.5438904767145243,0.24107095101903092,0.23329725298530227,0.4771187159298695,0.31856839275899973,0.24759411958543293,0.05055090684771285,-0.1385226319314316,-0.07329834754614592,0.05518711115914522,-0.2567841666842028,3.316504531192706,2.1823697073265396,1.7103061631188585,1.669108572114733,1.4668990779360649,1.3658129304540754,1.1790117448976283,1.3074647229397605,1.0082256945490793,0.9754972624693139,0.9203104394156105,0.7014689218376257,0.5075948987883546,0.5257753154826044,0.267908204118135
0.0,15.0,15.0,0.0,120.0,0.0,0.34756543942220164,-0.1495253623251771,0.6846770602808994,-106.94146592641691,0.0,-45.03598649302917,0.5339999810006868,-0.6492293009251244,-0.8111669780375812,34.27075459658479,17.56211432789952,1.5729124476809007,0.7638176177266929,0.7372591519733785,0.587267465161762,0.2820843532275255,0.5089260683133381,0.6871707542002081,0.4507964136306156,0.2479607477444974,0.19286445425918258,0.3041288282941672,0.14982004457817716,0.3357956114135793,0.1696677028454961,0.13061887247368958,3.220043104882358,2.022742257093851,1.681209557923494,1.391291761790141,1.2126919223345376,1.3067934042018743,1.1721372001928034,1.2271425637881952,1.244302872611942,0.9471971525342657,0.7204079897520769,0.6347783732335144,0.5079893961955939,0.4949250519307051,0.4089927382566245
0.0,16.0,16.0,0.0,120.0,0.0,-0.5873418769747036,0.9220085287672002,0.6351938363605223,-106.99288829221226,0.0,-45.06570961202499,-0.3062073970322214,0.07104995179292306,-0.4063024551143213,34.27075459658479,17.56211432789952,1.9915063928667187,0.4961677571695798,0.7992766274042732,0.6125365030668908,0.45357549072920494,0.3138306240581952,-0.06760887970412288,0.2503272022065524,0.2959114713768111,0.3419852735666855,0.1898349363060214,-0.11355438115920036,0.40021609902262745,-0.043971670101285526,0.10795793833839769,3.3372546632623328,2.2616406356785173,1.9058534259507853,1.5267273199245535,1.3046484027664194,1.1859176959960096,1.0622614103116907,1.212883524550108,0.948400703190879,0.8070383876002873,0.7395277934989792,0.6265938314602112,0.5625990700163356,0.6413991675360434,0.30733023888343014
0.0,17.0,17.0,0.0,120.0,0.0,0.5512246189853109,-0.7894496914224978,-0.4169170449127775,-106.9867426090571,0.0,-44.92742978916725,-0.8078549367899046,-0.13718200523648338,0.01756927971085398,34.27075459658479,17.56211432789952,1.6992582500085438,0.8274686442956157,0.6872251788180134,0.6467595828204767,0.395753680238312,0.4192248464767689,0.2392569619286394,0.1589040194282453,0.16540359973508223,0.09813944444261752,0.03293919399573836,0.19912644324816067,0.3954310236645112,0.12865528937046014,-0.26888469515255137,3.200981477225111,2.1231198777375724,1.555320935751887,1.2992170917750328,1.3012986176555694,1.079176097439694,1.1507136591724543,1.1511848172538466,0.9485681425816249,0.5725729399889575,0.6268976329137019,0.7408318606605131,0.5741462080203235,0.46102521201084923,0.4491514439842117
0.0,18.0,18.0,0.0,120.0,0.0,0.6448664952981262,-0.1356945942708323,0.047445822926302395,-106.94258001008814,0.0,-44.88353353557501,0.14332621682848626,0.9511743142083824,-0.08165973896690848,34.27075459658479,17.56211432789952,1.5929582256681245,1.0017559245646466,0.5539930509073218,0.5413463881673675,0.3266105159581065,0.4761321071769261,0.6488345783768613,0.17836619828203334,-0.15515026438043472,0.29737474649991025,-0.08499488987771414,0.4720624659339365,0.2381241276025356,0.009147600060340697,0.03437607018312645,3.3416737129697207,2.2522581309661676,1.5907827485672512,1.3224487916048355,1.3869127159776076,1.1475105193991866,1.2669922435524514,1.0003104773299478,0.9797890110375863,0.7798010530126837,0.7268489851440284,0.545717120920222,0.5687905766420556,0.5671548064095381,0.3572657156219229
0.0,19.0,19.0,0.0,120.0,0.0,0.48718016456202373,-0.14950048300944818,0.8690258430440709,-107.0575662746005,0.0,-44.97201588518317,-0.5812460605639865,0.8423028581435377,0.46893928636427673,34.27075459658479,17.56211432789952,1.6033522392859707,0.962172781850309,0.7257774821940519,0.5363477340208267,0.3014499663186868,0.374528756551773,0.32266345088328746,0.4953171164352782,0.28280518421349066,0.18998830635965763,0.02262146684316471,0.04743547942254586,0.028587634648827867,-0.005186994796011243,0.0317918450315453,3.5360543072432815,2.4255521127968107,1.8413001452930673,1.386445505094522,1.1358981028401989,1.0478219117634062,1.0671413383643351,0.9681024522843624,0.9224922132681701,0.7699793075321498,0.6639319196649262,0.6762432483998582,0.5914546799604808,0.35165796444432,0.2509291034015054
0.0,20.0,20.0,0.0,120.0,0.0,0.004660167945806704,0.45260424311781144,0.07260965866684677,-107.08511366319718,0.0,-45.015310915842264,-0.6935122300577591,0.8549043499166782,-0.7938045444031909,34.27075459658479,17.56211432789952,2.201668193586631,0.9580043614647641,0.6680883336390083,0.44487306242779706,0.2673018146488745,0.3938149971201146,0.43841924399112386,0.19928978897433047,0.32825183269253916,0.0013197918409878495,0.19158296419346157,0.19365366172581092,0.21346378730562454,-0.06569998466144544,0.03868158739046962,3.409146215601809,2.042152167095796,1.8420367864949108,1.3644127205409022,1.3382564328063689,1.0645094113594165,1.019174057589631,0.8583112863428557,0.9277452239140167,0.7524031890722217,0.6822148187396229,0.6676014030860797,0.4158509601263848,0.3520916982923732,0.29758736581082224
0.0,21.0,21.0,0.0,120.0,0.0,-0.4096681459438929,0.18946299882510176,-0.23241947799065277,-107.0511644212197,0.0,-44.90143747567713,-0.163262037540983,0.2756921050581087,0.8142677759530588,34.27075459658479,17.56211432789952,1.6696654491642695,0.7214279093625402,0.744279625545343,0.18049579913578545,0.32256259207236837,0.47206937266577276,0.40183458441173014,0.27846468147304415,0.43604229082743706,0.13129457748298273,0.1337554661161582,0.4289118836109056,0.0008843644587828853,-0.13087227396269424,0.11792027234852084,3.4575786047647705,2.345894120781665,1.7104999611069485,1.4485463115437325,1.2907054754087801,1.1011383825874859,0.8706184744094447,0.8302552461815731,0.8451079642896858,0.7050835912442972,0.5147450822434179,0.5806790841410775,0.32387613584548947,0.24950211934457184,0.2416514685790092
0.0,22.0,22.0,0.0,120.0,0.0,-0.21626241351613507,0.7348242004069292,-0.49846896466940516,-106.98417704523015,0.0,-45.014470065120534,1.0810876553094773,-0.5267745735679357,0.7069604624063159,34.27075459658479,17.56211432789952,2.0533901103711627,0.7720259332062169,0.7864799887977916,0.6339422065705086,0.5275077016219042,0.3520272551242724,0.2650692203687397,0.18387308559854185,0.3012604446610905,0.231913769038865,0.1136132365022055,0.3043892314813649,-0.09291635155233155,0.07594763086930237,0.14461612511384458,3.5628195760722154,2.0841147320270816,1.5642747869468052,1.3965893921980377,1.0023048967850312,0.9606137971925715,0.8979664933443277,0.8416214129654539,0.9510088306798803,0.7345394100345211,0.6813558089103379,0.5381886807964441,0.6115861851789982,0.34605661290253364,0.15194802095501633
0.0,23.0,23.0,0.0,120.0,0.0,-0.8210187203477752,0.5931241756303884,0.06316796280919457,-106.93706398198026,0.0,-45.0231437645395,-0.9699844936735332,0.3059371775622999,-0.9484229644538296,34.27075459658479,17.56211432789952,1.96449757273847,0.7955007073846192,0.5412772766317416,0.4280570281149858,0.2573084806419641,0.14798091586501888,0.5204859267585055,0.13549447310267468,0.3546657702298621,0.15215544627014466,0.1912303161442822,0.23598878393571432,0.11464759960731957,-0.08248925775123779,0.15053459995725516,3.5388938975938453,2.4921497501105647,1.8644663918205775,1.4374157759844715,0.957683947212988,0.9918088642486719,1.0460416766213017,0.8233841652834679,0.7212146815576755,0.9007412887157853,0.731279243909784,0.5869200923265907,0.4608286768473967,0.30572151507212364,0.3468401464513755
0.0,24.0,24.0,0.0,120.0,0.0,0.5444978697061136,-0.19998061935713096,-0.32495745547572197,-106.94729101689343,0.0,-44.9996473223389,-0.16940521909591827,0.5499370284712937,-0.9324165325255587,34.27075459658479,17.56211432789952,1.83540293130329,0.9688449314835648,0.8263592869403602,0.41347512361905375,0.6124674138747972,0.23355919685874224,0.17478365846403648,0.36525311800072285,0.22850833706521945,0.1382724171790089,0.25891333416502593,-0.11777393724638768,-0.0670624720289818,0.2847698137176095,0.0969595008951503,3.490266986610985,2.410177614019662,1.6885586358199225,1.2996793308536825,1.0978175113746103,1.044283209542579,0.8661631131855883,0.7917805999946774,0.8526854865245713,0.7462381559800573,0.6818942840015207,0.5541850578435514,0.4416855671937548,0.3740987008022166,0.19400681564287564
0.0,25.0,25.0,0.0,120.0,0.0,0.13933095796074912,0.4395823338064535,-0.48557442622302394,-106.92513017782696,0.0,-45.03121640334945,0.9184939750465597,-0.7117133128155981,0.9291670960950595,34.27075459658479,17.56211432789952,1.691371222103294,0.8983966497732557,0.4974973488287397,0.4277727666183178,-0.13964089803771362,0.2701951864519744,0.23928718002917482,0.466061323490212,0.13762610723869945,0.2562691566010869,-0.3064119759552994,0.1764252749679427,0.12931075640626058,0.09000342352549676,0.19644126186744332,3.7156163672398472,2.2200883166040097,1.7659690769602914,1.24650787023382,0.9383968342003095,1.0540305002122015,0.7975904774242211,0.667803437672991,0.7174900445137382,0.6707876885445587,0.4909826817550483,0.5857197938003222,0.4292436721419854,0.2820211752915809,0.35727984903216214
0.0,26.0,26.0,0.0,120.0,0.0,0.7350373076882821,0.4415170436043361,0.6258270884463266,-107.034708431516,0.0,-44.99815273719304,-0.9565328242920802,-0.827613817307981,-0.2032976394256798,34.27075459658479,17.56211432789952,1.8684843182258004,1.0013452244101035,0.4946894696602178,0.31200039658066114,0.2922046019465305,0.10253928510730473,0.18059260040361777,-0.31273257385688535,0.14978799787617755,0.28116498516436694,0.18542897111163809,0.32913653102359275,0.03933662011492591,0.214999027303453,-0.0789584770782028,3.52343928307323,2.413473024420743,1.6485834838954914,1.2757159714673247,1.0621075853913189,0.9655468034475606,0.7952261252731889,0.7051065346623745,0.6504710181789102,0.6311658884233392,0.5358831364816631,0.32909164113709144,0.39398130635011946,0.3604894719395064,0.33623341115299077
0.0,27.0,27.0,0.0,120.0,0.0,0.44039424895910617,0.5988325076940442,-0.7367451477489855,-106.93266973019792,0.0,-45.000261179197224,1.0088206882002566,0.36497455169015214,-0.10177030900770068,34.27075459658479,17.56211432789952,1.8358301269286903,1.0320561595102802,0.6422678798055623,0.45484267092753217,0.3794642461779285,-0.042718417783938534,0.18315786849436563,0.09403509243892262,-0.0016373649861464445,0.15857573657206087,0.4689047835903927,-0.035300732525201134,0.020270306354664994,0.14254325267097573,0.1587962486083616,3.7465626700711505,2.274591006717633,1.6964841978515626,1.3993896495599025,1.1120172826666888,0.8609610405642617,0.7957687461464827,0.7662006277504747,0.7146632671534048,0.6469818231373232,0.5230530915171899,0.5988335623716903,0.34832913651215475,0.2514246806784793,0.30012966381492334
0.0,28.0,28.0,0.0,120.0,0.0,0.7488487207682955,0.472696632044721,0.514234954164625,-106.97972520311893,0.0,-44.94816883210788,0.7512406885213835,-0.6019562962525815,-0.7508985982370684,34.27075459658479,17.56211432789952,1.926096845711306,0.9988996426391875,0.6149562618656395,0.30435621589466344,0.24445727403685896,0.22515581028817788,0.3428483364050832,0.07613487390459678,0.3236857227468631,0.14414818706243282,0.14282807189876837,0.06462619254231616,0.28164537833431486,0.21550168869157904,-0.09070231932067367,3.5618537402594708,2.3555729589840113,1.9557792948579997,1.2779389438513071,1.0343572710489433,0.7515526128504064,0.8552370272903398,0.7421739484032271,0.6028538235915338,0.48272903589996563,0.541574181990804,0.2834911801335427,0.35750852126299276,0.26884946008407445,0.25368949176679795
0.0,29.0,29.0,0.0,120.0,0.0,-0.8772867416006676,-0.43825052362906725,0.5503055096961371,-106.91243940684325,0.0,-45.00043388913086,0.4826182887950646,-0.3895379677072357,-0.7831225531933934,34.27075459658479,17.56211432789952,1.6998925120485684,1.2256888492481632,0.5713649243267654,0.42437807519850274,0.5862574621738537,0.04017115446960132,0.32103794558445387,0.012388839494378412,-0.009056906072213267,0.23263847366105023,0.3282345762147565,-0.10173464380308316,-0.08373261070037584,0.08821524644597917,-0.17433739693402592,3.780338359120382,2.455528806468102,1.7502614284735323,1.355648236108248,1.0734352144659038,0.8890624368414866,0.7087575690122224,0.6864089427346516,0.5597606796611234,0.5122493559303853,0.6192873466692015,0.41798702528239146,0.4391263374733331,0.36394955012547237,0.23206301599785753
0.0,30.0,30.0,0.0,120.0,0.0,0.5506407083366889,-0.9380980404088692,0.28845195062036266,-107.04507590490304,0.0,-44.969035111077375,0.32497445996814267,-0.8117531075540481,0.6198145769671579,34.27075459658479,17.56211432789952,1.622103664410068,1.2473135892811893,0.7913634635756377,0.4098069612226351,0.29165597337969074,0.1748799847070003,0.0035647534053028784,0.00803813700788944,-0.09892180284191321,-0.33324075804921327,0.34378556551988115,0.3177928616342258,0.04136054486838904,-0.22616856459070434,0.00793382890165794,3.600513883612763,2.5319525173117414,1.9301967963573392,1.3913514059053955,1.004622792934811,0.7248647378371305,0.997876970519826,0.3722996217765865,0.6072774302783408,0.5175611729840894,0.4282742362505142,0.5835498610475577,0.42663513049742574,0.4099214124070436,0.39420653948940065
0.0,31.0,31.0,0.0,120.0,0.0,-0.260975079760577,-0.07571851350984304,-0.3077305069875431,-106.98646889167247,0.0,-45.04529963989367,0.7604167163084861,0.21026084375470933,-0.7327387447927707,34.27075459658479,17.56211432789952,1.7618464207869684,1.0856925184130293,0.8568940971873975,0.6242154850484835,0.6633838797100498,0.4237789912000042,0.3287071628560897,0.29079409705125825,0.18202218677370954,-0.004609250387095004,0.3301643966300826,-0.19968100356027735,0.11016044529187172,-0.06776925615630582,-0.1984441755439303,3.8903037904141953,2.6537118512627913,1.780618836575606,1.2639608435758152,0.951607194508373,0.7671219507481126,0.7195445877662404,0.5445803235493464,0.6676316274396022,0.4751276017339622,0.40372362323444516,0.3138256259709659,0.20284698446123042,0.2841156167016576,0.2101679070508648
0.0,32.0,32.0,0.0,120.0,0.0,-0.19240892214530625,0.7291584160243672,-0.9020227516600707,-106.98977863889364,0.0,-44.92698660667628,0.22774361615657251,0.43297965870665744,0.8968929823631258,34.27075459658479,17.56211432789952,2.051231768021376,1.4005814207319731,0.6513224879225061,0.3879161317650847,0.33651049157929463,0.37488719779888724,0.18482887758418912,0.3656464464517949,0.22125510639500334,0.11134649847703385,-0.029043119387566582,0.30217157261258665,0.22060409194935954,-0.005556109464654881,0.08863859875806393,3.8617728459810285,2.5514574134473214,1.963286377340318,1.2405008186992714,1.079424979850795,0.8840770340400425,0.7754936425637354,0.6007631853900273,0.5990321931057798,0.546816202732041,0.43674613094626213,0.5026616344818238,0.35990402569900465,0.14699920188385052,0.1611541443220944
0.0,33.0,33.0,0.0,120.0,0.0,-0.05870297601521446,-0.48752997030921286,-0.32403430645775333,-107.03049163613063,0.0,-44.99534098856091,0.4574774324445789,0.6776907865270243,-0.6285436389859194,34.27075459658479,17.56211432789952,2.0757999221852343,0.9972297245598459,0.5300052184044235,0.4502563117779326,0.39962446603505863,-0.01835572634164978,0.18537476340949022,0.4364881026749583,0.22283736895356138,0.1386728926467533,0.4421655911218535,0.5441823609620844,0.13610174960995794,0.5225965383913049,0.21554925427050275,3.87595666523334,2.621187625750275,1.7422614583281164,1.480867018812262,0.9108281714446033,0.7541960475109274,0.5195048044302507,0.7055117955590995,0.6101005476419714,0.5703988797561951,0.47331390153405223,0.5793241850503241,0.2713235130610737,0.35637410588177254,0.4094378044512539
0.0,34.0,34.0,0.0,120.0,0.0,0.9726594578159764,-0.027993813707047455,0.816857729356125,-106.98739605399427,0.0,-44.994113919920935,-0.9820219917687458,0.5175272781899505,-0.9840004944436058,34.27075459658479,17.56211432789952,1.8637294955333148,1.3686595986871906,0.5701361413367625,0.5551817239189674,0.2657402311815991,0.09498214461514463,0.4272905302291202,0.1620830921912472,0.2204754513084608,0.04343271610047662,0.1925341605134372,0.0677424433757815,0.1647906534132706,-0.18135090638909285,-0.18714865775766903,3.904186049097327,2.3925009302668694,1.8295097515459193,1.4598128653603033,1.1033606040139097,0.7441418399814725,0.713306929547562,0.5739016925334831,0.38116078860518354,0.4005349075630308,0.4456009638537461,0.34004651357090965,0.3067593994185672,0.3098508685623297,0.22836506145826582
0.0,35.0,35.0,0.0,120.0,0.0,0.5640907978019314,-0.2809271019820898,-0.5908024577146995,-106.9580946368271,0.0,-45.04485052446532,0.7728476640898686,-0.018575445000002855,-0.3658212042975886,34.27075459658479,17.56211432789952,2.2523082800622345,0.7512123595602249,0.726578394850469,0.59093300079338,0.08590800560546705,0.04224542810198667,0.47969492813740566,0.23351762318133798,0.3206139791854871,0.1042986910999731,0.27884063452335694,0.022640412126950962,0.0896845470940949,0.11408081481735027,0.023880051662178263,3.7003418334686535,2.5042199783819497,1.8336126403579618,1.3726917320283534,1.151801965902803,0.6855167853194981,0.5876647969497237,0.3836493641351877,0.5477503281954905,0.37518185145679983,0.3769135994951146,0.268571870944324,0.27156951469604385,0.19364747673329438,0.2125742483660966
0.0,36.0,36.0,0.0,120.0,0.0,0.15943350642736442,0.4796160642117058,0.13713506470051384,-106.99160215628585,0.0,-44.94824916270164,0.9144089374466198,0.3919597870160625,-0.08664708304094582,34.27075459658479,17.56211432789952,1.9263168740589307,1.1819599099838656,0.6792355353253142,0.23180189520331634,0.3541668547286868,0.18366512006347588,-0.1677798761541371,0.19514577511617925,0.10379900555767584,-0.012833325588150826,0.16653290795172945,0.16929270609874486,0.16302079488535876,-0.06890217582383382,-0.0516089644646769,3.9583547983953236,2.560355644138843,1.8307206235470646,1.3468003180590722,0.8469612097785709,0.7755370654329763,0.5497316694097035,0.6664233356287618,0.5798003262643785,0.4211878569401714,0.13187664113358422,0.38956218383014213,0.322598965327807,0.201074372536582,0.11162449001951143
0.0,37.0,37.0,0.0,120.0,0.0,-0.08323426856779981,0.09606243912253887,-0.5716622141660908,-106.94132535527807,0.0,-45.10363868285209,-0.3384635088040929,-0.016798827223661217,-0.005635889438853514,34.27075459658479,17.56211432789952,1.970967534046996,1.3139104585391854,0.9349083572393456,0.48114015664554605,0.1649112751035028,0.48161587596381805,0.03232660042095703,0.17511210525755783,-0.03960297116007082,0.24907779243439826,0.02341057547758503,0.30547645224924985,0.054739955160092,0.2286120152663294,0.17478556284239358,4.028965048690244,2.608498349218204,1.922398338314309,1.4273763979719525,0.9226082451278326,0.7983200253429659,0.43179901557454947,0.4315276948339205,0.43510824315406316,0.3358903693370399,0.4315157233105126,0.3834392732790943,0.07302565125899041,0.26582102699388416,0.2772614804698066
0.0,38.0,38.0,0.0,120.0,0.0,0.08036687528277575,-0.18781245333271257,-0.291727513277664,-106.99690729824268,0.0,-44.959809892018214,-0.38214143160151715,0.05930245822092961,-0.3469516917122799,34.27075459658479,17.56211432789952,1.8479821581629048,1.2761770305702675,1.1232323752871922,0.42928887628419143,0.3553885011187267,0.19649032643889547,0.16712314499776942,0.18973096589063154,0.4388403601207085,0.09005104919290516,0.06167690980862041,-0.26344379435352033,0.2033681262534518,0.28386002655239234,0.25838558402711553,4.001284943803636,2.3765558343230935,1.7171671140870046,1.5007781047214186,1.016632176876297,0.8442002935964463,0.5213541147761709,0.4904867546504027,0.5330215803451486,0.31501252148641845,0.4221266134093324,0.11962128788112847,0.1713342833523227,0.24659440975203226,0.2050498715805903
0.0,39.0,39.0,0.0,120.0,0.0,-0.011804130464925677,0.2032630595630096,-0.1326115384384583,-107.00649228096314,0.0,-44.9914504591211,0.20170734525967937,0.43606782407312683,0.9804220318392474,34.27075459658479,17.56211432789952,2.0355195917496474,0.9936581323358367,0.7410654830298649,0.5912255796808458,0.23554040185147967,-0.1862500078614836,0.04439865141313881,0.282333444219082,-0.018564062914008805,0.13581152340945402,0.16062459858568,-0.06937474564749917,0.06814849840133212,0.38263250369354707,-0.24741564040797168,3.98894887558947,2.6188574984806334,2.0471668694086613,1.3305684978128292,0.9056998497936691,0.5768442388104696,0.5371436192549612,0.48637974766040243,0.5246522492844637,0.40575735630703363,0.17626210080361976,0.3633860271288422,0.23705711083990827,0.32861006548090954,0.1463194979977201
0.0,40.0,40.0,0.0,120.0,0.0,-0.8105670614604745,-0.5702214419273224,-0.9468477172577967,-106.91120812749351,0.0,-44.955941135234056,-0.0763160713371929,-0.1645023641964185,-0.30620363969831077,34.27075459658479,17.56211432789952,1.9024848084601782,0.9027184234682935,1.190237139484715,0.4330107210922608,0.36617597320327344,0.210838220582243,0.3919599703164234,0.12115821696696816,0.01653821144962994,0.0790060028014978,-0.04179936712644611,-0.08755579976561348,0.07100001888758345,0.06124613155573447,-0.031620778655254235,3.8856838951407875,2.57003757998014,2.046819431002048,1.5286949817816384,1.1012599490875294,0.6651798587961105,0.4637418426497414,0.43970925567312397,0.3912064169463332,0.35724900950234173,0.32501390289143833,0.1954542925265561,0.2025199798933967,0.12503776349954165,0.25497622723183994
0.0,41.0,41.0,0.0,120.0,0.0,0.4123167008007129,-0.32372144352081555,-0.48404388629659967,-106.99011149631997,0.0,-44.996428892587986,-0.014652032373671124,0.029772316562499457,-0.9366944374604262,34.27075459658479,17.56211432789952,2.2875533061032396,0.7730089018448545,0.7312363969757342,0.48584110975738054,0.1127300463945991,0.3361593716357849,-0.14046089311672552,0.19977302079312642,0.12859186736934364,-0.13063460719197678,0.20490464721843812,-0.007215465589174311,-0.22916710815230196,-0.08628736273288132,-0.10700636966372032,4.218261268867651,2.7042730443591756,1.8797928297934883,1.5180040732117506,1.063041962291483,0.6853060939851309,0.6997852227081502,0.42763720876917255,0.33450626272926554,0.38586144462575994,0.26699451693499826,0.27652596137380003,0.36314969691705334,0.1456794558626151,0.28368518545304133
0.0,42.0,42.0,0.0,120.0,0.0,0.07259446721805429,-0.6765084197731515,0.709571543601808,-107.10483015834521,0.0,-44.92730480153716,-0.9838646863370822,0.9469856143704118,-0.9734074103106882,34.27075459658479,17.56211432789952,2.0447019979699386,1.0420498682137074,0.7348968195836735,0.6985900697268639,0.0645237367208294,-0.023003456071293726,0.22394255966595067,0.05454851270356996,-0.3094940232130671,0.029253395196858878,0.0919810634806107,-0.01453438068361329,-0.10352314495743718,-0.08733632833822987,0.09767699638445188,4.260252438344737,2.6463826420517425,1.9406720627646987,1.38712434133241,1.0110582124098908,0.7845780864905029,0.4843326097555453,0.5111458631070893,0.3424154866669241,0.3136566899113989,0.4647918782641993,0.3090922473273304,0.2414100135722533,0.13106949087805703,0.1494566114156144
0.0,43.0,43.0,0.0,120.0,0.0,0.7531515560294659,0.6371542360416487,0.9864406887063133,-106.87416344370757,0.0,-44.96064565519154,-0.38904186556763676,-0.13945244366568277,0.6294097805987529,34.27075459658479,17.56211432789952,2.289316709801871,1.217338028580697,0.7565511243120729,0.2479352431918333,0.27106014645000576,0.09634360496054827,0.26895178754280136,0.17713635185012805,0.1513827368071952,0.18047718802631063,0.15704714062846792,-0.12417475911540357,-0.13571236773394724,0.11048863842588584,-0.12662970796469325,4.002098746988201,2.656474999247513,2.098151556126784,1.5247212172393092,0.8837758884878018,0.7702082675585092,0.5728410888205737,0.45349016944356996,0.32082044129285736,0.3025141816106491,0.31763161683644864,0.2584014276988269,0.06630653695015859,0.2879052532406377,0.10314752126119692
0.0,44.0,44.0,0.0,120.0,0.0,0.7911913586325463,0.033081733778989264,0.1659987443383628,-106.99121095136492,0.0,-45.00404556731539,-0.836474695189322,0.03294961720006384,0.04325347914443167,34.27075459658479,17.56211432789952,2.3950286003883163,1.0270497935780407,0.8537434321143728,0.13803148920779884,0.6126709486110331,0.22103496188861885,0.05537895963946135,0.18778887641792003,-0.01832333279066478,0.167331172307862,-0.12560964330423757,0.15764317565828642,-0.20630990263152146,-0.2702365306740675,0.31433091988216505,4.090142842432097,2.6190106827781334,2.018384009062653,1.362840830205211,0.9494532638626286,0.7053724347286889,0.59166706247179,0.5509654768358211,0.4240226602166318,0.44196383657649685,0.16418494452889945,0.1755195896985844,0.26169813139997533,0.04802966599207553,0.09950082653001721
0.0,45.0,45.0,0.0,120.0,0.0,0.3318890794043885,-0.6352962732067069,0.5577210662099545,-107.02724398975334,0.0,-45.079979866927786,0.41016665862383167,-0.10884358643182934,0.9893372756608527,34.27075459658479,17.56211432789952,2.364658179624984,1.065220941349871,0.9532223491187364,0.5239841463418411,0.2911914930475162,0.18006860099714106,0.5016633490812232,0.12102185363631043,-0.1322766096298461,0.3611064417130537,0.07537237740239354,0.05991076372743449,-0.08677202793259577,-0.09618107386984777,-0.1077434512131995,4.024967938652944,2.7217787476012685,2.0272380749923857,1.355203066379726,0.8761353778739036,0.5997309880473015,0.5409760423851558,0.3638196040504001,0.4331292596121544,0.2648621816604714,0.30085117199961986,0.09204987272350604,0.32594521316933056,0.20159376104484475,0.04952722692745115
0.0,46.0,46.0,0.0,120.0,0.0,0.9314072262167954,-0.06598268648322603,0.8992816885263222,-106.87525511250833,0.0,-45.03684458113031,0.31720950633563844,-0.607839945263146,-0.1252469812500241,34.27075459658479,17.56211432789952,1.9213543148358787,1.0964391081599083,0.8570299847009399,0.5913223479846803,0.29929622961008434,0.20541977435681447,0.0568616008595248,-0.05293839567137604,-0.19037469378094846,0.6981827637920897,0.09263126378144282,0.3187656607938237,-0.13622112476734394,-0.06070938425253027,-0.006643386090497645,4.02947839813405,2.7045406724416017,2.001817272453388,1.4040055557033588,1.183846101307364,0.6712646693697046,0.5369578228702981,0.43760896320525805,0.47413402722161807,0.30630021336552893,0.08879587850337953,0.17003878411674384,0.2623927467476133,0.2506479917884717,0.3028573173627371
0.0,47.0,47.0,0.0,120.0,0.0,0.5402982253907438,0.5474180125625012,0.9083559980057885,-106.99848214411895,0.0,-44.946182379686704,0.034041097046589364,0.15667126467878423,-0.7154156367769349,34.27075459658479,17.56211432789952,2.411454707991569,1.3250889336852667,0.754797135755021,0.1503427188731905,0.1381193913131872,0.24294322871963014,0.22950322086433417,0.23117775243525407,-0.0332312872619224,-0.10199011246836523,0.32410160619839645,-0.10546294016672363,-0.30353893860964176,-0.09706360331821877,-0.08410966803617137,4.176926022187937,2.9309690763198692,2.076678497465672,1.5867091828318327,1.1652622106189732,0.40710030508155315,0.5728640054753017,0.47414244007932566,0.24114400807820768,0.3683359852982945,0.3047717915950411,0.15522126218582868,0.3596468731538083,0.08517042951888122,0.08701513154255966
0.0,48.0,48.0,0.0,120.0,0.0,0.8020542465667249,0.2841312879079483,0.009722133600650773,-107.06141806284941,0.0,-44.97660147235629,-0.5600172775839157,0.46442322087647114,0.18320528663925484,34.27075459658479,17.56211432789952,2.5902751720424573,1.0478056221297216,0.7423715528579513,0.6002424150968769,0.15386624402663063,0.20150460487565092,0.16648993679838903,0.010078675886728394,0.3076237981925233,0.11840683975987831,0.026011405486316815,-0.06010621461930672,-0.18732518327784337,0.08185388180289152,0.2270516813599331,4.140775104499046,2.7945354039675463,1.9904704833311757,1.5510512748743606,0.9817567180660398,0.687273883307904,0.42812423885620765,0.5312559311108951,0.39523858529735256,0.25402512276121963,0.27137853405347656,0.22232359220982406,0.14579065007325437,0.10156327374422411,0.17722238368968904
0.0,49.0,49.0,0.0,120.0,0.0,0.38780756330850585,-0.4782103132343225,0.9739558316853609,-107.05310669311481,0.0,-45.05044968731984,0.47530821855702093,-0.8807136159540407,-0.1627587494778875,34.27075459658479,17.56211432789952,2.4869481025026405,1.4186031762594873,0.8515804678811645,0.43004711395875317,0.5208988527752418,0.13000163638885837,0.22277029058906994,-0.025835884599399367,0.06477084032648192,0.25064241898705675,0.2934629101722943,0.312836455593881,-0.004939996579411535,0.30948237934538736,-0.1843941400272984,4.304466966922289,2.7176583670725787,2.148705497423274,1.5168213296364623,1.0245172041562398,0.5808978079410475,0.46733079877153044,0.33865180713107496,0.3789996787327611,0.11619257353757523,0.25170312735939243,0.2437099374119378,0.2597055764552869,0.18078182833977136,0.14504463163520906
0.0,50.0,50.0,0.0,120.0,0.0,-0.7105622332066552,-0.6903762490747882,-0.34836094578004295,-106.93913585620069,0.0,-44.91836750199741,-0.06339085879766956,-0.4477681330026224,-0.5851497494289544,34.27075459658479,17.56211432789952,2.347556667200424,0.9762452842353914,0.8662014160549141,0.620305534949511,0.30451716203621176,0.4708059306884685,-0.018164009459290226,0.058339130604620176,0.012506081643883879,0.1737115821191233,-0.23117109930080737,0.24902604850856677,0.12220757506807639,0.17823049280693376,0.20696473871523846,4.3830667786572235,2.869366668205278,2.129778559098173,1.6863893131299421,0.9168183117473955,0.7873265026710199,0.6357139625377496,0.46192683078440616,0.4032789445726208,0.32850388811038644,0.13286354283815668,0.20463863762611753,0.2067313085382643,0.17797116702881344,0.10204537590642015
0.0,51.0,51.0,0.0,120.0,0.0,-0.8153947264988708,-0.14122986648900704,-0.8865735766282539,-107.05702622388617,0.0,-45.055020853481636,0.4753838230892514,-0.5313422495793729,0.24469143852886033,34.27075459658479,17.56211432789952,2.0246327758949736,1.43729115118194,1.0381164676978252,0.5552833426111774,0.5384036809208075,0.04523792235829774,-0.09132680518097175,-0.29450608711273624,-0.1070491172768968,0.12223903642693928,0.1475075001811128,0.0408732953861886,0.28212059114273635,0.10024763742253374,-0.0032989470779949993,4.417557384105687,2.744436943291707,2.239079050758849,1.4705180612196358,1.1722667901474693,0.7904326007501542,0.32803243162427054,0.45599716201483637,0.2139454751710735,0.2218185983461775,0.3086582427607433,0.1499335526695934,0.3046886472192565,0.19501182993670862,0.2780789973426987
0.0,52.0,52.0,0.0,120.0,0.0,-0.07993663948544993,-0.21339343333399086,0.7369929104212716,-106.9043077496845,0.0,-45.00049447940542,0.022256448773080948,0.5861872757593596,0.27158533196121315,34.27075459658479,17.56211432789952,2.4035308295986693,1.143794098238614,0.6997009791649584,0.3912711382323395,0.42904113149797274,0.3218356069376176,0.36639694154851343,0.15190051375212463,-0.06125910095947955,0.22151866120747882,-0.005582306819502593,-0.15100791947444578,-0.08291013318652615,0.02264126936670258,-0.018457966040662042,4.391916840848067,2.7592109703580343,2.202637219876001,1.5079471379738392,0.9599529747025384,0.8026355441633046,0.5152842344106765,0.5083756257479084,0.2192577893696517,0.2093218484897652,0.18683611341294196,0.2872867006200366,0.18231792927617366,0.1689038168304807,0.08099015490554615
0.0,53.0,53.0,0.0,120.0,0.0,-0.1608424562992723,-0.2602633155730123,-0.48436404940206756,-106.92557561883947,0.0,-45.03521086573468,0.09397291026050378,0.5693330696153454,-0.31125905979560575,34.27075459658479,17.56211432789952,2.36268666711748,1.2922169881723284,0.4408358699119712,0.4828470335953782,0.459361834837844,0.23124016426023386,0.1594231655693472,0.4443225421430182,-0.1293517379758239,-0.18686151138736729,-0.007322094984156972,-0.19596962351705016,0.1813392974673298,-0.12735785484986287,0.09730470133936603,4.190026660351171,2.814430457915878,2.2844833736107746,1.514145957578372,1.0553074072537003,0.6774130478351886,0.4783640942526147,0.3804502551407939,0.3301594320447776,0.5374390140883109,0.11395888100252141,0.28036084274420725,0.2285320452862828,0.21420638422739183,0.11906477327854872
0.0,54.0,54.0,0.0,120.0,0.0,-0.3945532133900682,0.5922269026937073,-0.8730685026640694,-106.94488282608052,0.0,-44.97554980410315,-0.5121594326018496,0.303951536933907,-0.7779305055520598,34.27075459658479,17.56211432789952,2.5803698542640854,1.2686193730386566,0.7316092718034689,0.5500902047363234,0.8071508429426473,0.22464127862216618,-0.06645325917887666,0.08648769725539437,0.152224666682333,0.2687058226370565,-0.045532489162723504,0.30515214565585297,-0.06503226359388153,0.17392705655128318,0.0029471229060594566,4.490904092780905,2.9325448528980576,2.1037301533039616,1.4161787268099415,1.1209587252005728,0.7319860925122789,0.48132297605483354,0.4072920797567593,0.44005299317158153,0.2700724933740962,0.241343267786827,0.14664859628643923,0.060637870981960565,0.1484558477668779,0.22903948215581382
0.0,55.0,55.0,0.0,120.0,0.0,-0.7000548268693942,-0.28125267573084956,0.8438296872203366,-107.0157016746076,0.0,-45.01135148271648,0.8613504459692276,-0.9818150479358627,0.852875531311609,34.27075459658479,17.56211432789952,2.3869871505059295,1.0347922538043113,1.136878602222569,0.6672650706349639,0.3474643242840914,0.145802270523585,-0.05056749307729991,-0.0939273439887681,-0.08332072965944287,0.15492411741158835,0.10009369132084361,0.17232606849898657,0.1341809860475362,-0.027938636279647627,-0.038297341291825826,4.42258543651543,2.896340353325981,2.270291840339432,1.4544638645292733,1.1584466176660708,0.6707071275501872,0.4230451082633858,0.34448265176752463,0.09938306193864915,0.18729693701731193,0.1925178095179614,0.19368311735507282,0.06275044886023164,0.20694561608373463,0.08949181076226181
0.0,56.0,56.0,0.0,120.0,0.0,0.9252094817071084,-0.47869572531232785,-0.6925702924957424,-107.02500897420353,0.0,-45.00996984132907,-0.8872085166381489,0.7967555224536096,0.1908591708788534,34.27075459658479,17.56211432789952,2.4916528844088366,1.2700978295618415,0.8069103632822588,0.5729994539495583,0.31853499892441234,0.1022483296638234,0.09553638141684952,-0.12384365513762524,-0.10371515005673887,-0.23423010994727803,-0.053407031593271224,0.02620971425546851,-0.24085192259231203,0.018127633734788776,0.006947282003245573,4.463071934166533,2.8896698661649474,2.2074985544779318,1.450364204631038,1.0964524245303247,0.5784321969511611,0.3481211091003645,0.19026262042190445,0.16144051851040317,0.12989582405515018,0.2793474066693277,0.057219490539388684,0.18103385478145897,0.061288167801764465,0.297865377633757
0.0,57.0,57.0,0.0,120.0,0.0,-0.5367180651879155,0.9536209940626879,0.965863729945774,-107.10088781841904,0.0,-45.05201232923879,-0.3234770682678165,-0.4669867473389955,-0.6606067451764877,34.27075459658479,17.56211432789952,2.5096323606597624,1.6189336143059583,0.7769432983656788,0.4228416712446875,0.5974605060483864,0.16020668581502504,-0.09706115886220612,0.04079832928601147,-0.12628212119462487,-0.021081567620559738,-0.01893697601492684,-0.2825451536015139,-0.028374290536752042,0.021744974724323556,0.3503257553257864,4.551288159937081,2.9100830613402744,2.188241715623269,1.6008502157879023,1.205567374811066,0.7724390489557078,0.584579524376097,0.3710638284285537,0.21550674310300197,0.247666030472184,0.11555025781276079,0.35950826737744995,0.16855174018108757,0.292471027922356,0.19882860319057905
0.0,58.0,58.0,0.0,120.0,0.0,-0.003965950842457211,-0.08449760211847424,0.9413844613016409,-106.95523922314655,0.0,-44.98147176491666,0.026017532359551565,0.08089314588138663,-0.40462279937665135,34.27075459658479,17.56211432789952,2.580161757213767,1.7277932790905535,0.8900972177393672,0.48427471721017046,0.02735216194889928,0.028101225952740644,0.3322497758114743,0.26888392244323,-0.006996131360753818,0.11649277327005013,0.13264354269160078,0.3321949720059122,0.2312384873203196,0.050528622775784224,-0.08102879526729083,4.552864488280625,2.769110428756753,2.115859835513041,1.4635933343830736,1.0931023336787,0.654941958778214,0.40500456092591863,0.41854734373133423,0.3004632693441194,0.23669364295957718,0.209731675343193,0.3597977328547426,0.2614229372074747,0.08508791078381425,0.06938334369902341
0.0,59.0,59.0,0.0,120.0,0.0,0.6387543232064261,0.6779620793724224,0.2791433457281136,-106.99312706385959,0.0,-44.94231362654584,0.5752977211137335,-0.45906721835824316,0.9274381006364292,34.27075459658479,17.56211432789952,2.2373472929737734,1.1673238814215885,0.8129884540860421,0.21101540540136488,0.34981965115846136,0.1760360246827044,-0.12523478845468006,-0.06437514108502852,0.11182807918796453,0.21151993889656528,0.32626954347003334,-0.006483189145038745,-0.22270094112674788,-0.4235895548686042,-0.15368034349332627,4.4433547058196625,3.073427352333332,2.1399728069081947,1.6914812024596677,1.1539260491367225,0.6562471264198372,0.6325973318800104,0.42123607377435396,0.051757116650116536,0.3439173527203804,0.19256817489340314,0.14315479605571058,0.24723445033492408,0.03036705016247701,0.04535334459536153
0.0,60.0,60.0,0.0,120.0,0.0,0.6793957261486674,0.23845112120559464,-0.43647636385389466,-107.04804775539606,0.0,-44.90811536485356,0.06760759223163622,0.26521778772223836,0.12917477182295212,34.27075459658479,17.56211432789952,2.5964777333998743,1.4605990682800418,0.7979453602032764,0.7637237713957558,0.36470861228718493,-0.135096552728192,-0.04663383151984132,0.21893788076120935,0.3916119088627223,0.4634345599790879,-0.15330963445292975,0.13744522514166807,-0.16740498374420398,0.046148221289252195,-0.11048574738748124,4.5308719520560015,2.8709045265346296,2.2516073513554193,1.5726899238447323,1.1314123009199704,0.6997368571943988,0.4932410959561553,0.24624351924022433,0.28153413326485544,0.2458309718457543,0.14500115086544357,0.2252560960928541,0.2828464354168649,0.19540427093819648,0.1431928645179791
0.0,61.0,61.0,0.0,120.0,0.0,0.03403753052835534,0.011629433833462377,-0.6897737970434326,-106.99086964312625,0.0,-44.95789733816433,-0.6761908073741946,-0.8143474378984938,0.13025567393951265,34.27075459658479,17.56211432789952,2.272487964562637,1.4029405943743705,0.5149506566246556,0.2489626344406335,0.24158294061223679,0.21578975651938181,0.30592427501002895,-0.20913852409844624,0.22250406362739794,0.02616011798683341,0.03873765768319868,0.4047464693451242,0.19280451974278548,0.05326977328071813,-0.05582571871397787,4.502975655427428,2.9399655778957543,2.090746411647853,1.7395413397395627,1.0893069256518984,0.6975536806813278,0.3803728186305543,0.38002966044391995,0.16524544489825005,0.27465119706385904,0.06413940560575448,0.147388511587963,0.019566281252500428,0.12121553417208916,0.21302558079892442
0.0,62.0,62.0,0.0,120.0,0.0,0.01237935230905074,0.02287671420440196,-0.41620365473172094,-107.0787111545954,0.0,-44.96542170921647,0.260615318334496,-0.7801778989157333,0.024928520688131117,34.27075459658479,17.56211432789952,2.3115159816449244,1.1660301445859136,0.8015439545510481,0.39094378525526896,0.37798791650856156,0.1576590192312149,0.22903128254771493,0.03898330410130983,0.2603078923153491,0.05098474501699946,-0.13506720535921732,0.01965941379892836,-0.1456497890989676,-0.02684594699181159,0.1871350996851467,4.786536157417377,3.1434719176535504,2.2531575167002447,1.3635880095988284,1.253485803452467,0.641170043450351,0.46377251721870805,0.22555016563223818,0.20658892465608636,0.3309712965939792,0.19260425179011903,0.2293356811706737,0.19668716088912025,0.1331510085967977,0.08286167647330608
0.0,63.0,63.0,0.0,120.0,0.0,-0.7141794828012984,-0.9227202525398499,0.08926698758362206,-107.07235908914555,0.0,-45.00692170493318,-0.8260730649694088,-0.5344480491189869,0.6689199395474703,34.27075459658479,17.56211432789952,2.8562076752470333,1.120750583438084,0.9170075208707825,0.7134811040408074,0.3027917813738015,0.179278727340218,0.1290809203659657,0.27937665235023346,0.17060455333497157,0.13454753520257504,0.41328518747789067,0.10326335503432058,-0.3070998027631331,0.22126017048438024,0.10818955333477298,4.674818450524327,3.147991882567673,2.1880669273434243,1.6931825204097104,1.0660962088626476,0.6105914764815595,0.5719563812763713,0.40609754705823264,0.31119480307058517,0.33482751873683325,0.1623403995903573,0.11304079035031711,0.12652339214248023,0.09104026781508358,0.18277578887999824
0.0,64.0,64.0,0.0,120.0,0.0,0.5898094447330653,-0.32664810730644955,-0.5183422819281223,-107.05462186296833,0.0,-44.891915267726404,-0.14290032049081802,0.7044405960036593,0.9416772123435126,34.27075459658479,17.56211432789952,2.507308268198962,1.31052474496204,1.184148303823367,0.5598864124815037,0.3753776160885044,0.18037392166753458,0.036556315014348625,0.24958572788050054,-0.0428939203856607,-0.08831419290290637,-0.0020966610112548925,-0.29715715220638067,0.11115461751509256,0.16550122057144173,0.09460851159500151,4.611858569665047,2.9863281121012335,2.429259203150737,1.676305813887491,1.1620626181433027,0.7657834226682065,0.3510358939214585,0.21009861973348087,0.38720691532463847,0.2525190017880887,0.1813154737867383,0.173682510654994,0.2705780360693892,0.2041257718251206,0.09459437222317875
0.0,65.0,65.0,0.0,120.0,0.0,-0.8421945233000323,0.13382053780768466,0.6696882564409183,-107.0123894878669,0.0,-45.03221043147042,0.8504243670293234,0.047895888067294834,0.3284702871615066,34.27075459658479,17.56211432789952,2.4639808757975503,1.3573570079912425,0.9858547110143234,0.6982490456613913,0.41263660310169525,0.29410391251499,-0.08961462585152696,0.28009111916836676,-0.12479690831263791,0.16872695227581536,-0.13310568065084674,-0.14539702716263647,0.06453847469975933,-0.01867445513604601,0.23849284752305464,4.821351070504682,3.0491445029932556,2.3769594793288613,1.8522867624941266,1.14031019263195,0.7828833427793848,0.3783275611531096,0.1884521840097397,0.11331998194806892,0.12940942764008223,0.2036984047584383,0.22355045516121858,0.16912999290794,0.1366858858560464,0.09953882039358469
0.0,66.0,66.0,0.0,120.0,0.0,-0.2071887264896517,-0.8251162345016971,0.7874204004981065,-107.02546167279499,0.0,-45.04227425276483,-0.5587455013267256,0.020927437610707367,0.5802609911109513,34.27075459658479,17.56211432789952,2.689633375302708,1.2684134070939708,0.8729206891283877,0.47521940891106607,0.5225918773518348,0.0007978547762045318,-0.0993143716591053,0.31078055091983103,0.20274817443314833,0.12962563387711368,0.22696352390379554,-0.07053763156950604,-0.30313438763171197,0.23844897762734235,0.08011858541220525,4.907736592247736,3.30043271802078,2.4619208320314154,1.7530690510156117,1.1503358460075694,0.9083870977964132,0.49037767082773687,0.36070811435365924,0.4202484056574063,0.12988190503685787,0.06488935070954309,0.33168042977766576,0.16273727522348455,0.2485165321430564,0.09479492123234623
0.0,67.0,67.0,0.0,120.0,0.0,0.22090025148490522,-0.37717337300202436,0.30941952481611623,-107.08138232140091,0.0,-44.985365857738444,0.0387698353322267,-0.11193398559107037,0.8154933604490673,34.27075459658479,17.56211432789952,2.4723968843798576,1.8181859199912482,1.0024352826067846,1.004720324878099,0.4906832905088606,0.31046768427299076,-0.09148303229842521,-0.004976349697526493,-0.04672357958276554,0.2571621480020977,-0.04604325449829646,0.062355787421727225,0.11839670776956543,0.3702027932175161,0.10545582914751844,4.758678915474474,2.9427863076998224,2.290238964059617,1.81922966494311,1.2007527217830758,0.7827784281287193,0.4973453301154397,0.35341945980350103,0.12896924745040245,0.1658314763196918,0.15627569400698765,0.14464978412792506,0.16477980235132733,0.18093140458157705,0.14982954964389802
0.0,68.0,68.0,0.0,120.0,0.0,0.9319025722375216,0.7573832689708362,0.3583297948445694,-107.007100186958,0.0,-45.03158688110855,-0.43223593414062095,0.5616336237747195,-0.3908396046173277,34.27075459658479,17.56211432789952,2.8237423229126333,1.4100534938244442,0.739567828877702,0.8126939879424366,0.3825706072317481,0.009497859012762594,0.5751494131411278,0.23449670389802263,0.27753292260602286,-0.08303016495468309,0.20271864061353506,0.007130101646135079,-0.07599439289718751,-0.26662243581859935,-0.2345736107827447,4.820914089444739,3.1156948042147614,2.1969918947134164,1.7643813873311975,1.037213098475651,0.7883380138577022,0.4382812025831583,0.2861213990435102,0.10495666454573492,0.0970867712119101,0.19771539582235442,-0.019811939804204676,-0.0010614170846907633,0.041837715615675966,-0.11603061358763599
0.0,69.0,69.0,0.0,120.0,0.0,0.313325299801519,0.6265884355617652,0.04803186704590656,-107.09941903708724,0.0,-45.00928440825386,-0.7683159238884248,0.6542172469857781,0.5425256189664969,34.27075459658479,17.56211432789952,2.786005665346116,1.0748076377181737,1.0186485887716858,0.4945271417871594,0.33049123491674337,0.20329205051360394,0.24456689452312494,-0.031708886231436015,-0.18881983370047037,0.039070607257258146,0.07691477664346483,0.2908176235332032,0.2695982747088161,-0.24680998544982594,-0.15814645950532716,4.85169893190641,3.177990004261257,2.2693832392999376,1.7788863914092579,1.1274790431943376,0.4960753438390484,0.44889583285318413,0.18209762263197843,0.2902520570295447,0.15336866679845557,0.07747052280115495,0.15101879523883313,0.10127484121117637,0.1917207289131324,0.12863772709023646
0.0,70.0,70.0,0.0,120.0,0.0,-0.024064169401614377,0.7218252823575828,-0.5520370445501424,-107.0714298838222,0.0,-44.92475486050765,0.40666781866140395,-0.5343870891535287,0.45802864263152565,34.27075459658479,17.56211432789952,2.66612352761461,1.830625688917241,1.1198244096828276,0.6070345462803447,0.4446293633768707,0.2585870538642573,-0.02116306000911769,-0.2876487699437013,-0.2311332908360109,-0.09015087666880245,0.2174568474532054,0.07154745184971759,-0.022380186668867354,0.058512816936712134,-0.010494449284027487,5.031679175267762,3.302087515728929,2.3421313900035994,1.7817379270311966,1.0762874351158787,0.6801345958381921,0.6206879814155418,0.3662978102222538,0.29335201246600956,0.12946064364197463,0.17042723970695595,0.017759410325777103,0.19482617864245672,0.1622444315701948,0.028949325663307948
0.0,71.0,71.0,0.0,120.0,0.0,-0.3988641224140195,-0.4519570242121824,0.7746983495126669,-106.99241590248508,0.0,-44.97293615176588,0.8423614646789482,-0.18503883385146502,-0.658527838864831,34.27075459658479,17.56211432789952,2.8544176934802357,1.4315953196124795,0.8840019942447342,0.3771841692689275,0.28917350209886994,0.12894859567071576,0.026231150631802674,0.1678218411203808,0.17206543116306575,-0.042701476511197066,0.07229102388309559,-0.27027226838753304,-0.4125001584815056,0.1959203437129709,-0.1263508763187675,4.783485563706721,3.079163012565522,2.447236485667038,1.819679304925009,1.1581953485891794,0.8814765724895981,0.4425900038954775,0.2838344536207031,0.1398913833184252,0.21663229420776597,0.251379727128874,0.17264219476872258,0.17144938905512103,0.08447315764816801,-0.05883833219673358
0.0,72.0,72.0,0.0,120.0,0.0,-0.6405806881945861,0.6503496574953409,0.45722391999782186,-106.98067478226602,0.0,-44.89579380510894,-0.43858490846954706,0.8637535019513287,0.9547343273789006,34.27075459658479,17.56211432789952,2.8350591619416257,1.4979528209033013,0.878806938257293,0.6874286053139578,0.4464323982820342,0.07810155219423717,0.10123063167928115,0.09313135551147438,0.3263626660648075,-0.09451610190981238,0.10676601826727403,0.19130627677236162,-0.23146069150596882,0.19394278511254592,-0.017118371804620967,4.933367144029978,3.1867462447835297,2.3746968130776454,1.794755361635432,1.250843132866405,0.6383768768266183,0.350249515256582,0.2982893599643276,0.17522777746918383,0.3589903940273258,0.1593051566832306,0.09292623508877768,0.07631877168604767,0.07938503651064462,0.25615174926300127
