Line_number,Fiducial,Easting,Northing,Height,Elevation,tx_pitch,tx_roll,tx_yaw,txrx_dx,txrx_dy,txrx_dz,rx_pitch,rx_roll,rx_yaw,PX,PZ,S0X_time_1.086e-05,S0X_time_3.256e-05,S0X_time_5.426e-05,S0X_time_8.680e-05,S0X_time_1.411e-04,S0X_time_2.279e-04,S0X_time_3.689e-04,S0X_time_5.860e-04,S0X_time_9.115e-04,S0X_time_1.411e-03,S0X_time_2.192e-03,S0X_time_3.418e-03,S0X_time_5.339e-03,S0X_time_8.301e-03,S0X_time_1.338e-02,S0Z_time_1.086e-05,S0Z_time_3.256e-05,S0Z_time_5.426e-05,S0Z_time_8.680e-05,S0Z_time_1.411e-04,S0Z_time_2.279e-04,S0Z_time_3.689e-04,S0Z_time_5.860e-04,S0Z_time_9.115e-04,S0Z_time_1.411e-03,S0Z_time_2.192e-03,S0Z_time_3.418e-03,S0Z_time_5.339e-03,S0Z_time_8.301e-03,S0Z_time_1.338e-02
0.0,0.0,0.0,0.0,120.0,0.0,2.9244612703106085,19.389624089131715,4.845293128079096,-107.0,0.0,-45.0,4.434193539580239,-8.417606017347389,2.569842665436731,34.2040194976165,17.630926776418704,5.873958788867949,3.3576526627572907,2.2748362860227362,1.475868788454026,0.8788227570094933,0.502727657848402,0.2755478976925193,0.14779951881413625,0.07859099903339407,0.04053998855593745,0.020027539803282573,0.009476508445141509,0.004304465356725825,0.0018762601908403926,0.0006520709529957176,8.123824370576845,5.792030172035747,4.516633954650153,3.387624693853781,2.3760012755345743,1.6037398797220292,1.0420208931370352,0.6627415360937035,0.4167059985111711,0.25489508911015857,0.1501601928045072,0.08511343716411268,0.04648570968272212,0.024610713044191188,0.011894359855687448
0.0,1.0,1.0,0.0,120.0,0.0,0.288323867872073,-22.228827309415998,2.5860978366750835,-107.0,0.0,-45.0,0.6047703490455438,-1.8645392713204227,4.595090253582178,34.2040194976165,17.630926776418704,5.873504511398779,3.347784305098735,2.254541835010428,1.4502440618508876,0.8553432188717194,0.48625526110407047,0.26608994800442853,0.14298606621821494,0.07628378102872732,0.039498967658044906,0.019587169033546823,0.009300664835800778,0.004237731162487164,0.0018520368851840778,0.0006448757111791017,8.123498339465224,5.781537277277811,4.490877610817404,3.348718810894953,2.3327336637867213,1.5667820825437866,1.0161157424329328,0.6467245363134825,0.4074532840812078,0.24986620284962188,0.1475890714953577,0.08386945315218158,0.04591266174982282,0.02435704162565056,0.01179442801046324
0.0,2.0,2.0,0.0,120.0,0.0,1.8234247877253313,16.07570992743524,-2.620629947668796,-107.0,0.0,-45.0,-2.075789012362066,6.459106936252319,1.520064994786888,34.2040194976165,17.630926776418704,5.873047833290897,3.338433832189133,2.235515565009585,1.4261788566083697,0.8331533938647394,0.47059000947420426,0.25705173126532305,0.13836709044689163,0.07406029904272939,0.03849114561263737,0.019158872239306513,0.009128899077113044,0.004172293044091711,0.0018282018539952966,0.0006377516040688498,8.123168680004921,5.7715071779357645,4.466468087666349,3.311762940648628,2.2913739325466,1.531239838142064,0.9910967786749662,0.6312077836522961,0.398463091562353,0.24496429661400027,0.14507442183942063,0.08264879547528221,0.045348668806098544,0.02410671153205012,0.011695529195443961
0.0,3.0,3.0,0.0,120.0,0.0,4.964338504322008,18.231220697887572,-4.86812931849482,-107.0,0.0,-45.0,-2.7374946256359713,-9.45035693865947,-3.1635015747536457,34.2040194976165,17.630926776418704,5.872582101671427,3.3294882474143304,2.2175784049566705,1.4035153864704213,0.8121580976459802,0.4556835156909301,0.2484103371065582,0.1339326869244712,0.07191666897782377,0.03751515743721834,0.018742220003594958,0.008961087660599788,0.0041081175996240575,0.0018047469408653807,0.0006306991310923095,8.122830222357384,5.761836817591252,4.44321997665079,3.2765743043537174,2.251801908246849,1.4970466713141535,0.9669268847266256,0.616171328408042,0.3897257009197019,0.24018514672676203,0.14261460343417032,0.08145088497520174,0.04479354114400054,0.023859664774342565,0.01159765128672036
0.0,4.0,4.0,0.0,120.0,0.0,2.7659575933023213,-21.669968337235357,11.4560007403146,-107.0,0.0,-45.0,-3.061006067681088,3.460054257379584,2.4900786917279083,34.2040194976165,17.630926776418704,5.872101738268609,3.3208541631991784,2.200575009892414,1.3821101654226557,0.7922679015743915,0.4414902285250849,0.24014439018908135,0.12967361631049332,0.069849248321559,0.03656971399871036,0.018336803669445786,0.008797112244623751,0.0040451726639384325,0.0017816642304734887,0.000623718648427163,8.122478581985712,5.75244058213782,4.42097151147804,3.24298465586764,2.213901930123387,1.4641381264513116,0.9435706786036241,0.6015962815099271,0.3812318882567106,0.23552472516995074,0.14020804247509375,0.08027516267232437,0.04424709466832602,0.02361584478113121,0.011500782289480573
0.0,5.0,5.0,0.0,120.0,0.0,2.5486855083533317,9.68396458467457,-5.136945095673266,-107.0,0.0,-45.0,-3.037577747106651,6.751275896210505,4.042054447665006,34.2040194976165,17.630926776418704,5.871601894661909,3.31245369260507,2.1843705325448854,1.3618331982503606,0.7733990998473326,0.42796725335184344,0.2322339038202606,0.12558124369406068,0.06785461596941784,0.03565359635960975,0.017942233984438363,0.008636859351152045,0.003983427239856513,0.0017589460385145058,0.0006168103899438503,8.122109897044172,5.743246541062267,4.3995813002571245,3.2108397687322596,2.1775633975030924,1.4324518393971513,0.9209943819258052,0.5874647317753228,0.3729728902964827,0.23097918696821923,0.13785322799417568,0.07912108877748233,0.04370915066138368,0.0233751963492681,0.01140491033481117
0.0,6.0,6.0,0.0,120.0,0.0,-7.155966607710306,9.2404669538491,-3.0275289680652495,-107.0,0.0,-45.0,-4.914714403660534,7.118819890235759,-1.160633350862963,34.2040194976165,17.630926776418704,5.8710782195643585,3.304221293096079,2.168847760535395,1.3425670313962048,0.7554736025612522,0.4150741996852167,0.22466015370309245,0.12164748480419578,0.06592955416386204,0.03476565065257695,0.017558139858235133,0.008480220086556118,0.003922851434827653,0.0017365849021772893,0.0006099744838827043,8.121720653014467,5.734193589754333,4.378925453298654,3.1799986809948035,2.1426811204642617,1.401927607165393,0.8991657081914222,0.5737596715997676,0.36494037212812297,0.22654485861713466,0.1355487083738968,0.07798814176827402,0.043179535561441135,0.023137665596820855,0.011310023677139059
0.0,7.0,7.0,0.0,120.0,0.0,9.206269912613624,3.7228166401772853,-12.955132009917815,-107.0,0.0,-45.0,-4.432852676954648,-8.60582272630943,-1.0735772032190685,34.2040194976165,17.630926776418704,5.870526696389376,3.2961013276456628,2.1539046225492635,1.3242057455238152,0.7384187679660278,0.40277304742956455,0.21740556871946562,0.11786475831791135,0.064071032290154,0.03390478342560001,0.017184167221757467,0.008327089884163882,0.0038634164025743993,0.0017145735711425931,0.0006032109663091271,8.121307561733369,5.725229262502052,4.358895098999244,3.150332808933749,2.109155507141233,1.3725074476633512,0.8780537678192997,0.5604649301895921,0.3571263978675905,0.2222182274530301,0.13329308811184837,0.07687581752439818,0.042658080753394445,0.022903199918223933,0.011216110692429717
0.0,8.0,8.0,0.0,120.0,0.0,0.24267716489918278,-13.163519408798141,7.756256505480518,-107.0,0.0,-45.0,-3.8320641133102304,5.408850204761276,-3.6460195344623694,34.2040194976165,17.630926776418704,5.86994352616305,3.288046166989096,2.1394520397618524,1.306653945054153,0.7221671881967152,0.3910280259195639,0.21045363606290757,0.11422594348145497,0.0622761923053014,0.03306995740699863,0.01681997797793786,0.008177368266454986,0.0038050942892461784,0.0016929049990604922,0.0005965197921359828,8.1208674751565,5.716308045929549,4.3393942560490295,3.121725006284748,2.076892620041127,1.34413564468701,0.8576289871263151,0.5475651135412023,0.3495234039250587,0.21799593187340982,0.13108502481381745,0.07578362851711899,0.04214462237071748,0.02267174794146597,0.011123159877115246
0.0,9.0,9.0,0.0,120.0,0.0,-3.9076519990742264,18.330493460384304,-8.414580402349817,-107.0,0.0,-45.0,-0.6336246303814397,9.883649715481695,4.772217530488929,34.2040194976165,17.630926776418704,5.8693250404568555,3.280014701811165,2.1254120870641726,1.289825780321056,0.7066564420088037,0.3798055016625317,0.20378881841611757,0.11072434237093304,0.06054233560680639,0.03226018764570546,0.016465249035143775,0.008030958625000598,0.0037478581836466146,0.0016715723354817024,0.0005899008443029506,8.120397321780827,5.707390067657021,4.32033802086681,3.0940686198617855,2.045804130672964,1.3167587758791761,0.8378630386978043,0.5350455504506454,0.3421241746077048,0.2138747523270852,0.12892322639560166,0.07471110304849503,0.0416390011078651,0.022443259487191516,0.011031159847638722
0.0,10.0,10.0,0.0,120.0,0.0,-2.9981477955998663,-12.016563560789727,4.715013970136738,-107.0,0.0,-45.0,0.8641649053183373,-7.849222638640445,-1.5065410334865783,34.2040194976165,17.630926776418704,5.8686676346756945,3.2719711672923477,2.1117164253875633,1.2736440238383864,0.6918288263906801,0.36907387209566894,0.19739648121386774,0.10735364621087488,0.058866911173703323,0.03147453798760344,0.016119671415370653,0.007887768016433405,0.0036916820711270157,0.0016505689182093285,0.0005833539415539629,8.119894058131669,5.6984400680586385,4.301651027786129,3.067266573961805,2.015807197783197,1.2903257231128287,0.8187287809331675,0.5228922439057492,0.33492181981887315,0.2098516030020804,0.12680644847588288,0.07365778453646121,0.041141062042383846,0.022217685529594654,0.010940099340496494
0.0,11.0,11.0,0.0,120.0,0.0,-7.080644201004221,-3.759803681557184,13.353778697405957,-107.0,0.0,-45.0,0.8143483610787818,7.524031351161302,-1.1112437593758475,34.2040194976165,17.630926776418704,5.8679677154558725,3.2638842072823455,2.0983049676149363,1.258039212286769,0.6776310769400373,0.35880346369140276,0.19126282834110359,0.1041079052470658,0.05724750483434715,0.0307121178533236,0.01578294943018061,0.007747706972928171,0.0036365407907809483,0.0016298882660493433,0.0005768788451311638,8.119354630442604,5.689426587121568,4.28326614207152,3.0412305029518323,1.9868242902989268,1.264787665973279,0.8002002048804409,0.5110918272738937,0.32790975464232064,0.20592352414703,0.12473349194431077,0.07262323084226509,0.040650654466079975,0.02199497815901669,0.010849967212646711
0.0,12.0,12.0,0.0,120.0,0.0,-0.33139246791860444,24.502921491483697,5.7806146884530385,-107.0,0.0,-45.0,-1.4773072401712861,-7.621252183484906,0.6736031827900968,34.2040194976165,17.630926776418704,5.867221658043397,3.255726123643897,2.0851247438361553,1.2429488591323916,0.6640140848993157,0.3489664334599854,0.18537484488870146,0.1009815017360472,0.055681829534238315,0.029972079286942854,0.01545479991812487,0.007610689325824317,0.0035824099956047488,0.0016095240719277894,0.0005704752646176993,8.1187759433474,5.680321315960644,4.265123350083417,3.0158799425296667,1.958782972121364,1.2400980597772069,0.7822523867918021,0.49963152475372735,0.32108168062444303,0.20208767496856242,0.12270320069052096,0.0716070136370891,0.040167631724638726,0.021775090546139915,0.010760752442165074
0.0,13.0,13.0,0.0,120.0,0.0,8.65613656371287,-24.288246807469655,-1.1950288594951992,-107.0,0.0,-45.0,-2.5489610525970896,-9.569418289174314,-4.399707116673545,34.2040194976165,17.630926776418704,5.866425770860544,3.247472269752713,2.0721289357471893,1.228316738403027,0.6509326169238099,0.33953667337977206,0.17972024582578805,0.09796912567030462,0.054167716493279706,0.029253614248517287,0.01513495153807817,0.007476632041189455,0.003529266115335552,0.001589470196356303,0.0005641428631094533,8.11815483347309,5.671098575329414,4.247168815619487,2.991141584183773,1.9316156623916243,1.2162125999930704,0.7648614451236677,0.4884991156100656,0.3144315685883304,0.19834132705309196,0.12071445948120912,0.07060871780501182,0.039691851065172035,0.021557976907704595,0.010672444129059738
0.0,14.0,14.0,0.0,120.0,0.0,6.247050160319727,-16.225595960161073,-7.087280038303842,-107.0,0.0,-45.0,-3.586624942484211,4.189713027823183,-0.24824164263330495,34.2040194976165,17.630926776418704,5.865576265331592,3.2391005570586673,2.05927605411015,1.2140922373897298,0.6383450420818004,0.3304897175924314,0.17428742964975133,0.09506575290704801,0.052703107155711956,0.028555952126456004,0.014823144113498462,0.007345455066248947,0.003477086321702207,0.0015697206612206361,0.0005578812618405757,8.117488046511012,5.6617348928194415,4.229354076024567,2.966948593492359,1.9052593818413086,1.1930891751096295,0.7480045009633267,0.47768290175878547,0.3079536428317969,0.19468185826667322,0.11876619197362646,0.06962794087972414,0.039223173491204424,0.02134359247366341,0.010585031496154486
0.0,15.0,15.0,0.0,120.0,0.0,6.245121685252936,13.960674979016062,0.4606285405233983,-107.0,0.0,-45.0,4.553689538365944,-3.437419598638738,2.67888988763713,34.2040194976165,17.630926776418704,5.864669229605833,3.230591050967268,2.0465292370404793,1.2002297744140633,0.6262130692777429,0.3218026523819693,0.16906543624557469,0.09226662541092419,0.051286045847871546,0.02787835744840921,0.014519128023157619,0.007217081185732957,0.0034258484958625494,0.0015502696438758879,0.0005516900443655268,8.11677221678978,5.652208657314068,4.211635355799722,2.943239990463259,1.8796554933376362,1.1706878100136378,0.7316596410860343,0.4671716783129199,0.3016423665774229,0.19110674709120096,0.11685735885492661,0.06866429251264723,0.03876146362465527,0.021131893455702048,0.010498503889984787
0.0,16.0,16.0,0.0,120.0,0.0,3.078729246849072,-12.791259944883643,0.2456978669203913,-107.0,0.0,-45.0,3.6105920811593233,2.000548441103726,3.6622214282997927,34.2040194976165,17.630926776418704,5.863700605196256,3.2219256377854166,2.0338556503227876,1.1866882769369382,0.6145014972347732,0.31345402905127334,0.16404390832829743,0.08956723335795294,0.049914673069197675,0.027220127771702882,0.0142226636343386,0.0070914358872969105,0.003375531197824528,0.0015311114715236328,0.0005455687603675604,8.116003848669084,5.642499834349968,4.19397297905555,2.91996008866924,1.8547494426957791,1.1489706018433232,0.7158058830327867,0.4569547067426651,0.29549242855659197,0.18761356735938794,0.11498695609776204,0.06771739397030506,0.03830658957440974,0.020922837017054413,0.010412850781645461
0.0,17.0,17.0,0.0,120.0,0.0,8.460824339468513,-5.732383243369082,2.9847567518260085,-107.0,0.0,-45.0,-0.06436709502824023,-4.838694605798295,2.9916535238259474,34.2040194976165,17.630926776418704,5.8626661658114285,3.213087748592785,2.0212259739387637,1.1734307149278527,0.6031779783431573,0.30542377984678315,0.15921305595962132,0.08696329888032177,0.04858721935080589,0.026580591736403043,0.013933520774923575,0.006968447235267851,0.0033261136376804834,0.0015122406158640477,0.00053951692915841,8.115179299268453,5.632589729829037,4.17633086523999,2.8970579891544186,1.83049050419984,1.127901650124537,0.7004231417519107,0.4470216903405527,0.28949873062172954,0.184199983354563,0.11315401332340973,0.06678687765899521,0.03785842281111167,0.02071638124355544,0.010328061767562156
0.0,18.0,18.0,0.0,120.0,0.0,-8.434699922483846,-23.57198052732825,2.0915481446505666,-107.0,0.0,-45.0,-1.9978491576203403,8.016226133024826,-2.2952139976933728,34.2040194976165,17.630926776418704,5.861561497838657,3.2040621290131357,2.0086139615351657,1.160423684382509,0.5922127970438905,0.2976931370820243,0.15456362372548765,0.08445076125985937,0.04730199962361982,0.025959107265911274,0.013651478241122015,0.006848045752041241,0.003277575648490141,0.0014936516879948208,0.0005335340429028437,8.114294762176653,5.622460792367673,4.158676095167312,2.87448712475095,1.8068315339866954,1.107446982803093,0.6854921974707314,0.4373627517185631,0.2836563762917035,0.18086374524465793,0.11135759226441357,0.06587238667494244,0.03741683804781337,0.0205124851158568,0.010244126570143982
0.0,19.0,19.0,0.0,120.0,0.0,7.621542318142858,1.2304601931344976,-5.016595026370354,-107.0,0.0,-45.0,-4.795096421802781,-2.9447534080262727,4.65032782434802,34.2040194976165,17.630926776418704,5.860381982064138,3.1948346462296966,1.9959960617073342,1.147637036047974,0.5815786629376791,0.2902445555890901,0.15008686023907913,0.08202576340274455,0.04605740804478813,0.02535505990159741,0.013376323337945131,0.006730164306538508,0.00322989766068925,0.0014753394335519298,0.0005276195696092024,8.113346251876418,5.612096446721011,4.140978536540146,2.852204850393621,1.7837287334435852,1.087574479581073,0.6709946645607004,0.4279684120965435,0.27796066014491505,0.17760268482264321,0.1095967853194816,0.06497357437828799,0.036981713126184174,0.02031110848276382,0.010161035038302258
0.0,20.0,20.0,0.0,120.0,0.0,-8.882155713678763,24.052199683683178,3.183204179839077,-107.0,0.0,-45.0,-0.21399730822241647,-8.245586856033293,-4.226864531232889,34.2040194976165,17.630926776418704,5.859122776239204,3.185392126325344,1.9833510917003432,1.1350435446690863,0.5712505185127226,0.2830616386172178,0.14577448967549833,0.07968463945618616,0.04485191323566356,0.024767861259454193,0.013107851449812812,0.006614738009168405,0.0031830606778979246,0.0014572987280702659,0.0005217729554765343,8.112329599342756,5.601480982258316,4.123210562553706,2.830172117994656,1.7611414255015303,1.0682537627433935,0.6569129768078029,0.41882956677824745,0.27240705945206434,0.1744147112398421,0.1078707142356213,0.06409010398488507,0.03655292890730785,0.02011221203669227,0.010078777466432487
0.0,21.0,21.0,0.0,120.0,0.0,7.249568522052392,24.335702294838548,3.83553262272126,-107.0,0.0,-45.0,2.786649206278926,-8.341681247523516,-3.694652948215218,34.2040194976165,17.630926776418704,5.857778798438119,3.1757222168720833,1.9706599561496398,1.1226186148306192,0.5612053609985441,0.27612906696745043,0.14161868526629068,0.07742390338857708,0.04368405390402414,0.024196947595671033,0.01284586563916714,0.006501704112807213,0.003137046254022274,0.0014395245725708455,0.0005159936297264995,8.111240421228805,5.590599386292396,4.105346705496469,2.8083530801920356,1.7390318390165849,1.0494561662627768,0.6432303339149953,0.40993747570228045,0.26699122278084775,0.17129780773085798,0.10617852876357133,0.06322164819048144,0.03613036916905256,0.019915757287433795,0.009997344105200394
0.0,22.0,22.0,0.0,120.0,0.0,-0.15607656446739426,12.763063292249477,-2.82337152983326,-107.0,0.0,-45.0,1.4578458805263237,-7.214744060056506,-1.462671890471002,34.2040194976165,17.630926776418704,5.856344711062039,3.1658132699945503,1.9579054034703598,1.1103400184351704,0.5514220774438505,0.26943253214067836,0.137612044238156,0.0752402385403888,0.04255243477963307,0.023641778479112082,0.012590176269603239,0.0063910019195681225,0.003091836471535829,0.001422012089325352,0.0005102810051554366,8.110074090103737,5.579437197935684,4.087363352841916,2.7867147343498644,1.717364906592597,1.0311547006323054,0.62993065088068,0.40128375445612535,0.2617089594564302,0.16825002853167545,0.10451940539403104,0.062367888813573955,0.03571392050809285,0.019721706537026023,0.0099167247173115
0.0,23.0,23.0,0.0,120.0,0.0,1.2707783434076028,12.885116876221481,12.565757001145961,-107.0,0.0,-45.0,-0.5992455306612667,-4.327476537494153,0.18983679149631882,34.2040194976165,17.630926776418704,5.8548149045754005,3.1556542421841614,1.945071814713822,1.0981876612646202,0.541881293273013,0.2629586727307936,0.133747564272181,0.07313048796144325,0.041455722864352784,0.023101835552725897,0.012340600653564007,0.006282572692544464,0.003047413920924703,0.0014047565178172783,0.0005046344790019486,8.108825756257486,5.567980519276987,4.069238678841792,2.7652268020219335,1.6961080817635061,1.0133238703205993,0.6169985825889722,0.39286034056547464,0.2565562366336668,0.1652694946377446,0.1028925463614801,0.061528516435268354,0.03530347224327065,0.019530022860649397,0.009836909658960703
0.0,24.0,24.0,0.0,120.0,0.0,9.950873432027723,9.137349618142132,-12.704336087071773,-107.0,0.0,-45.0,-0.0928860559458009,1.1918558479737342,1.0877635019673138,34.2040194976165,17.630926776418704,5.853183481779621,3.1452346088749956,1.9321450207804993,1.0861433753562044,0.5325652326947021,0.25669501410110745,0.1300186214593256,0.07109164542363827,0.0403926439668077,0.0225766213788894,0.012096962721749097,0.00617635957248493,0.0030037616811554053,0.0013877532108913478,0.000499053436322695,8.107490317836461,5.5562158928419905,4.050952396081698,2.7438614274626842,1.675231161104865,0.9959396435503078,0.6044194733553853,0.38465948696174024,0.251529169760658,0.16235439116618564,0.1012971785092022,0.06070323007824848,0.0348989163262763,0.019340670083210373,0.009757889412994476
0.0,25.0,25.0,0.0,120.0,0.0,8.23111564046619,-18.258393955591025,-7.950745404474649,-107.0,0.0,-45.0,1.7379096219448122,7.529265758024572,-4.593585231401752,34.2040194976165,17.630926776418704,5.851444242080962,3.1345442908983636,1.9191121434409684,1.0741907339397057,0.5234575904706379,0.25062991155159836,0.1264189494546104,0.06912084709876691,0.039361979482097034,0.022065658363425302,0.011859092712553844,0.006072307498998305,0.0029608633011145072,0.0013709976310605702,0.0004935372519516512,8.10606240643266,5.54413023235363,4.032485592562272,2.7225929633800963,1.6547061206320905,0.9789793786082505,0.5921793299055139,0.376673748422083,0.24662401567942321,0.15950296448145485,0.09973255227497671,0.05989173689530902,0.03450014725537431,0.019153612758313034,0.009679654588484436
0.0,26.0,26.0,0.0,120.0,0.0,-6.004332204978109,-0.8041037910543096,-7.645459093180999,-107.0,0.0,-45.0,-1.9128775619142036,5.8107971555172515,2.2699439692544114,34.2040194976165,17.630926776418704,5.849590665722758,3.1235735910749143,1.9059614570091776,1.0623148865542817,0.5145434142448719,0.24475249676793767,0.12294261979987081,0.06721536381633515,0.03836256339935766,0.02156848775084092,0.011626826880198645,0.005970363135990441,0.0029187027819742154,0.0013544853469811798,0.00048808529232127203,8.104536372548207,5.531710761550452,4.0138205887792076,2.7013977785881402,1.6345069636924972,0.9624217524609611,0.5802647949930229,0.36889596878999703,0.24183716616926612,0.15671351949325088,0.0981979407322206,0.05909375187310378,0.03410706199291356,0.018968816148026108,0.009602195920144002
0.0,27.0,27.0,0.0,120.0,0.0,1.7852316483711732,3.006529506694733,2.0835704476356263,-107.0,0.0,-45.0,-2.5875914144943524,6.719728541688422,1.1052641180732161,34.2040194976165,17.630926776418704,5.847615897907227,3.112313139408665,1.8926822678442123,1.0505024120851363,0.5058089966600612,0.2390526274429859,0.11958402333559943,0.0653725938454405,0.03739327951680284,0.02108466868497192,0.011400007220179302,0.005870474801049835,0.00287726456041083,0.0013382120300729004,0.00048269691714064784,8.102906270875723,5.518944959820483,3.9949408121127683,2.680254085273348,1.614609579794552,0.946246691904191,0.5686631216734747,0.3613192688986757,0.23716514189508703,0.1539844171137005,0.0966926386828367,0.058308997550198256,0.03371955988640587,0.018786246203400067,0.00952550426759259
0.0,28.0,28.0,0.0,120.0,0.0,2.2657636992047365,4.25931018161765,10.456753313072365,-107.0,0.0,-45.0,2.6608554545841825,-6.625503946713776,1.7530180104591118,34.2040194976165,17.630926776418704,5.845512732744591,3.100753845618097,1.8792648092811242,1.0387411877160004,0.4972417765129768,0.23352083994875317,0.11633785263211434,0.06359005615172539,0.03645305884598082,0.020613777329783197,0.011178481210791525,0.005772592398533541,0.002836533492636404,0.001322173451283274,0.0004773714809438055,8.101165845341496,5.505820513636678,3.9758306862415616,2.659141783833307,1.5949916137770217,0.9304353074024877,0.5573621482520802,0.353937035130183,0.23260458672653875,0.1513140718620038,0.09521596179831948,0.05753720374857804,0.033337542592995664,0.01860586954570203,0.009449570614482672
0.0,29.0,29.0,0.0,120.0,0.0,-2.1961198408860216,-3.5644914564043404,-3.8308342413514644,-107.0,0.0,-45.0,3.94455804082223,-8.543693335869499,0.44906637556699636,34.2040194976165,17.630926776418704,5.843273596977236,3.0888868579583586,1.8657001499479433,1.0270202720223132,0.4888302482354644,0.22814830492788787,0.1131990853779559,0.061865384086403366,0.035540877188864124,0.020155406045558776,0.010962101569590639,0.005676667356119141,0.002796494839192916,0.0013063654779898592,0.00047210833451032206,8.099308513863933,5.49232527296256,3.9564755336345887,2.6380423234648998,1.5756323447025258,0.9149698297150378,0.5463502739227956,0.34674290855258877,0.2281522623971816,0.14870094960570765,0.09376724580594469,0.056778107317826315,0.032960914007143044,0.018427653448339697,0.00937438606750147
0.0,30.0,30.0,0.0,120.0,0.0,-4.892887185760541,14.323314670534678,-10.061439969135364,-107.0,0.0,-45.0,-3.4211089966222286,-2.7063349785724373,4.071721165978143,34.2040194976165,17.630926776418704,5.840890533434854,3.076703527466133,1.8519801137264116,1.0153298006340177,0.4805638790260806,0.22292678566800525,0.11016296866962073,0.06019631946953474,0.034655752873057576,0.019709162616150033,0.010750726023730194,0.005582652564606179,0.0027571342504637457,0.0012907840710291692,0.0004669068261638062,8.097327352783974,5.478447211942334,3.9368614894614535,2.6169385768782636,1.5565125738585617,0.8998335493549648,0.535616435114212,0.33973077458521556,0.22380504347577077,0.1461435654287082,0.09234584571708715,0.05603145189123446,0.032589580191351476,0.0182515658194391,0.00929994185525984
0.0,31.0,31.0,0.0,120.0,0.0,7.989534083213687,-8.229096343278915,14.230459914172123,-107.0,0.0,-45.0,3.894533160205471,0.8313254151997267,2.272379224508385,34.2040194976165,17.630926776418704,5.838355184183099,3.0641953769039683,1.8380972098676325,1.003660893077968,0.47243303299930195,0.21784859911911253,0.10722500415170105,0.058580707034173264,0.033796744631895165,0.019274669523356255,0.010544217093217843,0.005490502320769652,0.002718437752866228,0.001275425281848704,0.0004617663029559433,8.095215080927753,5.4641743933074105,3.9169754255024682,2.5958147276897687,1.5376145212595214,0.8850107588896291,0.5251500825547655,0.3328947531487882,0.2195599126244875,0.14364048161692122,0.09095113509494573,0.055296987653157444,0.032223449309782895,0.018077575185046466,0.009226229327079996
0.0,32.0,32.0,0.0,120.0,0.0,-0.400584274589308,17.15994066485044,-14.703966958389078,-107.0,0.0,-45.0,2.1534016780306544,9.556236459363689,2.318049132556002,34.2040194976165,17.630926776418704,5.835658773333438,3.0513540737998954,1.824044571988437,0.9920055695702561,0.4644289017619109,0.21290657941359245,0.10438093396059825,0.057016489201877914,0.03296294961751428,0.018851563264855285,0.010342441886201514,0.005400172273077785,0.0026803917356827316,0.0012602852497748634,0.00045668611174040256,8.09296404326429,5.449494936025779,3.8968048828452257,2.5746561692056167,1.5189217300619513,0.8704866980578951,0.5149411590664147,0.3262291892631446,0.21541395612133635,0.1411903057532903,0.08958250535915965,0.054574471116967824,0.031862431564612305,0.01790565067292734,0.009153239951698595
0.0,33.0,33.0,0.0,120.0,0.0,-8.84678653835675,-24.541784873195873,13.728347395235538,-107.0,0.0,-45.0,4.687383626381154,8.302461927145416,1.0034909188595904,34.2040194976165,17.630926776418704,5.832792089486059,3.038171407076699,1.8098159048562947,0.980356676670428,0.45654344086859694,0.2080940437491731,0.10162672742836334,0.05550170116338295,0.032153501536171206,0.0184394937124257,0.010145271905462007,0.005311619370098306,0.0026429829384963218,0.0012453601993877423,0.00045166560014055327,8.090566194122738,5.434396985798097,3.876338012328697,2.5534494134484897,1.5004189783297555,0.8562475016553713,0.504980078092279,0.31972864405993767,0.21136435962610375,0.1387916889145157,0.0882393651249665,0.05386366491301168,0.03150643913497983,0.017735761996935946,0.009080965315890642
0.0,34.0,34.0,0.0,120.0,0.0,6.619952463102138,-2.462000926014589,7.93486239803347,-107.0,0.0,-45.0,-0.3168449412855301,2.9207672243993894,-0.6410859667347566,34.2040194976165,17.630926776418704,5.8297454677806915,3.024639266847079,1.7954054380252218,0.9687078208345139,0.44876931165016676,0.20340476049778555,0.09895856850610196,0.05403446624112226,0.03136756889611685,0.01803812350748501,0.009952582865366577,0.0052248018114414456,0.0026061984392002154,0.0012306464380047895,0.00044670411742242776,8.088013079934937,5.418868688067237,3.855563521844377,2.5321820094049734,1.4820921976138373,0.842280150119543,0.4952577029601923,0.31338788618200186,0.2074084041712624,0.13644332396248643,0.08692113957474812,0.05316433758600451,0.031155386118408755,0.01756787944193035,0.009009397123033088
0.0,35.0,35.0,0.0,120.0,0.0,-0.35385908224754736,-16.015125689030903,6.938195619175545,-107.0,0.0,-45.0,-2.608299404196055,1.056190138614582,4.8142117082338665,34.2040194976165,17.630926776418704,5.8265087715324,3.010749627019427,1.7808078855166962,0.9570533090140467,0.4410998279474256,0.1988329194067393,0.09637284386882618,0.052612991512760415,0.030604353359280512,0.017647127491235755,0.00976425451858325,0.005139679001081903,0.0025700256425489954,0.001216140353261501,0.0004418010152742003,8.085295821469225,5.402898163260441,3.8344706297310043,2.5108424695826868,1.4639283978405235,0.828572422732149,0.4857653268805466,0.30720188354447536,0.20354346236094295,0.13414394392398918,0.08562726985995728,0.052476263401342566,0.030809188474568636,0.017401973849210637,0.008938527191613031
0.0,36.0,36.0,0.0,120.0,0.0,6.8178023920537925,-13.940232300914419,-14.869422696601132,-107.0,0.0,-45.0,-1.4156654931618764,0.9809356325137628,-1.938120842870581,34.2040194976165,17.630926776418704,5.823071373430862,2.996494530416901,1.7660184108519725,0.9453880955453008,0.433528907321446,0.19437310376303252,0.09386613166583671,0.051235563677059996,0.029863088188843392,0.0172661921669278,0.009580170491912458,0.005056211502921876,0.0025344522692194293,0.001201838410786706,0.0004369556484994666,8.082405095521338,5.386473484026615,3.813049023608128,2.4894202040649223,1.4459155980337823,0.8151128533456408,0.47649465367364613,0.3011657954357793,0.19976699476271256,0.13189232045275717,0.08435721253155329,0.05179922215983125,0.030467763971257403,0.017238016602453332,0.008868347453694352
0.0,37.0,37.0,0.0,120.0,0.0,-6.441386605513674,-0.5315759211527649,4.252894221788178,-107.0,0.0,-45.0,2.2567532009593503,-9.444097276838,4.534944101540985,34.2040194976165,17.630926776418704,5.819422136282147,2.981866076161354,1.7510325968378755,0.9337077346585763,0.4260510263462484,0.1900202643966235,0.09143519088261949,0.04990054514527866,0.02914303678554102,0.016895015191976472,0.009400218130648603,0.004974360998466137,0.0024994663453561296,0.0011877371519660497,0.00043216737563034,8.079331116026928,5.369582654268027,3.791288824086868,2.4679054613381806,1.4280427624267076,0.8018906885331794,0.4674377792187541,0.29527496493905314,0.19607654647832268,0.12968726236842035,0.0831104389972272,0.05113299902038061,0.030131032132497817,0.017075979614122612,0.008798849953346607
0.0,38.0,38.0,0.0,120.0,0.0,-1.3042337313414283,13.488419287532423,-3.925175973352257,-107.0,0.0,-45.0,1.8772666142947703,3.0577404229352787,2.295946311835298,34.2040194976165,17.630926776418704,5.815549393272188,2.9668564091158984,1.7358464195903576,0.9220083380126832,0.41866117962301785,0.18576969540390548,0.08907695128202503,0.04860637034291306,0.028443491306181776,0.016533304897848343,0.009224288350916243,0.004894090246487361,0.0024650561925767703,0.001173833191794798,0.00042743555946757154,8.076063614558796,5.352213589797037,3.7691805528765583,2.446289275246114,1.4102997415478533,0.7888958480569646,0.45858717361444606,0.28952491165672284,0.19246974388087615,0.12752761426733325,0.08188643500380498,0.05047738433022902,0.02979891418864309,0.016915835312343357,0.00873002684505408
0.0,39.0,39.0,0.0,120.0,0.0,-1.643488828559148,-24.93155662320489,-10.319285556060553,-107.0,0.0,-45.0,-1.8906993885712908,-9.693853227596001,-4.458436868337673,34.2040194976165,17.630926776418704,5.811440927730254,2.951457711215892,1.7204562263502357,0.9102865367261874,0.4113548421855087,0.18161701147829512,0.08678850389408292,0.04735154220803472,0.02776377135848514,0.0161807798358144,0.009052275499479408,0.004815363044564822,0.0024312104184103242,0.0011601232168079838,0.0004227595675499849,8.072591820169336,5.334354100475453,3.7467151048746135,2.4245634174924473,1.3926772178966982,0.7761188875470268,0.44993566403749236,0.28391132472269043,0.18894429150702874,0.12541225520065105,0.0806847001433388,0.04983217346229288,0.02947133302839069,0.016757556628206865,0.008661870392099296
0.0,40.0,40.0,0.0,120.0,0.0,-7.28164705204672,9.066180207205981,0.9968841636332506,-107.0,0.0,-45.0,-3.8450587041119624,-1.9838111830999399,2.2773258540338635,34.2040194976165,17.630926776418704,5.807083952369529,2.9356621945497983,1.7048587167059392,0.8985394474354791,0.4041279349946328,0.1775581267406515,0.08456709202536612,0.04613462887370436,0.027103222766858785,0.015837168346812674,0.008884077220549404,0.004738144192392897,0.002397917907144646,0.0011466039830890485,0.0004181387725622525,8.068904438535615,5.3159918737179765,3.723883723886731,2.4027203551772573,1.375166655850166,0.7635509632817395,0.4414764182856406,0.27843005608812715,0.18549796909387006,0.12334009741538456,0.07950474738149939,0.04919716665926556,0.029148213152609712,0.01660111698349749,0.00859437296494118
0.0,41.0,41.0,0.0,120.0,0.0,2.1765658823004514,-8.527285671473805,2.0866496088507844,-107.0,0.0,-45.0,1.7610203383599163,-0.5274846866839855,-1.1104282669511378,34.2040194976165,17.630926776418704,5.80246508797994,2.919462096078707,1.6890509268898872,0.886764641961227,0.39697679324627,0.173589234968098,0.08241010276016773,0.04495426052303802,0.026461216404229274,0.015502208153819192,0.008719594329158958,0.0046623994567575044,0.0023651678110667355,0.0011332723143544687,0.000413572552683788,8.064989630360573,5.297114459262031,3.7006779816756983,2.3807532129055007,1.3577602554682138,0.7511837989617838,0.43320292898787194,0.27307711406810825,0.18212862875107683,0.12131008515450047,0.07834610260697517,0.048572168884107536,0.028829480629902062,0.01644649027882287,0.008527527039581914
0.0,42.0,42.0,0.0,120.0,0.0,3.0068031810021587,-22.398152205229536,-0.8281639580058116,-107.0,0.0,-45.0,3.1550753002364154,-4.504390171282077,2.494390580160327,34.2040194976165,17.630926776418704,5.79757034154593,2.9028496739078204,1.6730302168597941,0.8749601202102836,0.3898981372401667,0.16970679112558332,0.08031505892717096,0.043809126406459176,0.025837147085453236,0.015175645975241925,0.008558730690696802,0.004588095538089532,0.002332949542067898,0.0011201251001053036,0.0004090602918848275,8.060834988979355,5.277709255125532,3.6770897600818526,2.3586557390558083,1.3404509098908188,0.7390096543707604,0.42510899846448313,0.26784865713742984,0.17883419225975214,0.11932119351242272,0.07720830420067938,0.04795698967659908,0.028515063053803892,0.01629365088212601,0.008461325195937114
0.0,43.0,43.0,0.0,120.0,0.0,9.520992220276646,-10.90546161265214,-2.8637850364315547,-107.0,0.0,-45.0,3.886572559881392,4.730663437271456,-2.6068562237041393,34.2040194976165,17.630926776418704,5.7923850837585125,2.8858172050446504,1.656794259914582,0.8631242859800213,0.38288904557969644,0.16590749411022232,0.07827961150652941,0.042697972011533185,0.025230432518234685,0.014857237157979378,0.008401393106229248,0.004515200038502376,0.00230125276359962,0.0011071592938477499,0.0004046013801740049,8.056427517113995,5.257763494691034,3.653111235996669,2.336422275840641,1.3232321660416437,0.7270212958179957,0.4171887242181733,0.2627409879648607,0.17561264849013786,0.11737242734257089,0.0760909026236419,0.047351443015634785,0.028204889501556595,0.016142573617570623,0.008395760116207525
0.0,44.0,44.0,0.0,120.0,0.0,5.057388669749567,-17.438843084714534,2.692056696887505,-107.0,0.0,-45.0,-0.35828446096395705,8.62522862919245,4.5543373627859935,34.2040194976165,17.630926776418704,5.786894025887549,2.868356984598189,1.6403410346278662,0.8512559253674358,0.3759469304921977,0.16218827062396393,0.07630153245352628,0.041619596376505086,0.024640512307813674,0.014546745328885849,0.00824749120326061,0.004443681431239136,0.0022700673829619427,0.0010943719113780423,0.00040019521380291667,8.051753602713854,5.237264234871045,3.6287348690049845,2.314047732827803,1.3060981883748535,0.7152119682620034,0.4094364850365605,0.2577505476758388,0.17246205093104996,0.11546282021382137,0.07499346002254557,0.04675534718697372,0.027898890494371095,0.015993233754777365,0.008330824583259578
0.0,45.0,45.0,0.0,120.0,0.0,9.636487300334853,3.9823619440584146,-14.075068368260535,-107.0,0.0,-45.0,3.5307638391333747,-3.3403746504070853,1.7374632327839468,34.2040194976165,17.630926776418704,5.781081195975501,2.8504613263907235,1.6236688189106263,0.8393541875163726,0.36906951507780816,0.1585462600954736,0.0743787079161603,0.040572849539367434,0.024066847011998325,0.014243942063488944,0.008096937331609792,0.004373509031446765,0.0022393835439033045,0.0010817600291270206,0.00039584119543052974,8.046798993811544,5.216198345323957,3.603953391540683,2.291527563627659,1.2890437254211562,0.7035753690164248,0.40184692768591973,0.25287391033433987,0.1693805153244879,0.11359143341302311,0.0739155498519322,0.04616852465616889,0.027596997959115535,0.015845606998402546,0.008266511479018022
0.0,46.0,46.0,0.0,120.0,0.0,-1.6441823350014388,-16.922172546548243,-2.1442804669387563,-107.0,0.0,-45.0,0.16956142104941918,-9.042291480223902,0.26269616987186684,34.2040194976165,17.630926776418704,5.774929914309285,2.832122564969995,1.6067761860394687,0.8274185674635987,0.3622548123113079,0.15497880057722604,0.07250913182513506,0.039556630114850534,0.023508917243403815,0.013948606570885622,0.007949646464101595,0.004304652968206797,0.002209191619519684,0.0010693207825635356,0.00039153873425225056,8.041548772316562,5.194552498704306,3.578759801426696,2.2688577454810117,1.272064078907356,0.6921056229439827,0.3944149541755651,0.24810777763518005,0.16636621739944157,0.11175735499087164,0.07285675651216732,0.04559080194641128,0.027299145191363384,0.015699669478043556,0.008202813782872511
0.0,47.0,47.0,0.0,120.0,0.0,3.1385169941206925,-3.1030446796527684,-13.226134298107613,-107.0,0.0,-45.0,-2.277826697713534,5.011120016797861,-0.4988091137033077,34.2040194976165,17.630926776418704,5.76842276812107,2.813333059024013,1.5896620025084087,0.8154488908684804,0.35550110563655773,0.15148341554870806,0.07069089983582984,0.0385698829922937,0.0229662228160037,0.013660525393833044,0.007805536101795636,0.0042370841577565495,0.002179482205436592,0.0010570513646553311,0.0003872872460983989,8.035987326659301,5.172313161944579,3.553147356693128,2.2460347615099154,1.2551550752402931,0.6807972590478468,0.38713570957209514,0.24344897379856548,0.16341739069937505,0.10995969884870015,0.07181667500231934,0.045022009521049296,0.027005266819733798,0.015555397738455858,0.00813972457010241
0.0,48.0,48.0,0.0,120.0,0.0,5.514379664014266,11.694176351844341,9.170134067901195,-107.0,0.0,-45.0,0.5770691645231585,9.102739699513013,3.935100287880111,34.2040194976165,17.630926776418704,5.761541585462998,2.794085196214468,1.5723254275806455,0.8034453004322158,0.3488069310068466,0.14805780156124965,0.06892220360287402,0.0376115971478191,0.02243828193332831,0.013379492123115747,0.0076645261834876995,0.004170774277834965,0.0021502461132574154,0.0010449490243782933,0.0003830861535020275,8.030098323188597,5.149466588578973,3.5271095725875936,2.223055585417858,1.2383130391615005,0.6696451883737933,0.380004570342667,0.23889444065910434,0.1605323244983275,0.10819760386386214,0.07079491058715465,0.04446198167055409,0.026715298771474622,0.015412768730073174,0.008077237010319864
0.0,49.0,49.0,0.0,120.0,0.0,-9.48074220544213,13.510384513946967,-10.147843209672125,-107.0,0.0,-45.0,-3.542184394726211,3.305243190498569,1.4266411082317116,34.2040194976165,17.630926776418704,5.754267408193901,2.7743713994573658,1.5547659144328754,0.7914082438311003,0.3421710602369343,0.1446998166644366,0.06720132536895229,0.03668080356468368,0.021924630415858317,0.013105307125345037,0.007526538999250794,0.004105695743096663,0.002121474364268747,0.0010330110652835417,0.00037893488574540886,8.023864676214641,5.1259988121324005,3.50064022071011,2.1999176684472364,1.2215347693928502,0.6586446831406186,0.3730171332065241,0.23444123294191482,0.15770936180096856,0.10647023305158457,0.06979107847751513,0.04391055640371271,0.02642917823922288,0.015271759799816828,0.0080153443659394
0.0,50.0,50.0,0.0,120.0,0.0,3.0659158425708064,16.468794666200132,9.244189310817259,-107.0,0.0,-45.0,1.8467048388597433,2.285468432561011,3.187383197091261,34.2040194976165,17.630926776418704,5.746580464009104,2.754184134691554,1.5369832127985577,0.7793384630045632,0.33559248554388954,0.1414074695582064,0.06552663285045243,0.03577657325607128,0.021424820965335944,0.012837777283404742,0.007391499107777991,0.004041821681535615,0.002093158183386291,0.001021234844106897,0.0003748328788817471,8.017268516577134,5.101895640610765,3.4737333302211146,2.176618928420996,1.2048175161063759,0.6477913570202872,0.3661692044742757,0.23008651371879918,0.15494689742228626,0.10477677276131363,0.06880480352337387,0.04336757534284772,0.02614684364889737,0.015132348682181732,0.00795403999066719
0.0,51.0,51.0,0.0,120.0,0.0,-0.28392395673584403,23.601525010556827,-14.170506199775264,-107.0,0.0,-45.0,3.4141119556584236,-0.6134979064796262,3.020514002794636,34.2040194976165,17.630926776418704,5.738460137419391,2.7335159202507398,1.5189773731112968,0.7672369846239895,0.32907040515317704,0.13817890942316874,0.06389657440403772,0.034898015384291374,0.02093842246410021,0.01257671574876629,0.007259333257337398,0.003979125911866046,0.0020652889933313236,0.0010096177694291564,0.0003707795758979234,8.010291156903659,5.077142652238518,3.4463831929250333,2.153157741399006,1.1881589591608945,0.6370811468116276,0.3594567897982288,0.2258275500380633,0.15224337614517938,0.1031164319049171,0.06783571991914872,0.042832883622818965,0.025868234628684466,0.01499451349059413,0.007893317326939117
0.0,52.0,52.0,0.0,120.0,0.0,-4.379808084191936,22.354075327046857,8.350019259703835,-107.0,0.0,-45.0,-3.9657705738745563,-3.967459556202286,-0.9410948404781116,34.2040194976165,17.630926776418704,5.729884941014974,2.7123593382470443,1.5007487509798598,0.7551051107914323,0.32260421060740124,0.13501241612408474,0.06230967451333781,0.034044275466544385,0.020465019306863112,0.012321941705379105,0.007129970310008693,0.0039175829218466756,0.0020378584090179576,0.0009981573003794313,0.00036677442908553554,8.002913043961666,5.051725192719283,3.4185843820836457,2.1295329398070812,1.1715571819606518,0.6265102971980616,0.352876083994852,0.22166170872656535,0.14959729096376476,0.10148844121089803,0.06688347092180592,0.04230632979332799,0.025593291979125358,0.01485823270902013,0.007833169895420964
0.0,53.0,53.0,0.0,120.0,0.0,-4.176257084577076,22.587877373591084,13.751263634788142,-107.0,0.0,-45.0,-0.1578001086624612,6.6532626375126895,2.4007196844685463,34.2040194976165,17.630926776418704,5.720832483168528,2.6907070454406097,1.4822980130918069,0.7429444129791765,0.3161934737761707,0.13190639138441948,0.06076452940593109,0.03321453369335257,0.02000421075985834,0.01207328014457171,0.0070033411691430136,0.0038571678474442557,0.0020108582321574447,0.000986850945378286,0.0003628168945520796,7.995113769015557,5.0256283710282075,3.3903317091484273,2.1057437876644354,1.1550106784568712,0.6160753352449283,0.3464234632937822,0.21758645233578608,0.14700718131801563,0.09989205253502569,0.06594770857230824,0.041787765726605856,0.02532195764380212,0.01472348518382798,0.007773591324370201
0.0,54.0,54.0,0.0,120.0,0.0,-1.938948162953407,22.0356814982408,-7.304938398250107,-107.0,0.0,-45.0,4.210168748690833,-5.291924750031343,-3.3060165174818055,34.2040194976165,17.630926776418704,5.711279433736209,2.6685517894097095,1.4636261486900786,0.7307567250766598,0.3098379341889315,0.1288593507026228,0.059259802946740575,0.03240800329235575,0.01955561036048262,0.011830561647439546,0.006879378710397521,0.003797856452718487,0.001984280446074945,0.0009756962609274904,0.00035890643584139947,7.9868719803275825,4.998837061952304,3.361620285893575,2.0817899960416066,1.1385183106441352,0.6057730636860728,0.34009547482023084,0.213599335259185,0.1444716315198671,0.09832653815489602,0.06502809343951459,0.041277046525371175,0.02505417468160112,0.01459025011588554,0.0077145753180099955
0.0,55.0,55.0,0.0,120.0,0.0,9.537124489861274,-0.8648393224312727,-4.510943238569544,-107.0,0.0,-45.0,-2.631885317985186,1.9221926257567734,-2.1787632205649574,34.2040194976165,17.630926776418704,5.701201491283789,2.6458864241425553,1.4447344767057395,0.7185441372898472,0.3035374887095504,0.12586991516924048,0.05779422281137369,0.031623928994664006,0.019118845334230902,0.011593622179506588,0.006758017714995595,0.0037396251106305437,0.0019581172106901156,0.0009646908504366391,0.0003550425232184915,7.978165358279584,4.97133590592821,3.3324455179052332,2.05767171403516,1.1220793016369972,0.5956005428688467,0.33388882861157054,0.2096979999934804,0.1419892691545403,0.09679119012103526,0.06412429436560495,0.04077403043604371,0.024789887239454193,0.01445850705289032,0.0076561156648091
0.0,56.0,56.0,0.0,120.0,0.0,-5.99282639764356,24.712000085350745,3.1467445788435526,-107.0,0.0,-45.0,-4.666356107044967,-1.998815107213618,2.3311485247161166,34.2040194976165,17.630926776418704,5.690573347476022,2.622703928209927,1.4256246559802406,0.7063089908897943,0.29729218114678,0.12293680400233477,0.056366576837063836,0.03086158557027983,0.018693556041264606,0.0113623028934189,0.006639194805952176,0.0036824507845370385,0.0019323608576836135,0.0009538323630839971,0.0003512246336034399,7.9689705717626635,4.943109311653058,3.3028031178857358,2.03338952747911,1.1056932211751314,0.5855550764976759,0.32780038947388035,0.20588017354362903,0.1395587635635243,0.09528531962554175,0.0632359882229345,0.04027857876446257,0.024529040526055035,0.014328235881915065,0.007598206236163247
0.0,57.0,57.0,0.0,120.0,0.0,-6.334771596154418,6.536207070163165,8.600662832180774,-107.0,0.0,-45.0,1.2123965069415918,0.16071550763540543,3.623966014942857,34.2040194976165,17.630926776418704,5.679368649795922,2.5989974250179575,1.4062986965771078,0.6940538735088806,0.29110219243512947,0.12005882751453563,0.054975709572638067,0.03012027643451332,0.018279395447954462,0.01113644994013775,0.006522848386898357,0.0036263110103920146,0.0019070038858401259,0.0009431184927189748,0.0003474522504971693,7.959263231820837,4.914141460438611,3.272689121019737,2.008944458894165,1.0893599720614497,0.5756341980826876,0.3218271691946547,0.2021436639662527,0.13717882438449214,0.09380825639464091,0.06236285967979428,0.03979055579450015,0.02427158078641049,0.014199416822170992,0.007540840985112126
0.0,58.0,58.0,0.0,120.0,0.0,-0.6756856070568489,6.6373616143512955,-6.026928706691821,-107.0,0.0,-45.0,-4.17922356558865,-8.562598497590376,-2.179827601357357,34.2040194976165,17.630926776418704,5.667559962458612,2.574760205269078,1.3867589721434128,0.6817816148971847,0.28496783132394704,0.11723488048117958,0.05362051901653922,0.029399332321850952,0.01787602862211089,0.010915914288180877,0.006408918583363656,0.0035711838796175597,0.00188203895655189,0.0009325469767961853,0.0003437248638914853,7.9490178422921245,4.884416312465723,3.2420999024389827,1.9843379685869156,1.073079777435542,0.5658356580434156,0.31596631909523437,0.19848635704642711,0.13484820014568732,0.09235934810401868,0.06150460097464986,0.039309828709442274,0.02401745527719063,0.014072030417975116,0.00748401394508677
0.0,59.0,59.0,0.0,120.0,0.0,3.014071938215226,-2.8948960992025263,12.313796018772148,-107.0,0.0,-45.0,-4.9680939333843765,-6.31053084052337,2.2409474360629877,34.2040194976165,17.630926776418704,5.655118725377491,2.549985751770424,1.367008233282563,0.6694952830553178,0.2788895255173737,0.11446393588126788,0.05229995353256558,0.028698110023966505,0.017483132250711117,0.010700551550506646,0.0062973471864013,0.0035170480226134134,0.0018574588894768374,0.0009221155953410543,0.00034004197016785146,7.938207747168487,4.85391761511657,3.211032196829926,1.959571956815194,1.0568531687901273,0.556157411420351,0.3102151229071164,0.19490621310295575,0.1325656769124891,0.09093795981586447,0.06066091169847869,0.03883626751601336,0.023766612242843186,0.013946057531911511,0.007427719228687232
0.0,60.0,60.0,0.0,120.0,0.0,-4.568295787646619,-17.44869972796938,-8.17399251967881,-107.0,0.0,-45.0,1.794682724770941,3.570485310326738,3.5401172342140477,34.2040194976165,17.630926776418704,5.642015211034496,2.524667766740762,1.3470496219000543,0.6571981806631909,0.2728678132123729,0.11174503898518405,0.051013008933598954,0.0280159911887115,0.01710039417899281,0.010490221818642887,0.006188077598434559,0.0034638825928776135,0.0018332566583487558,0.0009118221699511898,0.00033640307198337937,7.926805074373409,4.8226289135844835,3.1794831202350715,1.9346487669389838,1.0406809746431702,0.5465976061500292,0.3045709899570023,0.19140126391740486,0.13033007698397966,0.0895434734366135,0.05983149858482237,0.038369744970936856,0.023519000892448353,0.013821479338189181,0.007371951026490753
0.0,61.0,61.0,0.0,120.0,0.0,4.6348820791207945,-3.366185869397686,-13.908893485271763,-107.0,0.0,-45.0,-4.232656760510547,-3.1524978149930565,4.47946037660336,34.2040194976165,17.630926776418704,5.628218479101805,2.4988002017788653,1.326886686482808,0.6448938417265064,0.26690333498614754,0.10907730176512462,0.049758725724175126,0.027352381177120747,0.016727512969863304,0.010284789503703526,0.0060810547812182834,0.003411667251705557,0.0018094253869283183,0.0009016645628272438,0.0003328076781440659,7.914780675631864,4.790533563985739,3.147450194104983,1.9095711894780576,1.0245643097826669,0.5371545718618859,0.29903144864606096,0.1879696097823859,0.12814025763747222,0.08817528719445902,0.05901607530721441,0.03791013650991506,0.023274571377277488,0.013698277316180365,0.007316703605883685
0.0,62.0,62.0,0.0,120.0,0.0,-9.898724306420569,21.070140522597406,13.36729438023129,-107.0,0.0,-45.0,1.4309606567576818,5.024744417491004,-1.604222292020748,34.2040194976165,17.630926776418704,5.6136963286598345,2.472377290668651,1.306523398270484,0.6325860283646011,0.2609968259880481,0.10645989760612236,0.04853618649331359,0.026706707975601277,0.0163641974826265,0.01008412318394551,0.005976225205811203,0.0033603821534426885,0.00178595834508838,0.0008916406758306378,0.0003292553034635587,7.902104062083531,4.75761474922466,3.1149313716631957,1.884342466998455,1.008504565005038,0.5278268091576873,0.2935941402096089,0.18460941666469471,0.12599510991906845,0.0868328151357352,0.058214362283650525,0.0374573201789313,0.02303327476902956,0.013576433244134748,0.007261971309911959
0.0,63.0,63.0,0.0,120.0,0.0,7.540593936191577,-1.1449126264493223,-12.797019924885348,-107.0,0.0,-45.0,1.9608038281102234,1.4905842013106039,-3.529778678894133,34.2040194976165,17.630926776418704,5.598415247856164,2.4453935852089357,1.2859641682737786,0.6202787276643862,0.25514910839462784,0.10389205629732537,0.04734451344951447,0.02607842116064123,0.016010166470100846,0.009888095458549904,0.005873536804463575,0.0033100079312670346,0.0017628489450308763,0.0008817484495711166,0.0003257454686106057,7.888743335264561,4.723855497892938,3.081925066650697,1.8589662997495258,0.9925033972716063,0.5186129793367316,0.2882568127439996,0.18131891347911294,0.12389355747842011,0.0855154866393518,0.05742608648778993,0.037011176567778074,0.022795063038722543,0.013455929193065175,0.00720774855614874
0.0,64.0,64.0,0.0,120.0,0.0,-8.435786064766775,21.85077873929955,-14.017886554446427,-107.0,0.0,-45.0,-0.26621631247626354,6.9937990196153486,3.523241968123589,34.2040194976165,17.630926776418704,5.5823403608527675,2.4178439942683587,1.2652138650900642,0.6079761485258767,0.24936108408972749,0.10137305928487299,0.04618286609034805,0.025466990913506002,0.015665148193238523,0.009696582807322747,0.005772938924332124,0.0032605256834774632,0.001740090737629705,0.0008719858625250806,0.000322277699947497,7.874665113058329,4.689238706516435,3.0484301845204196,1.8334468519720915,0.9765627202107953,0.5095118945322809,0.2830173154882231,0.17809638946882478,0.1218345554459591,0.08422274594848726,0.05665098126659992,0.03657158874571612,0.022559889036213088,0.013336747520804186,0.007154029835573081
0.0,65.0,65.0,0.0,120.0,0.0,5.9743197802407515,1.380916932604535,-6.086542794452967,-107.0,0.0,-45.0,-0.22785349971142033,2.6039059541517062,-3.1399520337523237,34.2040194976165,17.630926776418704,5.56543537221619,2.389723826484047,1.2442778334731073,0.5956827181698064,0.24363372746934017,0.09890223526221924,0.04505043897047684,0.024871907086293103,0.015328880052745639,0.009509465455747965,0.005674382283027469,0.0032119169602336413,0.0017176774088954127,0.0008623509301740977,0.00031885152988166,7.859834456520995,4.653747181138848,3.0144461736137016,1.8077887640255828,0.9606846803455839,0.5005225142738076,0.2778735912579685,0.17494019236483163,0.11981708919400617,0.0829540517466547,0.055888786159970436,0.0361384421996292,0.02232770647038935,0.013218870866099453,0.007100809794855805
0.0,66.0,66.0,0.0,120.0,0.0,-2.166601673620006,0.3718723581665806,0.7782350835449847,-107.0,0.0,-45.0,-0.35573312216261055,-2.2969476684020096,-3.533379217262942,34.2040194976165,17.630926776418704,5.547662510124138,2.361028837735143,1.2231619134686362,0.5834030768377751,0.2379680781555296,0.09647895650376163,0.043946459431884584,0.02429267832950924,0.015001108240301046,0.009326627243342869,0.005577818926468875,0.003164163750584323,0.0016956027765949516,0.0008528417041689019,0.000315466499578175,7.844214828264693,4.6173637759635,2.979973182887055,1.7819971963595749,0.944871546935038,0.4916439783327633,0.2728236566865477,0.17184873066855003,0.11784017220226306,0.08170887691567778,0.05513924670122574,0.035711624776851233,0.022098469890379193,0.013102282142200964,0.007048083814907612
0.0,67.0,67.0,0.0,120.0,0.0,-4.077493331886181,16.344629554303573,-5.026154704812953,-107.0,0.0,-45.0,-4.648312704132679,-0.9704447185595768,4.2990308866440134,34.2040194976165,17.630926776418704,5.528982456158744,2.3317552757760387,1.2018724601383448,0.5711420812370612,0.23236523575782111,0.09410263233184932,0.04287018640690146,0.02372883114775363,0.014681587390104955,0.009147955507595885,0.005483202184884293,0.0031172484708926365,0.001673860786761381,0.0008434562715336074,0.0003121221454673698,7.827767829826839,4.5800710054271665,2.94501162914834,1.7560776958144366,0.9291260962373501,0.48287543458595567,0.26786565366264403,0.16882045305772905,0.11590284929438506,0.08048670736201241,0.05440211436569433,0.03529102661449436,0.021872134664832548,0.012986964534401202,0.006995845756366436
0.0,68.0,68.0,0.0,120.0,0.0,-9.573690169830067,-2.00414489403758,-3.0390622387794792,-107.0,0.0,-45.0,1.7079131456368613,-5.309756642496726,1.9062582525833243,34.2040194976165,17.630926776418704,5.5093542888552625,2.301899940523405,1.1804163644159396,0.5589047932363157,0.22682635112898772,0.09177270800271295,0.041820907700432904,0.023179909206221636,0.014370080263806671,0.00897334095666728,0.005390486635779449,0.0030711539521399273,0.0016524455106661164,0.0008341927538627293,0.00030881801491402047,7.810453287905057,4.54185154022002,2.909562748226554,1.730036356199471,0.9134511781082371,0.47421620699045786,0.2629977835070344,0.16585386589160678,0.11400419108986713,0.07928704242306486,0.05367714628936749,0.034876540095964144,0.021648656965864228,0.01287290149142191,0.0069440903925153995
0.0,69.0,69.0,0.0,120.0,0.0,4.771534532692591,3.5257272042271595,-14.606333333136947,-107.0,0.0,-45.0,-4.386309531788309,-0.16062946629572394,1.3196768794840725,34.2040194976165,17.630926776418704,5.4887354121505725,2.2714602405364634,1.1588010736232621,0.5466964780079904,0.22135262047106938,0.08948866007184528,0.04079793853830629,0.022645472518515532,0.014066357439339885,0.008802677557276326,0.00529962806468215,0.003025863428688248,0.0016313511416468673,0.0008250493065672255,0.0003055536601789634,7.7922290840753226,4.502688094049921,2.8736284629823547,1.7038797739196072,0.8978498544029947,0.4656657261338683,0.2582183235155535,0.16294752422817535,0.11214329465745672,0.07810939419340615,0.05296410515714957,0.034468059791506946,0.021427993750627237,0.012760076721347617,0.00689281256444359
0.0,70.0,70.0,0.0,120.0,0.0,7.729182035462131,-24.489310808017628,10.238529688889486,-107.0,0.0,-45.0,0.08759888180808861,-7.55320235517019,2.6941512328928425,34.2040194976165,17.630926776418704,5.4670814835109365,2.24043425634591,1.1370346125836797,0.5345225992454039,0.21594527872432112,0.08724999290726432,0.03980061990917799,0.02212509671496907,0.013770197014654255,0.008635862424500321,0.005210583428170132,0.0029813605271607345,0.0016105719920889892,0.0008160241181286814,0.00030232863830608766,7.7730510407535,4.462563474761156,2.83721143074336,1.6776150564379277,0.8823253901705778,0.45722352123005144,0.2535256225408629,0.1601000297674008,0.11031928261545336,0.07695328714585141,0.05226275905380463,0.034065482404974194,0.02121010274412625,0.012648474186550266,0.006842007179882625
0.0,71.0,71.0,0.0,120.0,0.0,-5.409465769928747,6.266712341606613,7.230446436401266,-107.0,0.0,-45.0,-0.661012731633063,6.41211334261137,0.34136832536434447,34.2040194976165,17.630926776418704,5.444346338717265,2.2088208087585484,1.1151256049273472,0.5223888138367887,0.21060559299140458,0.08505623537327006,0.03882831699946651,0.021618372346532605,0.0134813843240134,0.008472795715815176,0.005123310818226165,0.0029376292556990862,0.0015901024905061636,0.0008071154093823276,0.00029914251105334885,7.752872798637024,4.421460642166696,2.800315093681701,1.6512498307299919,0.8668812447502964,0.4488892123413624,0.2489180967584205,0.15731002887673165,0.1085313022645422,0.0758182577653962,0.051572881319695354,0.033668706722197,0.02099494242251653,0.012538078098752584,0.006791669212045634
0.0,72.0,72.0,0.0,120.0,0.0,5.551914386971317,15.060488137982738,-8.501766557000291,-107.0,0.0,-45.0,-2.7931162644939045,-9.22846699289636,2.8058673592832086,34.2040194976165,17.630926776418704,5.420481913351425,2.1766195324293554,1.0930832944423807,0.5103009659148577,0.20533485597958517,0.08290693767639402,0.03788041771675757,0.021124904222548476,0.013199711666282095,0.008313380529188992,0.005037769427849182,0.0028946539935689724,0.001569937178702725,0.000798321432811774,0.00029599484486526504,7.73164568504147,4.379362773282641,2.762943732182311,1.6247922516028146,0.851521062714289,0.44066250280839114,0.24439422560887264,0.1545762106959475,0.10677852475198052,0.07470385419551112,0.050894250411108614,0.033277633560898745,0.020782471996862225,0.012428872914209231,0.00674179369847191
0.0,73.0,73.0,0.0,120.0,0.0,-9.543148433738548,-22.868399526119344,4.369108194771172,-107.0,0.0,-45.0,2.1352971106753884,6.720409566652627,1.9132619395948582,34.2040194976165,17.630926776418704,5.395438161083881,2.1438309549989416,1.0709175663040658,0.49826508019865,0.20013437944620813,0.08080166836621264,0.03695633129737089,0.020644310780841193,0.01292497804467702,0.008157522805045227,0.004953919517880376,0.0028524194811140454,0.0015500707090297392,0.0007896404718739627,0.0002928852109014875,7.709318572530298,4.336253335715893,2.7251025212368174,1.598251009740528,0.8362486646003714,0.43254317187001057,0.23995254790952433,0.1518973053185219,0.10506014426604024,0.07360963589630934,0.05022664976499906,0.03289216572210323,0.020572651397349467,0.012320843329018462,0.006692375739901713
0.0,74.0,74.0,0.0,120.0,0.0,-0.38991366308096076,-3.0912473998159555,-0.8539533400397445,-107.0,0.0,-45.0,0.9357880946488546,2.681690647816275,1.1094987294106602,34.2040194976165,17.630926776418704,5.369162968930582,2.11045658209819,1.0486389679893091,0.48628735454267474,0.19500548763517034,0.0787400114845694,0.036055486994083494,0.020176223488613833,0.01265698891745637,0.008005131231926468,0.004871722384981413,0.0028109108100291187,0.0015304978417144716,0.0007810708403309763,0.0002898131851088114,7.685837727222722,4.292116170022257,2.686797589880026,1.571635339326827,0.821068037381021,0.4245310674581838,0.2355916581281057,0.14927208204680287,0.10337537725960687,0.07253517331413502,0.04956986766796786,0.03251220794296511,0.020365441257921325,0.012213974274540908,0.006643410499191447
