Line_number,Fiducial,Easting,Northing,Height,Elevation,tx_pitch,tx_roll,tx_yaw,txrx_dx,txrx_dy,txrx_dz,rx_pitch,rx_roll,rx_yaw,PX,PZ,S0X_time_1.086e-05,S0X_time_3.256e-05,S0X_time_5.426e-05,S0X_time_8.680e-05,S0X_time_1.411e-04,S0X_time_2.279e-04,S0X_time_3.689e-04,S0X_time_5.860e-04,S0X_time_9.115e-04,S0X_time_1.411e-03,S0X_time_2.192e-03,S0X_time_3.418e-03,S0X_time_5.339e-03,S0X_time_8.301e-03,S0X_time_1.338e-02,S0Z_time_1.086e-05,S0Z_time_3.256e-05,S0Z_time_5.426e-05,S0Z_time_8.680e-05,S0Z_time_1.411e-04,S0Z_time_2.279e-04,S0Z_time_3.689e-04,S0Z_time_5.860e-04,S0Z_time_9.115e-04,S0Z_time_1.411e-03,S0Z_time_2.192e-03,S0Z_time_3.418e-03,S0Z_time_5.339e-03,S0Z_time_8.301e-03,S0Z_time_1.338e-02
0.0,0.0,0.0,0.0,120.0,0.0,-0.189981557422513,-0.16793060002611448,0.5744229392683367,-107.02769867134644,0.0,-45.0278140780849,0.8105175508988054,0.5289477403394607,0.18551230265105922,34.27075459658479,17.56211432789952,1.7112710735175878,1.510969614961791,1.4679494442882526,1.3827273029056437,1.3484991961260442,1.2213538433274387,1.1007275439976165,0.983491331714639,0.8586550347111096,0.7082002659217053,0.5487376259254984,0.4503857300533879,0.378627887619774,0.2519390028408371,0.12462833779028602,3.268556170569119,3.0254814434776067,2.9050339730935315,2.7994008826060557,2.6672886531874695,2.537652503275878,2.399033304383879,2.162202826930084,2.000738172990502,1.7483542947534019,1.4961121972583082,1.2426069934051143,1.0001841801504734,0.7575544384807271,0.5168637140117183
0.0,1.0,1.0,0.0,120.0,0.0,-0.13814150525634128,0.47086639659959606,0.7889385562208624,-106.9795204890248,0.0,-44.948181644935616,-0.5083142002105105,-0.35163050897805803,0.3752091192227125,34.27075459658479,17.56211432789952,1.6062847113870604,1.4232126879365363,1.3770925868223876,1.3417695019012779,1.2301962363183123,1.1492917577911275,1.0491553357539476,0.9189194607118277,0.7721701482988411,0.6937773780241168,0.5830163029929105,0.4504518274565762,0.2951958897862188,0.23018519051634348,0.18690049498590686,3.1715196182033876,2.8477925425561437,2.7764302394470124,2.685587136784775,2.5886734145016956,2.432158860428966,2.258457582595779,2.0831439074675964,1.8602248350135868,1.6701099313034449,1.4398957087261586,1.1829654434278452,0.9676025904853901,0.7259010311726396,0.5189831248248645
0.0,2.0,2.0,0.0,120.0,0.0,0.7686135511184358,-0.8146785571057826,-0.8370206280943391,-106.99801556212435,0.0,-44.92519998376372,-0.35355979738802934,-0.6007886459631957,0.9412829485250289,34.27075459658479,17.56211432789952,1.5929843887782213,1.3243222803528163,1.2798481450188997,1.2210537317994687,1.1119566047925695,1.0835972917931223,0.9441701173269592,0.8905151871435976,0.7734800500906817,0.6469814939993961,0.48324526726203226,0.4052783087138049,0.2717445866934852,0.22520736921281745,0.1548162822083411,3.1022719177472142,2.7203822055668594,2.643444492581983,2.5594126617933117,2.4293763856822235,2.2941599627663165,2.1582164110702364,2.0076359717177246,1.7889301507623334,1.5965615660935417,1.3731954547247067,1.1330978636557054,0.9176813721979012,0.7136635866657057,0.5001576709314652
0.0,3.0,3.0,0.0,120.0,0.0,0.44514401400609827,-0.5768601392819195,-0.3828155696648585,-107.05726699059807,0.0,-44.96577745553343,-0.23877729000510828,-0.6482636087559015,0.5008586198178708,34.27075459658479,17.56211432789952,1.5537116869993808,1.2733852979997284,1.2171827757346618,1.1018547571512993,1.0770937218818624,1.0072129576862652,0.9089887699854101,0.830051649673355,0.7169994551132856,0.6305852139665297,0.5136222629633936,0.36568737422641323,0.29709314986864205,0.19138257344745835,0.15447305564361757,3.1044820093976915,2.6023016661503307,2.5254373861868067,2.4531667958673142,2.3224425905608173,2.1791368832307514,2.044116451311914,1.8977027253119045,1.7116348741098757,1.5105308211462765,1.2970317054773788,1.1250217841702086,0.8781543701615419,0.6717047760254835,0.49086790630511057
0.0,4.0,4.0,0.0,120.0,0.0,-0.9978015689309898,-0.4559730670117421,0.9233812568070987,-107.05864063582152,0.0,-44.99461334782299,-0.625221697824109,0.20658707828630352,0.04519453795902839,34.27075459658479,17.56211432789952,1.5841565224448322,1.1491396142562837,1.1393966008111192,1.0459519915989979,0.9991443255806154,0.9489476281262607,0.8571133120840175,0.7843291477891259,0.6926103581769386,0.572620119893891,0.4851775110557363,0.3951833636249819,0.27322795067421735,0.2251552838242028,0.13029521491381763,3.0629684185805988,2.5191994837136202,2.4027616475411127,2.3266731681099406,2.1885908927833495,2.0780849875978027,1.9510658651567228,1.775956582544343,1.6263788724760675,1.47801437408118,1.2690755170998502,1.0457181949697636,0.8178826034006015,0.647189449326925,0.47619733007505793
0.0,5.0,5.0,0.0,120.0,0.0,0.593223694925193,-0.6978277786348965,-0.8210281879814114,-106.94630076225306,0.0,-44.96498856449088,-0.7718304195797921,0.4060934963362075,0.7992341096835796,34.27075459658479,17.56211432789952,1.5303170079909052,1.088506485104049,1.0334895738076422,1.0145119701231562,0.9384702017164358,0.8862777087433615,0.7889921326059792,0.7102373124578465,0.6406231588592638,0.5106710470829005,0.4678700327745999,0.3682374117353933,0.2617315695621633,0.20744468481437292,0.11000628177999998,3.0590309691360797,2.4301767256775797,2.321271656244635,2.1958337646806068,2.1155897278068534,1.9868005596018226,1.850240652519009,1.7168174169340804,1.5569652436153643,1.414543160071073,1.2226668296252976,1.0292773244827844,0.8195014028105182,0.6259135586972673,0.4808433407611197
0.0,6.0,6.0,0.0,120.0,0.0,0.35921577015402884,-0.2502788878620641,0.2535909228444624,-106.9987126708856,0.0,-45.09507202988266,0.44828284470669816,0.08176197807097241,-0.38204299184726676,34.27075459658479,17.56211432789952,1.5032457011006077,1.1035071708952124,0.980798694560441,0.9439486836167428,0.8602462730720583,0.8127998704385355,0.7477249826726057,0.6483587844336347,0.6081208279233172,0.498979974365801,0.42726687868169877,0.3469783725613119,0.2581996892739784,0.14367562071769402,0.0963560962067456,3.066496041731553,2.3308327603407224,2.2140006016028693,2.094215433507365,2.0277166129865187,1.8948423020735239,1.7700444623218985,1.6245382711260432,1.502212959737177,1.3159921950799272,1.1643532769347804,0.9681975673253249,0.7678981825309705,0.6074519130481558,0.4566073955947938
0.0,7.0,7.0,0.0,120.0,0.0,0.4939942603424472,-0.6935750503176301,-0.6304637859738365,-106.98024383345626,0.0,-45.03356324539379,-0.7145213817547929,0.1058972355192509,-0.9129953396076822,34.27075459658479,17.56211432789952,1.5434393167843705,1.0295818633457932,0.927290722377241,0.8719918972350588,0.810801660645264,0.7821604146738282,0.7102524885841389,0.6080904660328225,0.5779698455634498,0.4676145609201111,0.3961626761361915,0.3075243867356074,0.22948634377412205,0.1669954542967476,0.07563483812785392,3.0991827020982305,2.2856380408604986,2.1144510051712184,2.038862271449772,1.9196310671209635,1.8015437690535274,1.6842643645906965,1.5856654500735181,1.4178574297512347,1.2760015735003531,1.1178109759746528,0.8869068298881777,0.7625555255561824,0.5717537236983166,0.41242682477179515
0.0,8.0,8.0,0.0,120.0,0.0,0.3298084104547121,0.5846245840606299,0.30311881633378834,-106.97005560535533,0.0,-45.03727500829149,-0.9648154916050304,-0.02774772562138894,-0.12764096663484414,34.27075459658479,17.56211432789952,1.5420447419339565,0.9374523001504849,0.8837522817486988,0.7865452602123747,0.7614021159099641,0.7495541853329887,0.6666132055915597,0.5759327526034164,0.5036668717501992,0.4688379987245054,0.36345866765442575,0.3119996191309221,0.20501199461016226,0.17443023943900782,0.1337782984932197,3.109463666916944,2.2529159110992483,2.0272039474047823,1.9297093212527396,1.840578708583089,1.7718493190878017,1.6264612940234024,1.512651994610406,1.3817836677088828,1.253169740097194,1.0728044395028167,0.9234661200572416,0.7422186803743828,0.5426853562830268,0.4197534448184626
0.0,9.0,9.0,0.0,120.0,0.0,-0.0938073263593533,0.42696627860201297,0.06981702323958228,-106.85258764827127,0.0,-45.032585800436735,0.6927136597386216,-0.22936410543859442,-0.08871470781420188,34.27075459658479,17.56211432789952,1.5512544577969947,0.9912257916169277,0.8496743832420003,0.7708553111510753,0.7487610153672014,0.7066879132633954,0.6395914884425712,0.6045842982094428,0.5281665901394337,0.44606637674457833,0.4012780687247191,0.2898127620192277,0.21205600076625447,0.14558592090256547,0.12885337935331304,3.1331861760125412,2.215965425119338,1.9627051822755144,1.8896969033094446,1.766469937493553,1.7047493621603635,1.5832002564310896,1.4533004268160825,1.313043754901391,1.1907557229404453,1.0189542786857781,0.8696608354089141,0.6987628706413588,0.5330160405942429,0.3995084287746742
0.0,10.0,10.0,0.0,120.0,0.0,-0.2217915835558728,-0.23340703483020064,-0.8025992553700196,-106.92333445212728,0.0,-44.937147762008564,-0.642146137909313,0.4022493444882991,0.7150646900810849,34.27075459658479,17.56211432789952,1.570835248531814,0.917784581352584,0.8211581374456544,0.7439664542739559,0.6738541341784302,0.6396280797197672,0.5857119013094527,0.5382141749231758,0.4555762069621383,0.375664383003315,0.35306200832776774,0.22503705951070704,0.19885193075025237,0.12321341486298841,0.0660436661074241,3.15014302645054,2.1764327907665364,1.9455216114123173,1.793662850734154,1.690980747557969,1.606556144375536,1.491110806153563,1.3719981170318585,1.2570017659949424,1.1020032803158781,0.9845702821721557,0.8107696973743024,0.6869952514678803,0.5186227108158395,0.38862578453992674
0.0,11.0,11.0,0.0,120.0,0.0,0.17164123212858695,-0.8068810749516153,-0.8158067118952059,-106.99578112003842,0.0,-44.9802891622987,-0.4726772249978438,0.43736116922605905,-0.43826693886778245,34.27075459658479,17.56211432789952,1.5872281678674387,0.875850051986261,0.7933531694317255,0.7138212709547758,0.6534752191645998,0.5832809682754954,0.5578693873862003,0.4913347353979587,0.49159225521491684,0.36853553303283565,0.3154282447976084,0.2619508979007884,0.1618725101839004,0.14854081078791379,0.06034689378415548,3.191438819869766,2.1868632614250276,1.8820552164035187,1.7211498529575846,1.6164925262180128,1.5251809456959644,1.4099359244764107,1.339194538028115,1.21800470423687,1.0940104151239016,0.9445712215588604,0.8234938177232884,0.6483813986920993,0.5063389875550728,0.38811097022211627
0.0,12.0,12.0,0.0,120.0,0.0,-0.18703181666242852,-0.8991455406488551,0.18614573996690953,-107.0044139614621,0.0,-45.05619997842415,0.7336603516099498,0.8199506772298442,0.698861022752703,34.27075459658479,17.56211432789952,1.6104387003528564,0.9056037316875774,0.7417107543933095,0.6730680641784952,0.600389038842988,0.5755570630201098,0.48560922695563036,0.5008080016368611,0.41959033642342763,0.3343980888603296,0.3088621624218442,0.24122202753503577,0.1863391900063277,0.12374886374491322,0.08922827566996933,3.2106572067362924,2.143527065848919,1.8149024296516456,1.6881281502369272,1.5504313308199114,1.4986375410901625,1.396462691877107,1.2874951083919903,1.1512702700154174,1.0329008636075625,0.8938222059142741,0.7676994177955714,0.6001503279535779,0.5007799820805039,0.38506388642327466
0.0,13.0,13.0,0.0,120.0,0.0,0.06761512565036254,-0.5555241182198227,-0.43650415763581507,-106.99167188057947,0.0,-45.033729631339256,0.7244656381560663,0.41209402747875945,-0.09942404842464425,34.27075459658479,17.56211432789952,1.6101107928533145,0.8914609555853172,0.7242134917757393,0.6171923621051447,0.6026443676186658,0.541711279946325,0.4691203995886371,0.4571134365374313,0.40243418427715333,0.3478037381520257,0.2754935363978051,0.22288190907407132,0.20147290109235347,0.14778632631399247,0.08175535400838065,3.2398358121508104,2.1736577865890023,1.7989885702029043,1.6260799268903563,1.4783332220818899,1.4431009027495354,1.320604979003423,1.219303795928639,1.1115950630854918,0.9795342817008259,0.8738725220010967,0.7244637360580349,0.6153355302596973,0.458866915362879,0.3536879789154056
0.0,14.0,14.0,0.0,120.0,0.0,-0.594520650304009,0.569282967398685,0.35182710148643337,-107.07578167968647,0.0,-44.94011532295045,0.847676026924176,0.5899278713058265,0.7646714534720176,34.27075459658479,17.56211432789952,1.6327329978903422,0.9081448233927942,0.6645660847743469,0.5843218338772186,0.5465310001685871,0.4744821534802634,0.43667847285396266,0.42669296513537447,0.3668565452586284,0.3148138872881753,0.24518944676250562,0.17575260075141175,0.13859914485483343,0.11390062589794811,0.04066656534585378,3.2818622603655445,2.1635199533847578,1.7622773595566212,1.5784489513278277,1.444034269674202,1.3552041768602832,1.2522360842306353,1.1932872244142367,1.062105294720297,0.9649057303819126,0.8556248361153327,0.7141577046617434,0.5748495988393205,0.4743546413800617,0.332121996677412
0.0,15.0,15.0,0.0,120.0,0.0,0.34756543942220164,-0.1495253623251771,0.6846770602808994,-106.94146592641691,0.0,-45.03598649302917,0.5339999810006868,-0.6492293009251244,-0.8111669780375812,34.27075459658479,17.56211432789952,1.6393815872497883,0.8916823795923648,0.6928874536103945,0.5787610056141697,0.4905512914728664,0.48247568012364966,0.4688532235779291,0.4037407143477947,0.3410814117276561,0.2935887826220017,0.26366350437685354,0.20114409937900388,0.18101538355425315,0.12313338697614987,0.08442428767916743,3.291674047066852,2.1452234568406543,1.7419565359354483,1.5006403345593988,1.3602301163126618,1.3010298558268567,1.2085958021764112,1.1415118589894888,1.063945183383302,0.9293257064237503,0.7974508632960001,0.6819423325833494,0.5581175467038425,0.4569974990483993,0.34647088173244334
0.0,16.0,16.0,0.0,120.0,0.0,-0.5873418769747036,0.9220085287672002,0.6351938363605223,-106.99288829221226,0.0,-45.06570961202499,-0.3062073970322214,0.07104995179292306,-0.4063024551143213,34.27075459658479,17.56211432789952,1.7032959388939424,0.862041043652521,0.6907971760941769,0.5631055804434149,0.48842762746490787,0.4367975628876356,0.35792638389697834,0.3612446787980458,0.3306104444831632,0.2976940186743076,0.23878415718259574,0.16093607855584197,0.182466520861289,0.09323362114458303,0.07910252548076835,3.3330535396671235,2.190208557246119,1.7654186160591387,1.4916260742465206,1.3337995393619773,1.239746087772551,1.1510526817950812,1.1021344375134046,0.9837027801466346,0.8775654392511564,0.7752924879436928,0.6600385900243755,0.5508023299216467,0.46864635207569016,0.3219837003491171
0.0,17.0,17.0,0.0,120.0,0.0,0.5512246189853109,-0.7894496914224978,-0.4169170449127775,-106.9867426090571,0.0,-44.92742978916725,-0.8078549367899046,-0.13718200523648338,0.01756927971085398,34.27075459658479,17.56211432789952,1.6831295474788366,0.9051348354669303,0.6703920624163455,0.5510103993833381,0.46084021569458616,0.4286231894360984,0.3753747709028122,0.33299423007113793,0.2998011856899538,0.25558176208853994,0.20946443874809512,0.19027270708413285,0.17595722355754023,0.10988466644259803,0.03139674614419179,3.336975166722119,2.1796779748712005,1.7041762975496824,1.4305373412282374,1.2958556322892378,1.1831126448236808,1.126770723562981,1.0571841691719024,0.9518289005876982,0.812259353204495,0.7333825830509536,0.6586174648652529,0.5372940015741595,0.428237557327388,0.3370824947321495
0.0,18.0,18.0,0.0,120.0,0.0,0.6448664952981262,-0.1356945942708323,0.047445822926302395,-106.94258001008814,0.0,-44.88353353557501,0.14332621682848626,0.9511743142083824,-0.08165973896690848,34.27075459658479,17.56211432789952,1.6850617203702134,0.9305840262138538,0.6495805201941848,0.5245147526140238,0.433738202811006,0.41611350312977063,0.4063948427295324,0.3191260002708034,0.24718060743444709,0.2673328428861082,0.18543164754451777,0.21531050722760445,0.1514726647268476,0.09169184177572395,0.06541735961858436,3.381709889673687,2.2114035577303013,1.7059473903551226,1.4124759576040204,1.2750812518519357,1.156312842267141,1.1089161426846834,0.9999306263438859,0.9264580451684444,0.8183378786340371,0.726415411226902,0.6086921363349379,0.5217377260071215,0.43435598615836657,0.31475190002427617
0.0,19.0,19.0,0.0,120.0,0.0,0.48718016456202373,-0.14950048300944818,0.8690258430440709,-107.0575662746005,0.0,-44.97201588518317,-0.5812460605639865,0.8423028581435377,0.46893928636427673,34.27075459658479,17.56211432789952,1.7008802926318247,0.9313662216982761,0.6669981820982784,0.5121117898081895,0.4136326189665118,0.38600362569736574,0.3505288886884265,0.34190749046935653,0.2862849289739634,0.2430843996560911,0.18900833227815556,0.1571474050537671,0.1210190735723514,0.08630626188565987,0.06284242365389456,3.4342695003221424,2.250950636820817,1.7438546927511818,1.4044869923555072,1.204704655011353,1.105421501064863,1.043177162200442,0.963055476853091,0.8885714392595669,0.7912930499829295,0.6945915908909411,0.6116232649981649,0.5113010770864792,0.38915924116550005,0.2903527167121387
0.0,20.0,20.0,0.0,120.0,0.0,0.004660167945806704,0.45260424311781144,0.07260965866684677,-107.08511366319718,0.0,-45.015310915842264,-0.6935122300577591,0.8549043499166782,-0.7938045444031909,34.27075459658479,17.56211432789952,1.7863468541877279,0.936980837406575,0.6585539043406865,0.4912680745599891,0.39408651124945887,0.3716402150868679,0.3486459117699573,0.2922427047222792,0.2792030369672795,0.20977444165210168,0.2004798601701967,0.16782640019637804,0.13814924628388914,0.07555949975473078,0.06150551142916129,3.4394324502880465,2.206640111044541,1.745691691982604,1.3864828394986368,1.2083783106446782,1.0750257327156099,1.0031200369443116,0.9154843032792269,0.8619907546616598,0.7642265074164104,0.6767074618065139,0.5931155276180812,0.4696396191077969,0.3791187371258326,0.2909196153660662
0.0,21.0,21.0,0.0,120.0,0.0,-0.4096681459438929,0.18946299882510176,-0.23241947799065277,-107.0511644212197,0.0,-44.90143747567713,-0.163262037540983,0.2756921050581087,0.8142677759530588,34.27075459658479,17.56211432789952,1.7381122832407787,0.9153724594249291,0.66738307664737,0.45146109779957055,0.3867740073837255,0.3655399816986632,0.32953418950154173,0.28838991407154047,0.2803523550701435,0.21527958326251656,0.18527127421243184,0.1895608455707965,0.1078691390806943,0.06442239147362272,0.06894728911324205,3.4703676189972827,2.267416520694942,1.729185377789337,1.3880951518033282,1.1757320688623305,1.0499155392413124,0.9488518010313725,0.8823130254827983,0.8227860290830739,0.7335664717450437,0.6301351374295053,0.5628283498808803,0.44194224912421143,0.3528797127183527,0.2751642435501077
0.0,22.0,22.0,0.0,120.0,0.0,-0.21626241351613507,0.7348242004069292,-0.49846896466940516,-106.98417704523015,0.0,-45.014470065120534,1.0810876553094773,-0.5267745735679357,0.7069604624063159,34.27075459658479,17.56211432789952,1.7983128555713737,0.9283105852398469,0.6732273936777529,0.49901895820024633,0.3988147387282038,0.33683316317449863,0.2993623308491164,0.26454329502758656,0.2531467710181156,0.21785939764117832,0.1750488428005553,0.16850581325218625,0.09208100967303778,0.08607980405105368,0.07017438915238063,3.5096003427807143,2.2426484305129737,1.712128540084514,1.371233217180041,1.1079367159884934,0.9989284747974356,0.9239671779875307,0.8567910975313268,0.8147593830079212,0.7162020249655354,0.6377780753765481,0.5403545198099885,0.4757678019033169,0.3590963006933724,0.2541862609666234
0.0,23.0,23.0,0.0,120.0,0.0,-0.8210187203477752,0.5931241756303884,0.06316796280919457,-106.93706398198026,0.0,-45.0231437645395,-0.9699844936735332,0.3059371775622999,-0.9484229644538296,34.27075459658479,17.56211432789952,1.8026671394043694,0.9382678882740341,0.6456451231471655,0.46910753966297775,0.35533184140051094,0.2991297371003432,0.31703428237584763,0.24699120980167075,0.24914577458257328,0.19937068838294134,0.17698513854008097,0.15450929996028295,0.11267513593481371,0.06406227728808103,0.0689942083160229,3.5297978972844115,2.319905531789012,1.7653334966380412,1.3712973019094181,1.0809858128328922,0.977005226634484,0.9197439700966633,0.8279051371137819,0.7545573096296494,0.7216630290304397,0.6276606564908385,0.5331694771602628,0.4396670503357282,0.34361791680195597,0.2794385947704386
0.0,24.0,24.0,0.0,120.0,0.0,0.5444978697061136,-0.19998061935713096,-0.32495745547572197,-106.94729101689343,0.0,-44.9996473223389,-0.16940521909591827,0.5499370284712937,-0.9324165325255587,34.27075459658479,17.56211432789952,1.8023495377943883,0.966255034708145,0.6821021102744915,0.4632844777249222,0.38794720276080275,0.2971094756282384,0.2635237872210183,0.26347048546146606,0.22423859332370993,0.18928931697229875,0.17814128765520376,0.106596370267247,0.08678990994678784,0.10526608772035834,0.06075551062460203,3.5463442884662166,2.3229170186004655,1.7462370523929296,1.3456676153745861,1.085520866601399,0.9603721873078116,0.8650562336227224,0.7981462531800035,0.7529018661584922,0.6769668257929873,0.6024759786479769,0.5135705262570873,0.42519284427181436,0.34600876468922215,0.24869845639237367
0.0,25.0,25.0,0.0,120.0,0.0,0.13933095796074912,0.4395823338064535,-0.48557442622302394,-106.92513017782696,0.0,-45.03121640334945,0.9184939750465597,-0.7117133128155981,0.9291670960950595,34.27075459658479,17.56211432789952,1.8003542014959306,0.9653431570190879,0.6458533966147892,0.4619852651735461,0.28917234206321274,0.29017680658756084,0.259911375642021,0.26516227834172484,0.20412632226445948,0.1954956569381508,0.10377758016531954,0.13668542041526585,0.10646640088044242,0.07916559537011236,0.07096455775090346,3.6030733808930493,2.3096524106247993,1.767112782588752,1.3351474538031773,1.0451655801627946,0.9388372636882913,0.8293723265483192,0.7548805879783043,0.709851919828194,0.6457635658022621,0.5553929108353125,0.5048862735600096,0.4122540055101745,0.32285172178177574,0.2692837571501694
0.0,26.0,26.0,0.0,120.0,0.0,0.7350373076882821,0.4415170436043361,0.6258270884463266,-107.034708431516,0.0,-44.99815273719304,-0.9565328242920802,-0.827613817307981,-0.2032976394256798,34.27075459658479,17.56211432789952,1.8364286953063576,0.985176677713326,0.6490107467581833,0.4460700288532896,0.3331977807035132,0.2596669165678208,0.2422559290834831,0.16205908684112946,0.19689467623034268,0.1909886719374432,0.15653653586783028,0.1500791771417814,0.09198341030091896,0.09156241890111479,0.036253046301430766,3.598529346488472,2.354614218070848,1.7586855694828072,1.3391625093737336,1.0514959888496844,0.9035200392626461,0.8055236521127177,0.7383654958944543,0.6786271644238616,0.6211275725973981,0.5467544390880029,0.45052424775639066,0.3960780937763714,0.32751704792448527,0.2602640865424537
0.0,27.0,27.0,0.0,120.0,0.0,0.44039424895910617,0.5988325076940442,-0.7367451477489855,-106.93266973019792,0.0,-45.000261179197224,1.0088206882002566,0.36497455169015214,-0.10177030900770068,34.27075459658479,17.56211432789952,1.8477884233915856,0.9964809553766011,0.6705048171602604,0.461903305609797,0.3369576137976549,0.23267696588899792,0.2326116707592921,0.2016011095465135,0.17054906823553675,0.16921593628153975,0.18465022794645275,0.101697321933292,0.0861888416688141,0.08038550708435989,0.0632025889158855,3.654861164242621,2.349223072807858,1.776296058453897,1.3593822170284036,1.0481567308917084,0.8673265852373407,0.7834235025375503,0.726714492403513,0.6692574131295906,0.6061602193925175,0.5295582432967028,0.4812122886509737,0.37864116362017636,0.3022186440011658,0.24899936369490266
0.0,28.0,28.0,0.0,120.0,0.0,0.7488487207682955,0.472696632044721,0.514234954164625,-106.97972520311893,0.0,-44.94816883210788,0.7512406885213835,-0.6019562962525815,-0.7508985982370684,34.27075459658479,17.56211432789952,1.8737782039167008,1.000236960366456,0.6714262848929957,0.44336924570195063,0.31500874277524615,0.2559703206435923,0.2424285067285661,0.19078559327053535,0.20181738020871184,0.16080042849882403,0.13997788051387916,0.10925516183320792,0.11421347169619192,0.08677250069281016,0.03173577370775453,3.6514386034248836,2.377152871763462,1.8268881834426265,1.3426062816488746,1.026501734208881,0.8319683275632435,0.7719310892365937,0.7025247639367527,0.6326885788748903,0.5631601712203393,0.518034075175838,0.4184440376256872,0.3704274008344198,0.2976175213761668,0.23624415359932174
0.0,29.0,29.0,0.0,120.0,0.0,-0.8772867416006676,-0.43825052362906725,0.5503055096961371,-106.91243940684325,0.0,-45.00043388913086,0.4826182887950646,-0.3895379677072357,-0.7831225531933934,34.27075459658479,17.56211432789952,1.8624579904775953,1.0349820460709411,0.6706467375375122,0.4578029271271431,0.3509793118608035,0.22575437560388076,0.23109049971677992,0.1749741642394757,0.15462708136938458,0.16509084925297857,0.15694219986500973,0.08509525261718881,0.06720007363462677,0.06923650791910689,0.020240092399965395,3.7070491037193367,2.4079280892537533,1.8062390475593264,1.358001122363205,1.0248998529776858,0.8373182165711164,0.7288592642342961,0.6742281165662354,0.607912876889431,0.5518760074620487,0.5166229174144416,0.4284429564796397,0.3742653800465213,0.30583538545456557,0.22768003627828937
0.0,30.0,30.0,0.0,120.0,0.0,0.5506407083366889,-0.9380980404088692,0.28845195062036266,-107.04507590490304,0.0,-44.969035111077375,0.32497445996814267,-0.8117531075540481,0.6198145769671579,34.27075459658479,17.56211432789952,1.868791258170426,1.0453384868626723,0.7015205646264878,0.4566708584446071,0.31149996850956213,0.2345406610774823,0.1848743794960624,0.16674988480994485,0.13695641182951251,0.09125141279012411,0.1538123236701583,0.1314330240004616,0.07918793394527246,0.02934807459427495,0.040721628994476844,3.7043940931801114,2.4351045120468653,1.8451683575496698,1.3677688210102008,1.0077871258198794,0.7962645775675781,0.7562787168877054,0.6056008155651778,0.598410054039345,0.537412375225846,0.4726786890242479,0.4439289256572584,0.36330274495175946,0.30638521696974386,0.24903936895507156
0.0,31.0,31.0,0.0,120.0,0.0,-0.260975079760577,-0.07571851350984304,-0.3077305069875431,-106.98646889167247,0.0,-45.04529963989367,0.7604167163084861,0.21026084375470933,-0.7327387447927707,34.27075459658479,17.56211432789952,1.9009422094947508,1.0339160868444723,0.714104068236296,0.48337783402400847,0.3524981989693117,0.2576684744691908,0.2162082509042361,0.19338492192069043,0.16412547434171548,0.12500109055891376,0.14744307223022507,0.06556109321781659,0.08456580524572924,0.04629513311256442,0.014610523909697935,3.770407656426594,2.4690970161863777,1.8335790870904225,1.3528831259735377,0.9945366451088279,0.7893781010758679,0.6944097371392571,0.615458356139381,0.5917248307689749,0.5159539696667343,0.4559867642383482,0.389843755143959,0.3186093309310351,0.2794291264742009,0.21450993880556563
0.0,32.0,32.0,0.0,120.0,0.0,-0.19240892214530625,0.7291584160243672,-0.9020227516600707,-106.98977863889364,0.0,-44.92698660667628,0.22774361615657251,0.43297965870665744,0.8968929823631258,34.27075459658479,17.56211432789952,1.9508824465704726,1.079238544976176,0.6944464371503889,0.45657172502849364,0.31045976943047593,0.24572772127341933,0.19182190546288133,0.19550920431090363,0.1626680907558723,0.13354804511206306,0.09986283938670323,0.12216693775331972,0.09507716218775338,0.051790699233648575,0.04778583636362449,3.7899125283913535,2.469184352161572,1.8732153563380005,1.3548839494488545,1.0110699386691389,0.795694173637627,0.6868535149526771,0.6076311056839102,0.5651233675079697,0.5134108315749537,0.4490665499683397,0.4099649612878984,0.33565229635392924,0.2508718632543459,0.201996416204898
0.0,33.0,33.0,0.0,120.0,0.0,-0.05870297601521446,-0.48752997030921286,-0.32403430645775333,-107.03049163613063,0.0,-44.99534098856091,0.4574774324445789,0.6776907865270243,-0.6285436389859194,34.27075459658479,17.56211432789952,1.9696444297285027,1.039109134948731,0.6849365732856073,0.4658098149170245,0.31568581092962833,0.19309244995904007,0.18521736464980243,0.19754016786489362,0.15702796092490195,0.13174763391178954,0.15212461141139383,0.1477783430493081,0.08232418437088643,0.1132946782021167,0.061787709143929975,3.8156871167505493,2.4952393125372487,1.8508799011241825,1.3985872996623714,0.9819523998565802,0.7640295651129397,0.6305387174723558,0.6083771487359843,0.5519486092688323,0.5037525911812204,0.4432211090184096,0.41245155049087745,0.31338813944133775,0.27855089624665236,0.23779367504277615
0.0,34.0,34.0,0.0,120.0,0.0,0.9726594578159764,-0.027993813707047455,0.816857729356125,-106.98739605399427,0.0,-44.994113919920935,-0.9820219917687458,0.5175272781899505,-0.9840004944436058,34.27075459658479,17.56211432789952,1.9605734790987592,1.0912134808596266,0.6947652793975744,0.4804187558258421,0.29782645887844805,0.2017033133305484,0.20799488352490653,0.15853639887513868,0.15122605042087034,0.11551028930695584,0.11813123859942883,0.08735617822039092,0.08327532698562218,0.02700612361819458,0.012266722025978859,3.843544286919423,2.476200045918801,1.8759830253988978,1.4019872020105086,1.0108493767665288,0.7525852879601241,0.6469751702152189,0.5720834428223336,0.5009554226750093,0.46360596179720326,0.42751962156707146,0.3644353014973738,0.31143059889218955,0.2650811231322928,0.20417998346993566
0.0,35.0,35.0,0.0,120.0,0.0,0.5640907978019314,-0.2809271019820898,-0.5908024577146995,-106.9580946368271,0.0,-45.04485052446532,0.7728476640898686,-0.018575445000002855,-0.3658212042975886,34.27075459658479,17.56211432789952,2.022573216742252,1.025675914283069,0.7185280333567867,0.48698951328150164,0.2749194240629992,0.19091146344839618,0.2084734305851754,0.16134341661107246,0.15800962313942385,0.11824518597474305,0.12464049047863567,0.07884290260064183,0.07188545993240593,0.060740809899726474,0.036462959608685966,3.8376241000043354,2.5085426327407774,1.888341230630914,1.3954795424097155,1.0179179125325124,0.7345178933164787,0.6133434659047106,0.5271047955162786,0.5139609997975322,0.4471742163064784,0.4056744424431583,0.34380110148966747,0.29835805840114515,0.24054500696184733,0.19748035459110824
0.0,36.0,36.0,0.0,120.0,0.0,0.15943350642736442,0.4796160642117058,0.13713506470051384,-106.99160215628585,0.0,-44.94824916270164,0.9144089374466198,0.3919597870160625,-0.08664708304094582,34.27075459658479,17.56211432789952,2.0003046251406924,1.0848950336639602,0.7180148031488327,0.44653636598000823,0.3060851071407702,0.20385739245084064,0.12543077114901013,0.15130520806920608,0.12705303290875375,0.09986178477385073,0.10751291460403364,0.09348662526886363,0.07841810810647296,0.03712940646170086,0.02631123774889977,3.8990429646688916,2.5324639715648622,1.8996406707471019,1.3988379863069822,0.9700406020842989,0.7411402541944077,0.5946086886914232,0.5585666788754651,0.5059938782193123,0.44271138851261166,0.3558684939322532,0.35453780382378625,0.2994788959156992,0.23620217233758042,0.17711002796079242
0.0,37.0,37.0,0.0,120.0,0.0,-0.08323426856779981,0.09606243912253887,-0.5716622141660908,-106.94132535527807,0.0,-45.10363868285209,-0.3384635088040929,-0.016798827223661217,-0.005635889438853514,34.27075459658479,17.56211432789952,2.0219400480089287,1.1085912150226045,0.7536929660859375,0.4790085133286844,0.2828225381123154,0.23600100190020767,0.14438828133845483,0.1437699188594076,0.10515756317501596,0.12716720207904025,0.08686710025826173,0.10701539136345929,0.0632579324629867,0.07126015886382071,0.05244086657065318,3.9331956307240024,2.5551551610604473,1.9254526821827096,1.4190425743730533,0.9829502479181803,0.7380357138003864,0.5639347853072901,0.5077767406789669,0.47021812689076714,0.41762986636825183,0.3941350743596067,0.3451225076465258,0.2523018363702698,0.2413269279278105,0.200079400955662
0.0,38.0,38.0,0.0,120.0,0.0,0.08036687528277575,-0.18781245333271257,-0.291727513277664,-106.99690729824268,0.0,-44.959809892018214,-0.38214143160151715,0.05930245822092961,-0.3469516917122799,34.27075459658479,17.56211432789952,2.023917952537477,1.1121337208644118,0.7813605457209014,0.475600991123204,0.30536339253485295,0.1986571493734246,0.15587053852120591,0.14067762885861643,0.15809492315914886,0.10418290033656806,0.0881529288145627,0.03606663870527595,0.07902710010893027,0.07638017988639476,0.061470650337016194,3.9531007073492583,2.5356218558798838,1.9057121169860278,1.4383321607254058,0.9994073883034954,0.7395151724765654,0.5672644951184721,0.5047138034551033,0.473912071482349,0.4033550367991697,0.38305551925964854,0.29445295215579753,0.26156659670073407,0.2330473448202551,0.18461618518813783
0.0,39.0,39.0,0.0,120.0,0.0,-0.011804130464925677,0.2032630595630096,-0.1326115384384583,-107.00649228096314,0.0,-44.9914504591211,0.20170734525967937,0.43606782407312683,0.9804220318392474,34.27075459658479,17.56211432789952,2.06269084757664,1.086595342934096,0.7409845676281324,0.4978695125502579,0.29102744554756077,0.14998335008960273,0.13680658685195074,0.14721038216613697,0.09900409064515428,0.10595989277106534,0.09687972513522698,0.056798709218237764,0.060823013740291205,0.08678826842014005,-0.00021420031174866627,3.975304674374804,2.587540151338161,1.9680373210316129,1.4198566054310642,0.9840911295827989,0.6919504821386315,0.5595876077556328,0.49216086994269154,0.46105107267796536,0.407473122392204,0.334244091412303,0.3259716062939473,0.26581025757823085,0.24133248273299218,0.1714538874007864
0.0,40.0,40.0,0.0,120.0,0.0,-0.8105670614604745,-0.5702214419273224,-0.9468477172577967,-106.91120812749351,0.0,-44.955941135234056,-0.0763160713371929,-0.1645023641964185,-0.30620363969831077,34.27075459658479,17.56211432789952,2.0637643139994797,1.0838875535336274,0.7998159423399492,0.48195057117079093,0.30694650156708425,0.19513463481879023,0.17445665313211145,0.12356063125108477,0.09920621928494988,0.09561482857159738,0.06959660839227101,0.05217946055937502,0.059276763089655314,0.046824793237086895,0.024761128226495913,3.984375581252423,2.5955933457716283,1.9796838433223056,1.45885390258313,1.0176483492653432,0.7018132547533373,0.5383846027847207,0.47337042943507696,0.4285681327771509,0.389605458808186,0.34936342876994786,0.29134739589712644,0.2540768638266054,0.20354720779442925,0.18555023052400685
0.0,41.0,41.0,0.0,120.0,0.0,0.4123167008007129,-0.32372144352081555,-0.48404388629659967,-106.99011149631997,0.0,-44.996428892587986,-0.014652032373671124,0.029772316562499457,-0.9366944374604262,34.27075459658479,17.56211432789952,2.1261239900204285,1.076610420004871,0.7503180269848396,0.4913428383066133,0.27709287932698373,0.2080286222309709,0.10687172229632047,0.12891560593553894,0.1088434196041818,0.067104670495799,0.09634642384696515,0.05949519510602156,0.021445055892621842,0.027785952272862232,0.014817561152768916,4.056786985342504,2.6311952911618817,1.9657814823634177,1.4654454033803912,1.0147579741044224,0.7015385332643488,0.5674556744858815,0.4607009723227392,0.4088711950590232,0.38454581636283947,0.33149789478955033,0.2971913336454282,0.27411927331846003,0.20222355907442244,0.18679293918752404
0.0,42.0,42.0,0.0,120.0,0.0,0.07259446721805429,-0.6765084197731515,0.709571543601808,-107.10483015834521,0.0,-44.92730480153716,-0.9838646863370822,0.9469856143704118,-0.9734074103106882,34.27075459658479,17.56211432789952,2.1145327546986765,1.1167993340256495,0.7560353528668955,0.5199176506314365,0.2720190158519302,0.1631379356916146,0.14712369811727974,0.10765019434510395,0.05267258761018994,0.08309277306033826,0.08007835794651218,0.05639731625274051,0.03479758172814628,0.026384665778990436,0.038529374414238045,4.087071006419976,2.637886971303379,1.9867786562765106,1.4534211887913908,1.0100866552137917,0.7145457112725836,0.5248966225950283,0.4639339243547673,0.4000040859215146,0.3636281808529881,0.3552090728850977,0.29547334001488046,0.24870801853263952,0.19534583514121637,0.1617089999699082
0.0,43.0,43.0,0.0,120.0,0.0,0.7531515560294659,0.6371542360416487,0.9864406887063133,-106.87416344370757,0.0,-44.96064565519154,-0.38904186556763676,-0.13945244366568277,0.6294097805987529,34.27075459658479,17.56211432789952,2.1606057247884127,1.1458782312416198,0.7639166957244142,0.46922873423732636,0.2976287956157116,0.17588154545494322,0.14933646927157956,0.11872873030476214,0.10453234121523193,0.09819596589144891,0.08529509360057935,0.04111983495290262,0.02928144331760958,0.04890760628781383,0.010774732197184608,4.073932876804407,2.654812233126363,2.022536794082903,1.4832136143316532,0.9938798065401152,0.7100658710953263,0.5316836562911548,0.4450216877971472,0.3868144788767003,0.3529020842190797,0.32359183743005127,0.2805603356647825,0.214853197083911,0.2163927412170368,0.15098565911334055
0.0,44.0,44.0,0.0,120.0,0.0,0.7911913586325463,0.033081733778989264,0.1659987443383628,-106.99121095136492,0.0,-45.00404556731539,-0.836474695189322,0.03294961720006384,0.04325347914443167,34.27075459658479,17.56211432789952,2.190440522094959,1.1315295263417469,0.7808256221043389,0.4593233423647004,0.33956813250568263,0.18951568833590332,0.12078502226192393,0.11658660503366419,0.08091032109329349,0.09372233229498611,0.048904726230449294,0.07291725697547119,0.01922604194039333,0.0020328710344213463,0.06291546931758935,4.111067887808369,2.66460117870732,2.021961855623515,1.4664816689125537,1.0084056794671465,0.6981130820495359,0.5279273099631725,0.45155014484392897,0.39412130524041245,0.36679330822429995,0.2912385837412477,0.2606828407119432,0.24113146808217248,0.17330688817726334,0.14728093987786556
0.0,45.0,45.0,0.0,120.0,0.0,0.3318890794043885,-0.6352962732067069,0.5577210662099545,-107.02724398975334,0.0,-45.079979866927786,0.41016665862383167,-0.10884358643182934,0.9893372756608527,34.27075459658479,17.56211432789952,2.204380400538263,1.1443949193423149,0.7980241870271945,0.5087327254013162,0.30222982724667674,0.1835193743402354,0.1716144135712607,0.10535265486775804,0.0641383822215071,0.11421476191222467,0.07066524892788449,0.05925362945674368,0.032059278040477895,0.021799749450471115,0.011479456615103509,4.126102425557289,2.6954668606266035,2.0349359206367788,1.473762899602202,1.0012655953498837,0.6801797931212137,0.5136136807963771,0.412808646186921,0.38667637456485726,0.32998620951649077,0.3059864664833348,0.2409350018754627,0.24637919141990747,0.19410975502687544,0.13615168194156782
0.0,46.0,46.0,0.0,120.0,0.0,0.9314072262167954,-0.06598268648322603,0.8992816885263222,-106.87525511250833,0.0,-45.03684458113031,0.31720950633563844,-0.607839945263146,-0.1252469812500241,34.27075459658479,17.56211432789952,2.169791618484665,1.1564817975899218,0.7919030486313781,0.5200795022839639,0.3044793936253496,0.18568330342967626,0.11578459496626674,0.08144397611315299,0.05422088412676103,0.1520335154004202,0.0704860676174242,0.08847193465858251,0.02467340853380874,0.02497647929918024,0.022878660588916275,4.151322543244974,2.7083225227748033,2.042656960672531,1.4898312814959842,1.0544204124559564,0.6909617688913713,0.5073399699605398,0.4164938579628635,0.38474645037750693,0.3287247627222375,0.26470153837681887,0.24750735020096518,0.2311166766210958,0.19811173865390086,0.17434062037634057
0.0,47.0,47.0,0.0,120.0,0.0,0.5402982253907438,0.5474180125625012,0.9083559980057885,-106.99848214411895,0.0,-44.946182379686704,0.034041097046589364,0.15667126467878423,-0.7154156367769349,34.27075459658479,17.56211432789952,2.245425966192976,1.192089185304735,0.7850821914144298,0.47068524324055067,0.2865580796483963,0.18949856390650985,0.13422382437059943,0.11266931347025616,0.07027511070992469,0.05350683508250339,0.09611617538835064,0.03578789660288588,0.003200189229962097,0.019574126161766146,0.01286805187382145,4.197298078633425,2.7577545538361012,2.0656958624210833,1.526700884518901,1.0563120240042034,0.6486836126041631,0.5079992242664272,0.4146448764019117,0.3390236810114623,0.33109169620724216,0.29279338520184006,0.23928895909812103,0.2420559675216616,0.16746239249314543,0.13646576195342094
0.0,48.0,48.0,0.0,120.0,0.0,0.8020542465667249,0.2841312879079483,0.009722133600650773,-107.06141806284941,0.0,-44.97660147235629,-0.5600172775839157,0.46442322087647114,0.18320528663925484,34.27075459658479,17.56211432789952,2.284516626897786,1.1676039362300652,0.7889929583865226,0.5278077316386635,0.2899126200344917,0.18402274727139492,0.12459279273883729,0.08344855173048764,0.1085122814922811,0.07756258348522163,0.05828966975637137,0.03953976855160732,0.015817407893139325,0.040054460390000615,0.04953908264976472,4.2168312764398586,2.7527683313159756,2.06411391876111,1.529654810885444,1.0323727059878312,0.6935571267313428,0.48017645631992056,0.416547766784931,0.3560262801116117,0.3052911149561689,0.28085758522319815,0.24452372237495124,0.2027769790935482,0.1664159648384907,0.14835361418830098
0.0,49.0,49.0,0.0,120.0,0.0,0.38780756330850585,-0.4782103132343225,0.9739558316853609,-107.05310669311481,0.0,-45.05044968731984,0.47530821855702093,-0.8807136159540407,-0.1627587494778875,34.27075459658479,17.56211432789952,2.2905173805760963,1.2202090470031608,0.8074300183330237,0.5108223869685353,0.3354103499039664,0.17510250682974027,0.12945589059987905,0.07660477310580976,0.07683970308532918,0.09114942850386752,0.08842646538422946,0.08268306246641954,0.03643283724659929,0.06642172016634773,-0.0005158839207599561,4.265320221155663,2.7567542502876674,2.0998627255457873,1.532833188773423,1.044231745498824,0.6771926014130558,0.48233712599861206,0.3786683553472618,0.3459093117118398,0.2759582025109515,0.27137008680460795,0.24256106794380541,0.21673269960841718,0.1756756519917188,0.14045459555572934
0.0,50.0,50.0,0.0,120.0,0.0,-0.7105622332066552,-0.6903762490747882,-0.34836094578004295,-106.93913585620069,0.0,-44.91836750199741,-0.06339085879766956,-0.4477681330026224,-0.5851497494289544,34.27075459658479,17.56211432789952,2.2924453310590693,1.1762177120700579,0.8146091639716925,0.5369382902191727,0.3111083775373275,0.21575831767452583,0.09883935524500613,0.08432123704822321,0.06816018298659897,0.07973923219991921,0.023586903983337133,0.07347480992639681,0.05047060938806083,0.04974486398901079,0.04583236865729373,4.3016145547642335,2.795021624013958,2.1085485932234027,1.567633072077718,1.032498634621344,0.7110094834878632,0.5056784229157125,0.39204693141711583,0.3426474899723305,0.30342030960016175,0.24607480771829204,0.23100221367884885,0.20380526992832831,0.17174679622302594,0.13087537246647585
0.0,51.0,51.0,0.0,120.0,0.0,-0.8153947264988708,-0.14122986648900704,-0.8865735766282539,-107.05702622388617,0.0,-45.055020853481636,0.4753838230892514,-0.5313422495793729,0.24469143852886033,34.27075459658479,17.56211432789952,2.272931043407474,1.2396537292145375,0.8405667096168679,0.532553847879808,0.3407824143438841,0.16466808699668667,0.08851018183850975,0.03974449720593448,0.05152335701526567,0.07148245934179452,0.06724219323008307,0.04700673724771703,0.06849161445929156,0.039498006951278655,0.019976331487332293,4.33164988132251,2.7918806108398324,2.136801072672169,1.5426225433990948,1.0780648551843575,0.7127251572377118,0.4530301005821248,0.38500871576688517,0.3052297993064237,0.27962737352219524,0.26862497966030785,0.2170885707084244,0.21547387415942176,0.17114603843320306,0.15694113066494841
0.0,52.0,52.0,0.0,120.0,0.0,-0.07993663948544993,-0.21339343333399086,0.7369929104212716,-106.9043077496845,0.0,-45.00049447940542,0.022256448773080948,0.5861872757593596,0.27158533196121315,34.27075459658479,17.56211432789952,2.336283870338378,1.213475170297026,0.8056996975776682,0.5163509336132932,0.329401192134581,0.19787883524784716,0.14201881303734262,0.09120579606137831,0.05484016173838526,0.08141117023353033,0.04715316439513195,0.02255337550869426,0.02354676053594758,0.029330113535995017,0.01756526590262062,4.353135306220304,2.8096993815607783,2.1428145642707412,1.5569040542666015,1.050032699591306,0.7161627662543449,0.4802209131896532,0.3877359758834884,0.2995084010896782,0.2712866113559257,0.24326044114073164,0.23443564308073817,0.19157659392935603,0.16364962923291368,0.12248399558276207
0.0,53.0,53.0,0.0,120.0,0.0,-0.1608424562992723,-0.2602633155730123,-0.48436404940206756,-106.92557561883947,0.0,-45.03521086573468,0.09397291026050378,0.5693330696153454,-0.31125905979560575,34.27075459658479,17.56211432789952,2.3503668812896135,1.2398720856909422,0.7803466835676565,0.5307080921389515,0.33478810917416413,0.1871765169238853,0.11593279653364419,0.12432191926664185,0.044597184173399404,0.03050206508673809,0.045302930128822486,0.015793696665516384,0.05418505093296496,0.01050384406186879,0.030893107082566235,4.34937965231141,2.8336034673072024,2.1668709592541444,1.56633225181429,1.0705182409734175,0.6979500367499774,0.47179882127440326,0.3617651805364003,0.3111205567309381,0.3182247102745341,0.2260015328078351,0.22859278359969892,0.19513026190444538,0.1678390936964532,0.1262889401885705
0.0,54.0,54.0,0.0,120.0,0.0,-0.3945532133900682,0.5922269026937073,-0.8730685026640694,-106.94488282608052,0.0,-44.97554980410315,-0.5121594326018496,0.303951536933907,-0.7779305055520598,34.27075459658479,17.56211432789952,2.3950821481529796,1.245889106496358,0.8205500118564267,0.5421675715941261,0.37822459506905304,0.18664272075526078,0.08771209412387437,0.07953453897964267,0.0764188790702752,0.08336437586165099,0.03914540952861017,0.07463857507313953,0.02357132404485585,0.04588455535959872,0.01901479532957453,4.418100451280241,2.866942801334973,2.1509048998587397,1.55960791732044,1.086374071876067,0.7086066377357811,0.4701283500626537,0.36107459895322647,0.32285546480898647,0.26915371319702147,0.2413287439283975,0.2023728489522864,0.16410155748652672,0.154105123244569,0.1418428396020569
0.0,55.0,55.0,0.0,120.0,0.0,-0.7000548268693942,-0.28125267573084956,0.8438296872203366,-107.0157016746076,0.0,-45.01135148271648,0.8613504459692276,-0.9818150479358627,0.852875531311609,34.27075459658479,17.56211432789952,2.3915778284509077,1.2269933620397613,0.8744263471461431,0.559604697961436,0.32500298968858593,0.17753712988289996,0.08861873160454879,0.05615276575241043,0.04627801697184669,0.0679755979923758,0.055119782721034474,0.05744269268341076,0.04648723336498547,0.020892097322464692,0.013532245993410533,4.433825264460461,2.8772488449001576,2.1878791747504764,1.5739939771779023,1.0978349309545998,0.7010051507996409,0.45895245649263705,0.3462592049745621,0.2620933539365078,0.25012359888196245,0.22832892626866774,0.2055743014283717,0.16075091020651142,0.16062525637981534,0.11692716593757177
0.0,56.0,56.0,0.0,120.0,0.0,0.9252094817071084,-0.47869572531232785,-0.6925702924957424,-107.02500897420353,0.0,-45.00996984132907,-0.8872085166381489,0.7967555224536096,0.1908591708788534,34.27075459658479,17.56211432789952,2.4233605813813033,1.2638960881963217,0.8406820146205122,0.5517835072803866,0.32338702445200684,0.17274185101996734,0.10526385524365173,0.050941387660426427,0.04204923993110924,0.01961181208682619,0.03525406535788306,0.03870213806587324,0.0005079824300014829,0.025692048979941345,0.018451831810984802,4.4653222763940885,2.892017053500585,2.1899190780425313,1.5818038970735473,1.0936731461341085,0.6886464963863265,0.44540931166775755,0.3170136999991147,0.2666242166446459,0.23539841205419398,0.23745757362621908,0.17919408334956252,0.17635578326514864,0.13410018238870863,0.14860000374797344
0.0,57.0,57.0,0.0,120.0,0.0,-0.5367180651879155,0.9536209940626879,0.965863729945774,-107.10088781841904,0.0,-45.05201232923879,-0.3234770682678165,-0.4669867473389955,-0.6606067451764877,34.27075459658479,17.56211432789952,2.4451313485271666,1.314345168622784,0.8427310227686362,0.5372948507162275,0.3586543426349882,0.18018848949941524,0.08138516548647087,0.06918292762279692,0.03764741283020435,0.04360955217398288,0.03801031026067065,0.00048699064885346366,0.025092912647474253,0.025423046539393417,0.05918277311883112,4.5037961059787905,2.9108776248034753,2.1986072297595953,1.6135428763420545,1.1164579472392602,0.72204778206708,0.482158952493079,0.3420917073816798,0.2701166743129756,0.2492037073673577,0.206182457177485,0.2240414485965258,0.17086938949259675,0.16883062277941424,0.13038793491874412
0.0,58.0,58.0,0.0,120.0,0.0,-0.003965950842457211,-0.08449760211847424,0.9413844613016409,-106.95523922314655,0.0,-44.98147176491666,0.026017532359551565,0.08089314588138663,-0.40462279937665135,34.27075459658479,17.56211432789952,2.4732843088060013,1.3363514573717659,0.8618696870036078,0.5481030717955028,0.2922818567302348,0.16491397729628818,0.13221675202996988,0.09513884912988234,0.05035403311055101,0.05860622882094346,0.05488099167688657,0.07317290520419438,0.0553723067559594,0.028201197199288718,0.006917130929300316,4.529963241451011,2.9057066495657957,2.199229873611071,1.6007216948320329,1.1044048409711618,0.7059752127280318,0.4523645081568962,0.3459617382305699,0.2788448043473525,0.24238000851480412,0.21683139138056984,0.22009420186495285,0.1825795577999092,0.13244911716506522,0.10729035087557127
0.0,59.0,59.0,0.0,120.0,0.0,0.6387543232064261,0.6779620793724224,0.2791433457281136,-106.99312706385959,0.0,-44.94231362654584,0.5752977211137335,-0.45906721835824316,0.9274381006364292,34.27075459658479,17.56211432789952,2.453000846603958,1.2789321729157512,0.8583616063544094,0.5189288900730586,0.3327969051185294,0.18327000031370624,0.0767560193198549,0.05382658663545989,0.0630855030486081,0.0685622506479271,0.07685353603495146,0.03145572855250155,2.6341598591637233e-05,-0.02937099441870545,-0.002266838163111573,4.540349064923715,2.9670157223346023,2.2145559884333816,1.6444128206625308,1.1196215103790668,0.7089511671667287,0.488212365709153,0.3428820333965979,0.23387367975388573,0.25486721090531944,0.2096065558671134,0.1811118494304961,0.1770287055668794,0.12092824174152524,0.10137814894872814
0.0,60.0,60.0,0.0,120.0,0.0,0.6793957261486674,0.23845112120559464,-0.43647636385389466,-107.04804775539606,0.0,-44.90811536485356,0.06760759223163622,0.26521778772223836,0.12917477182295212,34.27075459658479,17.56211432789952,2.5155154319526436,1.322978694563891,0.8622836838465754,0.5884628477424844,0.3364984522744625,0.14664321695517607,0.08569653250908171,0.08659638661755101,0.09521210986459665,0.09741220028020495,0.01807012590146854,0.047712660119740645,0.005844665863079749,0.026393717392568745,0.002473306129145432,4.579120344923306,2.9527879696252834,2.243206115001468,1.6344482162611986,1.121741836098289,0.7187557584835615,0.46535981752781874,0.3113965309774155,0.2664707341956519,0.23430970002320264,0.19760356740428958,0.19067382536517144,0.1796571674593486,0.14516892841791842,0.11532804975120553
0.0,61.0,61.0,0.0,120.0,0.0,0.03403753052835534,0.011629433833462377,-0.6897737970434326,-106.99086964312625,0.0,-44.95789733816433,-0.6761908073741946,-0.8143474378984938,0.13025567393951265,34.27075459658479,17.56211432789952,2.497873354687018,1.3254194141201032,0.8343065643068375,0.5304581352770327,0.32368795418137786,0.18942771737526207,0.12758560983520056,0.03408043245654276,0.07353509072964855,0.043598886265977244,0.03995464960347543,0.07882004900801706,0.04829869001023709,0.02664240513721899,0.0086050714002338,4.6015021973816825,2.9791091335796955,2.2304499931239348,1.6686678793918899,1.1207900141159874,0.7213861515586287,0.44697815507211164,0.32998102997838197,0.243335480600441,0.23446204039916227,0.18034585638442918,0.17442061868379125,0.13388046061632114,0.13063766910113403,0.12478119979108396
0.0,62.0,62.0,0.0,120.0,0.0,0.01237935230905074,0.02287671420440196,-0.41620365473172094,-107.0787111545954,0.0,-44.96542170921647,0.260615318334496,-0.7801778989157333,0.024928520688131117,34.27075459658479,17.56211432789952,2.5231479603854807,1.3066506470895956,0.8742427686689712,0.550938533147455,0.3419604957649568,0.1832193933917725,0.11802984318694387,0.06279473305332066,0.0767613547723945,0.04530781540809868,0.01797061055322545,0.03165093692742642,0.006908420260798926,0.016439477185898548,0.037358996606637995,4.668585855358524,3.0255000857983694,2.266849516524859,1.618949513443504,1.1522603940858451,0.7154755164963558,0.46032120587999087,0.30228819616520225,0.24589593698004952,0.2392344972026988,0.19713989594726977,0.18419424757442143,0.1596600751047149,0.1301640973133871,0.10177641316769395
0.0,63.0,63.0,0.0,120.0,0.0,-0.7141794828012984,-0.9227202525398499,0.08926698758362206,-107.07235908914555,0.0,-45.00692170493318,-0.8260730649694088,-0.5344480491189869,0.6689199395474703,34.27075459658479,17.56211432789952,2.6080924996905224,1.3107113810415845,0.8938183429689156,0.5930033289761119,0.3349083502979535,0.18660852131069303,0.10577847009075225,0.09065932509191532,0.06474982873154855,0.05412168192546807,0.08271837542310992,0.040781518462758876,-0.01320462704339279,0.0456623670781629,0.02747829462080588,4.679270237471206,3.0423074268404897,2.2687058065557655,1.678316810910768,1.1284849362989675,0.7137505330241682,0.4778323525657014,0.3288917663189965,0.2588923000005402,0.2356743553638105,0.18834766751083232,0.16192871865363348,0.14539795871052608,0.12098085389342063,0.1162218292438012
0.0,64.0,64.0,0.0,120.0,0.0,0.5898094447330653,-0.32664810730644955,-0.5183422819281223,-107.05462186296833,0.0,-44.891915267726404,-0.14290032049081802,0.7044405960036593,0.9416772123435126,34.27075459658479,17.56211432789952,2.588181863923419,1.3427518339754716,0.9315009076372299,0.5781945481555937,0.34555706124924623,0.18756986821097416,0.09448343804904083,0.0861723981386659,0.03794253326926934,0.02620599167106724,0.03182304559585812,-0.008158207005951705,0.036303637461226425,0.0384243595184584,0.0254586518117089,4.697096828964575,3.034457398403512,2.3170926997867376,1.6841204139045762,1.1492299529874712,0.7416581612226608,0.44266009975654536,0.2949378359646453,0.2674611802495595,0.2183134046531594,0.18766174576841968,0.1684645426790078,0.1659933569986924,0.13707512168674066,0.10013674579126297
0.0,65.0,65.0,0.0,120.0,0.0,-0.8421945233000323,0.13382053780768466,0.6696882564409183,-107.0123894878669,0.0,-45.03221043147042,0.8504243670293234,0.047895888067294834,0.3284702871615066,34.27075459658479,17.56211432789952,2.6044242750669597,1.3578973402840857,0.9137617254548185,0.5982810721329945,0.35198355217633465,0.2020627456628321,0.07921250304525393,0.08899103191694877,0.02699036352928497,0.05594499733530299,0.015104220388784832,0.009222241130921911,0.03002958739048671,0.015787952746342718,0.04235754284118974,4.753979738932044,3.0600746992103685,2.3209437667917627,1.7197195899704674,1.1514789310039741,0.7476431019757857,0.44751420947977816,0.28933101692648466,0.2196039132602131,0.19448819515916216,0.18765119673192368,0.17335672352171655,0.14681921514007673,0.1239075261318385,0.09923767323329166
0.0,66.0,66.0,0.0,120.0,0.0,-0.2071887264896517,-0.8251162345016971,0.7874204004981065,-107.02546167279499,0.0,-45.04227425276483,-0.5587455013267256,0.020927437610707367,0.5802609911109513,34.27075459658479,17.56211432789952,2.6525034907041913,1.3570042556925708,0.9062323051384107,0.5752078252945381,0.36711939283336603,0.16778669229071758,0.07797087696543258,0.09189747118536834,0.06524182536709372,0.050183791697414465,0.05737463042102646,0.017402952495402517,-0.01476370940953834,0.046151248911500464,0.022978671396391374,4.793424200562567,3.1137599751551552,2.3456526512358717,1.7128099079342616,1.1587155084891276,0.7709250742899232,0.4661293589141303,0.31522477373549856,0.2659070361271984,0.19082339533758527,0.16162379030005206,0.18780192040440702,0.14315492100084087,0.13992838673280655,0.09680827788400125
0.0,67.0,67.0,0.0,120.0,0.0,0.22090025148490522,-0.37717337300202436,0.30941952481611623,-107.08138232140091,0.0,-44.985365857738444,0.0387698353322267,-0.11193398559107037,0.8154933604490673,34.27075459658479,17.56211432789952,2.648763848083321,1.4319951180464887,0.9276262247404734,0.6420492742983235,0.3652781030910991,0.20581657544160975,0.07888442522911489,0.0532876291655338,0.0342893002166447,0.06447075994105847,0.023686039641181038,0.03258107872994795,0.03521329873136302,0.06148066284584526,0.025668585691310156,4.799460743590978,3.0770308931453525,2.331469806820396,1.7314462462435638,1.1722880013114667,0.7542962299463534,0.4680050506394217,0.31232187934693234,0.21557663889228879,0.1930469704783109,0.1730321508099366,0.15444918480708197,0.14093687477211983,0.12685796066080213,0.10414314411434669
0.0,68.0,68.0,0.0,120.0,0.0,0.9319025722375216,0.7573832689708362,0.3583297948445694,-107.007100186958,0.0,-45.03158688110855,-0.43223593414062095,0.5616336237747195,-0.3908396046173277,34.27075459658479,17.56211432789952,2.7120592826146903,1.3933804802492633,0.9023145250690137,0.6227114611860456,0.3543204637207571,0.17066533565343958,0.15888288038493661,0.0813721018716991,0.07225493245366821,0.022655150247526304,0.05266828368483955,0.025204734053147007,0.011269177686948541,-0.01544814513209489,-0.015497572195164153,4.835786352172379,3.119193948483299,2.3292298301647927,1.7314082533967294,1.1522729826501437,0.758573641009743,0.4594032258620028,0.2999075192752651,0.2086640993185699,0.17844035447189344,0.17645337378103426,0.1248425773431433,0.11152837671430194,0.10222273457092143,0.05933555435994667
0.0,69.0,69.0,0.0,120.0,0.0,0.313325299801519,0.6265884355617652,0.04803186704590656,-107.09941903708724,0.0,-45.00928440825386,-0.7683159238884248,0.6542172469857781,0.5425256189664969,34.27075459658479,17.56211432789952,2.729876195392622,1.3635049585937746,0.9416026984460618,0.5883239919932126,0.35007660493218035,0.1948419090979749,0.11928886956703619,0.04882319561758939,0.015372174510518446,0.03637438642262222,0.036719850254991436,0.05854284980521082,0.05217454222318399,-0.013525569248758727,-0.006651367947329231,4.867793522777303,3.1449926225683695,2.3521324580193563,1.7420843491074327,1.1720898292763444,0.7155150060277375,0.4621080509278266,0.28173080626384356,0.23579659555962013,0.18422610356233415,0.1537558505551222,0.14973879683212166,0.12574251352074958,0.12460521242613651,0.09759346690145285
0.0,70.0,70.0,0.0,120.0,0.0,-0.024064169401614377,0.7218252823575828,-0.5520370445501424,-107.0714298838222,0.0,-44.92475486050765,0.40666781866140395,-0.5343870891535287,0.45802864263152565,34.27075459658479,17.56211432789952,2.738287331697988,1.4631721562850082,0.9597370232938207,0.6053991814528704,0.36573561846468483,0.2024313856230716,0.0875161212741962,0.017558655656237328,0.009436012432392976,0.01996427437075545,0.05277777929786409,0.03152699936219847,0.016556795448594834,0.022691068880196508,0.010757033904946846,4.921184263945433,3.180024489461401,2.3751179411521512,1.7509717130715634,1.1697042226884673,0.748241253203787,0.490801350308174,0.31025542882213014,0.2335924409555595,0.17714150035703433,0.16574176693237666,0.12536301687385484,0.13860180622760937,0.11789330218554075,0.07988757029721288
0.0,71.0,71.0,0.0,120.0,0.0,-0.3988641224140195,-0.4519570242121824,0.7746983495126669,-106.99241590248508,0.0,-44.97293615176588,0.8423614646789482,-0.18503883385146502,-0.658527838864831,34.27075459658479,17.56211432789952,2.7831285485609816,1.4258995235313359,0.9377730681949247,0.5815985384829684,0.34912836060188923,0.18786621531263245,0.09334666962876788,0.07172501024190192,0.057023157751924874,0.02480003395428354,0.03456837570565324,-0.010176239438190536,-0.030823979582950477,0.038762814892662215,-0.0034625641659475105,4.913867125895715,3.163676248429091,2.4030322305285803,1.765280867501207,1.188194137828722,0.7837295773301481,0.4634086464652259,0.2958721430202149,0.2061870496027282,0.18818708618106536,0.1758821040936198,0.14784277131945867,0.13253566273190515,0.10338261674356186,0.06415363708035265
0.0,72.0,72.0,0.0,120.0,0.0,-0.6405806881945861,0.6503496574953409,0.45722391999782186,-106.98067478226602,0.0,-44.89579380510894,-0.43858490846954706,0.8637535019513287,0.9547343273789006,34.27075459658479,17.56211432789952,2.8038319853382263,1.4439283693161522,0.9433219665601599,0.6223262940697926,0.3699594138500195,0.18275825529422332,0.1025235597265803,0.06231026348428438,0.07477790796343665,0.017756209515826342,0.03795418899183338,0.04459490403421046,-0.00961416284353098,0.038114188352238995,0.009352969230897195,4.963307567556865,3.1964094337705706,2.4040915960260203,1.7699084194827475,1.2083589084321817,0.7485698297068312,0.4498782127492761,0.297283658304488,0.20949454676688264,0.20830274580257419,0.15804439560060582,0.13231594514706035,0.11487561201091866,0.10073599037934222,0.11397299250449316
