Line_number,Fiducial,Easting,Northing,Height,Elevation,tx_pitch,tx_roll,tx_yaw,txrx_dx,txrx_dy,txrx_dz,rx_pitch,rx_roll,rx_yaw,PX,PZ,S0X_time_1.086e-05,S0X_time_3.256e-05,S0X_time_5.426e-05,S0X_time_8.680e-05,S0X_time_1.411e-04,S0X_time_2.279e-04,S0X_time_3.689e-04,S0X_time_5.860e-04,S0X_time_9.115e-04,S0X_time_1.411e-03,S0X_time_2.192e-03,S0X_time_3.418e-03,S0X_time_5.339e-03,S0X_time_8.301e-03,S0X_time_1.338e-02,S0Z_time_1.086e-05,S0Z_time_3.256e-05,S0Z_time_5.426e-05,S0Z_time_8.680e-05,S0Z_time_1.411e-04,S0Z_time_2.279e-04,S0Z_time_3.689e-04,S0Z_time_5.860e-04,S0Z_time_9.115e-04,S0Z_time_1.411e-03,S0Z_time_2.192e-03,S0Z_time_3.418e-03,S0Z_time_5.339e-03,S0Z_time_8.301e-03,S0Z_time_1.338e-02
0.0,0.0,0.0,0.0,120.0,0.0,-0.9811927701564478,0.2594941081448481,0.8556027952777872,-107.0,0.0,-45.0,-0.48572042657698766,-0.5176441819741722,-0.21280856210078736,34.2899281565393,17.53971554092155,5.8829232890554595,3.3636566649064115,2.279379707466959,1.4791944107495274,0.8811064539377266,0.504244729852298,0.2765217459217772,0.14841342026100374,0.0789745338325803,0.040773480549483904,0.020164603214862173,0.009553995868622512,0.004346705994358685,0.0018985898357280094,0.0006628267266386511,8.12226299582088,5.791168464253822,4.516066325214399,3.387269064611655,2.375799519952849,1.603631339672163,1.041966008706721,0.6627150432086056,0.4166937413150116,0.25488990576424353,0.15015832456012831,0.08511295535460474,0.046485714838252694,0.02461083981098914,0.01189449939406092
0.0,1.0,1.0,0.0,120.0,0.0,0.48340289620559473,-0.46592497363459073,-0.2464474735466724,-107.0,0.0,-45.0,0.2559086830552193,0.2914246603711459,-0.45905924757151917,34.2899281565393,17.53971554092155,5.88246855411434,3.3537758470395063,2.25905659885899,1.453528603076522,0.85758316663959,0.48773615634427814,0.26703903214802965,0.1435849061091081,0.07665871238798702,0.03972782093913989,0.01972187448149807,0.009377016101971492,0.004279449947785958,0.0018741360179123623,0.0006555409227895471,8.12193709362634,5.780678279728079,4.490315445227854,3.348369909241319,2.332537864600481,1.5666775384593488,1.0160630212737982,0.6466990645230712,0.40744147168521244,0.2498611959109853,0.14758726522085847,0.08386898988046736,0.04591267105355141,0.024357168591160914,0.011794566904662573
0.0,2.0,2.0,0.0,120.0,0.0,-0.2256960375215884,-0.4838766895941984,0.42664873027982986,-107.0,0.0,-45.0,-0.7101174116854381,-0.23984159372548963,-0.0792126409206646,34.2899281565393,17.53971554092155,5.882011414689239,3.3444135064071094,2.2400032670519017,1.429424490846185,0.8353516138833247,0.47203616824182254,0.2579769236627479,0.13895134893297637,0.07442687448269718,0.038715478409249236,0.01929127183947894,0.00920413558197551,0.004213498248294001,0.0018500735168444139,0.0006483271862169406,8.121607563713704,5.770650746109758,4.465911037531138,3.311420345854965,2.2911837496984053,1.5311390832199974,0.991046117382976,0.6311832875484685,0.398451705742174,0.24495945950573358,0.14507267543549812,0.0826483501536473,0.04534868211812359,0.024106838672337556,0.011695667453083002
0.0,3.0,3.0,0.0,120.0,0.0,0.5157614173682938,-0.16875368608333763,0.20475601752047323,-107.0,0.0,-45.0,0.8609959462806216,0.14700138556213926,-0.7238866051951871,34.2899281565393,17.53971554092155,5.881545210747809,3.3354565151298265,2.2220404181490094,1.406724077977049,0.8143164780164637,0.4570963068549245,0.24931247192931627,0.13450282445060216,0.07227512668172754,0.03773508399594398,0.01887236434532699,0.009035230265702809,0.004148817319765983,0.001826394123155768,0.0006411860058754258,8.1212692381197,5.760982838449481,4.4426677428843675,3.276237638635304,2.251617027330772,1.4969495116533507,0.966878185854825,0.6161477650504616,0.3897147243657487,0.24018047317067037,0.14261291488666153,0.08145045703736421,0.044793558329270754,0.02385979206632383,0.011597788914917547
0.0,4.0,4.0,0.0,120.0,0.0,0.38544243223519903,-0.04246482696364873,-0.2721054422675553,-107.0,0.0,-45.0,0.5100874575652543,-0.5505235466559517,0.23927636092689375,34.2899281565393,17.53971554092155,5.881064357985626,3.3268113769162553,2.205012513358541,1.3852836862536373,0.7943882030605691,0.44287095222107403,0.24102426538111976,0.13023007470395595,0.07019981762284802,0.036785344771949245,0.01846474187817448,0.008870181295848927,0.004085374828065627,0.0018030898698674764,0.000634117727519583,8.120917733878565,5.751588968638355,4.420423837746006,3.2426535804392316,2.2137220607602974,1.464044380245279,0.9435238502422947,0.6015736102525068,0.38122130451421377,0.23552020916885227,0.1402064098505,0.08027475157242223,0.04424711559642115,0.023615972202540875,0.01150091929490566
0.0,5.0,5.0,0.0,120.0,0.0,-0.04472013650908924,0.8351799637390487,-0.5442334699148361,-107.0,0.0,-45.0,-0.6986829016051945,0.354765300803187,0.0937182749092369,34.2899281565393,17.53971554092155,5.880564002707637,3.3184001138546897,2.188784536567245,1.3649731450862335,0.7754829622430855,0.4293171436558564,0.23309228287917189,0.12612444716526,0.06819751780364341,0.03586503818048171,0.018068013780731647,0.008708874696567283,0.004023139612011315,0.0017801530222721457,0.000627122574654654,8.120549190508898,5.74239722783287,4.399037967311344,3.2105139800948344,2.177388271740485,1.432361336183139,0.9209493373235591,0.5874429141089549,0.37296268371071994,0.23097482278961748,0.13785164943549544,0.079120693989127,0.04370917520630961,0.02337532387862651,0.011405046723726305
0.0,6.0,6.0,0.0,120.0,0.0,0.01726543161507066,0.35498293877835474,0.3707070512295605,-107.0,0.0,-45.0,-0.8046548533242468,0.8052526994138818,0.3461568297624362,34.2899281565393,17.53971554092155,5.880039788862869,3.3101571065079893,2.173239128014822,1.345674841332987,0.757522551272849,0.4163944272825407,0.2254977673257914,0.12217784086858634,0.06626500148817993,0.0349730068986138,0.017681807613512776,0.008551201093399336,0.003962081619826837,0.0017575760683686947,0.0006202006652199125,8.120160094715619,5.7333465296438435,4.378386274102551,3.1796779074893617,2.1425104912177977,1.401840187121738,0.8991223654116647,0.5737386710093986,0.36493052779426893,0.22654064077813374,0.1355471820967397,0.07798776278366289,0.043179563601437466,0.023137793213404468,0.01131015945543426
0.0,7.0,7.0,0.0,120.0,0.0,-0.8195898945942584,-0.36004907260300123,0.8046636617090865,-107.0,0.0,-45.0,0.8525666480063043,-0.3308193233330792,0.27653328078964257,34.2899281565393,17.53971554092155,5.879487695439389,3.3020266521983745,2.1582740874052204,1.3272827107097764,0.7404342206597484,0.40406472227896595,0.21822311633230748,0.1183826586474155,0.06439923047344398,0.034108154172136584,0.01730576801094037,0.008397055455012434,0.003902171850588377,0.0017353517098186654,0.0006133520250498905,8.11974715946353,5.724384423811771,4.358359914541978,3.150016807576441,2.1089891466921444,1.3724229609491132,0.8780120494273407,0.5604447120239974,0.3571169015846912,0.22221415070637526,0.13329161240080661,0.07687545385348306,0.04265811217075435,0.022903327602035825,0.01121624586565397
0.0,8.0,8.0,0.0,120.0,0.0,0.29672037302148224,0.5311043509875291,-0.20300342065226817,-107.0,0.0,-45.0,0.9121071111627967,-0.8726769935950691,0.8479208161368428,34.2899281565393,17.53971554092155,5.878903919253345,3.29396106507505,2.1438002227086845,1.3097012261363323,0.7241504613928106,0.3922921999067626,0.2112517872528835,0.11473176469269687,0.06259733949157603,0.033269439571102614,0.01693955562924628,0.008246336854633265,0.00384338230019117,0.0017134728533841122,0.000606576598901376,8.11930723777421,5.715465410174129,4.3388629317535345,3.121413559882862,2.0767303186000614,1.3440539508196,0.8575888199031383,0.5475456448940104,0.3495142421537123,0.21799199119454823,0.13108359801907607,0.07578327968682154,0.0421446570516181,0.022671875673208986,0.01112329445050501
0.0,9.0,9.0,0.0,120.0,0.0,0.281510165264095,-0.1146864487421222,-0.8070627205989012,-107.0,0.0,-45.0,-0.49731432313993573,0.8788261780363471,0.03429378962537877,34.2899281565393,17.53971554092155,5.878284787790463,3.2859191865971136,2.129739509150154,1.2928444187184513,0.7086087575307657,0.38104317123320025,0.2045682142768124,0.11121844675679056,0.06085662305429439,0.032455875121398754,0.016582846177243878,0.008098948249272783,0.003785685911400056,0.001691932602821015,0.0005998742596376287,8.11883725917316,5.706549627740778,4.319810443506315,3.0937615344007052,2.045645695017594,1.316679743146873,0.8378243533771497,0.5350268000513912,0.3421153344310739,0.21387094290215475,0.12892184692976347,0.07471076860196982,0.0416390389422084,0.02244338724824123,0.011031293826142945
0.0,10.0,10.0,0.0,120.0,0.0,0.6316641688749927,0.1788032454164783,-0.4387847056242167,-107.0,0.0,-45.0,-0.6562682084539468,0.0980902325075943,-0.9750479029808947,34.2899281565393,17.53971554092155,5.877626692424323,3.27786520873888,2.1160235196324453,1.2766349528920038,0.6937513176030553,0.3702859808565824,0.19815773561730401,0.10783638242113283,0.05917452357174167,0.031666521773061646,0.016235329522052883,0.0079547962750258,0.0037290565275754106,0.0016707242511949595,0.0005932448160096829,8.118334181195689,5.697601826780276,4.301127102834372,3.0669636762473327,2.015652449973943,1.290249228019896,0.8186915119591062,0.5228741820198409,0.334913288906693,0.20984792021674245,0.12680511481099327,0.07365746403240159,0.04114110292364632,0.022217813301975302,0.010940232728799909
0.0,11.0,11.0,0.0,120.0,0.0,-0.9016618375445131,0.31259616367709575,-0.19869296072727516,-107.0,0.0,-45.0,0.37922799376696226,0.663557718454483,0.760663416421713,34.2899281565393,17.53971554092155,5.876926035759354,3.2697677371002767,2.1025920890333394,1.2610032673558633,0.6795247947282635,0.35999090496814723,0.19200652914445265,0.1045796089232891,0.05754862059999691,0.03090048617067257,0.01589670886273767,0.0078137910569211,0.0036734688497090783,0.001649841273597143,0.0005866880193541632,8.117794951081716,5.688590555940508,4.282745791422163,3.0409316384892855,1.98667306647476,1.2647135927158921,0.8001642901830802,0.5110744256105632,0.32790152121762056,0.2059199635760709,0.12473220260906813,0.072622923854247,0.04065069829117065,0.02199510592537665,0.010850100015190392
0.0,12.0,12.0,0.0,120.0,0.0,-0.624452819225441,-0.34973960392171666,-0.18588469633528493,-107.0,0.0,-45.0,0.9874041048045974,0.8924026355244961,-0.758048200307492,34.2899281565393,17.53971554092155,5.876179188964419,3.2615990394010885,2.0893921780906273,1.2458867867157344,0.6658800033614458,0.3501300528003293,0.18610155508303466,0.10144249610521737,0.05597662109034407,0.030156917695215498,0.015566699965583733,0.0076758460319511675,0.0036188983964350603,0.0016292773202284036,0.0005802035694392934,8.117216474479756,5.679487513973308,4.2646065100835076,3.0155849736199687,1.9586351213756474,1.2400262997487341,0.7822177675791235,0.4996147563811192,0.3210737334327124,0.20208423236620165,0.12270195426765221,0.07160671975295091,0.04016767839376451,0.021775218289729593,0.010760884663165842
0.0,13.0,13.0,0.0,120.0,0.0,0.3259168629801743,0.0012575341431897424,0.27535013705707834,-107.0,0.0,-45.0,-0.4844676697933583,0.7497400039991058,0.45838893550414905,34.2899281565393,17.53971554092155,5.875382456301977,3.2533344382967244,2.0763769066368263,1.2312292043671949,0.652771638756939,0.34067727099304723,0.1804305046325835,0.09841972210123004,0.054456350529518596,0.029435005750282555,0.015245030455426762,0.007540877784077038,0.003565321466724366,0.001609026209833227,0.000573791119639861,8.11659558905002,5.670267028415226,4.246655435370244,2.990850388216655,1.9314710457265423,1.2161430513174634,0.764828065687822,0.4884829548767447,0.31442389686891065,0.19833799834392712,0.12071325460500743,0.07060843662626828,0.03969190048171034,0.021558104612354755,0.010672575772527825
0.0,14.0,14.0,0.0,120.0,0.0,0.10346524862972273,-0.7978730390615896,-0.7696995617833495,-107.0,0.0,-45.0,-0.27827961759647635,0.04075516605099283,-0.6051520109118067,34.2899281565393,17.53971554092155,5.8745320449217004,3.2449518173843135,2.06350473006818,1.2169798343854137,0.640158003655982,0.33160805071679617,0.17498175356968362,0.09550625143309933,0.052985744874029274,0.028733977268586036,0.014931439158037978,0.007408805890132059,0.0035127151050008062,0.0015890819234579251,0.0005674502815654629,8.115929041543968,5.66090563292493,4.22884411590987,2.9666610614174993,1.9051178711983154,1.1930217422017555,0.7479723084999657,0.47766732422101293,0.30794623629129086,0.1946786395372223,0.11876502732762784,0.06962767202101139,0.03922322556158293,0.021343720123764034,0.010585162565909634
0.0,15.0,15.0,0.0,120.0,0.0,-0.1702577553037019,0.6940889633336544,-0.774787039712022,-107.0,0.0,-45.0,-0.2802590495000721,0.9546213455493131,-0.7534006270325568,34.2899281565393,17.53971554092155,5.873624038555223,3.2364312166305043,2.0507387367867413,1.2030930285580006,0.6280007453977046,0.32289943757304795,0.16974432006319856,0.09269731522222054,0.051562843193557195,0.02805309441740981,0.01462567548910048,0.00727955277567229,0.0034610570684497394,0.00156943859851696,0.0005611806292447637,8.115213467384676,5.651381721850099,4.211128786208856,2.9429560254213527,1.8795169707005863,1.1706224031654489,0.7316285855254675,0.4671566606671455,0.30163521536493754,0.19110363458198115,0.11685623316972601,0.06866403560119617,0.03876151825823623,0.021132021036182887,0.01049863438967158
0.0,16.0,16.0,0.0,120.0,0.0,-0.9460697801980342,0.904833353210517,-0.6529134342380722,-107.0,0.0,-45.0,-0.06915129611306536,-0.12450045288537726,0.909491326523717,34.2899281565393,17.53971554092155,5.872654374129408,3.227754498943824,2.038046047793932,1.189527653832153,0.6162646055952392,0.3145299443872571,0.16470782607549594,0.08998839326576122,0.050185780948747365,0.027391652483993553,0.014327498885762185,0.007153043579927938,0.0034103257963166,0.0015500905231421776,0.0005549817029364691,8.114445372067237,5.641675265682251,4.193469779271934,2.9196796047662494,1.8546137992629772,1.148907136834784,0.7157759168819254,0.45694022676273177,0.29548552324065874,0.1876105574574914,0.11498586814894939,0.06771714864544222,0.03830664668338214,0.02092296451336636,0.01041298071474705
0.0,17.0,17.0,0.0,120.0,0.0,0.6680390106460774,0.8036772323380792,-0.6685334046556675,-107.0,0.0,-45.0,-0.47520016168953916,-0.5005427915557445,-0.9285785201473322,34.2899281565393,17.53971554092155,5.871618820574925,3.2189050737366163,2.0253973025997145,1.1762466250893602,0.6049171836875261,0.3064794670465629,0.15986246184013742,0.08737519775609505,0.048852783837590605,0.02674897792390281,0.01403667827718275,0.00702920602910688,0.0033605003810249817,0.001531032130808381,0.000548853012630642,8.113621113893446,5.631767574845918,4.175831022472022,2.8967809103637507,1.8303576396209005,1.1278400478582211,0.7003942199461164,0.4470077268191831,0.2894920621687559,0.18419707258669296,0.11315296192962412,0.0667866435716686,0.03785848231038594,0.02071650864165181,0.010328191137412727
0.0,18.0,18.0,0.0,120.0,0.0,-0.4197442112763001,-0.9104927355196493,-0.6484812299246114,-107.0,0.0,-45.0,0.11781306386515711,0.7364575875906463,-0.9396010180026906,34.2899281565393,17.53971554092155,5.87051295928769,3.2098676664382033,2.012766218159219,1.1632164881298352,0.593928715038665,0.2987292035342589,0.15519895300243536,0.08485365845106167,0.047562162152298935,0.026124426557252053,0.013752991590814626,0.0069079703173723995,0.0033115605409486403,0.001512257995206571,0.0005427940412749671,8.11273688768668,5.621641102112392,4.158179603701101,2.87421338392969,1.8067013556600253,1.1073871689613717,0.685464277234774,0.4373492844127393,0.28364993604582334,0.1808609302705849,0.11135657628550275,0.06587216348727151,0.037416899854923434,0.020512612402176635,0.010244255379941327
0.0,19.0,19.0,0.0,120.0,0.0,-0.27042213677048754,0.7057473063223834,-0.9895497905241051,-107.0,0.0,-45.0,0.6632774320347534,0.7640422904504982,-0.10332324459791598,34.2899281565393,17.53971554092155,5.869332165828476,3.2006281252934707,2.0001292096988337,1.1504070479201316,0.5832718637767502,0.2912615762912873,0.15070853008702068,0.08241990912734642,0.04631230559531216,0.025517381899263544,0.01347622529151838,0.006789268994904353,0.003263486594714883,0.0014937628253603496,0.0005368042477665049,8.11178870922174,5.611279276077945,4.140485396997,2.8519343884003905,1.7836011558703002,1.0875163843047877,0.6709677052781601,0.4279554216764394,0.27795443980912304,0.17759996242905252,0.10959580365476354,0.0649733617631347,0.036981777161192886,0.02031123564421474,0.010161163291118297
0.0,20.0,20.0,0.0,120.0,0.0,-0.0889381933298179,0.6841481548331805,-0.451593456429803,-107.0,0.0,-45.0,-0.19927805809496402,-0.8812329823776981,0.17140524091513543,34.2899281565393,17.53971554092155,5.86807159247915,3.191173258546906,1.987465064061088,1.1377910374508065,0.5729215302678308,0.2840601579969397,0.14638290001248802,0.08007027517263274,0.045101678508955606,0.0249272536128596,0.013206173950928697,0.006673036862480616,0.003216259436911459,0.0014755414609638516,0.0005308830695874489,8.110772410828362,5.600666389685579,4.122720781239064,2.8299048828991253,1.7610163696917025,1.0681973203300714,0.6568869398987628,0.41881703477925525,0.2724010510705745,0.1744120783345321,0.10786976582223921,0.06408990162544688,0.03655299509271703,0.020112339060635195,0.010078905165232844
0.0,21.0,21.0,0.0,120.0,0.0,0.08985397364533054,-0.7386619368968859,0.1313823043819784,-107.0,0.0,-45.0,-0.4396499461467227,0.47356750383296076,-0.6467798481168865,34.2899281565393,17.53971554092155,5.866726151566642,3.1814906968349073,1.9747546580448334,1.125343823136917,0.5628546727280066,0.27710960065749696,0.14221421953144922,0.07780126215503881,0.04392881548668016,0.024353476071083662,0.012942639844807485,0.006559210872107881,0.003169860515093336,0.0014575888679448567,0.0005250299271963117,8.109683610581222,5.589787433591521,4.104860293824684,2.808089026562887,1.7389092319437618,1.0494013148856145,0.6432051827203051,0.4099253844802678,0.26698541872246695,0.17129526133728645,0.10617761257493143,0.06322145577990283,0.03613043742971688,0.01991588416166753,0.009997471252848182
0.0,22.0,22.0,0.0,120.0,0.0,-0.5181179421028224,0.44191546558663886,0.984383660611639,-107.0,0.0,-45.0,0.8689779623816081,-0.32973400743293246,0.44935585940323297,34.2899281565393,17.53971554092155,5.865290499434431,3.1715687760781752,1.9619807144448873,1.113043141900331,0.5530501420756565,0.2703955687056766,0.1381950701178595,0.07560954536389781,0.0427923172984675,0.023795507026615894,0.012685432574989813,0.006447730033458648,0.0031242718079734586,0.0014399001342063928,0.000519244224179996,8.108517682541882,5.578627950052747,4.086880326826652,2.78645382261275,1.717244680692935,1.0311013820785906,0.6299063505524483,0.40127208714563795,0.2617033523988811,0.16824756578382408,0.1045185204383253,0.0623677060545769,0.035713990771137946,0.019721833249772076,0.009916851316558386
0.0,23.0,23.0,0.0,120.0,0.0,-0.0025775440294020235,-0.8923011429045065,-0.1778642903669363,-107.0,0.0,-45.0,0.09949210637050743,0.7201951405499858,0.8784043198469675,34.2899281565393,17.53971554092155,5.86375902019339,3.1613964372730075,1.9491275907818697,1.1008688675564846,0.5434885302832784,0.2639046752135749,0.13431843444311947,0.07349196011478848,0.04169084713770217,0.02325282636918944,0.012434368716137973,0.006338535325280536,0.003079475804778438,0.0014224704655701435,0.0005135253490973637,8.1072697785691,5.567174044134564,4.068759058648843,2.764968997885241,1.695990174475956,1.0132720297443614,0.6169750999889668,0.392849081039937,0.2565508195489748,0.16526711277524564,0.10289169168028267,0.061528343039799725,0.03530354443801481,0.019530149400538543,0.009837035712468944
0.0,24.0,24.0,0.0,120.0,0.0,0.8507615211079771,0.6237214990520346,0.692111274303401,-107.0,0.0,-45.0,-0.534593569047288,-0.5141361468210732,-0.003039201987639295,34.2899281565393,17.53971554092155,5.86212580996298,3.1509631409284635,1.9361810962349613,1.0888028028603771,0.5341520305899575,0.25762442152721016,0.13057767428113098,0.0714454927546805,0.04062312714668771,0.022724934968397753,0.012189271484087974,0.006231569611772966,0.003035455485634072,0.0014052951819045066,0.0005078726784343206,8.105934798458454,5.555412261193668,4.0504762056304715,2.7436067013980954,1.6751155144489418,0.9958892292425547,0.6043967769587394,0.38464861979622483,0.2515239359013313,0.16235208752972377,0.10129635317613878,0.06070306576714408,0.03489899038415502,0.019340796439269593,0.00975801492334375
0.0,25.0,25.0,0.0,120.0,0.0,-0.5965913607757258,0.6040542889735496,-0.5810570467891689,-107.0,0.0,-45.0,-0.30571299188317913,0.16060508961266384,-0.7564765677069305,34.2899281565393,17.53971554092155,5.86038466112076,3.1402587934347155,1.9231283324675348,1.0768284941990445,0.525024309089928,0.25154314035377484,0.12696650963354145,0.06946727232596675,0.0395879351896276,0.022211353594974788,0.011949970424336693,0.006126777563502829,0.002992194302925123,0.0013883697134121826,0.0005022855785631268,8.104507375535855,5.543329517658923,4.032012859171099,2.7223412901535236,1.6545926808201672,0.9789303417824874,0.5921573897100407,0.376663258858243,0.24661895856542335,0.15950073650842056,0.09973175539445975,0.0598915813979725,0.034500223109869055,0.019153738919951705,0.009679779558178725
0.0,26.0,26.0,0.0,120.0,0.0,0.10112843052607512,0.9352970450212885,0.8795394539230126,-107.0,0.0,-45.0,0.0018852697682656405,-0.7395052343299746,0.6869619102352433,34.2899281565393,17.53971554092155,5.858529046516145,3.1292736835797825,1.9099575551297223,1.0649310664893614,0.5160903868950099,0.24564994213371777,0.12347899902445342,0.06755456281131941,0.03858410185389848,0.02171162191346109,0.011716301119272642,0.006024105582566342,0.002949676163584807,0.001371689597086783,0.0004967634075634625,8.102981862126471,5.530913039867321,4.013351342848765,2.701149136835525,1.6343956807737157,0.9623740470530484,0.5802435824337991,0.3688858427030071,0.24183227957571315,0.15671136471362412,0.09819717143824667,0.059093604927200005,0.0341071395794828,0.018968942105024075,0.009602320351617778
0.0,27.0,27.0,0.0,120.0,0.0,0.9462202759259661,-0.13210646354460898,-0.9659595185100398,-107.0,0.0,-45.0,-0.8221331241588525,0.766660169292736,0.8858185663559173,34.2899281565393,17.53971554092155,5.8565521035735495,3.117998427677391,1.8966580532107418,1.0530970760185892,0.5073365320966209,0.23993466458848922,0.12010952088510686,0.06570475590334914,0.037610507659195797,0.021225297540428657,0.011488104912776244,0.005923501731713289,0.002907885412240411,0.0013552504733149785,0.0004913055169001943,8.101352314839502,5.518150309712996,3.9944750868426717,2.6800084571164007,1.614500407327691,0.9462002743856512,0.5686426095423855,0.3613094927660418,0.23716041984064345,0.1539823331461513,0.09669189613784156,0.058308858901360554,0.03371963914241934,0.018786371945895736,0.009525628163216475
0.0,28.0,28.0,0.0,120.0,0.0,-0.040466370892495496,-0.006198706299547663,-0.9457335792145163,-107.0,0.0,-45.0,-0.932335239184116,-0.7279752303245082,0.6656448411648854,34.2899281565393,17.53971554092155,5.854446618222622,3.1064239220397085,1.8832200438387094,1.0413143792211923,0.49875016077882556,0.23438782532202426,0.11685275595876012,0.063915364250009,0.0366660804562685,0.02075195516300473,0.011265228650939171,0.005824915667183405,0.0028668068151753373,0.001339048082623742,0.0004859112529713744,8.099612479615812,5.505029016095772,3.9753685173758626,2.6588991545308476,1.5948845085298449,0.9303901366064049,0.5573423106220268,0.3539275960022908,0.2326000234624332,0.15131205641019269,0.09521524519208942,0.0575370731501285,0.033337623457671335,0.018605995064180834,0.009449693976568606
0.0,29.0,29.0,0.0,120.0,0.0,0.810241179782146,-0.13778458924853254,-0.27586239786484046,-107.0,0.0,-45.0,0.4214089191598851,0.29582608229681817,0.12938080632097382,34.2899281565393,17.53971554092155,5.852205008603168,3.0945413017478636,1.869634580482629,1.0295720156146222,0.49031974636785797,0.22900057734506044,0.11370367066367403,0.062184015132681805,0.03574979299881728,0.02029118571291502,0.011047524437762149,0.0057282985750213115,0.0028264255450563096,0.0013230782625659847,0.0004805799585282419,8.097755776490917,5.491537011338113,3.9560169592324477,2.637802681095922,1.5755272663753495,0.9149258666737405,0.5463310860762915,0.3467337940248807,0.22814785239681876,0.14869900045477463,0.09376655435457781,0.056777984530508016,0.03296099642148631,0.018427778733623053,0.00937450889830707
0.0,30.0,30.0,0.0,120.0,0.0,-0.9240394290849545,0.02074862407426936,0.7506307186729186,-107.0,0.0,-45.0,0.4840071996295934,-0.5488533187307425,0.6794920990363009,34.2899281565393,17.53971554092155,5.84981930850071,3.0823419048508907,1.8558934728120224,1.0178601033210248,0.48203473664256863,0.22376466738558662,0.11065750135829772,0.06050844453907329,0.03486066067382121,0.01984259559170671,0.010834849404771101,0.00563360311065182,0.0027867271663814075,0.0013073369447334307,0.0004753109739728767,8.095775284029976,5.4776622718850225,3.9364065496897913,2.616701912053281,1.5564094848299679,0.8997907571487107,0.5355978734761231,0.33972197277188076,0.22380078142489562,0.14614168044194092,0.09234517866200552,0.05603133668295547,0.03258966409809769,0.018251690862673666,0.009300064156992837
0.0,31.0,31.0,0.0,120.0,0.0,0.04783487740255232,0.6307318467641372,0.13384894787141732,-107.0,0.0,-45.0,-0.059257565358028286,0.5132785870772347,-0.2462326903973311,34.2899281565393,17.53971554092155,5.847281150475112,3.0698172412691074,1.8419892167236458,1.006169745783162,0.4738854777719736,0.21867239684563541,0.10770973945771921,0.05888649159748533,0.03399773937703473,0.019405805943218047,0.010627065493587556,0.005540783341517748,0.002747697621611018,0.0012918201518933292,0.0004701036385416355,8.09366372339514,5.4633928627190365,3.916524162447765,2.5955810332874196,1.537513386352302,0.8849691025055842,0.5251321246289395,0.33288625265788097,0.21955579341186418,0.143638658732586,0.09095049170195042,0.05529687979874511,0.03222353465334189,0.01807769997769434,0.009226351101901986
0.0,32.0,32.0,0.0,120.0,0.0,-0.9942509754808151,0.7367463977177731,-0.9297308470482202,-107.0,0.0,-45.0,0.7286324356956746,-0.631611807381204,-0.0006480074802814872,34.2899281565393,17.53971554092155,5.844581748649987,3.056958965797113,1.8279149332595694,0.9944929484433108,0.4658631447887834,0.21371658526381082,0.10485611735454425,0.057316093342927074,0.033160123521722706,0.018980451969700527,0.010424039250564473,0.0054497946925915345,0.002709323217940405,0.0012765239952414488,0.0004649572913780235,8.091413442008015,5.448716905016908,3.896357340342017,2.5744254401317845,1.5188225163275648,0.8704461442587044,0.5149237833759867,0.3262209791730302,0.2154099748299078,0.14118854298161865,0.08958188491753143,0.05457437039793445,0.031862518291014656,0.017905775206755802,0.00915336120172844
0.0,33.0,33.0,0.0,120.0,0.0,-0.45802470151862806,-0.9692713691262327,0.6807008202762754,-107.0,0.0,-45.0,0.17681228665107973,0.5165700622314937,-0.8373951767513059,34.2899281565393,17.53971554092155,5.841711881134636,3.043758854700244,1.8136643153231848,0.9828225442957492,0.45795967795030496,0.2088905361438899,0.1020925951007475,0.05579527978881693,0.03234694416987606,0.018566182288331883,0.010225641632660288,0.005360593894585674,0.0026715906146791537,0.0012614446717626314,0.0004598712724994105,8.089016396771777,5.433622546651973,3.875894235802609,2.5532216464155493,1.5003216548496976,0.8562080188566938,0.5049632641234378,0.3197207138969971,0.21136051152460447,0.1387899843348374,0.08823876694660499,0.053863571117329374,0.03150652719182525,0.017735886264008058,0.009081086043207686
0.0,34.0,34.0,0.0,120.0,0.0,0.8332657263251642,0.33647360007455984,-0.6756376417746226,-107.0,0.0,-45.0,0.51472510525686,0.011980460823315164,-0.35168959333416017,34.2899281565393,17.53971554092155,5.838661872053342,3.0302087854802395,1.7992315812544464,0.9711521273485592,0.45016772447946235,0.20418800501229295,0.09941534780991791,0.05432216928094587,0.03155736727620947,0.0181626583251344,0.01003174782380512,0.005273138934707304,0.002634486811206611,0.0012465784617005447,0.0004548449236690754,8.086464136818682,5.418097935209137,3.855123558167823,2.531957202728989,1.4819967353164738,0.8422417082759315,0.49524143110920493,0.31338022589950876,0.20740468470625467,0.13644167572049826,0.08692056299335081,0.05316425050788927,0.03115547545481752,0.01756800343459608,0.009009517329679872
0.0,35.0,35.0,0.0,120.0,0.0,-0.16910594078917152,0.2483892269161483,-0.24800406231558636,-107.0,0.0,-45.0,0.871965013377699,0.4173722282709389,0.8313026124013945,34.2899281565393,17.53971554092155,5.835421573159125,3.0163007194545175,1.7846114344574409,0.9594759931408275,0.44248058521843314,0.1996031695707394,0.09682075374177611,0.05289496411282349,0.030790592036170815,0.017769553743586367,0.00984223706105603,0.005187389009801146,0.0025979991354712064,0.0012319217261250724,0.0004498775891743619,8.083747785749006,5.40213119323161,3.8340345270898464,2.5106206229966874,1.4638347693320761,0.8285349932307243,0.48574957840386146,0.307194483502578,0.20353986714924804,0.13414235022915344,0.08562671423023382,0.05247618284104705,0.030809279041134306,0.017402097560097696,0.008938646879597912
0.0,36.0,36.0,0.0,120.0,0.0,-0.07392306970268114,0.22374118036133783,-0.8291991055197592,-107.0,0.0,-45.0,0.5807272253222893,0.04121564370471775,0.7069047432596125,34.2899281565393,17.53971554092155,5.831980345010303,3.002026686851356,1.7697990283858558,0.9477890855585487,0.43489216576504275,0.19513060181478245,0.09430538303302193,0.05151194638371554,0.03004584933003043,0.01738655390542792,0.0096569924698966,0.005103304481740661,0.002562115233001634,0.0012174709045947218,0.00044496861651896285,8.080858023327112,5.385710395462116,3.8126168313778424,2.489201318546491,1.4458237774422629,0.8150764089070189,0.4764794106408883,0.30115864638253015,0.1997635195842177,0.1318907795758203,0.0843566772284751,0.05179914792344662,0.030467855720000353,0.017238140024458965,0.008868466624993689
0.0,37.0,37.0,0.0,120.0,0.0,-0.19385243235785454,0.49918259085844063,0.8624184378719468,-107.0,0.0,-45.0,-0.37890260250634045,0.11308454372689924,0.18831300273532192,34.2899281565393,17.53971554092155,5.828327037688997,2.987378774172339,1.754789936287722,0.9360869492781723,0.42739693169746185,0.19076524199392594,0.09186598704049037,0.05017147408254327,0.029322400255874386,0.01701335536139638,0.009475900908090907,0.005020846834939354,0.0025268230564046454,0.0012032225129076375,0.0004401173570346379,8.077785066599306,5.368823547877864,3.7908605927169137,2.4676895389498936,1.427952725257705,0.8018552031191724,0.46742302446845574,0.2952680579924195,0.1960731872691392,0.12968577263904857,0.08310992341530744,0.051132930919645804,0.03013112501682259,0.01707610274040528,0.008798968609906763
0.0,38.0,38.0,0.0,120.0,0.0,0.4789382695132127,0.4660023039161898,-0.9875251380505239,-107.0,0.0,-45.0,-0.7620572679421986,0.20886443218141437,0.8107310955967102,34.2899281565393,17.53971554092155,5.824449971040566,2.972349113615568,1.7395801251931173,0.924365687242236,0.4199898675258337,0.18650237429443586,0.08949948826435247,0.048871977382444164,0.028619534744978133,0.016649665369798308,0.009298852817536713,0.004939978635858362,0.0024921108553243626,0.0011891731409424372,0.00043532316642016936,8.074518650396547,5.351458568349953,3.768756333781746,2.4460763189874237,1.410211464551176,0.7888612967845805,0.45857289071234686,0.2895182382875206,0.1924664967268285,0.127526174071852,0.08188593855641037,0.05047732218234751,0.029799008163295802,0.016915958136314736,0.008730144988793423
0.0,39.0,39.0,0.0,120.0,0.0,-0.20365181072721827,-0.7851862201046993,0.7569131429061648,-107.0,0.0,-45.0,-0.9204587239738558,-0.5433123106771875,-0.1461445695882857,34.2899281565393,17.53971554092155,5.8203369144123895,2.956929874389266,1.7241659336987343,0.9126219226379307,0.4126664390400641,0.18233760413162756,0.08720297082070969,0.04761195513222101,0.02793657025365029,0.01629520144101164,0.00912574208361363,0.004860663494395091,0.002457967166836386,0.0011753194505766252,0.0004305854052094277,8.071048007182451,5.333603268784882,3.7462949503324707,2.424353431161824,1.3925906789429663,0.7760852466083508,0.44992183723726703,0.2839048767383963,0.18894115263745456,0.1254108629798894,0.0806842222620316,0.049832117089757086,0.02947142804941823,0.01675767914352435,0.008661988024909608
0.0,40.0,40.0,0.0,120.0,0.0,0.021991704036285586,0.42059011531350654,-0.6632760279032015,-107.0,0.0,-45.0,-0.21890418845978488,0.1514961843792939,0.8752214344032478,34.2899281565393,17.53971554092155,5.815975065868972,2.9411132557770667,1.7085440531637008,0.9008527649080971,0.40542255875135774,0.17826683694422182,0.08497367143445898,0.04638997153215244,0.02727285052615885,0.01594969090615947,0.008956465901550466,0.004782866027047075,0.002424380806252626,0.0011616581736841546,0.00042590343917793137,8.067361846204141,5.315245338629648,3.7234676869399075,2.4025133432434767,1.3750818338165391,0.763518209869293,0.44146303249191465,0.2784238256175143,0.18549493487571483,0.12333875166261414,0.07950428751540506,0.0491971158896876,0.02914830917732091,0.016601239184056916,0.008594490088689288
0.0,41.0,41.0,0.0,120.0,0.0,-0.8731455779054123,0.6582234952123698,-0.5954845785095564,-107.0,0.0,-45.0,-0.9850939333435502,-0.4723211606429363,0.8917416013846058,34.2899281565393,17.53971554092155,5.811351030858497,2.9248914818436513,1.6927115119828915,0.8890557793756527,0.39825455415117383,0.17428625838921818,0.08280897092468208,0.04520465298272076,0.02662774442384213,0.015612870508346715,0.008790924649378966,0.0047065518217501755,0.002391340858321047,0.0011481861102090281,0.0004212766396903565,8.063448331899277,5.296372329642786,3.7002661160385615,2.380549180387134,1.357677130132488,0.7511519111989914,0.4331899697213873,0.2730710935466653,0.18212569568326784,0.12130878441346654,0.07834566022217569,0.0485721235500565,0.02882957761683038,0.01644661215875107,0.0085276436561109
0.0,42.0,42.0,0.0,120.0,0.0,0.42659128882780006,-0.9754729444518113,-0.5585693940159617,-107.0,0.0,-45.0,0.4758099902406645,-0.40108022221989725,0.1399356629282582,34.2899281565393,17.53971554092155,5.806450800303479,2.9082567976939284,1.67666566264871,0.8772289601080576,0.3911591385351171,0.1703923158414981,0.0807063861562087,0.044054685095783176,0.026000644815925192,0.015284486014973434,0.008629021767066824,0.004631687404299485,0.002358836668791128,0.0011349001263064374,0.00041670438399522125,8.059295061508468,5.276971641852874,3.676682120050525,2.358454691408021,1.340369461833225,0.7389786112471772,0.42509645182929745,0.267842839293515,0.17883135696783287,0.11931993637546079,0.077207878779633,0.047956949615444826,0.028515160962670403,0.016293772435774376,0.008461441307067654
0.0,43.0,43.0,0.0,120.0,0.0,0.06864271182960802,-0.36054593806568547,-0.7153066033167357,-107.0,0.0,-45.0,-0.096464766278342,-0.0019532371599511045,-0.8995936273498626,34.2899281565393,17.53971554092155,5.801259728084785,2.891201467220439,1.6604041713507176,0.8653707056883564,0.3841333841612318,0.16658170110808557,0.07866356243225163,0.042938809858568024,0.025390967527956967,0.014964291849762255,0.008470663641454237,0.004558240206259105,0.0023268578363319775,0.0011217971525531159,0.00041218605547120373,8.054889041836107,5.2570305106430215,3.652707876361816,2.3362242188485287,1.3231523765537283,0.7269910771289806,0.4171765768707727,0.2627353658065565,0.17560990772115245,0.11737121244880389,0.07609049366462554,0.047351408069397374,0.028204988293235648,0.01614269483950794,0.008395875723738767
0.0,44.0,44.0,0.0,120.0,0.0,0.947136426084896,-0.5996817106379251,-0.7138063570563096,-107.0,0.0,-45.0,0.46445996266179757,-0.5434888065606673,0.7693238757231284,34.2899281565393,17.53971554092155,5.795762507884922,2.873717772293174,1.643925009895885,0.8534797975947713,0.37717469753211114,0.16285133427249812,0.07667826630425789,0.04185582294160528,0.024798150344130587,0.014652050743238844,0.008315759496647208,0.0044861785342874,0.0022953942047840995,0.0011088741822223988,0.00040772104383029757,8.050216665097192,5.2365359949161165,3.6283358449666983,2.313852672505578,1.3060200393748709,0.7151825545525328,0.4094247241567757,0.2577451144784642,0.17245940154866196,0.11546164624743614,0.07499306703911993,0.046755317202178744,0.027898990130856165,0.015993354639783654,0.008330939688970269
0.0,45.0,45.0,0.0,120.0,0.0,0.7422540907326347,-0.9624098000783483,0.7431790830272906,-107.0,0.0,-45.0,-0.004511691735862522,0.2379605900953936,0.8227766573189421,34.2899281565393,17.53971554092155,5.789943149351748,2.855798013363459,1.6272264497608255,0.841555380921844,0.3702807966084843,0.15919834858996723,0.0747483787762987,0.04080457114241188,0.024221652060047033,0.014347533400508598,0.008164221289541538,0.004415471540793333,0.0022644358557239778,0.00109612826961919,0.0004033087452808903,8.045263683779801,5.215474966310275,3.603558758624915,2.2913355061230396,1.2889671993754779,0.7035467415287793,0.4018355409495412,0.2528686596285897,0.16937795430432176,0.11359029910161841,0.07391517237242692,0.04616849948370753,0.027597098403486828,0.015845727541463028,0.008266626084667052
0.0,46.0,46.0,0.0,120.0,0.0,-0.3091088772635413,0.7373713604272125,-0.16583268285396224,-107.0,0.0,-45.0,-0.9702115428412568,-0.40086407828197035,0.8861072067500826,34.2899281565393,17.53971554092155,5.783784953539167,2.837434511469572,1.6103070581122731,0.829596947203545,0.36344968977853837,0.1556200763594247,0.07287188888245276,0.039783949957310265,0.023660951582784407,0.014050518185253378,0.008015963610176707,0.004346089195854492,0.0022339731013293986,0.001083556528474261,0.0003989485626554416,8.040015184445428,5.19383409944823,3.5783696154026776,2.2686686969842826,1.27198915875741,0.692077763569048,0.3944039297285606,0.24810270319585614,0.1663637418246349,0.11175625910387668,0.07285639407918763,0.04559078144140639,0.027299246407756335,0.015699789674342338,0.008202927890200176
0.0,47.0,47.0,0.0,120.0,0.0,-0.25508474776143863,0.07523742996086624,-0.274646719369642,-107.0,0.0,-45.0,0.7442522000630485,-0.6279171718851937,-0.055960649177163146,34.2899281565393,17.53971554092155,5.777270487575603,2.818619611646392,1.5931656956535987,0.8176043191228497,0.3566796564223392,0.15211403570304954,0.07104688761673728,0.03879290127433298,0.02311554707536964,0.013760790818961248,0.007870903586641723,0.004278002260329686,0.0022039964775282662,0.001071156130396058,0.00039463990550772275,8.034455560379952,5.171599863217876,3.5527616734913066,2.2458487281671426,1.2550817443346471,0.6807701502797828,0.38712503600633735,0.24344406963386878,0.1634149977563313,0.10995864019585899,0.07181632717227165,0.04502199354272548,0.027005368773308818,0.015555517583370076,0.00813983818083044
0.0,48.0,48.0,0.0,120.0,0.0,0.3205565450367842,0.4738714372174688,-0.5090727853625823,-107.0,0.0,-45.0,0.8410646471152115,0.7974398653250196,-0.4174136465588958,34.2899281565393,17.53971554092155,5.770381558505053,2.799345687755069,1.575801516173679,0.8055776369134734,0.34996922892444604,0.14867791818881107,0.06927156219618434,0.03783041118062637,0.022584955142985117,0.013478144094470203,0.007728960794266038,0.004211182260100118,0.002174496737415824,0.0010589243033713282,0.0003903821901791399,8.028568482998335,5.1487585130943545,3.526728448217614,2.2228725732478045,1.2382412811926704,0.6696188132678674,0.3799942366730834,0.23888970100045587,0.16053001147265822,0.1081965812937801,0.07079457692978991,0.04446197008211285,0.026715401428388,0.01541288821916773,0.008077350126152814
0.0,49.0,49.0,0.0,120.0,0.0,-0.08310691292263872,-0.5647954602363827,0.8098208685335035,-107.0,0.0,-45.0,0.20211935237201217,-0.12835509358487251,-0.8249740504666787,34.2899281565393,17.53971554092155,5.763099186238773,2.7796051487613225,1.5582139676906142,0.7935173462780233,0.3433171760003252,0.1453095772358613,0.067544190638669,0.03689550787821763,0.02206871005844999,0.013202377602977966,0.007590057168862696,0.004145601461383062,0.002145464844929053,0.0010468583303238524,0.0003861748398440683,8.022336871894906,5.125296084526963,3.500263711178423,2.199737683261603,1.2214645683385275,0.6586190252739816,0.3730071288495887,0.2344366522342835,0.1577071260736155,0.10646924545033688,0.06979075857548965,0.043910549072212514,0.02642928156659759,0.015271878928838556,0.008015456988564523
0.0,50.0,50.0,0.0,120.0,0.0,0.1092227565531192,-0.7506846384869426,0.16999051207820326,-107.0,0.0,-45.0,0.39833258774387215,0.8858551326427491,0.7586696473965653,34.2899281565393,17.53971554092155,5.755403575548498,2.75939044650311,1.5404027950965868,0.7814241876631057,0.33672248721346765,0.14200701724680595,0.06586313663807472,0.035987259702405516,0.02156636302469862,0.012933297473731464,0.007454116923786042,0.004081232847058741,0.0021168919687631718,0.00103495554771568,0.00038201728453021255,8.015742863419167,5.1011983874269475,3.4733614914478097,2.176441975747618,1.2047488561747286,0.6477664004555178,0.3661595192277664,0.23008208661150292,0.15494473646581564,0.104775819051106,0.06880449697182829,0.04336757213908708,0.026146947614796526,0.015132467447054088,0.00795415212175529
0.0,51.0,51.0,0.0,120.0,0.0,0.9419322389377929,-0.6882437859030699,-0.3095341563412599,-107.0,0.0,-45.0,-0.8786587528803274,-0.17055985518189432,0.44604055078912874,34.2899281565393,17.53971554092155,5.74727408700665,2.7386940850633987,1.5223680443056302,0.7692991867174179,0.33018435855922046,0.13876838341940836,0.06422684472084486,0.03510477323672811,0.021077481472356777,0.012670716125616101,0.00732106647061167,0.004018050093957981,0.0020887694765197007,0.0010232133441995558,0.0003779089612797342,8.008767775942033,5.076451001902083,3.44601608065953,2.152983826407702,1.1880918247396646,0.6370568760628644,0.35944741382217216,0.225823271376026,0.15224128752023666,0.10311551104280609,0.06783542632530042,0.042832884421225174,0.025868339202084447,0.014994631887412556,0.007893428968145162
0.0,52.0,52.0,0.0,120.0,0.0,-0.8186846527324452,0.6918280854756305,-0.6046459538916815,-107.0,0.0,-45.0,0.3914333298777877,-0.9788239491102815,0.6036112353921488,34.2899281565393,17.53971554092155,5.738689208206373,2.7175086321564574,1.5041100667389578,0.7571436449828148,0.3237021797510798,0.1355919519331275,0.06263383572299652,0.034247191514662566,0.02060164838983273,0.01241445203034752,0.00719083434310988,0.0039560275510962676,0.0020610889290660988,0.0010116291593145654,0.00037384931651744495,8.001392062215338,5.051039275513792,3.4182220518194537,2.1293620672382585,1.1714915575694507,0.6264866971996859,0.35286700779356645,0.22165757354200316,0.14959527231568678,0.1014875521875594,0.06688318990455856,0.042306334471848075,0.025593397129890238,0.014858350734046436,0.007833281048383142
0.0,53.0,53.0,0.0,120.0,0.0,0.18957126195963814,-0.48308633068734985,0.8258385734120228,-107.0,0.0,-45.0,-0.8319991739802868,-0.6015640243804581,0.5381326677090619,34.2899281565393,17.53971554092155,5.729626521437437,2.695826729999224,1.4856295252190637,0.744959133821255,0.3172755212195511,0.13247612110414886,0.06108270239845332,0.03341369233416496,0.02013846168081954,0.012164329486713008,0.007063351124449967,0.003895140218751413,0.002033842075113218,0.0010002004822218184,0.00036983780056639706,7.993595319738691,5.024948319066057,3.389974216035235,2.1055759617589844,1.1549465487034445,0.6160523913222893,0.34641467769903384,0.21758245584029298,0.14700523037358684,0.09989119437357184,0.06594743976187437,0.041787774166602815,0.025322063342659015,0.014723602833485925,0.007773701990711909
0.0,54.0,54.0,0.0,120.0,0.0,0.35517985092687665,0.2353304179151512,-0.5903791852795572,-107.0,0.0,-45.0,-0.35842426687741313,0.6707007008785308,0.6347309200251672,34.2899281565393,17.53971554092155,5.720062669327422,2.673641111489717,1.466927405474932,0.7327474874612759,0.3109041214190015,0.12941940328882587,0.05957210530324631,0.03260348661770045,0.019687533562400723,0.011920178402308294,0.00693854937799286,0.003835363728264238,0.0020070208460066705,0.0009889248504870306,0.0003658738712617365,7.985356203268746,4.998163009140951,3.3612676846472067,2.0816252204731915,1.1384556601835063,0.605750761528431,0.34008697097535706,0.21359547283621125,0.14446974608421825,0.0983257099097418,0.0650278364770544,0.04127705861152274,0.02505428090011588,0.014590367386756363,0.007714685499339636
0.0,55.0,55.0,0.0,120.0,0.0,-0.5612585188394783,-0.2910780578695604,-0.8693420152740787,-107.0,0.0,-45.0,-0.4029384664838678,-0.2796274339669298,-0.7780206682540474,34.2899281565393,17.53971554092155,5.709973322026721,2.6509446158055177,1.4480050232803041,0.7205107968911749,0.304587876488691,0.12642041668480547,0.05810076896070781,0.031815816875000444,0.019248489980476978,0.011681834087585583,0.006816363580315654,0.0037766743227668465,0.0019806173506822077,0.0009777998489000762,0.00036195699323593374,7.976652399950107,4.9706679879316376,3.3320978627153623,2.05750999184417,1.1220181151334967,0.5955788685043332,0.3338805979565517,0.20969426719117537,0.14198744710817734,0.09679039087680724,0.06412404890287449,0.04077404605624489,0.02478999395000845,0.01445862394170766,0.0076562253627205
0.0,56.0,56.0,0.0,120.0,0.0,0.17218946809334645,-0.11920885819172677,0.2610714282085562,-107.0,0.0,-45.0,0.6828605201217721,0.6927538447737678,-0.32344383023587064,34.2899281565393,17.53971554092155,5.699333141548928,2.627730206586059,1.428864034689903,0.7082514046044958,0.29832682984790976,0.12347787785225034,0.05666747820447867,0.03104995573502398,0.018820970054892135,0.011449137057953992,0.006696730057211226,0.0037190488385984996,0.0019546238708081586,0.000966823108329039,0.0003580866378515725,7.967460585714617,4.94244766584781,3.3024604623208504,2.0332308610081657,1.1056334832672,0.5855340162701355,0.32779242373129264,0.20587656606802754,0.1395570028594861,0.09528454849603096,0.06323575392195055,0.04027859780973165,0.024529147701823475,0.014328352385561101,0.007598315452236153
0.0,57.0,57.0,0.0,120.0,0.0,0.5498993203820095,0.7103476603480858,-0.4458113061581481,-107.0,0.0,-45.0,-0.07420660630654585,-0.22358208133548696,0.6283408991826271,34.2899281565393,17.53971554092155,5.688115744438326,2.6039909921972457,1.4095064473671122,0.6959718998943818,0.2921211623625007,0.12059059466741903,0.05527107472089819,0.030305204549050613,0.018404625549587415,0.011221932844402307,0.006579586922294604,0.00366246468743292,0.001929032856105337,0.0009559923046160848,0.0003542622831258947,7.957756378935096,4.9134862258637835,3.2723515179290703,2.008788849725056,1.0893016673290536,0.5756137386302866,0.32181946035646225,0.2021401776747964,0.13717712304562746,0.0938075125217956,0.062362636212508184,0.03979057815888742,0.02427168840133932,0.014199532937671804,0.007540949720912072
0.0,58.0,58.0,0.0,120.0,0.0,-0.42898421591670655,0.4685629558688269,-0.6442156812341557,-107.0,0.0,-45.0,-0.8745523828911177,-0.40655252288808774,0.46855222401141994,34.2899281565393,17.53971554092155,5.676293662628948,2.5797202482065607,1.3899346329634599,0.6836751146091803,0.285971183020457,0.1177574596780075,0.053910453779789896,0.029580892061356404,0.017999120366497874,0.011000071812191406,0.006464874018075649,0.0036068998390759587,0.0019038369198273663,0.0009453051575050816,0.00035048341363987676,7.94751429107695,4.883767629766327,3.241767403851153,1.984185417478855,1.0730228903700847,0.5658157862789199,0.31595885941036794,0.19848298794179287,0.13484655626204742,0.0923586306569767,0.06150438802263491,0.039309854289942166,0.024017563305976403,0.014072146142496855,0.007484122202165704
0.0,59.0,59.0,0.0,120.0,0.0,0.9540218826194589,-0.32866910094127255,0.2101822389123209,-107.0,0.0,-45.0,-0.5156002655633651,0.6014535094335356,0.5335127159709756,34.2899281565393,17.53971554092155,5.66383830235266,2.5549114422081933,1.3701513405114836,0.6713641192855179,0.27987732005917015,0.11497744383193145,0.0525845611432875,0.02887637314415958,0.017604130061994672,0.010783408987210263,0.006352532859382327,0.003552332804905354,0.0018790288343975314,0.0009347594296009554,0.00034674952043565533,7.9367076740691616,4.853275626479553,3.2107048538480427,1.959422463644312,1.056797683766722,0.5561381145129671,0.31020790486979827,0.19490295732718096,0.13256408863883035,0.0909372679900211,0.06066070895262808,0.03883629621247945,0.02376672066091212,0.013946172862756233,0.007427827008583886
0.0,60.0,60.0,0.0,120.0,0.0,-0.7394687629908709,0.7944009703469181,-0.08725588972162712,-107.0,0.0,-45.0,-0.1112785360386126,-0.8554226260825597,0.5192214383821867,34.2899281565393,17.53971554092155,5.650719900947783,2.529558261149402,1.3501597107926373,0.6590422195782255,0.2738401124914372,0.11224959055344899,0.0512923901429589,0.028191027593667164,0.017219341384742213,0.010571803889596216,0.006242506579011467,0.0034987426219236124,0.0018546015271972871,0.0009243529253650018,0.00034306010090156684,7.925308664093403,4.82199376266678,3.1791609829280607,1.9345023306389917,1.0406268758951853,0.5465788715087296,0.3045640062957668,0.19139811774629642,0.13032854253736892,0.08954280645272675,0.05983130574505747,0.03836977668599912,0.023519109675936553,0.013821594272791084,0.007372058330730688
0.0,61.0,61.0,0.0,120.0,0.0,-0.05214578071029141,-0.368409087205293,-0.6858594063316383,-107.0,0.0,-45.0,0.8949845342198581,0.7519032573211513,-0.8661599305286698,34.2899281565393,17.53971554092155,5.6369074814152285,2.503654641321301,1.3299632916408772,0.6467129529088088,0.2678602019814552,0.10957301014253501,0.050032978916066714,0.027524258984252443,0.0168444518339165,0.0103651203742615,0.006134739875502468,0.0034461088373914125,0.0018305480764968618,0.0009140834901398274,0.0003394146586444023,7.913288121466228,4.789905395833544,3.1471333113949056,1.9094278079820364,1.0245115813784487,0.537136387120126,0.2990246923134376,0.18796656962019395,0.128138775294993,0.08817464429778732,0.059015892082203786,0.0379101711489007,0.02327468050301201,0.013698391852101775,0.007316810435979689
0.0,62.0,62.0,0.0,120.0,0.0,0.4577421954395824,0.5004976717530112,0.1489128672395792,-107.0,0.0,-45.0,-0.5173557192060978,-0.16026705680231124,0.6521471471665024,34.2899281565393,17.53971554092155,5.622368804566816,2.4771948011896447,1.309566054140377,0.6343800852560226,0.261938325025832,0.10694687447533911,0.04880540779236569,0.026875493577929777,0.016479169236787758,0.010163226477978002,0.00602917896292797,0.003394411494017151,0.0018068617075205292,0.0009039490092013462,0.00033581270334690275,7.9006155662649995,4.7569937101831865,3.1146197912083657,1.8842021371817654,1.008453190826727,0.5278091621594376,0.29358760437242726,0.18460647903903843,0.12599367801562197,0.08683219559520873,0.05821418839053855,0.03745735764978742,0.02303338421450955,0.013576547379062758,0.007262077667364473
0.0,63.0,63.0,0.0,120.0,0.0,-0.11961840328207685,0.5796649782534464,0.3344632926144018,-107.0,0.0,-45.0,0.5507973373439572,-0.34257975323044243,-0.8281747021036097,34.2899281565393,17.53971554092155,5.607070318609872,2.450173277253721,1.2889724096723894,0.6220476080131823,0.256075305398182,0.10437041198536556,0.04760879682333458,0.02624417928645627,0.016123211344733067,0.00996599427270358,0.005925771522606296,0.003343631115678058,0.0017835357886441731,0.0008939474068407697,0.0003322537506143097,7.88725910932312,4.723241735505796,3.081618834724392,1.8588290173738204,0.9924533609959898,0.5185958581237532,0.28825049077428067,0.18131607503614916,0.12389217440461534,0.08551488974677421,0.057425921651933824,0.03701121678099702,0.022795172782100862,0.013456042924807985,0.007207854442446034
0.0,64.0,64.0,0.0,120.0,0.0,0.028981596223732087,-0.2785117515541311,0.38755330816094546,-107.0,0.0,-45.0,-0.6501148680718534,-0.5601587293815993,0.6448106794887607,34.2899281565393,17.53971554092155,5.590977106015335,2.422584963134249,1.268187227761665,0.6097197348376321,0.25027204681912596,0.10184290290667064,0.04644230344625363,0.025629784683525666,0.015776305446794384,0.009773299724844028,0.005824466656646693,0.003293748693649105,0.0017605638277193296,0.0008840766454774421,0.0003287373218117624,7.873185378194869,4.688632369413739,3.0481293458850125,1.8333126116304634,0.9765140052921244,0.5094952873325788,0.2830112009546198,0.17809364696864097,0.1218332196460918,0.08422217101776754,0.05665082522131775,0.03657163161426336,0.022559999056279395,0.01333686084728746,0.007154135252191522
0.0,65.0,65.0,0.0,120.0,0.0,-0.050368559790965106,0.048985783415643525,-0.4957123061652635,-107.0,0.0,-45.0,0.2846719209889239,0.18881474195935666,-0.36582342716747496,34.2899281565393,17.53971554092155,5.574052827829231,2.3944251523233477,1.247215854694984,0.5974008981674682,0.2445295257382035,0.0993636748603847,0.0453051202450589,0.025031798069032263,0.015438188000132122,0.009585022559907994,0.005725214843329772,0.0032447456732861194,0.0017379394685197679,0.0008743347247920209,0.00032526294449041745,7.858359443995915,4.653148418913499,3.014150771390555,1.807657559089115,0.9606372699999179,0.5005064094913347,0.27786767791767997,0.17493754267707545,0.11981579916411231,0.08295349811306742,0.055888638646296396,0.036138487638873444,0.022327816746552622,0.013218983785363235,0.007100914743262824
0.0,66.0,66.0,0.0,120.0,0.0,-0.8927738527749958,-0.0811361184091639,0.0377096294017123,-107.0,0.0,-45.0,-0.5488316824842527,0.8958919757775514,-0.5757517726109957,34.2899281565393,17.53971554092155,5.556259666829159,2.3656895857982363,1.226064132801857,0.5850957439592428,0.2388487839466857,0.09693209921750118,0.04419647266236654,0.024449726598598134,0.015108604279271928,0.009401046130629502,0.005627967894778103,0.0031966039410010003,0.001715656487343943,0.0008647196808846344,0.0003218301556237807,7.842744779802696,4.616772739036985,2.9796832584250525,1.7818690189267632,0.9448254241236592,0.4916283645391966,0.2728179384773581,0.1718461707683922,0.11783892648822089,0.08170834393515815,0.0551391074676725,0.03571167270449679,0.02209858040265129,0.013102394652396312,0.007048188296579612
0.0,67.0,67.0,0.0,120.0,0.0,-0.3570352451063119,0.24904930710029105,-0.32497229775592174,-107.0,0.0,-45.0,0.5439738727554306,-0.2951620823400831,-0.6081881390894561,34.2899281565393,17.53971554092155,5.537558257065501,2.3363744963180197,1.2047384197893511,0.5728091350110077,0.2332309236855005,0.09454758440914127,0.043115617848878254,0.02388309532049759,0.014787308030538314,0.009221257299831835,0.005532678912904998,0.0031493058126224435,0.001693708789505757,0.00085522958547675,0.00031843848607366904,7.826302998035694,4.579487844890597,2.9447272218739378,1.7559525366556974,0.929081243662809,0.48286030050953804,0.2678601246968083,0.16881798002152545,0.11590164649021667,0.08048619441045304,0.05440198316802781,0.03529107695051509,0.02187224539381208,0.012987076633787113,0.006995949772747012
0.0,68.0,68.0,0.0,120.0,0.0,-0.8341731312294436,0.4597160194380776,0.8533477171800061,-107.0,0.0,-45.0,0.0850407276092624,-0.538662687590074,-0.8455472911705122,34.2899281565393,17.53971554092155,5.51790762747619,2.3064766691766914,1.1832456100990052,0.5605461397999935,0.2276770985073357,0.09220957496429814,0.04206184188566636,0.023331446497907735,0.014474061151926582,0.009045546313482054,0.005439302252126217,0.0031028340206593523,0.0016720904062920887,0.0008458625451004086,0.00031508747846269674,7.808993936714151,4.541276407671012,2.909283895503232,1.7299142047097065,0.9134075782006454,0.4742015415100031,0.26299243806411277,0.16585147689327503,0.11400302983597706,0.07928654889566324,0.05367702289038561,0.03487659276254041,0.02164876789272135,0.012873013178362,0.006944193945037834
0.0,69.0,69.0,0.0,120.0,0.0,0.5206302516790176,0.8242814337098383,-0.03755699052180539,-107.0,0.0,-45.0,0.7851869082647751,-0.5046960120777115,-0.0034739853708654067,34.2899281565393,17.53971554092155,5.497265130167157,2.2759934985978556,1.1615931553055303,0.5483120305830894,0.22218850750669653,0.0899175468117093,0.041034458347287875,0.022794338788485878,0.01416863338249156,0.00887380668795684,0.005347793479999294,0.003057171703008453,0.001650795491773699,0.0008366167003405481,0.00031177668037094447,7.790775489191232,4.5021211414089795,2.873355199959951,1.703760618070052,0.8978074893120944,0.46565151827219653,0.25821315603616174,0.16294521653556499,0.1121421736389853,0.07810891950402694,0.052963989326468695,0.03446811471296364,0.021428104857088074,0.012760187994307424,0.0068929156545315074
0.0,70.0,70.0,0.0,120.0,0.0,-0.04482069822763535,0.16771172017321345,0.14110627254469188,-107.0,0.0,-45.0,-0.7864372026130588,-0.8179364233549853,0.5692048610453659,34.2899281565393,17.53971554092155,5.475586368423301,2.2449230511280662,1.1397890852748902,0.536112278619245,0.2167663886996469,0.08767100378537729,0.04003280663946539,0.022271346510738078,0.013870802005230273,0.008705935099487099,0.005258109340113299,0.003012302391785897,0.0016298183197710466,0.0008274902250845541,0.000308505644221723,7.771603490134365,4.462004854070198,2.8369437902022736,1.6774988827296793,0.8822842417595899,0.45720976014826503,0.25352062762080957,0.16009780073882854,0.11031820056069516,0.07695283072641192,0.052262650567653716,0.03406553950772107,0.021210214012458442,0.012648585044094019,0.006842109808950409
0.0,71.0,71.0,0.0,120.0,0.0,-0.18567675717329224,0.8047188678265746,0.06277326971541486,-107.0,0.0,-45.0,-0.6214326892886262,-0.5265702609542637,0.30088235104039684,34.2899281565393,17.53971554092155,5.45282512136926,2.2132641340129107,1.1178420295166238,0.5239525488486975,0.21141201243873675,0.08546947430082807,0.039056250429976375,0.02176205894602733,0.013580351562562152,0.00854183127785639,0.005170207716310106,0.002968210002536978,0.0016091532809194204,0.0008184813258007226,0.00030527392721171973,7.751431592986445,4.420910505368362,2.8000531058719664,1.6511366241494028,0.8668412945915241,0.44887588733392103,0.24891326914320053,0.15730787595767415,0.10853025794342835,0.07581781906527482,0.05157277996071766,0.03366876593467102,0.02099505383551522,0.012538188539540767,0.00679177138149851
0.0,72.0,72.0,0.0,120.0,0.0,0.5218578723231233,0.9858278533604274,0.9960264623389461,-107.0,0.0,-45.0,0.5324957508668422,0.2883999369429926,0.9840869480831351,34.2899281565393,17.53971554092155,5.428933265323126,2.181016368848214,1.095761238584439,0.5118386939474561,0.20612667484582736,0.0833125081937799,0.038104176168186454,0.021266079674549156,0.013297073583827672,0.008381397904163632,0.005084047598166008,0.0029248788237954374,0.0015887948798165516,0.0008095882408286388,0.00030208109128247967,7.730211138322745,4.378821271979009,2.762687424657626,1.6246819955789278,0.8514822920864781,0.44064960329893627,0.24438956018850128,0.1545741314158824,0.10677751697461864,0.07470343268097598,0.05089415596816809,0.03327769481350769,0.020782583537835728,0.012428982936995549,0.006741895409706859
0.0,73.0,73.0,0.0,120.0,0.0,0.3142384647964087,0.09146835366091266,0.791877242464375,-107.0,0.0,-45.0,-0.3280654601035664,0.4268981600895805,0.5420535033324236,34.2899281565393,17.53971554092155,5.403860691942971,2.148180270804998,1.0735566053571823,0.49977674767365116,0.20091169124802902,0.08119967371388265,0.03717599168891131,0.020783025943695514,0.013020766324280317,0.008224540512467245,0.004999589047692503,0.00288229350699284,0.0015687377322641796,0.0008008092396998623,0.0002989267031479315,7.707891012501683,4.335720620905115,2.7248519186836173,1.5981436861047589,0.8362110544878121,0.4325306874079029,0.23994803971368664,0.151895297287913,0.10505917188131209,0.07360923104996783,0.050226562032994956,0.03289222894717162,0.020572763050105792,0.012320952932647221,0.006692476994307545
0.0,74.0,74.0,0.0,120.0,0.0,-0.1734529143039807,-0.4957599509542918,0.9748149546016616,-107.0,0.0,-45.0,-0.8610478159963999,-0.1667924106231511,0.45657869141128926,34.2899281565393,17.53971554092155,5.377555223333804,2.114757333730738,1.0512386860073182,0.48777291742063345,0.19576838960442966,0.07913055466705166,0.036271124896595376,0.020312528067295887,0.0127512345150444,0.008071167395139672,0.004916793167192933,0.002840439056688118,0.0015489765625832767,0.0007921426224654862,0.0002958103343655532,7.684417495994365,4.291592391811559,2.68655271394182,1.5715309282751313,0.8210315684743961,0.4245189877157069,0.23558730232160008,0.1492701429542166,0.10337443915382037,0.07253478463440213,0.049569786447654696,0.032512273074681367,0.0203655530067557,0.01221408345794448,0.006643511298149093
