Line_number,Fiducial,Easting,Northing,Height,Elevation,tx_pitch,tx_roll,tx_yaw,txrx_dx,txrx_dy,txrx_dz,rx_pitch,rx_roll,rx_yaw,PX,PZ,S0X_time_1.086e-05,S0X_time_3.256e-05,S0X_time_5.426e-05,S0X_time_8.680e-05,S0X_time_1.411e-04,S0X_time_2.279e-04,S0X_time_3.689e-04,S0X_time_5.860e-04,S0X_time_9.115e-04,S0X_time_1.411e-03,S0X_time_2.192e-03,S0X_time_3.418e-03,S0X_time_5.339e-03,S0X_time_8.301e-03,S0X_time_1.338e-02,S0Z_time_1.086e-05,S0Z_time_3.256e-05,S0Z_time_5.426e-05,S0Z_time_8.680e-05,S0Z_time_1.411e-04,S0Z_time_2.279e-04,S0Z_time_3.689e-04,S0Z_time_5.860e-04,S0Z_time_9.115e-04,S0Z_time_1.411e-03,S0Z_time_2.192e-03,S0Z_time_3.418e-03,S0Z_time_5.339e-03,S0Z_time_8.301e-03,S0Z_time_1.338e-02
0.0,0.0,0.0,0.0,120.0,0.0,-6.905853669885671,-3.1163287747474584,-4.919213113430633,-107.0,0.0,-45.0,-2.2608584074604687,-2.1712032365179983,-3.1871906795080243,34.38865340974415,17.459227116127643,4.554458983191134,2.6606262107793666,2.165296674369557,1.737707360154456,1.256255651827558,0.791977481816263,0.4185358678511054,0.18645679459490402,0.07202066027672809,0.02383878530509844,0.00675346281407531,0.001691782736291563,0.000393305215725421,7.881602342264261e-05,-7.9061579532717e-05,6.949528190869735,4.92730953555142,4.2752699777413055,3.6801937149915034,2.9463399627142484,2.131506298153793,1.3487530374541195,0.7471862818859203,0.369419603743555,0.1615818828065132,0.062445613237341206,0.021721033324455997,0.006970153849382749,0.0020947385067877906,0.00038603269476041697
0.0,1.0,1.0,0.0,120.0,0.0,-9.110079279866357,-0.16312467437055744,6.904827880457777,-107.0,0.0,-45.0,-1.896726336615584,-9.984945982071187,3.02389539840161,34.38865340974415,17.459227116127643,4.557452507498485,2.6740562427355656,2.1898390187222683,1.7867984454091936,1.3318781654281586,0.8750527283603237,0.4864935234944197,0.22904696720861992,0.09337159439273451,0.032488431137140596,0.009606434778168495,0.002480471190381206,0.000583538086934913,0.0001201175942071922,-7.54316845858338e-05,6.952148071266526,4.942289957037391,4.305263319324493,3.7474826522397056,3.0663124804049633,2.2874183336018303,1.5043935620198148,0.8697083601138034,0.4483455175725301,0.20384156083148466,0.08145851642398239,0.029082463827247326,0.009500880016611963,0.0028918463223942007,0.0005908994587835897
0.0,2.0,2.0,0.0,120.0,0.0,2.0943273642200957,-8.204671474476115,8.795307989081213,-107.0,0.0,-45.0,-1.0867367614673409,4.938940683918247,4.897660382656973,34.38865340974415,17.459227116127643,4.560575337205727,2.6869683133855022,2.2085348045281314,1.821841568814239,1.3903066785173124,0.9448308765613,0.5481451042160781,0.27066414298632047,0.11573832352276711,0.042151210646492764,0.012980619923659875,0.0034577003429631407,0.0008276306917154355,0.00017450172068358974,-6.907963234332474e-05,6.9548620927761915,4.956749281585258,4.32827906827097,3.7949124270940224,3.157038425141862,2.4146529831280614,1.6402497018260491,0.9836787320049869,0.5262329002497211,0.2478676711499554,0.10223235360653345,0.037445598384351804,0.01246243618891315,0.003844876676999579,0.0008426182289258776
0.0,3.0,3.0,0.0,120.0,0.0,-4.558861204745741,3.1549743389478344,14.354086434433174,-107.0,0.0,-45.0,-2.8903565810436884,4.9371283539112945,1.9963665748380688,34.38865340974415,17.459227116127643,4.563833185250446,2.699899166027462,2.2245039235109734,1.8477600315612912,1.4354550827476964,1.0031425702432375,0.6034423933210847,0.31056531451559216,0.13857368882140006,0.05261708237717764,0.01683666152461576,0.004626069764303115,0.0011298618126676157,0.0002436332813794063,-5.9577760908882474e-05,6.9576739031300185,4.971230608489713,4.348116298333294,3.829762483206194,3.2259309315177975,2.518519867619136,1.7583453785609993,1.0886113427659494,0.6018889782719233,0.2928220008949161,0.12441699500481597,0.04671914987005792,0.015843977278665926,0.004956907412796386,0.0011435888336683484
0.0,4.0,4.0,0.0,120.0,0.0,7.449855052989125,-5.492488603150143,6.72858802897596,-107.0,0.0,-45.0,-4.337810933681963,5.552515337931432,0.6804944883208393,34.38865340974415,17.459227116127643,4.567231350918948,2.713014712923926,2.239351117369083,1.8679988963312302,1.4704831988260263,1.0516840437778434,0.6526436013536405,0.3482946055309709,0.16143791373801833,0.06368326267063679,0.021124754237446464,0.0059831504685772,0.0014932829022734654,0.0003289952131712837,-4.650919020801768e-05,6.960586980451815,4.985895859178572,4.366666730118856,3.8569452205601418,3.278632676113545,2.603311230605385,1.8607307542131026,1.184530833158109,0.6745190052260155,0.3380178767256659,0.14768265589743249,0.05680296331360211,0.01962834058532378,0.006228753966486306,0.0014956345011344946
0.0,5.0,5.0,0.0,120.0,0.0,-8.883535424160824,6.418601319797503,5.563045802617324,-107.0,0.0,-45.0,0.831120303540466,1.612234556611707,3.3695737888841197,34.38865340974415,17.459227116127643,4.570775153180227,2.7263612817647225,2.253837767222271,1.8848747429142043,1.4979571584185194,1.0919764826496554,0.6961597187790921,0.3836021111043759,0.18398981540301984,0.07516336511585067,0.02578925349731211,0.007522371320079544,0.0019197546928342558,0.0004318635443587441,-2.9478003097701526e-05,6.963605049881343,5.000788441454858,4.38480044778923,3.8796644098837034,3.319519017780284,2.672529455088998,1.9493246997720441,1.2717581891842293,0.7436258507896207,0.38290655374571214,0.17172814565789926,0.06759316825536951,0.023793536905019445,0.00765925208220713,0.001900041446349382
0.0,6.0,6.0,0.0,120.0,0.0,8.751164827001446,-16.876459031590574,10.792788315535773,-107.0,0.0,-45.0,3.598971174561104,6.369128395074583,-1.666042155513936,34.38865340974415,17.459227116127643,4.574470057287552,2.739951795538231,2.268296600729907,1.8998714661191474,1.5199385877120137,1.1253745648720574,0.7344665550029841,0.41638148500105443,0.2059731266231216,0.08689195387342168,0.030772260875255263,0.009233911213242829,0.0024100264180095285,0.0005532922564122875,-8.116603158192144e-06,6.9667321985138635,5.015919879547002,4.402885831341367,3.899918271557693,3.35197625483579,2.729080486859496,2.0258596333590244,1.350775076094559,0.8089300780874042,0.42705931608694214,0.19628467470950756,0.07898602819388914,0.02831404747403453,0.009245531574824403,0.002357600842062551
0.0,7.0,7.0,0.0,120.0,0.0,-0.4960534260473022,0.2839666779384409,-4.183187294110876,-107.0,0.0,-45.0,-1.8416735390697903,6.555845799695685,1.0921238536323834,34.38865340974415,17.459227116127643,4.578321720966263,2.753791232016333,2.2828612198727134,1.9138930819129716,1.5380440225707097,1.1530833111602048,0.7680575835993356,0.44662381921888267,0.2272019092688203,0.09872605816271429,0.03601627187931729,0.011105534064544112,0.0029638426690329327,0.0006941067966697281,1.790910398734978e-05,6.96997289762423,5.031294376767229,4.4210657174247,3.9188952682186744,3.378578971854112,2.7754101448903463,2.091877659239508,1.422139265561907,0.870308639788024,0.4701488849855169,0.22111673238680435,0.09088071927216118,0.0331619320867785,0.01098327680278132,0.0028686515962308137
0.0,8.0,8.0,0.0,120.0,0.0,8.492862973659278,2.6866362063306326,6.4441567420466015,-107.0,0.0,-45.0,-3.648145000431553,8.921817048379456,3.5460568061074778,34.38865340974415,17.459227116127643,4.582336004535443,2.7678829047127382,2.297580823091295,1.9274639489962164,1.553501599660446,1.176168926982552,0.7974208771919884,0.47438447222574875,0.24754696607095464,0.11054479618783651,0.04146603127930175,0.013123331770166788,0.0035800658438490656,0.0008549048850239773,4.889622520436345e-05,6.973331990235767,5.046914626424528,4.439390490508656,3.937269465455276,3.4012328245683925,2.813588974620658,2.148749391890291,1.4864331677337035,0.9277488749938079,0.5119319645283407,0.24602112270211599,0.1031812506038955,0.038307759962475735,0.012866970531884538,0.003433122945115821
0.0,9.0,9.0,0.0,120.0,0.0,-1.5204747811853743,24.17246123514255,6.236808270745136,-107.0,0.0,-45.0,-4.5847611052337465,-7.441495026383283,-1.8822424536186633,34.38865340974415,17.459227116127643,4.586518971151517,2.7822296962493973,2.312472234415629,1.9408740626019314,1.567213127899798,1.1955632199713673,0.8230287499580281,0.49975987690902274,0.2669239900546719,0.12224791743196362,0.04706975201493194,0.01527236028024542,0.00425680485546449,0.0010360631998897042,8.510273286582175e-05,6.976814672673052,5.062782935824118,4.4578763593985995,3.9554056482710274,3.421305867444183,2.84536287040133,2.197698735077035,1.544234047960427,0.981314426623916,0.552233742681887,0.2708249143104569,0.11579771227188461,0.04372137857127593,0.014890118893882308,0.004050576197297382
0.0,10.0,10.0,0.0,120.0,0.0,7.521502089124411,16.983524667612087,1.4556783857249833,-107.0,0.0,-45.0,4.929698130884896,1.0396385096349174,1.8016575151586327,34.38865340974415,17.459227116127643,4.590876887880982,2.796834271146711,2.3275412455478706,1.9542765103832314,1.5798187083543975,1.2120658756029696,0.8453328935816932,0.5228718722271336,0.285283606787155,0.13375380616715296,0.0527798421688292,0.017537167121622142,0.004991543130436914,0.0012377485930421168,0.00012674639456007687,6.980426479327146,5.078901455919737,4.476528392265574,3.9734922250920284,3.4397498889067184,2.8721866403585237,2.2398247372488753,1.596098433120911,1.031120208863252,0.5909345947439907,0.2953828175235491,0.12864700825404818,0.04937253740982814,0.01704545612492446,0.004720245166895028
0.0,11.0,11.0,0.0,120.0,0.0,3.5806368397904222,4.652723902191536,3.9917763789671454,-107.0,0.0,-45.0,3.9067598053475354,-5.619563836296731,3.8886212081770726,34.38865340974415,17.459227116127643,4.595416229193275,2.8116991583180315,2.3427904185741237,1.96774851502826,1.5917580687857689,1.2263485004538146,0.8647611332264212,0.5438574905380914,0.3026032191154992,0.14499728976131654,0.05855326470714512,0.019902216473530392,0.005781260966446077,0.0014599326225396034,0.00017400457710810925,6.984173270538892,5.095272290068599,4.495348583343444,3.991622092495262,3.4572069768000673,2.895252264591532,2.276117222525398,1.6425554508383085,1.0773142095401194,0.6279589256579486,0.31957432882458875,0.1416532030834345,0.05523138428645279,0.019325128621875555,0.0054410749540550266
0.0,12.0,12.0,0.0,120.0,0.0,-0.535874121280111,-24.582625699537875,6.839239317643393,-107.0,0.0,-45.0,-0.2904400511176899,-1.9511129441027268,-1.2202235027260788,34.38865340974415,17.459227116127643,4.600143681399326,2.826826817889012,2.3582215441510384,1.9813274056998356,1.6033240084741045,1.2389622842099783,0.8817142946002452,0.5628624606280649,0.3188804795694164,0.15592745482916062,0.0643516331180331,0.022352221864449132,0.00662254903091151,0.0017024083560889082,0.0002270147539206779,6.988061221514098,5.11189756679142,4.514338257204548,4.0098390714768835,3.4740975611100704,2.91551758007302,2.307466400794632,1.6841052707317425,1.1200644849794898,0.6632659374612487,0.34330086299712237,0.15474758507201922,0.061268851418017974,0.021720858517589585,0.0062117588133200055
0.0,13.0,13.0,0.0,120.0,0.0,-1.0525240145950931,-0.37888208967872217,11.490082739535385,-107.0,0.0,-45.0,2.7592074926703436,8.05470003261123,2.6810242709311263,34.38865340974415,17.459227116127643,4.605066146832932,2.842219684915015,2.373836261274256,1.995030644099395,1.614705767677144,1.2503492580610984,0.8965630351527649,0.5800370353997122,0.3341281877489397,0.1665055828674608,0.07014112510961425,0.024872398176057443,0.00751171114858438,0.0019648085544293334,0.0002858755683744111,6.992096811338374,5.128779472919205,4.5334986291365205,4.0281631361474,3.4906891153958894,2.9337367742933775,2.3346683083328075,1.721219931053161,1.159550113634421,0.6968420587868844,0.3664830085474,0.1678685267631656,0.06745694775604107,0.024224087447563884,0.007030772924080291
0.0,14.0,14.0,0.0,120.0,0.0,-2.1166069337475584,-24.89607709991232,13.139299294761386,-107.0,0.0,-45.0,-2.7746920567848044,4.3828931286886395,-3.555688394706018,34.38865340974415,17.459227116127643,4.610190747416606,2.85788018846968,2.389636162065897,2.0088663681499876,1.6260222097125103,1.2608560527787556,0.9096450527035073,0.5955331292501286,0.3483703957811853,0.1767032625223376,0.0758922772898011,0.02744864495226539,0.008444855542254702,0.0022466244892056417,0.0003506483286943073,6.996286811974636,5.145920255016585,4.552830891389853,4.04660337559579,3.507147133517318,2.9504917630696768,2.358428237888487,1.7543447991248824,1.1959551361430132,0.7286947815126893,0.38905798262243046,0.1809612052583764,0.07376897261112418,0.026826101500035112,0.007896408943172317
0.0,15.0,15.0,0.0,120.0,0.0,-6.342226142171166,-3.9133168245409813,1.1677219753353043,-107.0,0.0,-45.0,3.0195150269788,-6.079913485159716,3.9167704632570572,34.38865340974415,17.459227116127643,4.615524827577736,2.873810754728864,2.4056228023970117,2.0228386302956496,1.637345978902329,1.2707487300882945,0.9212631429609976,0.609502110690635,0.36163949703868975,0.18650070513837178,0.08157970709732307,0.03006767260628674,0.009417974395431435,0.0025472247858934864,0.00042135883189327615,7.000638277223871,5.163322203990798,4.572336228547955,4.065164267591443,3.523571315681825,2.9662227742486427,2.3793638895160822,1.7838997190963903,1.2294646800603264,0.7588476826430796,0.4109773205849049,0.19397723074406015,0.08017966401895586,0.02951813855758447,0.008806804277719049
0.0,16.0,16.0,0.0,120.0,0.0,5.3056913452575465,-8.768198231962337,5.387217398491149,-107.0,0.0,-45.0,-2.5416097793192707,7.951918430903099,3.8901357599926225,34.38865340974415,17.459227116127643,4.6210759565667106,2.890013803222693,2.421797715927122,2.036949838460927,1.648720345807199,1.280227403061882,0.9316844023308624,0.6220928948452301,0.37397407657051546,0.19588527295204836,0.08718179478090544,0.03271708227778127,0.010427012067104325,0.0028658738124203104,0.0004979994346473916,7.005158531731271,5.180987634707123,4.592015840506822,4.08384851596813,3.540020255334087,2.981256596268434,2.398009297373899,1.8102795011449342,1.2602626004689954,0.7873364457364086,0.4322048087060832,0.2068742201466517,0.08666529357974824,0.03229147938375749,0.009759970065318571
0.0,17.0,17.0,0.0,120.0,0.0,7.5479175188208885,-21.669793750926193,0.6085543090617307,-107.0,0.0,-45.0,-0.12529370475221313,4.60713003748147,3.986541293125338,34.38865340974415,17.459227116127643,4.6268519301060405,2.9064917421717724,2.438162437253152,2.051201811294973,1.6601705065795107,1.2894397135453444,0.9411406450181827,0.6334501940668972,0.38541731954337916,0.20485021814373588,0.09268034806820649,0.0353854089589489,0.011467922579808451,0.0032017492563025276,0.0005805313070599713,7.009855175208524,5.198918903761063,4.611871010467967,4.102658244385569,3.556527641734963,2.995831470649352,2.4148199529974086,1.8338537911337067,1.288530093092963,0.8142057251715943,0.45271465280200057,0.2196153436460601,0.09320371786180273,0.035137523897424486,0.010753817081751717
0.0,18.0,18.0,0.0,120.0,0.0,-0.41446053093768853,2.938032079899866,5.666473259803823,-107.0,0.0,-45.0,-3.4245517349191945,2.1834677397905526,3.2175914172052007,34.38865340974415,17.459227116127643,4.632860772355218,2.9232469642561822,2.4547185221055328,2.065596191222644,1.6717108958272104,1.298492620151735,0.949829917334821,0.6437129132859997,0.39601580472828957,0.213393622461135,0.0980602649885415,0.03806213619599281,0.012536717182649445,0.0035539586425715184,0.0006688868048690745,7.014736037771998,5.217118308551586,4.631903029395968,4.121595408708827,3.573112653304165,3.010118088447181,2.4301791152913967,1.8549665443948307,1.3144448653287752,0.8395067156987039,0.47248986803396686,0.23216886427333308,0.09977439497930111,0.038047854116063505,0.011786178774486353
0.0,19.0,19.0,0.0,120.0,0.0,-1.3946415228816953,11.420848252023681,-5.0530190442304,-107.0,0.0,-45.0,-2.3695905382317783,-8.292971391138309,-2.3242557548593954,34.38865340974415,17.459227116127643,4.639110737107757,2.9402818449180987,2.471467562841685,2.0801345875933364,1.6833497568695934,1.3074622788164691,0.9579188778817415,0.6530127364535813,0.405818548119524,0.22151752028028085,0.10330920545692089,0.04073768930010069,0.013629502899322835,0.003921554636786364,0.0007629719240606485,7.019809184622136,5.235588109965275,4.652113243799702,4.140661948486416,3.5897862563478564,3.0242367618308035,2.4444049795256917,1.8739353978867133,1.3381805692733753,0.8632953031027416,0.4915208723904966,0.24450768475889595,0.10635837366737584,0.04101428523273257,0.012854832774141388
0.0,20.0,20.0,0.0,120.0,0.0,5.099572978927295,-22.09626671251034,-6.912147466032639,-107.0,0.0,-45.0,-1.1167411815793251,4.855478789732237,1.4864967205017425,34.38865340974415,17.459227116127643,4.645610308597958,2.9575987418005636,2.488411196891444,2.0948186176660903,1.6950919018439958,1.3164020338041726,0.9655457676250788,0.6614729628257643,0.4148762009958985,0.22922718288031466,0.10841727896970124,0.04340341268242666,0.01474251302837913,0.004303549049812995,0.000862668784848282,7.025082921175173,5.254330557572397,4.6725030946203985,4.15985983186416,3.606554925676438,3.0382710109179394,2.4577583195813646,1.8910511866753306,1.3599063137762581,0.8856306809287923,0.5098042665040995,0.2566089110001705,0.11293826106371244,0.044028906235771895,0.013957520313713034
0.0,21.0,21.0,0.0,120.0,0.0,-8.16986866517591,-24.883260003804903,-4.695342576217882,-107.0,0.0,-45.0,-4.512959943932544,-3.329820615528414,-0.2645609498762109,34.38865340974415,17.459227116127643,4.652368202335982,2.975199994583611,2.5055511092945517,2.109649914978475,1.7069403209617147,1.3253486846745586,0.9728236999421114,0.6692076379059246,0.42324034181896636,0.23653053879028446,0.11337675346585203,0.04605153575162337,0.015872130578714526,0.004698925514459859,0.0009678381017514793,7.030565774561161,5.2733478570145795,4.693074084403014,4.179191050808731,3.6234228115991143,3.052278000937484,2.4704502106008084,1.906577780089424,1.379786160498954,0.9065743283561133,0.5273417833958273,0.26845343790581533,0.11949817443840001,0.04708411138756197,0.015091963320887735
0.0,22.0,22.0,0.0,120.0,0.0,-2.962578637854567,18.054179538939664,-8.15163429755567,-107.0,0.0,-45.0,-3.3952047164462327,-6.471234038025067,4.241007357486643,34.38865340974415,17.459227116127643,4.65939336547589,2.993087925349598,2.522889032829486,2.1246301316121494,1.7188970853250423,1.3343272694926662,0.9798440378372328,0.6763209990412391,0.4309628293521618,0.24343770442613857,0.118181788634216,0.04867513083080052,0.01701490560305885,0.005106650841403932,0.0010783216097418266,7.0362664849495165,5.292642161925881,4.7138277685485255,4.198657619848458,3.640392916960309,3.066296384491251,2.48264948215772,1.920752336886352,1.3979785721763676,0.9261892564871409,0.5441393925938762,0.2800255608018383,0.1260236812585669,0.050172623764835604,0.016255879721626985
0.0,23.0,23.0,0.0,120.0,0.0,7.210197118115094,1.0878009657907377,-4.387352012220216,-107.0,0.0,-45.0,0.42948605881141155,4.133344328187778,-0.025700829646689627,34.38865340974415,17.459227116127643,4.666694976824327,3.0112648391292485,2.5404267470868978,2.1397609409073897,1.7309638324176702,1.3433546268997927,0.9866796770152712,0.6829072299533342,0.43809520435981975,0.24996060061568937,0.12282819545335819,0.051268065774416074,0.01816756734167366,0.005525685087141064,0.0011939444176011455,7.042193997161346,5.312215566668969,4.734765746570667,4.21826157610747,3.657467713408243,3.0803520551760077,2.494489653933225,1.9337860015527344,1.4146358239168104,0.9445394441108957,0.5602065435581128,0.2913126138646508,0.13250173120792036,0.053287511943820184,0.01744699693889485
0.0,24.0,24.0,0.0,120.0,0.0,5.417333592693176,12.484959894155125,-5.369556730141284,-107.0,0.0,-45.0,1.3848712797677507,1.3784606876706071,3.3043358322923417,34.38865340974415,17.459227116127643,4.674282446482359,3.029733024567696,2.558166077475725,2.155044041140318,1.7431420145313272,1.3524419891813098,0.993388107162761,0.6890504974839846,0.4446881396815683,0.2561126335057321,0.12731322243942206,0.05382495337609066,0.01932703201468448,0.005954990383771604,0.0013145172678935724,7.048357452524647,5.332070099826933,4.7558896544146325,4.238004980177799,3.6746494461058927,3.0944622783704716,2.5060751929398157,1.9458650101400454,1.429903410223277,0.9616893992930101,0.5755555333925515,0.30230463598428087,0.13892058309556257,0.05642220079659835,0.018663063706168066
0.0,25.0,25.0,0.0,120.0,0.0,9.412209544860406,-4.0946378895570845,10.39913009232204,-107.0,0.0,-45.0,1.8883838861494233,4.421096980579364,4.934531310034405,34.38865340974415,17.459227116127643,4.682165415103784,3.048494754720698,2.5761088945881774,2.170481159223552,1.7554330183532456,1.3615968298305656,1.0000141725136962,0.6948252295810013,0.45079094477316467,0.2619084221285283,0.13163536794575173,0.05634109921900385,0.020490407012786316,0.0063935385923590046,0.0014398386893427493,7.0547661809080795,5.352207718462816,4.7772011581478955,4.257889916482437,3.691940273473154,3.108638595743708,2.5174870110348215,1.9571521387585165,1.4439194878124153,0.9777037984793483,0.5902009837122435,0.31299406384937156,0.14526972898123924,0.059570477258202,0.019901860322356555
0.0,26.0,26.0,0.0,120.0,0.0,-7.73294410351,-9.67679996337248,4.273842271866528,-107.0,0.0,-45.0,1.6473529989148616,-6.8936430183588,3.1366253044390255,34.38865340974415,17.459227116127643,4.690353752744188,3.0675522880184922,2.5942571140092023,2.186074053662986,1.7678382181029948,1.3708241529490253,1.006592492972312,0.7002965860665029,0.4564511326238519,0.26736355898261466,0.13579421693793334,0.05881244929007593,0.021654992141115825,0.0068403178504126754,0.001569697032703579,7.06142969286226,5.372630303180652,4.798701948935792,4.277918492369018,3.709342324588191,3.122888826139064,2.5287871849003225,1.9677884098684475,1.456814391880276,0.9926471690756219,0.6041594115091212,0.3233754517077054,0.15153981731863825,0.0627264918297082,0.02116120747731542
0.0,27.0,27.0,0.0,120.0,0.0,9.163289869920657,21.6494114411716,-13.299348713946985,-107.0,0.0,-45.0,2.4527637087914105,-0.39173585926181076,0.24974358562397647,34.38865340974415,17.459227116127643,4.698857557272185,3.086907869438806,2.612612696495449,2.2018245164800403,1.7803589965955888,1.3801273749246208,1.0131495376777868,0.7055210719568904,0.4617140558960038,0.2724943938835812,0.13979029999099685,0.061235538420177746,0.022818278477365877,0.0072943380908033146,0.0017038723853151335,7.068357671802481,5.393339654020233,4.820393739063721,4.298092835854167,3.7268577185967695,3.137218415939126,2.5400229267194763,1.9778949670225554,1.4687102554241034,1.0065835938285126,0.6174488791377178,0.3334452170559069,0.15772257647664323,0.06588475650066684,0.02243897377546447
0.0,28.0,28.0,0.0,120.0,0.0,1.8153389901318207,-22.24452005344309,3.5538279318395283,-107.0,0.0,-45.0,-3.5600033402338593,-9.574160459715046,1.6823294387836354,34.38865340974415,17.459227116127643,4.707687152316181,3.1065637319240667,2.6311776484010583,2.217734374164441,1.7929967521845596,1.3895089150494515,1.019705364410391,0.7105472455717357,0.4666226165081418,0.27731783474743826,0.14362497183367948,0.0636074403966873,0.023977945318304345,0.007754635614438711,0.0018421383623230827,7.075559966174052,5.414337487205266,4.84227825875451,4.318415092341299,3.7444885685373137,3.151631331407987,2.551229863962702,1.9875750336465003,1.4797207508152181,1.0195764253088646,0.6300887092218339,0.3432014113599049,0.16381073963958226,0.06904013970250027,0.023733082079506803
0.0,29.0,29.0,0.0,120.0,0.0,-7.667452322187676,19.25521002142186,10.144456381845306,-107.0,0.0,-45.0,-0.5482050238000236,-0.03166626952833873,1.161368097626009,34.38865340974415,17.459227116127643,4.716853084722474,3.126522098068381,2.6499540222373734,2.233805487892679,1.8057529003370656,1.3989705828784658,1.0262750519438824,0.7154164789057248,0.47121704968201494,0.2818511617162375,0.14730030658533,0.06592572040345274,0.025131855612310752,0.008220276802315574,0.0019842637742710227,7.083046581544355,5.435625432749225,4.864357253575177,4.338887420766879,3.762236980016404,3.166130635467908,2.5624347037470714,1.9969158821515647,1.489950962264691,1.0316880062623779,0.6420992513742102,0.35264351475568123,0.1697979718064357,0.07218785884038342,0.025041514788056538
0.0,30.0,30.0,0.0,120.0,0.0,-9.195945247803621,5.384995986980716,-14.223891073578264,-107.0,0.0,-45.0,0.39541280396287437,-1.5751398238149008,1.4536632697066478,34.38865340974415,17.459227116127643,4.72636612150062,3.1467851820898187,2.6689439172838183,2.250039753280433,1.818628873706068,1.4085138266777688,1.0328698599355017,0.7201637344755355,0.4755347803579265,0.28611185307883136,0.1508190068609328,0.0681883902674199,0.026278050210682396,0.00869036105396559,0.002130014171713524,7.0908276725630435,5.4572050329079875,4.886632482285582,4.359511989593783,3.7801050490179975,3.1807188517396656,2.5736573642166496,2.005990753241653,1.499497388492724,1.0429793966975869,0.653501689055076,0.3617722535121212,0.17567879939651215,0.0753234708920062,0.02636231815139522
0.0,31.0,31.0,0.0,120.0,0.0,-5.330388495445626,13.773137642726077,-0.8141884550827054,-107.0,0.0,-45.0,4.770612763482827,1.2825162091867153,-2.2272394181823763,34.38865340974415,17.459227116127643,4.736237246230082,3.1673551920952034,2.68814948019865,2.2664390998977892,1.8316261221407726,1.4181398889835721,1.0394981537967682,0.7248183301065937,0.47961034723753165,0.2901174228213596,0.15418432411250388,0.07039386682808198,0.02741474121711137,0.0091640230386882,0.0022791532679361627,7.098913534727312,5.479077741456742,4.909105715032064,4.3802909729620865,3.7980948602178413,3.195398188346282,2.5849126552032975,2.0148606795798347,1.5084480674875664,1.053510111647748,0.6643178765604584,0.3705894388598056,0.1814485428137996,0.07844286150564908,0.02769360571969686
0.0,32.0,32.0,0.0,120.0,0.0,7.6059921033323405,4.578934325397665,-1.498157351348679,-107.0,0.0,-45.0,-2.192941818724025,-3.8060114577162203,2.472935641891258,34.38865340974415,17.459227116127643,4.746477654899391,3.188234332638155,2.707572905603154,2.283005490711588,1.8447461129883949,1.427849901430287,1.046166131613246,0.7294046701922278,0.4834753877216294,0.29388527045635626,0.15739998787996637,0.07254093359701543,0.028540304671589474,0.009640434343421525,0.002431444241158756,7.10731459588583,5.501244923761314,4.931778731825683,4.401226547188684,3.816208485962962,3.210170671441473,2.5962115855324246,2.023576181596993,1.5168828099238794,1.063337874979652,0.6745701979007847,0.3790978256176197,0.1871032522115231,0.08154223297627912,0.029033561008887702
0.0,33.0,33.0,0.0,120.0,0.0,-7.83228140467751,24.927846102866553,14.698447508091153,-107.0,0.0,-45.0,2.7809910650465506,6.291064461918342,-3.619312579907774,34.38865340974415,17.459227116127643,4.757098751147411,3.2094248075668035,2.727216436629758,2.299740921556701,1.857990331629324,1.4376449408144496,1.0528783877396526,0.733942928390742,0.4871586757117912,0.2974325441431184,0.16047014199273987,0.07462870574315504,0.029653272770160992,0.010118804596851287,0.0025866509178997716,7.116041407414852,5.5237078576105345,4.954653321268197,4.422320887708311,3.834447985688651,3.2250382221129796,2.607562366695341,2.03217881530987,1.524873524502505,1.072518394848456,0.6842814410857709,0.387300988902055,0.19263964662016222,0.0846180914266809,0.03038043946130912
0.0,34.0,34.0,0.0,120.0,0.0,-6.0797728868708,-5.887223051499195,9.782613850518857,-107.0,0.0,-45.0,-0.09132416145598832,-9.24346172288592,3.9515304980147192,34.38865340974415,17.459227116127643,4.7681121408759735,3.2309288231548092,2.7470823654344376,2.316647420689246,1.8713602820901578,1.447526061059605,1.0596383440854344,0.7384496722761564,0.4906862035895709,0.30077601814485627,0.16339928615266877,0.07665659832835085,0.030752325793406213,0.010598382143690199,0.002744538839616351,7.125104635002429,5.546467734775269,4.9777312795021755,4.443576166478957,3.8528154055121697,3.24000269879552,2.6189711736785464,2.0407025621531676,1.5324846169016022,1.081105165801093,0.693474682974575,0.3952032170982435,0.1980550565457661,0.08766723347129539,0.03173256977180559
0.0,35.0,35.0,0.0,120.0,0.0,-4.106665821301128,5.366347052049424,-6.529384288425149,-107.0,0.0,-45.0,2.9920859531189965,-5.137982179726011,0.24092823457147894,34.38865340974415,17.459227116127643,4.779529626204375,3.2527485915074834,2.767173033678826,2.333727048441735,1.8848574876042088,1.457494310641729,1.0664485759816127,0.7429384250280566,0.4940812995779189,0.30393198547911493,0.16619222170678516,0.07862429762932438,0.03183628389249574,0.011078454336516342,0.0029048762153525325,7.134515048980546,5.569525663259636,5.001014409367993,4.464994549832616,3.8713127778276197,3.255065919390429,2.63044271454591,2.0491750589093707,1.5397734438487385,1.0891493014406144,0.7021731813113778,0.4028094192176864,0.20334737010222895,0.09068673259430671,0.03308835464459827
0.0,36.0,36.0,0.0,120.0,0.0,6.290551870481945,-20.68807589690382,-14.284525105067893,-107.0,0.0,-45.0,-1.3802938328105938,7.828064379919294,3.8262735462486646,34.38865340974415,17.459227116127643,4.791363198738159,3.2748863342331154,2.7874908329891155,2.3509818969807035,1.8984834910465878,1.4675507415489097,1.0733110553333698,0.7474201628420976,0.49736477200896945,0.3069161662988045,0.1688540007615455,0.08053173531712798,0.03290409886056092,0.01155834750545964,0.0030674347638542138,7.144283514148967,5.592882670209267,5.024504519752363,4.486578196730992,3.8899421208247613,3.2702296719472344,2.641980651579761,2.057618671928613,1.5467908046795695,1.0966994002393542,0.7104002718034219,0.41012504476964345,0.2085149827051177,0.09367392543121697,0.03444627104219176
0.0,37.0,37.0,0.0,120.0,0.0,8.141205621693985,-4.179900490359756,-4.257650193376822,-107.0,0.0,-45.0,4.070819167315552,1.8137633255571206,0.4951127645479758,34.38865340974415,17.459227116127643,4.803625032126754,3.297344286367849,2.8080382053986637,2.3684140901578563,1.9122398552226683,1.4776964135251034,1.0802273298024734,0.7519037494387255,0.5005550726524829,0.3097436321639026,0.1713898780844754,0.0823790652228574,0.0339548459979619,0.012037426658886269,0.003231990449429755,7.154420979037845,5.616539705440267,5.0482034251125745,4.508329257378466,3.9087054379281594,3.2854957192554592,2.6535879087957284,2.066051424173089,1.55358145431528,1.1038014457220848,0.718179269095192,0.41715601432912147,0.21355675032156957,0.09662639810547995,0.035804869984181274
0.0,38.0,38.0,0.0,120.0,0.0,-1.2736264602061027,-1.1067525866496624,-13.051443468558803,-107.0,0.0,-45.0,-4.17548915445915,-7.924150729217536,3.7366967600842553,34.38865340974415,17.459227116127643,4.816327473886687,3.3201247005402847,2.8288176437800785,2.3860257834424026,1.9261281630233449,1.4879323958371133,1.0871986531935143,0.7563963109544409,0.5036684720922021,0.31242874598147424,0.17380526547813116,0.08416664239663392,0.034987716162097046,0.012515094961308298,0.003398324116619104,7.164938464559003,5.640497645550144,5.072112945159197,4.530249872145083,3.9276047171943835,3.3008658004535736,2.665266893647271,2.074487786458763,1.5601846235882568,1.1104987409623184,0.7255333712523001,0.4239086590883457,0.21847194623868277,0.09954197273903784,0.037162775950882555
0.0,39.0,39.0,0.0,120.0,0.0,-8.386768026268705,6.391272122087177,2.8167167902252928,-107.0,0.0,-45.0,-2.786126943917595,-1.8150940997621472,1.6739681948586318,34.38865340974415,17.459227116127643,4.829483036469006,3.3432298513594656,2.84983169227118,2.4038191639224924,1.9401500174783928,1.4982597678483638,1.094226079113778,0.7609035557447108,0.5067192410816251,0.3149851170399307,0.17610568849419067,0.08589500416287393,0.03600200807538222,0.0129907930283756,0.0035662220294678556,7.175847051998324,5.66475729856912,5.096234904678555,4.552342170757016,3.946641930720755,3.3163416313715968,2.6770196547843774,2.082939345878953,1.5666345350489264,1.1168318762257694,0.732485567909953,0.43038966782049354,0.22326022128093503,0.10241869422809978,0.038518685943933845
0.0,40.0,40.0,0.0,120.0,0.0,8.455179862952715,-14.586918051386345,11.604932640208059,-107.0,0.0,-45.0,-3.447104312379606,-7.710612879971088,4.001240929865368,34.38865340974415,17.459227116127643,4.843104387551898,3.366662040007241,2.871082946697914,2.421796450365417,1.9543070417444317,1.5086796190969605,1.1013105273540043,0.765430044338377,0.5097198327926271,0.3174255702644219,0.1782967454859159,0.08756485288509375,0.03699712094883543,0.013463998073050246,0.003735476321781518,7.187157870304657,5.689319409107034,5.1205711334754485,4.574608271717611,3.965819034117234,3.331924904491072,2.6888479927922937,2.0914153650481917,1.5729609046243107,1.1228387276963414,0.7390585525912616,0.4366060398538018,0.22792156737586758,0.10525481735290543,0.03987136825314912
0.0,41.0,41.0,0.0,120.0,0.0,-5.08637497408283,-8.341571579838185,-8.08536613506709,-107.0,0.0,-45.0,-4.6225924653691095,-3.3221748215991997,2.3205398706948035,34.38865340974415,17.459227116127643,4.857204339542121,3.3904235990132428,2.8925740549963717,2.4399598933285462,1.9686008790615652,1.5191930492292642,1.1084528302739396,0.7699794150806201,0.5126810618341694,0.31976212858485065,0.1803840690812565,0.08917704017451077,0.0379725474634801,0.013934222932106076,0.0039058853651696298,7.198882082634529,5.714184663947791,5.145123466416441,4.597050281927917,3.985137966082476,3.3476172889290394,2.700753536823634,2.0999232457424353,1.5791894216472784,1.128554484543534,0.7452746398917971,0.4425650428392224,0.2324562843374032,0.10804879427232594,0.04121966097585687
0.0,42.0,42.0,0.0,120.0,0.0,-8.586624914424428,22.26055612566418,-9.912239019148593,-107.0,0.0,-45.0,-0.9486555527073133,-7.719205716840952,-1.8546508134164066,34.38865340974415,17.459227116127643,4.871795836355388,3.4145168963266093,2.914307718024258,2.458311777281707,1.9830331949645053,1.5298011664506506,1.1156537651158862,0.7745545708357067,0.5156122768891108,0.3220060071200776,0.18237329020848075,0.09073255230397763,0.038927867137815805,0.014401014997877713,0.004077254069649274,7.211030897013577,5.739353764883734,5.16989383772445,4.619670390156871,4.004600649954577,3.3634203628283217,2.712737831099728,2.1084688980916044,1.5853422049653025,1.1340117005024306,0.7511556883813504,0.44827417427636346,0.23686494970741606,0.11079926244264268,0.04256247103275899
0.0,43.0,43.0,0.0,120.0,0.0,2.985983263200975,2.1739577882667938,-4.981342075613883,-107.0,0.0,-45.0,2.6599250936809042,-1.9719705503988205,-4.097035477549813,34.38865340974415,17.459227116127643,4.886891945874374,3.4389443423226718,2.936286688855891,2.4768544158687105,1.997605671801467,1.540505091277327,1.1229140746152706,0.7791578327617601,0.5185215242827872,0.32416761788233056,0.18427000479612407,0.09223249662652563,0.03986274009600048,0.01486395507648852,0.004249394088420354,7.223615490120911,5.764827271170624,5.194884050425247,4.642470637582834,4.024208989230347,3.379335779654778,2.724802286028414,2.117057080152007,1.5914382170825758,1.1392403692846333,0.756723029556968,0.45374112600053207,0.24114839148086514,0.11350503297655842,0.043898770599851616
0.0,44.0,44.0,0.0,120.0,0.0,-1.8643482325731409,21.866406094720674,-13.20930753739573,-107.0,0.0,-45.0,-3.1342036112124982,-3.7160200388827906,2.900453931993157,34.38865340974415,17.459227116127643,4.902505844537733,3.463708394054517,2.958513774067355,2.4955901551107647,2.012320011765729,1.551305954369224,1.1302344820129495,0.7837910648827591,0.5214157013008534,0.32625658343037645,0.18607974331216917,0.09367808882064031,0.04077690124192114,0.0153226561912426,0.004422123994509882,7.236647026804367,5.79060570056771,5.220095909378276,4.6654530497460796,4.043964869845333,3.3953651733189316,2.736948249614812,2.1256916322567125,1.5974936575728935,1.1442680156760907,0.7619974041357698,0.4589737509014655,0.24530766350285504,0.11616507947840889,0.04522759611629002
0.0,45.0,45.0,0.0,120.0,0.0,-4.622272627996669,0.09746128273186372,8.616074815717912,-107.0,0.0,-45.0,-0.3025389442638424,-0.02053413786727809,-4.205908642119972,34.38865340974415,17.459227116127643,4.91865080249806,3.488811559935276,2.9809918342785986,2.5145213746653194,2.027177938189023,1.562204895903112,1.1376157005934329,0.7884557747665399,0.5243006978790048,0.3282817581386786,0.18780794322814687,0.09507064082948564,0.04167015483293917,0.015776762347059353,0.004595269393793979,7.2501366565411525,5.816689571775136,5.245531271756514,4.68861968675615,4.063870161392637,3.411510122616529,2.749177040746815,2.1343756720401212,1.603522319581749,1.1491198017545377,0.7669989057628304,0.46398003141727995,0.2493440233306195,0.11877852735750109,0.046548046580408474
0.0,46.0,46.0,0.0,120.0,0.0,-9.25562130227637,-11.070577608793997,14.747291984036451,-107.0,0.0,-45.0,3.649231238282862,-0.41305277320823386,-0.49255679737028846,34.38865340974415,17.459227116127643,4.935340169992485,3.514256405407089,3.003723784366583,2.533650487138073,2.0421811945227564,1.573203066484982,1.145058439440808,0.7931531942738451,0.5271815261300562,0.3302512557008943,0.18945992447813953,0.0964115493886353,0.042542369439870505,0.01622594727003668,0.004768662982645524,7.264095483555777,5.843079378485142,5.27119200092482,4.711972597437983,4.08392671651532,3.4277721853046277,2.761489941889989,2.143111760517134,1.6095359089684378,1.1538186449408587,0.771746932456573,0.46876804944728817,0.2532589123379957,0.12134464362806266,0.04785928105632328
0.0,47.0,47.0,0.0,120.0,0.0,-9.244389770801577,0.9293992191509268,2.6584192045744786,-107.0,0.0,-45.0,-1.2378395042281678,1.7039268638675757,-3.397661918184751,34.38865340974415,17.459227116127643,4.952587362006597,3.540045558224531,3.026712593913233,2.5529799384185634,2.057331544455443,1.5843016273255466,1.1525634071290038,0.7978843436369499,0.5300624376881794,0.33217248153011736,0.19104086794851002,0.09770228506373767,0.043393473273881614,0.01666991313455417,0.004942144567720455,7.278534548392827,5.869775596505532,5.297079966749307,4.735513819715087,4.104136371285343,3.4441528988291057,2.7738882051203824,2.1519020286368735,1.6155443318086593,1.1583853437760419,0.7762601460965796,0.4733459574331436,0.25705393783451874,0.12386282720478554,0.04916051648041773
0.0,48.0,48.0,0.0,120.0,0.0,-1.3959613386093714,12.720798849586515,-13.19568820554412,-107.0,0.0,-45.0,-1.7652496293656315,-9.942757471297455,-2.667015451664707,34.38865340974415,17.459227116127643,4.970405842177429,3.566181713709543,3.0499612876646682,2.572512208046885,2.072630772068301,1.5955017504185272,1.1601313139360985,0.8026500819607908,0.532947029046555,0.33405216885464944,0.1925557969819377,0.09894438174626335,0.04422344985616395,0.017108389288840772,0.005115561049378076,7.293464808656062,5.896778690927772,5.323197045913765,4.759245381068704,4.124500945679431,3.4606537810646527,2.7863730559011093,2.160748276477115,1.62155595011148,1.1628387088572982,0.7805564399158461,0.4777219504767074,0.260730856976551,0.12633259969544894,0.05045102544297782
0.0,49.0,49.0,0.0,120.0,0.0,-2.078711454216289,-5.541748789489219,5.549809454056366,-107.0,0.0,-45.0,-4.934963236379062,0.46996376562465514,-3.995994329838223,34.38865340974415,17.459227116127643,4.988809105970653,3.5926676399435578,3.0734729460046655,2.5922498096103817,2.088080682026067,1.606804618715042,1.1677628731240681,0.8074511467113883,0.535838335344039,0.33589641741159293,0.19400956183970416,0.10013942657574891,0.04503233400334797,0.017541130988633614,0.005288766373716113,7.308897118940945,5.924089123277645,5.349545122238778,4.783169299062433,4.145022244136392,3.4772763310546666,2.7989456954700076,2.1696520504101287,1.6275778076131537,1.1671956963729064,0.7846529138534833,0.4819042394383973,0.26429156225386496,0.1287535966906385,0.05173013396253383
0.0,50.0,50.0,0.0,120.0,0.0,-6.5293753016410605,8.407485266433277,8.235460009733742,-107.0,0.0,-45.0,0.7797766006872555,3.2411792548665357,4.776854864923923,34.38865340974415,17.459227116127643,5.007810663177078,3.6195061828626263,3.0972507054454113,2.6121952911690793,2.1036830997995866,1.6182114262913083,1.1754588016469651,0.8122881843491421,0.5387389132334164,0.33771073376238575,0.19540682702769355,0.1012890502736223,0.045820208100013485,0.017967918147362604,0.005461621457726119,7.324842209999976,5.951707358586607,5.376126087000855,4.807287581922744,4.165702056181357,3.4940220297455937,2.811607302407414,2.1786147026820752,1.6336158277890724,1.1714715420055055,0.7885658574920864,0.4859010250201732,0.2677380683458403,0.13112555954805644,0.05299721926759756
0.0,51.0,51.0,0.0,120.0,0.0,9.884761849834277,19.32321741907991,-7.124902459184367,-107.0,0.0,-45.0,-1.0025588583624998,-5.40885147415604,-1.1418537399562623,34.38865340974415,17.459227116127643,5.027424019784363,3.646700271222179,3.121297759138826,2.6323512357087684,2.1194398719168683,1.6297233785099432,1.1832198205253461,0.8171617739021438,0.5416509135820603,0.3395000723793866,0.19675206135789358,0.10239491788644112,0.046587198629220686,0.018388554110136117,0.005633994091562563,7.341310667193938,5.979633872323228,5.402941839250955,4.831602229167038,4.186542157104324,3.5108923407153156,2.8243590337475744,2.1876374370700273,1.6396749863825972,1.1756798933050425,0.7923107401930439,0.4897204728808158,0.27107250015535017,0.13344832766626338,0.05425170759790825
0.0,52.0,52.0,0.0,120.0,0.0,-2.2558017029138338,21.215649501841185,-4.5684712294936425,-107.0,0.0,-45.0,-0.9246664457731502,-2.0739453801221934,-1.274715615520626,34.38865340974415,17.459227116127643,5.047662659291356,3.6742529213993667,3.145617357411798,2.652720261620569,2.1353528662394985,1.6413416921768094,1.1910466550384766,0.8220724449579432,0.5445761448256244,0.3412688767764577,0.19804953058926186,0.10345871994560449,0.04733347293257517,0.018802864457742253,0.00580575882150579,7.358312908296226,6.007869157125787,5.429994286133203,4.856115232271857,4.2075443086822055,3.5278887108976384,2.837202025857345,2.1967213436097404,1.6457594608098678,1.1798329389543472,0.7959022079548199,0.4933706898594452,0.27429708184457957,0.13572183124004203,0.05549307203520866
0.0,53.0,53.0,0.0,120.0,0.0,-7.790097296552956,-21.840800210866036,-10.985943304658091,-107.0,0.0,-45.0,4.4423491866406355,-9.03336568470429,3.852978618328285,34.38865340974415,17.459227116127643,5.068540017078547,3.702167245859977,3.170212814639564,2.6733050187848564,2.151423973988738,1.6530675952225533,1.198940034912984,0.8270206912738258,0.5475161278252607,0.3430211200761801,0.19930329246946904,0.1044821640566181,0.04805923617266845,0.01921069584578746,0.005976796808066076,7.375859161935155,6.036413740150272,5.45728534159687,4.880828571090618,4.228710261784281,3.545012571012443,2.8501373951827316,2.2058674248429053,1.6518727587766553,1.1839415336560557,0.7993540864521405,0.49685970139890584,0.2774141267149938,0.13794608448682485,0.05672083038457224
0.0,54.0,54.0,0.0,120.0,0.0,1.1875272868876579,0.5333202970104765,5.225018378257371,-107.0,0.0,-45.0,-2.5495096718228583,5.144728741086821,0.18609332511092092,34.38865340974415,17.459227116127643,5.090069470805246,3.730446451908422,3.1950875001193046,2.6941081957724635,2.167655107463602,1.6649023275781647,1.2069006942597404,0.832006981000687,0.5504721430836547,0.3447603445159144,0.20051719398375079,0.1054669669341104,0.048764728472746335,0.0196119148830746,0.006146995693016216,7.393959443195108,6.065268171051321,5.484816928575344,4.905744222106624,4.250041753932493,3.5622653368300865,2.863166239038295,2.2150766154307737,1.6580178284042992,1.1880153176424284,0.8026793896700375,0.5001954302656492,0.28042602779231574,0.14012117933084473,0.05793454306703148
0.0,55.0,55.0,0.0,120.0,0.0,1.0846004725363727,24.53710465532849,-14.785985096601735,-107.0,0.0,-45.0,0.051736565366842235,0.7947977905027841,2.95180243904621,34.38865340974415,17.459227116127643,5.112264326079373,3.7590938420181255,3.2202448345519876,2.715132530129531,2.1840482045902556,1.6768471425154987,1.2149293678308979,0.8370317661886469,0.5534452704849688,0.3464896996770329,0.20169487057112523,0.10641484690551328,0.049450222210387876,0.02000640705185055,0.006316249509557445,7.412623558766609,6.094433096303486,5.512591098579684,4.930864313235302,4.271540640718205,3.5796483664692933,2.876289568028766,2.2243498404027315,1.6641971367335093,1.1920628336918058,0.8058903329648944,0.5033856767115907,0.28333524900573953,0.1422472795154394,0.05913381269715488
0.0,56.0,56.0,0.0,120.0,0.0,-3.9561200868593343,-0.40388887750841107,-8.327416522432367,-107.0,0.0,-45.0,2.666401449946603,2.363669087305425,3.9272404196350656,34.38865340974415,17.459227116127643,5.135137782281992,3.7881128263472377,3.2456883007930544,2.7363807832789298,2.200605217260667,1.6889033039008086,1.2230268014772465,0.8420954831251192,0.5564364254878384,0.34821197830704287,0.20283974725878062,0.10732751687489243,0.050116019446681655,0.020394075674476167,0.006484458329662466,7.431861001694101,6.123909081108066,5.540609707942092,4.956190699974055,4.293208540436171,3.597163079930239,2.8895084937894437,2.23368790664853,1.6704127908893565,1.1960916240151687,0.8089983525434793,0.5064380999194308,0.2861443168152467,0.14432461518958287,0.06031827767724661
0.0,57.0,57.0,0.0,120.0,0.0,8.491795063937065,-24.010916009549092,7.450094229561692,-107.0,0.0,-45.0,0.9112525854497093,3.9840202196200494,0.6857127766173097,34.38865340974415,17.459227116127643,5.15870291725061,3.817506923842935,3.271421443517241,2.75785575752896,2.217328123594115,1.7010720880275205,1.2311937437932732,0.8471985607587225,0.5594463867125486,0.3499296510482746,0.20395504120776095,0.10820667780727694,0.05076244947052533,0.020774840923414258,0.006651528236720081,7.451680996555031,6.153696777503638,5.568874683974272,4.981725312589727,4.315047130890092,3.6148108612693153,2.9028240754278825,2.2430916094645768,1.6766665705385464,1.2001083382578235,0.8120141259211985,0.5093602012501754,0.28885581228556767,0.14635347782898228,0.06148761393767142
0.0,58.0,58.0,0.0,120.0,0.0,7.816980047289931,9.7498568987573,9.662334881004444,-107.0,0.0,-45.0,0.48266269861993916,-9.588641454140268,4.8917032576457125,34.38865340974415,17.459227116127643,5.182972667638248,3.8472797651709314,3.297447868984877,2.7795602950595284,2.2342189264299765,1.7133547837588086,1.2394309473418708,0.8523414230438059,0.5624758206417151,0.35164489860144116,0.2050437657172744,0.10905401270547056,0.05138986644582463,0.021148638878900596,0.006817371128048047,7.47209246600656,6.183796904783707,5.597387989308184,5.007470110441269,4.33705810967208,3.6325930729251366,2.9162373413221183,2.252561724996394,1.6829599887198334,1.2041188251315724,0.8149475969282821,0.5121593089599888,0.2914723634683481,0.14833421557227577,0.06264153256964802
0.0,59.0,59.0,0.0,120.0,0.0,-0.026019202214463633,19.0454838712297,14.88544932448201,-107.0,0.0,-45.0,1.2565654863945355,-9.343433428417152,-4.125876115136884,34.38865340974415,17.459227116127643,5.207959809566497,3.8774350955590955,3.3237712452374777,2.8014972775005553,2.2512796524081833,1.7257526926014057,1.247739169573947,0.8575244906290781,0.5655253022776489,0.35335964170717743,0.20610873539711916,0.109871181100392,0.05199864714879419,0.021515420632709295,0.006981904520193799,7.493104000572198,6.214210236707744,5.626151597122348,5.0334270502753204,4.359243166574283,3.6505110659152256,2.9297493046789516,2.262099005138857,1.6892943419923743,1.2081282172770953,0.8178080032199365,0.5148425645584715,0.2939966380657557,0.1502672289120082,0.06377977767117068
0.0,60.0,60.0,0.0,120.0,0.0,5.327238992720584,-15.715944959229283,10.814826793862217,-107.0,0.0,-45.0,-2.9735975668618586,7.264586527801498,-0.25512910764657093,34.38865340974415,17.459227116127643,5.233676939447622,3.9079767774944325,3.350395302905757,2.8236696266030883,2.268512352382347,1.738267128913923,1.2561191729616026,0.8627481823429133,0.5685953322376818,0.3550755689359514,0.20715257231136763,0.11065981405902811,0.05258918878581798,0.021875151437151956,0.007145051364815945,7.514723835562178,6.2449376049781185,5.655167491568454,5.059598087057623,4.381603984452362,3.6685661806229506,2.943360964368179,2.271704180712279,1.6956707493708731,1.212141009909373,0.8206039056771176,0.5174169108323513,0.29643133633849744,0.15215296671358622,0.06490212460854715
0.0,61.0,61.0,0.0,120.0,0.0,-6.110837407333687,12.076677893090633,-10.714167752620508,-107.0,0.0,-45.0,1.9420709340803919,-9.637036620806265,1.0422201675375806,34.38865340974415,17.459227116127643,5.260136455433071,3.938908793120686,3.377323836056753,2.8460803049332304,2.285919101845822,1.7508994201264618,1.2645717251403072,0.8680129162333657,0.5716863509301818,0.3567941622598201,0.20817771291955867,0.11142150970778074,0.053161906884740484,0.022227809898050878,0.007306739863529281,7.5369598286535,6.27597990219189,5.6844376682223645,5.085985174811789,4.404142240094044,3.686759747593612,2.957073305756559,2.281377963831608,1.7020901845327119,1.2161611326640536,0.8233432193106087,0.5198890815224144,0.29877918422991423,0.1539919225393776,0.06600837834392775
0.0,62.0,62.0,0.0,120.0,0.0,-1.5335913012508922,-20.337270305669254,12.621329883902238,-107.0,0.0,-45.0,3.1984807986571635,-6.14692368016237,-0.09336830085338299,34.38865340974415,17.459227116127643,5.287350539679308,3.970235246346252,3.4045607030795106,2.868732316588892,2.3035020013702296,1.7636509069713655,1.273097599057623,0.8733191102909807,0.5747987502525096,0.35851672045192234,0.20918641564704113,0.11215782926581018,0.053717233254475756,0.022573387209908563,0.00746690328280514,7.5598194383476685,6.307338084266839,5.7139641345593715,5.112590267463464,4.426859605091093,3.7050930883381445,2.9708873015369006,2.2911210497069607,1.7085535023451732,1.2201920149129666,0.8260332452044155,0.5222655926348915,0.3010429266900974,0.15578463125197814,0.06709837182988819
0.0,63.0,63.0,0.0,120.0,0.0,2.3993954532791673,4.0098204580436985,1.7544709169925454,-107.0,0.0,-45.0,-2.8688214043126834,7.37425149383683,3.233231927839517,34.38865340974415,17.459227116127643,5.315331141629727,4.001960364677649,3.4321098276084845,2.8916287079394567,2.3212631770559407,1.7765229437246994,1.2816975731264881,0.8786671829494795,0.5779328831976647,0.3602443803865598,0.21018076892984913,0.11287029357885742,0.05425561400959152,0.022911886431168815,0.007625479769883611,7.583309703533973,6.339013172349847,5.743748910452654,5.139415319687716,4.449757746713082,3.7235675161421997,2.9848039125488866,2.3009341180501472,1.7150614606241843,1.2242366448697306,0.8286807030785708,0.5245527353522667,0.30322532119250384,0.15753166587089884,0.06817196447171923
0.0,64.0,64.0,0.0,120.0,0.0,3.843033686164885,15.630792131780161,-9.972764608541832,-107.0,0.0,-45.0,-0.017294223362775085,-6.803744363602351,-1.5674543431268875,34.38865340974415,17.459227116127643,5.344089962516974,4.034088500799157,3.4599751994836483,2.9147725683883596,2.3392047809940784,1.7895168984579635,1.290372431381649,0.8840575534339957,0.5810890717058798,0.3619781363332457,0.21116269959379924,0.113560380140204,0.05477750765806162,0.023243321797210358,0.007782412170548362,7.607437224394065,6.371006254224497,5.77379402869303,5.166462287757653,4.472838328781365,3.742184336878435,2.998824088589093,2.3108178342132004,1.7216147379114821,1.2282976228434088,0.8312917640965352,0.5267565704937738,0.3053291314424816,0.15923363465753795,0.06922904065772967
0.0,65.0,65.0,0.0,120.0,0.0,0.06999490301570788,6.129474736608042,-12.745957701909784,-107.0,0.0,-45.0,-1.3682786513827514,-9.40656323276978,2.786774449966538,34.38865340974415,17.459227116127643,5.373638441292878,4.066624133924097,3.4881608757462756,2.9381670311584913,2.357328991739606,1.802634153299356,1.2991229636382713,0.8894906420073352,0.5842676130514785,0.36371885735275156,0.21213398144198245,0.11422952058199633,0.05528338325160809,0.02356771806856414,0.007937647849499394,7.632208144888126,6.403318485243018,5.804101535527421,5.193733130391906,4.49610301254145,3.760944849819484,3.0129487692087107,2.320772850148488,1.7282139479449672,1.232377209021455,0.8338720835870845,0.5288829244631176,0.3073571212824396,0.16089117840422387,0.07026950835753974
0.0,66.0,66.0,0.0,120.0,0.0,-7.718912241526004,-3.2482869791544147,-9.070840345715277,-107.0,0.0,-45.0,-1.159246947506504,-5.73937156448626,0.45672634747095486,34.38865340974415,17.459227116127643,5.403987744031477,4.099571873016858,3.516670983873924,2.961815276307925,2.375638016504872,1.815876104754614,1.3079499636745922,0.8949668707358862,0.5874687850262182,0.3654673029019746,0.2130962439272069,0.1148790986240686,0.055773718596965755,0.023885109912287525,0.008091138537596711,7.657628143960385,6.435951105748529,5.834673517404414,5.221229847143141,4.519553504684239,3.779850383361067,3.0271788594726856,2.3307997947692636,1.7348596613958505,1.2364773627637866,0.8364268340529997,0.5309373865473204,0.3093120487915127,0.16250496792026947,0.0712932985211807
0.0,67.0,67.0,0.0,120.0,0.0,-9.97741937503475,8.620934052676624,-1.8875083239173875,-107.0,0.0,-45.0,-3.451342233161344,8.833193752470102,-2.4521729116283386,34.38865340974415,17.459227116127643,5.435148753327489,4.132936457805206,3.5455097228976578,2.9857205316485746,2.394134091779983,1.8292441640961807,1.3168542293417196,0.9004866635868053,0.5906928501383873,0.3672241367827336,0.21405098083829577,0.11551044844386284,0.056248998533427165,0.024195541312930398,0.008242840161261856,7.683702422372265,6.468905442305927,5.86551210331443,5.2489544817834535,4.543191561414475,3.7989022982065923,3.0415152290341996,2.3408992740028047,1.7415524160427203,1.2405997803949347,0.8389607369492141,0.5329253076060908,0.3111966606123897,0.16407570166288646,0.07230036386165299
0.0,68.0,68.0,0.0,120.0,0.0,-4.883335819485152,1.6279976838610892,10.797529844214651,-107.0,0.0,-45.0,1.8096083854423926,7.174943480328476,-1.1396587584467008,34.38865340974415,17.459227116127643,5.4671320487721315,4.166722747261585,3.5746813512795494,3.0098860603061444,2.412819473463065,1.842739757193589,1.3258365745947314,0.906050443106496,0.5939400588386908,0.36898993965204535,0.2149995589682813,0.11612485340982408,0.056709713288791264,0.024499065007915165,0.008392712530413026,7.710435649608922,6.50218280488907,5.896619306749385,5.276908895764523,4.567018703754048,3.8181017767362095,3.0559588644410813,2.3510719350031692,1.748292663874731,1.2447459495996964,0.8414780896045028,0.5348518003895376,0.31301368657521095,0.16560410341068366,0.07329067321300202
0.0,69.0,69.0,0.0,120.0,0.0,6.361231756251364,20.496108101387364,0.5645049117237821,-107.0,0.0,-45.0,-3.0712816807956953,-0.40367292917909836,-3.076299712878514,34.38865340974415,17.459227116127643,5.499947874773981,4.2009357248982875,3.6041902345995567,3.034315203547432,2.4316964298970873,1.8563643324463486,1.3348978123890645,0.9116586353365087,0.5972106522929337,0.37076521995074874,0.21594322646576222,0.11672354528741874,0.0571563568742849,0.024795741955035103,0.008540719297227245,7.737832011264379,6.535784660192088,5.927997272952602,5.305095042520086,4.591036591238025,3.8374501006279127,3.0705106725958813,2.361318383454222,1.7550808564995186,1.2489171522245712,0.8439828003606571,0.5367217401257471,0.31476583441272,0.16709092028093897,0.07426421630616323
0.0,70.0,70.0,0.0,120.0,0.0,-7.554491231688651,-5.394066052540396,-5.808250853798979,-107.0,0.0,-45.0,0.4699026650392639,-4.1380511931573105,-0.6539096685656096,34.38865340974415,17.459227116127643,5.533606233642431,4.235580528287215,3.6340407714134964,3.0590113103679966,2.450767290542114,1.8701193426806755,1.3440387648102403,0.9173116676945878,0.600504864471106,0.37255042369332714,0.21688312109277486,0.11730770372395984,0.05758942557158936,0.02508564081737886,0.008686827904773745,7.76589518616925,6.569712481578086,5.959648096791259,5.333514914282297,4.615246889540911,3.8569485467570983,3.085171553017631,2.371639215984057,1.7619174205500252,1.2531145006054756,0.8464784154282275,0.5385397668454911,0.3164557848514252,0.1685369206801665,0.07522100027980058
0.0,71.0,71.0,0.0,120.0,0.0,2.9872040772148285,16.847163787625384,9.460061624059673,-107.0,0.0,-45.0,-2.581217427818494,1.9542423899264847,4.471321044301938,34.38865340974415,17.459227116127643,5.568116814487489,4.27066242138025,3.664237436467981,3.0839777851275993,2.470034410520871,1.8840062578060321,1.3532602603470287,0.9230099694297308,0.6038229238264523,0.37434594303522367,0.2178202781947019,0.11787845607340558,0.05800941648686138,0.025368837470277232,0.008831009300583904,7.794628333516725,6.603967815078395,5.991573902212938,5.362170508527657,4.639651264220807,3.876598391174402,3.099942399426658,2.382035020113975,1.768802761872682,1.2573389606055414,0.8489681464634207,0.5403102884723927,0.31808618694200586,0.16994289239286428,0.07616104884207439
0.0,72.0,72.0,0.0,120.0,0.0,5.5881653237609274,-12.038290075189428,5.1633004331464925,-107.0,0.0,-45.0,-3.639950945883199,3.937984556460112,-2.377050210449161,34.38865340974415,17.459227116127643,5.603488989480058,4.3061867962918114,3.6947847881301477,3.109218090032888,2.489500168505488,1.8980265660687585,1.3625631339078383,0.9287539717120985,0.607165054630961,0.37615212379849877,0.21875563836404863,0.11843687751756077,0.05841682617870102,0.0256454145270473,0.008973237786962672,7.824034096877845,6.638552283335636,6.02377684383426,5.3910638239808675,4.664251383591222,3.8964009091880625,3.1148241006695887,2.392506374850232,1.7757372687389266,1.2615913718275027,0.8514548968308415,0.542037484769559,0.3196596536720629,0.17130964074922178,0.07708440133277339
0.0,73.0,73.0,0.0,120.0,0.0,-4.555376439687846,5.368818387254354,14.837813039344368,-107.0,0.0,-45.0,-2.290650551350927,-4.867585554426814,0.9450020479929311,34.38865340974415,17.459227116127643,5.639731830813825,4.342159178448748,3.725687460928123,3.134735737893862,2.5091669740061646,1.9121817720415764,1.3719482275115071,0.9345441076757542,0.6105314780164066,0.37796927205941566,0.21969005477092693,0.11898399145478611,0.058812149362130306,0.02591546088175169,0.009113490899779897,7.854114607570489,6.67346757161467,6.05625909406817,5.420196868520951,4.689048920089233,3.9163573757613523,3.129817541174673,2.403053851458417,1.7827213143868363,1.2658724652692939,0.8539412865084002,0.5437253120433728,0.3211787578715539,0.17263798686128404,0.0779911117897951
0.0,74.0,74.0,0.0,120.0,0.0,5.855489647182182,-16.12765449548062,4.7326182208980185,-107.0,0.0,-45.0,-0.8565329879321464,4.703470157380735,1.5080980181223929,34.38865340974415,17.459227116127643,5.6768541175241785,4.378585227392613,3.756950166824039,3.1605342930902594,2.5290372679566357,1.92647339692999,1.381416390456775,0.9403808125216119,0.6139224127924261,0.3797976598895578,0.220624300141544,0.11952077012775775,0.059195877690312676,0.02617907126745451,0.009251749270166244,7.884871490815409,6.708715426397558,6.089022843724922,5.449571659994564,4.714045551013033,3.9364690662435398,3.1449236016006443,2.4136780140892435,1.789755259106081,1.2701828786861677,0.8564296756081007,0.5453775085080963,0.3226460284191685,0.1739287659188449,0.07888124810324529
0.0,75.0,75.0,0.0,120.0,0.0,8.8446475369324,7.150093311678397,11.140500953532825,-107.0,0.0,-45.0,-3.393267641478772,-4.2207229550042875,0.5477367458456825,34.38865340974415,17.459227116127643,5.714864345122688,4.41547073766783,3.7885776965445013,3.1866173725648443,2.5491135233033977,1.940902978883325,1.3909684794917525,0.9462645236228818,0.6173380760869903,0.3816375303456619,0.2215590733694086,0.12004813546350496,0.05956849861508663,0.026436345828662323,0.009387996491320516,7.916305875153004,6.744297653961969,6.12207030262992,5.479190227014797,4.739242959231265,3.9567372570850186,3.160143159465371,2.4243794203893474,1.7968394519322926,1.2745231699261208,0.8589221865002752,0.5469976002189533,0.32406394675565514,0.17518282553782638,0.07975489122023234
0.0,76.0,76.0,0.0,120.0,0.0,-2.704608635210888,-3.9594401803709722,-0.6090227863171958,-107.0,0.0,-45.0,4.84361743777227,2.8970938676019564,-0.9421690886512026,34.38865340974415,17.459227116127643,5.753770738026516,4.452821639812494,3.8205749209803614,3.2129886468450377,2.5693982455956887,1.9554720733111786,1.4006053589830278,0.9521956806324778,0.6207786838475715,0.3834891017932469,0.22249500575113232,0.12056696009952562,0.05993049432711839,0.02668738970685792,0.009522218990318927,7.948418405110355,6.78021611897671,6.155403700260299,5.509054609742302,4.764642833862973,3.9771632265357644,3.175477089753774,2.435158622095097,1.8039742320337349,1.2788938284745806,0.8614207245466552,0.548588907484852,0.3254349437079925,0.17640102415550216,0.0806121343974917
