Line_number,Fiducial,Easting,Northing,Height,Elevation,tx_pitch,tx_roll,tx_yaw,txrx_dx,txrx_dy,txrx_dz,rx_pitch,rx_roll,rx_yaw,PX,PZ,S0X_time_1.086e-05,S0X_time_3.256e-05,S0X_time_5.426e-05,S0X_time_8.680e-05,S0X_time_1.411e-04,S0X_time_2.279e-04,S0X_time_3.689e-04,S0X_time_5.860e-04,S0X_time_9.115e-04,S0X_time_1.411e-03,S0X_time_2.192e-03,S0X_time_3.418e-03,S0X_time_5.339e-03,S0X_time_8.301e-03,S0X_time_1.338e-02,S0Z_time_1.086e-05,S0Z_time_3.256e-05,S0Z_time_5.426e-05,S0Z_time_8.680e-05,S0Z_time_1.411e-04,S0Z_time_2.279e-04,S0Z_time_3.689e-04,S0Z_time_5.860e-04,S0Z_time_9.115e-04,S0Z_time_1.411e-03,S0Z_time_2.192e-03,S0Z_time_3.418e-03,S0Z_time_5.339e-03,S0Z_time_8.301e-03,S0Z_time_1.338e-02
0.0,0.0,0.0,0.0,120.0,0.0,0.0,0.0,0.0,-107.0,0.0,-45.0,0.0,0.0,0.0,34.27253218749016,17.55503396713325,4.439934103025927,2.5488851968232176,2.0839580209442876,1.7794998770043526,1.5483792354921275,1.3763808475804487,1.2233364598062781,1.075176971427988,0.9290281205047737,0.7802800964585052,0.6300496906060321,0.48475970043696276,0.3527285379835962,0.24220681362265625,0.1506044044364855,6.489599658702851,4.472854051406144,3.8558267016074574,3.4234720597423824,3.077250993815755,2.8115917690329177,2.5728718699780453,2.3376388630647273,2.098543130216202,1.845371008612047,1.5765858326581226,1.3000087299164813,1.028917968467561,0.7806441009172727,0.5508286577646521
0.0,1.0,1.0,0.0,120.0,0.0,0.0,0.0,0.0,-107.0,0.0,-45.0,0.0,0.0,0.0,34.27253218749016,17.55503396713325,4.447098445028175,2.5647631388830074,2.0941173424751276,1.7681624500695492,1.508484554580029,1.3193073444270307,1.1629906042152724,1.019006570682669,0.8797886777122443,0.7392277259599367,0.5977059387403053,0.460883368607112,0.33635036544725494,0.23179408357276327,0.1447669221977113,6.504900225943484,4.498812594409535,3.877597761165,3.4195241747544003,3.0321447828332344,2.7356147732096403,2.485488054205027,2.2514047406360596,2.018814900239491,1.7749311474637934,1.5172138002363147,1.2525415069821277,0.9931517555457992,0.7552972894404294,0.5345797926889464
0.0,2.0,2.0,0.0,120.0,0.0,0.0,0.0,0.0,-107.0,0.0,-45.0,0.0,0.0,0.0,34.27253218749016,17.55503396713325,4.45421001411515,2.5811715507435307,2.1083941319370356,1.7674964427883155,1.4821154469396418,1.272693701291339,1.109472076151646,0.9677503542323701,0.834384309716524,0.7011462783769344,0.5675562180182282,0.43851948175251837,0.32093141766000105,0.22193782933430045,0.13920714862271996,6.519856744572657,4.5250184451113,3.9035760865378086,3.428549128075495,3.0055879069522695,2.674947241597274,2.407907484130636,2.171909025968949,1.9443368769811853,1.7086987014130512,1.4611345019351165,1.2075282581769466,0.9590991793583081,0.7310633348940151,0.518969109366378
0.0,3.0,3.0,0.0,120.0,0.0,0.0,0.0,0.0,-107.0,0.0,-45.0,0.0,0.0,0.0,34.27253218749016,17.55503396713325,4.461282712071162,2.5977842818455836,2.12462406569145,1.7737851273895413,1.4668402458477088,1.2360403568712985,1.0626561680346596,0.9211172543881415,0.7925122329888158,0.6657942422930481,0.5394287395511451,0.41755700929375744,0.3064068186600962,0.21260394651729456,0.13391006405989214,6.5344932795470605,4.55117328757207,3.9313798792319172,3.445796979050343,2.9940223734192957,2.6289695346849142,2.340346578049376,2.099020604216545,1.874827502740473,1.646408568739124,1.4081390038482093,1.1648198100462743,0.9266628818335857,0.7078843096117703,0.503967010714951
0.0,4.0,4.0,0.0,120.0,0.0,0.0,0.0,0.0,-107.0,0.0,-45.0,0.0,0.0,0.0,34.27253218749016,17.55503396713325,4.468330475095429,2.6145106595674,2.1417210256291157,1.7843689094131818,1.4601935914104975,1.2084813778482335,1.0223940546350039,0.8788901134104151,0.7539134351973693,0.6329560902166204,0.5131677592364956,0.39789426529282607,0.2927165991435112,0.2037606178903592,0.1288615173985699,6.548833410190014,4.577204014959043,3.959847608771505,3.4679537860961767,2.993924353718121,2.5963933611309002,2.2828651582104653,2.032699643253836,1.8100612282687902,1.5878245486822515,1.3580360986424371,1.1242780725592505,0.8957519894081917,0.6857057218204844,0.4895454250113401
0.0,5.0,5.0,0.0,120.0,0.0,0.0,0.0,0.0,-107.0,0.0,-45.0,0.0,0.0,0.0,34.27253218749016,17.55503396713325,4.475367041492478,2.6313345295069817,2.159185029064119,1.797482119935015,1.4599742279026815,1.1889054472961846,0.9884457709820841,0.8409024790368443,0.7183697671484115,0.6024399092590759,0.4886320292259228,0.37943806297795857,0.2798053095547989,0.1953781596611653,0.12404817811510846,6.562900039708224,4.603106405205483,3.9884615864967743,3.4928670720437984,3.0022134508575435,2.575515049913735,2.2352675276340066,1.9729491377975452,1.7498672223339642,1.532738153544266,1.3106509941790327,1.0857751605742887,0.8662816530249926,0.6644763044503593,0.47567772724699864
0.0,6.0,6.0,0.0,120.0,0.0,0.0,0.0,0.0,-107.0,0.0,-45.0,0.0,0.0,0.0,34.27253218749016,17.55503396713325,4.482405905846912,2.648259980517972,2.1768067821576094,1.812020570780398,1.4643709531062399,1.176100278810862,0.9604563992766817,0.8070107099879898,0.6856998423172196,0.5740754571343797,0.4656934430996123,0.3621029521665428,0.2676216615132163,0.18742887598026536,0.1194574898436576,6.576715373638957,4.62889407142454,4.017014940736403,3.5192176317706205,3.0164020625733734,2.564474999779248,2.1970875714917417,1.9197598363810244,1.6941230458804006,1.480967868648841,1.2658242023229915,1.0491926109586254,0.8381726213539816,0.644147815612482,0.46233866348462366
0.0,7.0,7.0,0.0,120.0,0.0,0.0,0.0,0.0,-107.0,0.0,-45.0,0.0,0.0,0.0,34.27253218749016,17.55503396713325,4.489460322821484,2.665295557558234,2.1945091134560157,1.8273295305245378,1.471977677437881,1.1688709974205242,0.9379674611762155,0.777068836626919,0.6557529709029147,0.5477125083008563,0.4442358459222271,0.3458105355152135,0.25611819623131893,0.17988692181436147,0.11507762581396991,6.590300948565098,4.654584123844145,4.045438311727644,3.54623884494607,3.034590971933792,2.561454155093039,2.1676340748921454,1.8730649484620596,1.6427424601354619,1.432358407357189,1.2234106041376456,1.0144206910333011,0.8113508449317455,0.6246748505496126,0.4495042785366344
0.0,8.0,8.0,0.0,120.0,0.0,0.0,0.0,0.0,-107.0,0.0,-45.0,0.0,0.0,0.0,34.27253218749016,17.55503396713325,4.496543331589475,2.6824504314704942,2.212269661470832,1.8430403388184982,1.4817512416704115,1.1661181018418434,0.9204475565836467,0.7509112351429773,0.6284014690642141,0.5232192528312399,0.4241539931023117,0.33048885646355725,0.24525097874339968,0.17272817422070277,0.11089744631747561,6.603677677919001,4.6801938213640994,4.073717675360488,3.5735086240842544,3.055392519509108,2.5647953002781554,2.146063490644147,1.8327136458653013,1.5956592842629576,1.386779302740706,1.1832786839764424,0.9813577865510382,0.7857471105222458,0.6060146648004129,0.43715184704212245
0.0,9.0,9.0,0.0,120.0,0.0,0.0,0.0,0.0,-107.0,0.0,-45.0,0.0,0.0,0.0,34.27253218749016,17.55503396713325,4.503667783965327,2.699733659910441,2.2300865362386317,1.8589564506769718,1.4929468936989312,1.1668788596802284,0.9073282833070068,0.7283444672716123,0.6035324498717465,0.5004805150148232,0.405352643153487,0.3160718500270465,0.23497931705835023,0.16593011186670215,0.10690645825581117,6.616865897965071,4.705739938584563,4.101858849834227,3.6008083459254046,3.0778301857851744,2.573062517798016,2.1314550115817132,1.7984640587778704,1.5528105940075045,1.3441223360614163,1.1453098968851725,0.9499098565813279,0.7612967057119628,0.5881270080182536,0.42525980795496876
0.0,10.0,10.0,0.0,120.0,0.0,0.0,0.0,0.0,-107.0,0.0,-45.0,0.0,0.0,0.0,34.27253218749016,17.55503396713325,4.510846370120577,2.717154062165733,2.247964514419385,1.874979607195369,1.5050510450958006,1.170341787232384,0.8980368038275899,0.7091469160126672,0.581040319265665,0.4793956749934884,0.38774575734136485,0.30249884873181726,0.22526550522321453,0.15947170246567852,0.1030947767923357,6.629885409190085,4.731238644940588,4.129873661198772,3.6280335091889313,3.1012400798522033,2.585057925844387,2.1228741725294786,1.7699913371444034,1.5141222865490906,1.3042977137811957,1.1093980828131293,0.9199899477296337,0.7379391129298657,0.5709739677546943,0.4138077024659608
0.0,11.0,11.0,0.0,120.0,0.0,0.0,0.0,0.0,-107.0,0.0,-45.0,0.0,0.0,0.0,34.27253218749016,17.55503396713325,4.518091641510204,2.734720175102923,2.2659101042681815,1.8910648760874291,1.5177210106891754,1.175843697386072,0.8920212400543416,0.69307368043054,0.5608208509816951,0.4598763273989075,0.37125576656109266,0.2897141381997174,0.21607458883432815,0.1533332977418254,0.0994530891047056,6.6427555135947625,4.7567054557906765,4.157775182062092,3.6551403892135377,3.1251857977901314,2.5998122835683706,2.1194201273675675,1.7469047487916227,1.479498846038244,1.2672293161344066,1.0754488111071063,0.8915177640597433,0.7156177307645951,0.5545198227113507,0.40277611533027285
0.0,12.0,12.0,0.0,120.0,0.0,0.0,0.0,0.0,-107.0,0.0,-45.0,0.0,0.0,0.0,34.27253218749016,17.55503396713325,4.525416032002288,2.7524402242082346,2.2839300362168387,1.9071947701752467,1.530735536870716,1.1828567152957483,0.8887681920445369,0.679864186782784,0.542767213498616,0.4418438222019651,0.3558128636634657,0.27766655808065804,0.20737415115007513,0.1474965355820754,0.09597262019820363,6.655495049261647,4.782155208272378,4.185576349835048,3.6821158838869272,3.1493903024594525,2.616561530832107,2.120256951184267,1.7287684346227274,1.4488178290670526,1.2328495776627142,1.0433785518768406,0.8644192876174864,0.6942796197661859,0.5387309052937327,0.3921466194513314
0.0,13.0,13.0,0.0,120.0,0.0,0.0,0.0,0.0,-107.0,0.0,-45.0,0.0,0.0,0.0,34.27253218749016,17.55503396713325,4.532831877930114,2.7703221125403465,2.3020309017959275,1.9233651326194385,1.543956625463429,1.1909704506379397,0.8878132507327917,0.6692505383672724,0.5267678936402782,0.42522687523853114,0.341354289630745,0.2663091436013011,0.19913411786939955,0.14194424909977596,0.0926451006943096,6.668122423037528,4.807602062191839,4.213289663834994,3.708961362020458,3.1736844013446452,2.634717271481191,2.1246316150422584,1.7151219893822252,1.421928611593431,1.2010945895752436,1.013113619298602,0.838626438704882,0.6738752701286981,0.5235754735060711,0.381901723456077
0.0,14.0,14.0,0.0,120.0,0.0,0.0,0.0,0.0,-107.0,0.0,-45.0,0.0,0.0,0.0,34.27253218749016,17.55503396713325,4.540351437302696,2.7883734258244717,2.3202191033094084,1.9395778495366123,1.5573014871926116,1.199872728649926,0.8887459400322149,0.6609653237841009,0.5127061948959417,0.40995941793217033,0.3278235993436416,0.2555988017052852,0.19132657880914122,0.13666038236129882,0.08946273647590113,6.680655641603106,4.833059519212466,4.240927152116869,3.7356844806692115,3.197969518410655,2.6538361861700697,2.131881848335519,1.705498621884744,1.3986544185389136,1.1718998933055023,0.9845888928221034,0.8140767590218955,0.6543583892999087,0.5090235921952395,0.3720248219505326
0.0,15.0,15.0,0.0,120.0,0.0,0.0,0.0,0.0,-107.0,0.0,-45.0,0.0,0.0,0.0,34.27253218749016,17.55503396713325,4.547986908154197,2.8066014467030618,2.3385008571821846,1.9558373016567847,1.570722783790262,1.2093309724338206,0.8912105551655087,0.6547482039843833,0.500460879658292,0.39597880315477446,0.3151699103391352,0.2454960147018065,0.183925624974771,0.13162991249762512,0.08641818006088746,6.69311234096814,4.85854045051674,4.26850037689311,3.7622952847612607,3.2221918432047656,2.673591272047443,2.14143684573744,1.6994398896871017,1.3787965179802886,1.1451972477029724,0.9577463740481718,0.7907130979589361,0.635685708063091,0.4950470234392233,0.36250014818211684
0.0,16.0,16.0,0.0,120.0,0.0,0.0,0.0,0.0,-107.0,0.0,-45.0,0.0,0.0,0.0,34.27253218749016,17.55503396713325,4.555750445964824,2.825013171927173,2.356882195111421,1.9721487480856659,1.5841952230765775,1.219175408701728,0.8949041704471344,0.6503510274478517,0.4899075284945169,0.38322442209003604,0.30334715102628007,0.23596456423188913,0.17690719972427443,0.1268387778615272,0.08350450358832036,6.705509814402649,4.884057125854719,4.296020436430647,3.7888044758629262,3.2463250197767324,2.693746412250824,2.1528132303381384,1.6965068226735174,1.3621395638382923,1.1209124665056118,0.9325336679107986,0.7684832839985816,0.6178168036614768,0.4816191256117576,0.3533127289260771
0.0,17.0,17.0,0.0,120.0,0.0,0.0,0.0,0.0,-107.0,0.0,-45.0,0.0,0.0,0.0,34.27253218749016,17.55503396713325,4.563654180108949,2.843615329055084,2.375368961646419,1.988517648177216,1.5977067770752376,1.2292846408766298,0.899572835711274,0.6475414876450698,0.4809202560085689,0.37163673233938227,0.2923133313738314,0.22697126933215847,0.1702489628111439,0.12227381182955262,0.08071517332488518,6.717865038824179,4.909621240662075,4.323497966747195,3.8152227106655356,3.270358945237925,2.7141348708201414,2.165608114955618,1.6962877126631615,1.3484572864431068,1.098964276465252,0.9089024848983668,0.7473397686344961,0.6007139381158877,0.468714760450044,0.34444834151274234
0.0,18.0,18.0,0.0,120.0,0.0,0.0,0.0,0.0,-107.0,0.0,-45.0,0.0,0.0,0.0,34.27253218749016,17.55503396713325,4.571710229309229,2.86241439148824,2.393966814058887,2.0049494073884744,1.6112531190966992,1.239573720557753,0.9050067389427029,0.6461054766263893,0.4733735124575272,0.3611566582576358,0.2820298595643148,0.21848573412014816,0.1639301660780472,0.11792268180962513,0.07804402562409436,6.730194699661281,4.935243940477693,4.350943149143195,3.8415603522723885,3.2942927604967065,2.7346417403241703,2.1794906113616723,1.698403057153297,1.3375179704077103,1.0792640524343242,0.8868072510438351,0.7272392376189475,0.5843419092668569,0.4563102073563517,0.3358934729861963
0.0,19.0,19.0,0.0,120.0,0.0,0.0,0.0,0.0,-107.0,0.0,-45.0,0.0,0.0,0.0,34.27253218749016,17.55503396713325,4.579930716092799,2.8814165918656576,2.4126812270522877,2.021449298295116,1.6248342155820663,1.2499845936855956,0.9110349076638624,0.6458483456228971,0.46714378826385683,0.35172530186376116,0.27246092424461715,0.21048010266951692,0.1579315395170628,0.11377383300696904,0.07548524428819055,6.7425152142186695,4.960935843044417,4.3783657247960175,3.8678274018968213,3.3181306100574646,2.755190037907583,2.1941927447207217,1.7025082013449646,1.3290893740446654,1.0617162401727347,0.8662038914628946,0.7081421917830119,0.5686679115456522,0.4443830841675689,0.3276352814193568
0.0,20.0,20.0,0.0,120.0,0.0,0.0,0.0,0.0,-107.0,0.0,-45.0,0.0,0.0,0.0,34.27253218749016,17.55503396713325,4.588327780261391,2.9006279342380186,2.431517501765597,2.038022445414189,1.638452308447526,1.2604786575496494,0.9175198561274258,0.646595292257832,0.4621111124918456,0.3432838941197763,0.26357295581087425,0.20292882055346245,0.15223518637698294,0.10981643651873142,0.07303333929111554,6.754842753581983,4.986707058752943,4.405775014511764,3.8940334928601756,3.34187916610078,2.77572997767464,2.209500428995745,1.7082941953140358,1.3229429134241935,1.0462192692804235,0.8470488281534483,0.6900125057036018,0.5536614032539892,0.4329122736900454,0.3196615594085075
0.0,21.0,21.0,0.0,120.0,0.0,0.0,0.0,0.0,-107.0,0.0,-45.0,0.0,0.0,0.0,34.27253218749016,17.55503396713325,4.596913591396027,2.9200542054454997,2.4504807773492936,2.054673828867811,1.6521107635480183,1.2710311045036786,0.9243524548912067,0.6481910779807645,0.4581602922422863,0.33577391795413886,0.25533417337172815,0.19580840402057095,0.14682448602334977,0.10604034136055711,0.07068312682112401,6.767193263107046,5.012567209982282,4.433179940993528,3.920187901310357,3.3655462375226226,2.7962308893063024,2.225244931372657,1.7154873188761155,1.3188570543282572,1.0326667745877078,0.8292982086911705,0.6728169763841731,0.5392939772923284,0.42187785537700484,0.311960699744655
0.0,22.0,22.0,0.0,120.0,0.0,0.0,0.0,0.0,-107.0,0.0,-45.0,0.0,0.0,0.0,34.27253218749016,17.55503396713325,4.605700360415667,2.9397009859963905,2.4695760434732215,2.0714082913766534,1.6658134398247169,1.2816267205484904,0.9314471981288294,0.650499253098258,0.45518187859873,0.32913734218315915,0.24771421783573958,0.1890972187043151,0.14168400335586842,0.10243603006636254,0.06842971059656199,6.779582481537064,5.038525449694556,4.460589051525062,3.9462995591267003,3.38914002248491,2.8166752640254513,2.241295083784918,1.7238476519118289,1.316619933122594,1.020948973264701,0.8129073624192923,0.6565248757553963,0.5255392327883015,0.41126104159229804,0.30452166322344193
0.0,23.0,23.0,0.0,120.0,0.0,0.0,0.0,0.0,-107.0,0.0,-45.0,0.0,0.0,0.0,34.27253218749016,17.55503396713325,4.614700350202598,2.9595736606154435,2.488808152668476,2.0882305447010743,1.6795643600928247,1.2922568308034283,0.9387379669132809,0.6534010381794936,0.45307286925534584,0.32331691622954617,0.24068386662634988,0.18277527016325126,0.13679940375102914,0.09899457753827492,0.06626846440122386,6.7920259587859375,5.064590479480766,4.488010539832738,3.9723770660620015,3.4126687282670933,2.8370544596020677,2.2575503745859145,1.7331669960253002,1.3160312725225032,1.0109540784328441,0.7978304660304453,0.6411075204957353,0.5123726458327494,0.4010441179452281,0.29733394852122313
0.0,24.0,24.0,0.0,120.0,0.0,0.0,0.0,0.0,-107.0,0.0,-45.0,0.0,0.0,0.0,34.27253218749016,17.55503396713325,4.623925885302356,2.9796774285436745,2.5081818319505724,2.10514517541701,1.6933675496624467,1.3029171239593906,0.9461743294751417,0.6567939834457606,0.4517371718513023,0.31825648695149594,0.23421482207295458,0.17682400849554594,0.13215737270243516,0.09570761285389326,0.06419501577893884,6.804539072423265,5.090770567155862,4.515452266608832,3.998428701512263,3.43614039201463,2.857365664933256,2.2739349636004076,1.743266389895848,1.3169036799350653,1.0025696626843144,0.7840203911220824,0.6265378709396614,0.4997714383959323,0.39121038719957935,0.29038756403832344
0.0,25.0,25.0,0.0,120.0,0.0,0.0,0.0,0.0,-107.0,0.0,-45.0,0.0,0.0,0.0,34.27253218749016,17.55503396713325,4.633389360704955,3.000017313625372,2.527701693552534,2.1221566506386322,1.7072269641237479,1.3136061335747984,0.9537183785528791,0.6605905034835653,0.45108585860612654,0.3139013095418616,0.2282795635015173,0.17122614889800206,0.12774553955057436,0.0925672837623336,0.062205230822079155,6.8171370428947995,5.117073563953766,4.5429217786280445,4.024462436658592,3.4595628060278485,2.8776097978743898,2.2903926016915097,1.753993406886367,1.3190634225690279,0.995683913566609,0.7714287016854582,0.6127901682489392,0.48771444534321534,0.3817441162672492,0.28367300159338005
0.0,26.0,26.0,0.0,120.0,0.0,0.0,0.0,0.0,-107.0,0.0,-45.0,0.0,0.0,0.0,34.27253218749016,17.55503396713325,4.64310324971459,3.020598174200421,2.547372244804765,2.1392693240971554,1.7211464619132972,1.324324198929699,0.9613420783487436,0.6647163635827403,0.45103724471859596,0.3101983335839463,0.2228512522328245,0.16596550947839295,0.12355240490295182,0.0895662236205169,0.06029519998596608,6.829834947507167,5.14350692135454,4.570426326601242,4.050485947307134,3.482943494175837,2.8977900789969,2.3068823955893145,1.765219378842338,1.322350770903094,0.9901867464604064,0.7600057685419357,0.5998396160744003,0.4761819802005276,0.37263048580614855,0.2771812118440461
0.0,27.0,27.0,0.0,120.0,0.0,0.0,0.0,0.0,-107.0,0.0,-45.0,0.0,0.0,0.0,34.27253218749016,17.55503396713325,4.653080110913844,3.041424712816997,2.5671978972811056,2.1564874426637077,1.7351297977694375,1.3350727684134311,0.969025076540291,0.6691091760434754,0.4515168220752014,0.30709645269040364,0.21790367880540498,0.16102686699506336,0.11956727152665597,0.08669752053906753,0.05846122486057549,6.8426477331947275,5.170077707569819,4.597972881967405,4.076506627346285,3.5062897112902096,2.9179110843971197,2.3233753350419573,1.7768366533608155,1.3266199946389747,0.9859707582062626,0.7497009693963003,0.5876621100238688,0.46515570087496283,0.3638555419639598,0.27090358130686
0.0,28.0,28.0,0.0,120.0,0.0,0.0,0.0,0.0,-107.0,0.0,-45.0,0.0,0.0,0.0,34.27253218749016,17.55503396713325,4.663332594224362,3.0625014857817514,2.5871829753404145,2.1738151531967898,1.749180624927159,1.345853942460637,0.9767529278294499,0.6737169496230637,0.4524570774123941,0.3045467117417599,0.2134112424859666,0.1563958305762331,0.11578017863755749,0.08395468852482978,0.05669980583208863,6.855590228071443,5.196792623709339,4.625568152801009,4.102531602527248,3.5296084516168134,2.937978130912922,2.3398514881560875,1.788755961882501,1.3317390856845934,0.9829320178140711,0.7404629464668249,0.5762340156416969,0.45461847689074025,0.3554061498497625,0.2648319108502163
0.0,29.0,29.0,0.0,120.0,0.0,0.0,0.0,0.0,-107.0,0.0,-45.0,0.0,0.0,0.0,34.27253218749016,17.55503396713325,4.6738734460603775,3.0838329125665345,2.6073317241701734,2.1912565095175625,1.7633025003213503,1.3566701805620116,0.9845156725010226,0.6784967226015842,0.4537972210112926,0.30250246978485157,0.20934895426030625,0.15205873292158398,0.11218183960973331,0.08133164042572161,0.05500763056909757,6.868677151755247,5.223658019646913,4.653218598958977,4.12856774422757,3.5529064600066738,2.9579968871671842,2.3562977685627935,1.800903951680364,1.3375892726588254,0.9809706994194124,0.7322398977904183,0.5655319934481887,0.44455425986084907,0.3472699483746923,0.25895839553739297
0.0,30.0,30.0,0.0,120.0,0.0,0.0,0.0,0.0,-107.0,0.0,-45.0,0.0,0.0,0.0,34.27253218749016,17.55503396713325,4.684715513566063,3.1054232850910344,2.6276483174072465,2.2088154793231998,1.7774988903798368,1.367524118318345,0.9923067146022794,0.6834132994668078,0.45548284875705863,0.3009195194219307,0.2056924558094726,0.14800253804295257,0.10876358318675815,0.07882266250370641,0.05338156327132494,6.88192312444042,5.250679909599414,4.680930446537948,4.1546216829052725,3.576190243336698,2.9779731347415557,2.3727061818854844,1.8132209153062362,1.3440643817741031,0.9799915682115652,0.7249798827009443,0.5555328679423707,0.4349479589039093,0.3394353061774286,0.2532756057002086
0.0,31.0,31.0,0.0,120.0,0.0,0.0,0.0,0.0,-107.0,0.0,-45.0,0.0,0.0,0.0,34.27253218749016,17.55503396713325,4.695871747923987,3.127276776899292,2.6481368643829053,2.2264959508943467,1.7917731765722427,1.378418456711011,1.0001219481731056,0.68843810271724,0.4574655572283461,0.2997561652998161,0.2024180483205656,0.14421476427169072,0.10551729829857194,0.07642239048295757,0.051818634622085386,6.895342674686916,5.277863987427578,4.708709701671574,4.180699821034565,3.5994660813952324,2.997912626905191,2.389072466603466,1.8256587356040463,1.3510700901527941,0.9799043331746824,0.7186311262371159,0.5462135363328463,0.4257853225708406,0.33189127843404076,0.24777646912778048
0.0,32.0,32.0,0.0,120.0,0.0,0.0,0.0,0.0,-107.0,0.0,-45.0,0.0,0.0,0.0,34.27253218749016,17.55503396713325,4.707355206719842,3.1493974522456805,2.668801417018893,2.24430173950624,1.8061286605560014,1.3893558976791467,1.0079590853048446,0.6935481445427092,0.45970252851945176,0.29897326535009333,0.19950272625812465,0.1406834210451962,0.10243538258082123,0.07412578694203195,0.05031603238926068,6.908950245893694,5.3052156416645575,4.736562163672111,4.206808345396996,3.622740037157893,3.0178210091817275,2.4053950540462994,1.8381790524146209,1.358523109805827,0.9806238818620548,0.7131423111046072,0.5375509120798494,0.41705282860567816,0.3246275644377043,0.24245425425909914
0.0,33.0,33.0,0.0,120.0,0.0,0.0,0.0,0.0,-107.0,0.0,-45.0,0.0,0.0,0.0,34.27253218749016,17.55503396713325,4.719179055347913,3.171789275103213,2.68964597638867,2.262236593499088,1.820568568992589,1.4003391086427164,1.015817145833407,0.6987251179581073,0.4621560987878001,0.29853423894945763,0.19692421237014768,0.13739695787277081,0.09951069466591143,0.07192811994025752,0.04887109262312193,6.922760201425323,5.332739970277242,4.7644934375088495,4.232953238669023,3.64601796657782,3.037703778033845,2.421674282644519,1.8507516480725086,1.366350333639809,0.9820704126289685,0.7084628491654229,0.5295218980359115,0.4087375825678491,0.3176344659153255,0.23730255427290267
0.0,34.0,34.0,0.0,120.0,0.0,0.0,0.0,0.0,-107.0,0.0,-45.0,0.0,0.0,0.0,34.27253218749016,17.55503396713325,4.731356567441733,3.194456118104125,2.7106744989517546,2.2803041999965346,1.835096058144592,1.4113707046003434,1.0236960745793018,0.7039546031341563,0.46479332207143803,0.2984050463316144,0.19466099119245744,0.13434422385467776,0.09673651027394653,0.06982494278858231,0.04748129140286718,6.936786828365612,5.360441795166103,4.792508945614568,4.259140290294601,3.6693055280151032,3.057566262282181,2.437911811822711,1.86335304227094,1.3744879688880245,0.9841694792115232,0.7045431272120662,0.5221033839822384,0.40082722602246906,0.3109028461196377,0.2323152719741852
0.0,35.0,35.0,0.0,120.0,0.0,0.0,0.0,0.0,-107.0,0.0,-45.0,0.0,0.0,0.0,34.27253218749016,17.55503396713325,4.743901124314604,3.2174017714199925,2.7318909024668296,2.2985081902817037,1.8497142183335933,1.4224532405327175,1.0315964578419685,0.7092253819891154,0.46758553872852404,0.29855414351453385,0.19269233913871955,0.13151443616974043,0.0941064820840356,0.06781207489318378,0.046144237087233024,6.951044339878156,5.388325676411523,4.820613939016255,4.285375106661797,3.6926081913738265,3.0774136175382942,2.4541101904933695,1.8759652824273516,1.3828806781885858,0.9868519615669877,0.7013347240178519,0.5152722635947955,0.39330985468748725,0.304424089793371,0.2274866053836255
0.0,36.0,36.0,0.0,120.0,0.0,0.0,0.0,0.0,-107.0,0.0,-45.0,0.0,0.0,0.0,34.27253218749016,17.55503396713325,4.7568262133955095,3.2406299515858517,2.7532990715898307,2.3168521448514405,1.8644260782963653,1.4335892095873548,1.03951931610671,0.7145288523826657,0.4705079559003098,0.298952416799148,0.19099834992756642,0.1288971560378937,0.09161460331743547,0.06588558361562678,0.04485766302799343,6.965546876160722,5.416395926277115,4.848813507794869,4.3116631206202625,3.7159312469616257,3.0972508276871995,2.4702725436786324,1.8885749129342098,1.3914807440680919,0.9900539756999515,0.6987905973856482,0.5090054662666874,0.3861739466316136,0.29819006414441723,0.22281103394444032
0.0,37.0,37.0,0.0,120.0,0.0,0.0,0.0,0.0,-107.0,0.0,-45.0,0.0,0.0,0.0,34.27253218749016,17.55503396713325,4.770145425646983,3.2641443102703502,2.774902863164825,2.335339598173691,1.8792346094439893,1.4447810443141547,1.047465954517116,0.719858532304108,0.4735392456778784,0.2995731006097467,0.1895599546184219,0.12648227078842234,0.08925517491779725,0.06404176710597441,0.04361942070856681,6.980308503987988,5.4446566229833175,4.877112590888554,4.338009600385525,3.7392798140534285,3.1170827098851825,2.4864023482147393,1.9011721052795134,1.4002472687518666,0.9937167339276938,0.6968652412110086,0.5032799997011659,0.3794083003578901,0.2921930809973545,0.21828330527058276
0.0,38.0,38.0,0.0,120.0,0.0,0.0,0.0,0.0,-107.0,0.0,-45.0,0.0,0.0,0.0,34.27253218749016,17.55503396713325,4.783872451953617,3.2879484429914685,2.7967061112176657,2.3539740431734786,1.894142730009756,1.4560311193636002,1.0554378565745919,0.7252096441029112,0.4766611651482235,0.3003916821226113,0.18835893592326103,0.12425998080832258,0.08702277617313518,0.062277138075009786,0.04242747327330468,6.995343214845072,5.47311162426665,4.905515985263061,4.3644196578801235,3.7626588491292527,3.1369139210685546,2.502503274765425,1.913749930657227,1.409145417944757,0.9977863657743219,0.6955148135037301,0.49807299972360775,0.37300198239205207,0.28642586029796874,0.21389842237045018
0.0,39.0,39.0,0.0,120.0,0.0,0.0,0.0,0.0,-107.0,0.0,-45.0,0.0,0.0,0.0,34.27253218749016,17.55503396713325,4.798021078472421,3.3120458977751093,2.8187126316644857,2.372758935471356,1.9091533090648645,1.4673417547664436,1.0634366097745225,0.730578768920633,0.4798582011956407,0.301385795793564,0.18737793675343936,0.12222079029700862,0.0849122385907864,0.0605884084787022,0.04127988941632414,7.0106649216618395,5.50176458074124,4.934028354481038,4.390898256562527,3.7860731537587733,3.156748964902549,2.5185790785479307,1.9263037570912163,1.418145714452183,1.0022137084755784,0.694697236944639,0.4933617843034724,0.36694428382516064,0.2808814951455656,0.20965163129104675
0.0,40.0,40.0,0.0,120.0,0.0,0.0,0.0,0.0,-107.0,0.0,-45.0,0.0,0.0,0.0,34.27253218749016,17.55503396713325,4.812605180939593,3.3364401837516837,2.8409262267488917,2.3916976973959136,1.9242691703820212,1.4787152193369815,1.0714638545327915,0.7359635619200341,0.4831172418280023,0.3025351105619238,0.18660046316872436,0.12035550090488727,0.08291862281125094,0.05897247509252449,0.04017483760191016,7.026287454165104,5.5306189490792095,4.962654236708047,4.417450218794049,3.8095273821167535,3.176592198648437,2.534633525366572,1.9388307540372416,1.4272233851903329,1.0069540749492494,0.6943722739552114,0.4891239093011839,0.36122468513547235,0.27555341851491144,0.2055384091384096
0.0,41.0,41.0,0.0,120.0,0.0,0.0,0.0,0.0,-107.0,0.0,-45.0,0.0,0.0,0.0,34.27253218749016,17.55503396713325,4.827638717932184,3.361134779683624,2.863350689223197,2.4107937217896165,1.9394930961322803,1.4901537339851965,1.079521249870521,0.7413625195617878,0.4864272748720016,0.3038212121865828,0.18601088203770752,0.11865520747798551,0.0810371983295268,0.05742640595558937,0.03911058059155109,7.042224552872034,5.559678005025047,4.991398052197481,4.444080232792304,3.833026048127268,3.196447839734132,2.550670342882121,1.9513294887191508,1.436357763222282,1.0119670060495265,0.6945015784825773,0.4853372239420129,0.3558328285321143,0.2704353718086569,0.20155445244069375
0.0,42.0,42.0,0.0,120.0,0.0,0.0,0.0,0.0,-107.0,0.0,-45.0,0.0,0.0,0.0,34.27253218749016,17.55503396713325,4.843135723087384,3.3861331424146934,2.8859898062900595,2.4300503756250986,1.9548278304072761,1.5016594748553727,1.0876104509873283,0.7467747909641004,0.48977911412346775,0.305227482863819,0.18559441381018338,0.11711129526461934,0.07926342578286641,0.05594742766520217,0.03808547025551586,7.0584898617533085,5.588944856256138,5.0202641102988625,4.470792859217455,3.856573532247917,3.216319971974423,2.5666931896529626,1.963799599946302,1.4455317449112608,1.0172160129777328,0.6950487267968848,0.48197992445781473,0.35075849701790957,0.26552137535405773,0.19769566583020848
0.0,43.0,43.0,0.0,120.0,0.0,0.0,0.0,0.0,-107.0,0.0,-45.0,0.0,0.0,0.0,34.27253218749016,17.55503396713325,4.85911029628688,3.4114387152296914,2.9088473633215095,2.449471003447378,1.9702760825654175,1.513234576275454,1.095733095140961,0.7522000262276405,0.49316515243375675,0.30673897998823835,0.18533712085566906,0.11571543806072869,0.07759294156101115,0.054532913501729514,0.03709794264951872,7.075096919598938,5.6184224550974005,5.049256616034622,4.497592537434522,3.880174087915594,3.236212551462414,2.582705636493157,1.9762415367342165,1.454731301063374,1.0226683148633107,0.6959792295999605,0.4790306047226504,0.34599159935499013,0.26080570092772165,0.19395815102961883
0.0,44.0,44.0,0.0,120.0,0.0,0.0,0.0,0.0,-107.0,0.0,-45.0,0.0,0.0,0.0,34.27253218749016,17.55503396713325,4.875576593818787,3.43705493611097,2.9319271473726634,2.469058930655982,1.9858405304059863,1.5248811335306365,1.103890793233711,0.757638255465759,0.49657914074562826,0.30834231564875725,0.18522589184807575,0.11445959687673403,0.07602154449790632,0.05318037236209004,0.03614651333943535,7.092059150123413,5.648113611092348,5.078379676289566,4.524483591491788,3.903831847682346,3.256129412181726,2.598711156217447,1.988656350622636,1.463945040000575,1.028294575751699,0.6972605276820237,0.4764683030384359,0.34152216012891756,0.2562828463604632,0.19033819613534972
0.0,45.0,45.0,0.0,120.0,0.0,0.0,0.0,0.0,-107.0,0.0,-45.0,0.0,0.0,0.0,34.27253218749016,17.55503396713325,4.892548817535275,3.46298524587597,2.955232950507364,2.4888174666398837,2.0015238231790056,1.536601205484252,1.1120851252454913,0.7630897931115246,0.5000159917458209,0.3100255382011096,0.18524842268273004,0.11333601880055666,0.07454518441159971,0.05188743847798133,0.03522977295916916,7.10938985085035,5.678021003426737,5.107637305655266,4.551470235851606,3.9275508290734042,3.2760742713931603,2.6147131189841835,2.001045532094115,1.4731638198229635,1.0340686445342713,0.6988619732597297,0.4742725445036253,0.3373403141390843,0.25194751224327944,0.1868322651976471
0.0,46.0,46.0,0.0,120.0,0.0,0.0,0.0,0.0,-107.0,0.0,-45.0,0.0,0.0,0.0,34.27253218749016,17.55503396713325,4.910041203030001,3.4892330961778826,2.9787685729527125,2.508749907777102,2.0173285844412145,1.5483968170688551,1.1203176382022135,0.768555162853351,0.5034716065605218,0.31177801702710073,0.1853931944043509,0.1123372358092931,0.07315995227038483,0.050651861892498234,0.03434638298867663,7.127102180820264,5.708147193194054,5.13703343196852,4.578556580905703,3.9513349402002405,3.296050734842409,2.6307147912880793,2.013410882901567,1.4823804066511943,1.0399673007241232,0.7007547989998664,0.47242337862509254,0.3334363043898663,0.24779458072602745,0.1834369881019285
0.0,47.0,47.0,0.0,120.0,0.0,0.0,0.0,0.0,-107.0,0.0,-45.0,0.0,0.0,0.0,34.27253218749016,17.55503396713325,4.9280680068663365,3.515801957349593,3.0025378260988895,2.528859540309951,2.03325741476977,1.560269961666538,1.1285898457697279,0.7740350392649693,0.5069427227683365,0.31359033137871317,0.18564944860780727,0.11145606334701443,0.07186207177734913,0.04947149966631466,0.033495071740813294,7.145209147169276,5.738494635485188,5.166571901579562,4.605746638302945,3.97518798515979,3.3160623018248883,2.6467193372656777,2.0257544173909636,1.4915891753510173,1.0459700084152155,0.7029120765906397,0.47090141201589647,0.32980048301387516,0.2438190963736232,0.1801491507598389
0.0,48.0,48.0,0.0,120.0,0.0,0.0,0.0,0.0,-107.0,0.0,-45.0,0.0,0.0,0.0,34.27253218749016,17.55503396713325,4.946643492894807,3.5426953260694467,3.0265445353600584,2.549149643106053,2.0493128943456105,1.5722226033926316,1.1369032288533447,0.7795302028351416,0.510426781927911,0.3154541640121395,0.1860071607506888,0.11068559853951547,0.07064789218126552,0.048344307782257595,0.03267463054703739,7.163723590631169,5.769065691277848,5.1962564843818315,4.633044326113011,3.9991136692479876,3.336112370133077,2.6627298214131745,2.0380782870446543,1.5007858491004105,1.0520586802573393,0.7053086665747427,0.4696878361647709,0.3264233145213832,0.2400162490211558,0.17696568562101397
0.0,49.0,49.0,0.0,120.0,0.0,0.0,0.0,0.0,-107.0,0.0,-45.0,0.0,0.0,0.0,34.27253218749016,17.55503396713325,4.965781917706408,3.569916732826174,3.0507925429112674,2.5696234903144872,2.0654975854181385,1.5842566792927884,1.1452592367888736,0.7850415056656144,0.5139218148000158,0.31736220014271993,0.1864570117901819,0.11001921795998766,0.06951388213866098,0.047268333715062914,0.03188391013320002,7.182658170021026,5.7998626390952515,5.226090878631002,4.660453473845136,4.023115604011637,3.3562042409027217,2.678749212123426,2.0503847234691617,1.5099672741369843,1.0582174528313604,0.7079211610107892,0.4687644503725728,0.3232953808356941,0.23638135854944647,0.17388366251792667
0.0,50.0,50.0,0.0,120.0,0.0,0.0,0.0,0.0,-107.0,0.0,-45.0,0.0,0.0,0.0,34.27253218749016,17.55503396713325,4.985497515277556,3.5974697491594108,3.0752857103153954,2.590284353925504,2.0818140346619924,1.5963741014600228,1.1536592888551422,0.7905698455939434,0.5174263424738849,0.3193080320964207,0.1869903585281109,0.10945057489395851,0.06845662446902478,0.0462417096314485,0.031121817177590036,7.2020253457654935,5.830887686397972,5.256078715576987,4.687977827336772,4.047197312158161,3.3763411233670553,2.69478038566107,2.062675995913621,1.5191312260928695,1.064432474415369,0.710727820385577,0.46811368003201304,0.32040738763980675,0.2329098614865385,0.17090027985665995
0.0,51.0,51.0,0.0,120.0,0.0,0.0,0.0,0.0,-107.0,0.0,-45.0,0.0,0.0,0.0,34.27253218749016,17.55503396713325,5.005804480872224,3.625357994652128,3.100027921053225,2.611135506241642,2.098264775435827,1.6085767590761562,1.162104775936935,0.7961161469152301,0.5209392916734145,0.3212860698963899,0.18759920301831307,0.10897359607877556,0.06747281166216505,0.04526264618441312,0.03038731104418223,7.221837362552798,5.8621429806686765,5.286223563928928,4.715621053523305,4.071362232338322,3.396526139523056,2.7108261303381074,2.074954380140074,1.5282762444636293,1.0706917057889729,0.7137085060614428,0.46771859048464226,0.3177501716236187,0.22959729932821685,0.16801285616598322
0.0,52.0,52.0,0.0,120.0,0.0,0.0,0.0,0.0,-107.0,0.0,-45.0,0.0,0.0,0.0,34.27253218749016,17.55503396713325,5.026716953595678,3.653585144082928,3.125023083633031,2.632180221790195,2.1148523301384397,1.6208665203297974,1.1705970622428978,0.8016813462289384,0.5244599226105707,0.32329145790386127,0.18827616136047695,0.10858247791362813,0.06655924201311564,0.044329426864894564,0.02967940068373828,7.242106231320484,5.893630621331022,5.316528933989431,4.743386744630994,4.095613724013409,3.4167623286780424,2.726889150743517,2.087222136088574,1.5374014919463614,1.0769847344274057,0.7168446094114227,0.46756289672783596,0.31531470828128444,0.22643930846166693,0.1652188220174244
0.0,53.0,53.0,0.0,120.0,0.0,0.0,0.0,0.0,-107.0,0.0,-45.0,0.0,0.0,0.0,34.27253218749016,17.55503396713325,5.048248996486109,3.6821549352564493,3.1502751364695163,2.653421777939572,2.1315792129577447,1.633245234130956,1.1791374870339686,0.8072663822305917,0.5279877678628341,0.32531999753039326,0.18901443217474911,0.10827168215178687,0.06571281627556708,0.04344040287362182,0.028997141694967744,7.262843710830283,5.925352674206016,5.34699828124922,4.771278421092701,4.119955072717004,3.4370526518251343,2.7429720719403368,2.0994814922970066,1.5465066356045758,1.0833026021858732,0.7201189786710238,0.4676309692681771,0.3130921199645134,0.22343161157076372,0.16251571232794493
0.0,54.0,54.0,0.0,120.0,0.0,0.0,0.0,0.0,-107.0,0.0,-45.0,0.0,0.0,0.0,34.27253218749016,17.55503396713325,5.070414589521026,3.711071168506955,3.175788039625547,2.6748634646143983,2.148447928962924,1.6457147327389365,1.1877273661276648,0.8128721885267738,0.5315225808739368,0.32736807595085354,0.1898077650225529,0.10803593109814198,0.06493053473928377,0.04259398847609196,0.028339633560726697,7.284061286156034,5.95731116293872,5.377635013185009,4.799299543265388,4.144389491367541,3.4573999965362705,2.759077443658171,2.111734635393996,1.555591747078713,1.0896376463596864,0.7235158444197998,0.4679078364295989,0.3110736839487052,0.22057001039855634,0.15990115902247296
0.0,55.0,55.0,0.0,120.0,0.0,0.0,0.0,0.0,-107.0,0.0,-45.0,0.0,0.0,0.0,34.27253218749016,17.55503396713325,5.093227596787756,3.740337717324234,3.2015657870392307,2.6965085797678587,2.165460982510594,1.658276831639857,1.196367993608109,0.8184996886837688,0.5350642928338677,0.3294326006620249,0.19065042901412757,0.10787020234253505,0.06420949465041509,0.041788656804112444,0.027706017005957338,7.305770176041368,5.989508168176188,5.408442589581426,4.827453607904665,4.1689201313845246,3.4778071083788764,2.7752077806226443,2.123983690959316,1.5646572226809365,1.0959833531738399,0.7270207445915098,0.4683791834177416,0.3092508403131346,0.21785037974457722,0.1573728848778132
0.0,56.0,56.0,0.0,120.0,0.0,0.0,0.0,0.0,-107.0,0.0,-45.0,0.0,0.0,0.0,34.27253218749016,17.55503396713325,5.116701759821983,3.769958537142932,3.2276124075111903,2.71836043083283,2.182620869885893,1.6709333342201471,1.2050606432792383,0.8241497930979957,0.5386129766075086,0.3315109397656001,0.1915371817900859,0.10776972307142386,0.06354688790435528,0.04102293606819206,0.027095471522702416,7.32798125015455,6.0219456578836805,5.439424282997845,4.855743909595024,4.193550077705081,3.498276772942383,2.7913654772388066,2.1362307506772056,1.5737037058545007,1.1023342262658682,0.730620449284834,0.46903134849473616,0.307615199485392,0.21526866256281266,0.1549286951589671
0.0,57.0,57.0,0.0,120.0,0.0,0.0,0.0,0.0,-107.0,0.0,-45.0,0.0,0.0,0.0,34.27253218749016,17.55503396713325,5.1408506744221,3.7999376671357203,3.253931965684242,2.7404223389905233,2.199930085916644,1.6836860316517686,1.2138065702121503,0.8298233969558312,0.5421688169981523,0.33360086760012186,0.19246323909658664,0.10772996398943029,0.06293999895447086,0.04029540614622913,0.026507213032631486,7.350705045237566,6.05462559714357,5.470583326614472,4.884173689411107,4.218282357371455,3.5188117153042184,2.8075528640568854,2.148477852476478,1.5827320351390988,1.1086856646919814,0.7343028866945971,0.469851316487948,0.3061585493175906,0.2128208660589286,0.15256647256197836
0.0,58.0,58.0,0.0,120.0,0.0,0.0,0.0,0.0,-107.0,0.0,-45.0,0.0,0.0,0.0,34.27253218749016,17.55503396713325,5.165687770517243,3.83027923364112,3.280528563534893,2.7626976416880886,2.2173911273454863,1.696536704046529,1.2226070120787542,0.8355213791923581,0.545732086205091,0.3357005155379703,0.19342424508584527,0.10774663289992001,0.062386202886464834,0.039604695515294525,0.02594049168286469,7.3739517563785375,6.087549989174949,5.501922965356162,4.912746186802059,4.2431199453202195,3.539414569330708,2.823772228893311,2.1607269743763085,1.5917431991449336,1.1150338531158361,0.7380570702131094,0.4708267099713244,0.30487286161114663,0.21050305865973057,0.15028417182844586
0.0,59.0,59.0,0.0,120.0,0.0,0.0,0.0,0.0,-107.0,0.0,-45.0,0.0,0.0,0.0,34.27253218749016,17.55503396713325,5.191226295397385,3.8609874556155,3.307406342934536,2.7851896939588743,2.235006492973499,1.7094871224832213,1.2314631904772877,0.8412446021202139,0.5493031236916913,0.33780832764443525,0.19441624347557795,0.10781566798840324,0.06188296361770988,0.03894947849492489,0.025394589774098534,7.397731204820314,6.120720849571061,5.533446412660767,4.941464596570242,4.268065766732474,3.5600879154718097,2.8400258033924786,2.1729800413257583,1.6007382970049293,1.1213756635020868,0.7418730271425011,0.4719457783939751,0.30375029802523795,0.2083113677458884,0.14807981404318543
0.0,60.0,60.0,0.0,120.0,0.0,0.0,0.0,0.0,-107.0,0.0,-45.0,0.0,0.0,0.0,34.27253218749016,17.55503396713325,5.217479295787646,3.8920666485903364,3.334569487717917,2.8079018703366363,2.2527786853133316,1.7225390504644018,1.2403763122052618,0.8469939115040892,0.5528823198189534,0.3399230208602239,0.19543564968493235,0.1079332308507594,0.06142783218848078,0.038328472772032975,0.024868819814499066,7.422052817867971,6.15414021271697,5.565156853839455,4.970332072629296,4.293122700806257,3.5808342844776395,2.856315766540283,2.185238926864489,1.609718507770759,1.127708566658199,0.7457417295214851,0.4731973854005832,0.3027832153238485,0.20624197804899977,0.1459514816620862
0.0,61.0,61.0,0.0,120.0,0.0,0.0,0.0,0.0,-107.0,0.0,-45.0,0.0,0.0,0.0,34.27253218749016,17.55503396713325,5.244459600483869,3.9235212282653373,3.3620222257262156,2.8308375667260517,2.270710212192366,1.7356942453179958,1.2493475704809145,0.8527701369515639,0.5564701026171631,0.34204354939487974,0.1964792240338517,0.10809569931007021,0.06101844511780201,0.03774043717940339,0.024362522694345815,7.446925609316971,6.187810137541495,5.597057449320209,4.999351731631764,4.318293584399657,3.6016561609838016,2.8726442480642933,2.197505455261413,1.6186850659375769,1.134030553218658,0.7496550273189773,0.4745709945922919,0.3019641699372083,0.20429113061654974,0.14389731391210364
0.0,62.0,62.0,0.0,120.0,0.0,0.0,0.0,0.0,-107.0,0.0,-45.0,0.0,0.0,0.0,34.27253218749016,17.55503396713325,5.2721798037436,3.955355713749731,3.389768830826572,2.8540002022321,2.2888035883078297,1.7489544595457753,1.2583781461162402,0.8585740925130724,0.5600669271724301,0.34416907300915983,0.19754404607555778,0.10829966006404522,0.06065252280205625,0.03718416970158707,0.023875065976300448,7.472358160617506,6.221732712599745,5.629151337771189,5.0285266564621285,4.343581215539791,3.6225559869611645,2.8890133317173254,2.209781403946442,1.6276392420582895,1.140340063346724,0.7536055842306331,0.4760566539557809,0.30128592182752056,0.2024551222568911,0.14191550255259316
0.0,63.0,63.0,0.0,120.0,0.0,0.0,0.0,0.0,-107.0,0.0,-45.0,0.0,0.0,0.0,34.27253218749016,17.55503396713325,5.300652249634375,3.9875747304692237,3.4178136249093214,2.877393220950723,2.3070613367356367,1.762321442120598,1.267469208644033,0.8644065774129971,0.5636732671801609,0.3462989288688121,0.19862749011383243,0.10854190120347149,0.06032786793903367,0.03665850568393706,0.023405842296185513,7.498358603001112,6.2559100604917806,5.661441639100255,5.057859899591554,4.368988356793235,3.6435361650265925,2.905425058440625,2.2220685061005403,1.6365823275581326,1.1466359244376896,0.7575868162585729,0.47764497917237964,0.30074143766077954,0.2007303053838777,0.1400042879855824
0.0,64.0,64.0,0.0,120.0,0.0,0.0,0.0,0.0,-107.0,0.0,-45.0,0.0,0.0,0.0,34.27253218749016,17.55503396713325,5.329889017547032,4.020183012761385,3.4461609798636887,2.901020093723056,2.3254859903944984,1.7757969397343352,1.2766219174008466,0.8702683768558672,0.5672896082842049,0.34843260666057074,0.19972720194032836,0.1088194046403201,0.06004236396390542,0.03616231622240201,0.022954267869143792,7.524934600804121,6.290344341632334,5.69393145732665,5.087354486291467,4.394517738494236,3.66459906161165,2.9218814294028292,2.2343684533071593,1.6455156229932384,1.1529172961259233,0.761592833204282,0.47932713600348353,0.30032389329592474,0.19911308818829773,0.1381619557012135
0.0,65.0,65.0,0.0,120.0,0.0,0.0,0.0,0.0,-107.0,0.0,-45.0,0.0,0.0,0.0,34.27253218749016,17.55503396713325,5.3599019090849,4.053185406186849,3.4748153195324845,2.924884319855452,2.344080093466905,1.7893826979982383,1.2858374225672826,0.8761602628681643,0.570916442879067,0.3505697266730126,0.2008410768122656,0.10912933848210665,0.059793973486795195,0.035694506713570405,0.022519781096086447,7.552093336227945,6.3250377573957035,5.726623883321105,5.1170134177038875,4.4201720618278175,3.685747009987071,2.9383844089110323,2.246682898196499,1.6544404291136265,1.1591836219241956,0.7656183831598381,0.48109482193353,0.30002667560993623,0.19759993507055,0.13638683304345503
0.0,66.0,66.0,0.0,120.0,0.0,0.0,0.0,0.0,-107.0,0.0,-45.0,0.0,0.0,0.0,34.27253218749016,17.55503396713325,5.390702436539798,4.08658686958786,3.5037811216461345,2.9489894288074945,2.3628462027783987,1.8030804625975645,1.295116866166815,0.8820829951484168,0.5745542661037103,0.35271002055905837,0.201967238677627,0.10946904938696427,0.05958073672427035,0.035254015546267455,0.022101841265366313,7.579841495778156,6.35999255266851,5.759521997410893,5.146839673767271,4.445954001765775,3.706982313141707,2.954935927190759,2.259013457035005,1.6633580401931536,1.1654345868556084,0.7696588000431243,0.4829402472371371,0.29984338368306784,0.1961873672760329,0.13467728628030448
0.0,67.0,67.0,0.0,120.0,0.0,0.0,0.0,0.0,-107.0,0.0,-45.0,0.0,0.0,0.0,34.27253218749016,17.55503396713325,5.422301809778858,4.120392475531607,3.5330629204646242,2.9733389855433505,2.3817868955703734,1.8168919829514039,1.304461378730062,0.8880373238375291,0.5782035721333008,0.3548533147035725,0.2031040206011434,0.10983605493937428,0.05940076991829832,0.03483981291726633,0.021699927395153404,7.608185285982613,6.395211087613772,5.792628976915848,5.176836352134684,4.471866329371487,3.7283072076084984,2.971537821004389,2.2713617517117815,1.6722697253687269,1.1716700837504395,0.7737099536856805,0.4848561156704458,0.299767829380833,0.1948719636691646,0.13303171943281303
0.0,68.0,68.0,0.0,120.0,0.0,0.0,0.0,0.0,-107.0,0.0,-45.0,0.0,0.0,0.0,34.27253218749016,17.55503396713325,5.454710936301618,4.154607415044978,3.5626653067239604,2.997936583252426,2.400904755566468,1.830819007455428,1.313872090336964,0.8940239857571333,0.5818648534943688,0.35699951511358363,0.20424994655922538,0.11022803604284023,0.05925226374305752,0.03445089975772284,0.02131353698968582,7.637130359516031,6.430695675556037,5.825947852281523,5.207006352029113,4.497911634821838,3.749723957433271,2.9881919812063726,2.283729319744192,1.6811767575441432,1.1778901734272345,0.7777682046319787,0.4868356047215053,0.29979403732771487,0.19365036165395375,0.13144856846125821
0.0,69.0,69.0,0.0,120.0,0.0,0.0,0.0,0.0,-107.0,0.0,-45.0,0.0,0.0,0.0,34.27253218749016,17.55503396713325,5.487940412201292,4.189236997943678,3.592592930740725,3.0227858494771946,2.420202381607511,1.8448632870585384,1.3233501266524659,0.900043707425558,0.5855385986474364,0.35914859490851564,0.20540371429333626,0.11064282940949455,0.059133481691057366,0.03408630675350506,0.020942185056967075,7.6666818388223295,6.466448661465901,5.859481625529472,5.237352527020942,4.5240924614212075,3.7712348131980793,3.0049002869833563,2.2961176600278326,1.6900803959133002,1.184095060439456,0.7818303602052651,0.4888723458653175,0.2999162443626025,0.19251925811802914,0.12992630077074288
0.0,70.0,70.0,0.0,120.0,0.0,0.0,0.0,0.0,-107.0,0.0,-45.0,0.0,0.0,0.0,34.27253218749016,17.55503396713325,5.5220005161125485,4.224286652989529,3.622850504741783,3.047890450599842,2.4396823940919394,1.8590265784289424,1.3328966062650816,0.9060972073721988,0.589225290291332,0.361300583465112,0.2065641793491655,0.11107842014321118,0.05904275844084161,0.033745093448813365,0.020585403182163665,7.696844333888896,6.502472479768594,5.8932333584957135,5.267877799156425,4.550411406193548,3.7928419825053954,3.021664557069143,2.308528267433821,1.6989818732243256,1.1902850717268791,0.785893633635067,0.4909604047645609,0.30012889847873336,0.19147541041185126,0.12846341453929172
0.0,71.0,71.0,0.0,120.0,0.0,0.0,0.0,0.0,-107.0,0.0,-45.0,0.0,0.0,0.0,34.27253218749016,17.55503396713325,5.556901210469558,4.2597619300067695,3.653442804227907,3.0732540911910147,2.459347432380809,1.8733106434524966,1.3425126440082724,0.9121851957184063,0.5929254049835125,0.3634555568157394,0.20773034031080592,0.11153293443023697,0.058978498207349656,0.033426347422558296,0.02024273860173796,7.727621924439571,6.538769613918166,5.92720611343772,5.29858508178564,4.576871052444993,3.8145476548830577,3.0384865879734493,2.3209626118172095,1.7078824031164066,1.1964606340353745,0.7899556067302098,0.4930942614652631,0.3004266572738458,0.19051563734772578,0.12705843620010943
0.0,72.0,72.0,0.0,120.0,0.0,0.0,0.0,0.0,-107.0,0.0,-45.0,0.0,0.0,0.0,34.27253218749016,17.55503396713325,5.592652143459966,4.2956685011978015,3.6843746698046442,3.09888051555104,2.4792001559559496,1.8877172501473372,1.3521993517281041,0.9183083748603618,0.5966394126662342,0.36561362949965165,0.2089013251041239,0.11200463237329063,0.05893917307368186,0.03312918352687494,0.019913753374071475,7.759018161059918,6.575342596427575,5.961402954814066,5.329477281640928,4.6034739718275866,3.8363540038026573,3.055368155950109,2.333422139905482,1.7167831799197986,1.2026222562112556,0.7940141950005986,0.49526879077382674,0.30080438596191894,0.1896368201695985,0.12570991898406844
0.0,73.0,73.0,0.0,120.0,0.0,0.0,0.0,0.0,-107.0,0.0,-45.0,0.0,0.0,0.0,34.27253218749016,17.55503396713325,5.629262653712949,4.332012162458743,3.7156510090040804,3.1247735092346156,2.499243245545833,1.9022481735441825,1.3619578390155427,0.924467440116174,0.6003677764222515,0.3677749475923288,0.21007637834779802,0.11249190098292865,0.058923321306083784,0.03285274317944614,0.019598023612191418,7.791036069346207,6.6121940086736455,5.995826950937748,5.360557300782216,4.630222726266973,3.8582631885634107,3.0723110188343132,2.345908277059266,1.7256853788322992,1.2087705140950495,0.7980676154097867,0.4974792428703715,0.3012571549761316,0.18883590348027318,0.12441644164837659
0.0,74.0,74.0,0.0,120.0,0.0,0.0,0.0,0.0,-107.0,0.0,-45.0,0.0,0.0,0.0,34.27253218749016,17.55503396713325,5.666741777784041,4.3687988347219635,3.747276798101641,3.150936900561453,2.5194794042203763,1.9169051965339143,1.3717892139044023,0.930663080338231,0.6041109524043122,0.3699396827659893,0.2112548497030599,0.11299324734222396,0.05892954565386014,0.03259619370205363,0.019295138774377215,7.823678157152571,6.649326480529012,6.030481175511566,5.391828038412378,4.65711986975884,3.880277356045683,3.08931691775205,2.3584224289086055,1.734590156365187,1.2149060376840999,0.8021143566396284,0.4997212242310928,0.3017802371969085,0.18810989610920245,0.12317660737538985
0.0,75.0,75.0,0.0,120.0,0.0,0.0,0.0,0.0,-107.0,0.0,-45.0,0.0,0.0,0.0,34.27253218749016,17.55503396713325,5.705098260460934,4.406034565347769,3.77925708393279,3.1773745621153116,2.539911358455807,1.931690110684052,1.38169458353618,0.936895978492149,0.607869389893911,0.37210802724930686,0.2124361831711439,0.1135072919586708,0.05895651163631536,0.03235872769874068,0.019004701008584427,7.856946424964739,6.68674268986797,6.065368709055705,5.423292392565808,4.684167950039573,3.9023986423385204,3.1063875787058266,2.370965982869016,1.7434986509742318,1.2210295002677125,0.8061531517420436,0.5019906789232607,0.3023691048381221,0.1874558719073193,0.12198904282603829
0.0,76.0,76.0,0.0,120.0,0.0,0.0,0.0,0.0,-107.0,0.0,-45.0,0.0,0.0,0.0,34.27253218749016,17.55503396713325,5.744340567872945,4.443725529582311,3.8115969857154344,3.2040904122339056,2.5605418591708378,1.9466047170257241,1.391675054792949,0.9431668122038345,0.6116435314540947,0.3742801895684523,0.2136199072863008,0.11403276231516382,0.059002945819084066,0.032139562467802155,0.018726324546794328,7.890842379378342,6.72444536198729,6.100492640239562,5.454953261673026,4.711369510137299,3.924629174246137,3.1235247140411615,2.3835403095421466,1.752411983809857,1.2271416092703198,0.810182953049298,0.5042838703280368,0.3030194260234809,0.18687097045823178,0.12085239733302285
0.0,77.0,77.0,0.0,120.0,0.0,0.0,0.0,0.0,-107.0,0.0,-45.0,0.0,0.0,0.0,34.27253218749016,17.55503396713325,5.784476909006168,4.481878038894277,3.8443017045082737,3.231088424652487,2.5813736898953987,1.9616508285822591,1.4017317279895727,0.94947625549153,0.6154338136489218,0.3764563907735805,0.21480562614733217,0.11456848664703963,0.059067634075811004,0.031937939444784715,0.018459635248292215,7.925367072891515,6.76243732347879,6.135856150347092,5.4868136642497785,4.738727237153659,3.946971178445716,3.1407299444297028,2.3961467323027423,1.7613312903976408,1.2332430880299052,0.8142029112313923,0.5065973631516683,0.30372706104807523,0.18635239774718754,0.11976534450756313
0.0,78.0,78.0,0.0,120.0,0.0,0.0,0.0,0.0,-107.0,0.0,-45.0,0.0,0.0,0.0,34.27253218749016,17.55503396713325,5.8255152097048315,4.520498507705642,3.877376518936696,3.2583726339583103,2.6024096347476693,1.976830272225367,1.4118657129363896,0.9558249764350315,0.6192406661082754,0.3786368618907627,0.21599301125902653,0.11511338787590983,0.05914941986745894,0.031753123662378896,0.018204269759869707,7.960521056733304,6.800721392096844,6.171462347063087,5.518876447281987,4.76624360267914,3.9694267257777405,3.158004991396868,2.408786604493205,1.7702576472834144,1.2393346947241743,0.8182123494763808,0.508928006585041,0.3044880585140352,0.1858974265635509,0.11872657621281395
0.0,79.0,79.0,0.0,120.0,0.0,0.0,0.0,0.0,-107.0,0.0,-45.0,0.0,0.0,0.0,34.27253218749016,17.55503396713325,5.867463174604028,4.559593490756827,3.9108267906351477,3.2859471183434876,2.6236525056387863,1.9921448859093038,1.422078121763984,0.9622136390985614,0.6230645124624481,0.38082184118727364,0.2171817940842682,0.1156664778341896,0.0592472024935508,0.031584403239359286,0.01795987527219121,7.996304455204644,6.839300426045273,6.207314329823057,5.55114444322307,4.793921066941471,3.9919978672530583,3.1753515758605055,2.42146126984317,1.7791921126937256,1.245417203432539,0.8222107469954391,0.5112729173246273,0.30529865111152943,0.1855033969849887,0.11773480501647572
0.0,80.0,80.0,0.0,120.0,0.0,0.0,0.0,0.0,-107.0,0.0,-45.0,0.0,0.0,0.0,34.27253218749016,17.55503396713325,5.910328385576961,4.5991697233830005,3.9446579328939873,3.3138159551714623,2.6451051846010785,2.007596507929128,1.4323700682175953,0.9686429042548577,0.6269057710008693,0.38301157198486685,0.2183717592909675,0.11622685170426086,0.05935993534848479,0.03143108888553721,0.017726109293428747,8.032717015604485,6.878177303686878,6.24341517720767,5.583620573101188,4.821762181089665,4.014686700808548,3.1927713679952947,2.434172043769681,1.7881357468928272,1.2514913930350535,0.8261977229462325,0.5136294632878422,0.3061552512308063,0.18516771672503096,0.11678876512798265
0.0,81.0,81.0,0.0,120.0,0.0,0.0,0.0,0.0,-107.0,0.0,-45.0,0.0,0.0,0.0,34.27253218749016,17.55503396713325,5.954118205376342,4.6392340484585946,3.9788754564528093,3.3419833109369628,2.6667705603049168,2.023186997226551,1.4427426664782605,0.9751134299939013,0.6307648546572848,0.38520630105056003,0.21956273865028417,0.11679368266517977,0.05948662418966271,0.03129251341875872,0.01750263889802156,8.069758081819007,6.917354978657942,6.2797680330536325,5.6163077548319125,4.849769486840078,4.037495325203476,3.210266029946047,2.4469202300110897,1.7970895970925673,1.2575580490327696,0.8301730196478274,0.515995248134728,0.3070544464498075,0.18488786131831703,0.11588721109128698
0.0,82.0,82.0,0.0,120.0,0.0,0.0,0.0,0.0,-107.0,0.0,-45.0,0.0,0.0,0.0,34.27253218749016,17.55503396713325,5.998839850317416,4.679793447950474,4.01348495541392,3.370453405854774,2.68865155215762,2.0389182261856336,1.4531970337225555,0.981625871758064,0.6346421713558725,0.38740627720495086,0.22075460551509576,0.1173662167833599,0.05962632540733315,0.03116803129569625,0.017289140465101903,8.107426642215987,6.956836447480512,6.316376055185684,5.649208914014735,4.877945528531598,4.0604258366792845,3.2278372167742417,2.459707121775638,1.8060546980853354,1.2636179606043683,0.8341364883275543,0.5183680963053711,0.3079929948601637,0.18466137422692225,0.11502891747396635
0.0,83.0,83.0,0.0,120.0,0.0,0.0,0.0,0.0,-107.0,0.0,-45.0,0.0,0.0,0.0,34.27253218749016,17.55503396713325,6.044500419158271,4.7208550449577915,4.048492109079143,3.3992305152554723,2.7107511113060303,2.054792081207813,1.463734290577402,0.9881808827090345,0.6385381243172468,0.3896117501932231,0.22194726984455648,0.11794376813468459,0.05977814430358087,0.031057018153076637,0.017085299327647727,8.145721359682282,6.996624748717377,6.3532424164315895,5.682326984974247,4.906292853912238,4.083480329815798,3.2454865772280423,2.472534002489299,1.8150320729400333,1.2696719181897127,0.8380880762546438,0.5207460386748846,0.30896782027497816,0.18448586684322932,0.11421267868386518
0.0,84.0,84.0,0.0,120.0,0.0,0.0,0.0,0.0,-107.0,0.0,-45.0,0.0,0.0,0.0,34.27253218749016,17.55503396713325,6.091106923181134,4.7624261058003965,4.083902683851136,3.4283189710224695,2.7330722216146093,2.0708104632706443,1.474355561551775,0.9947791140752735,0.6424531123547849,0.39182296977776004,0.22314067372932608,0.11852571415770889,0.059941233383012146,0.030958870357757382,0.016890809446325858,8.184640602807015,7.036722962139793,6.390370305704335,5.715664911756772,4.9348140148099215,4.10666089833108,3.2632157544337774,2.4854021464722416,1.8240227336435673,1.2757207115378013,0.8420278151442127,0.5231272988326392,0.3099760073406456,0.1843590183913922,0.11343730883377273
0.0,85.0,85.0,0.0,120.0,0.0,0.0,0.0,0.0,-107.0,0.0,-45.0,0.0,0.0,0.0,34.27253218749016,17.55503396713325,6.13866631716023,4.804514042162312,4.119722535243043,3.4577231630858214,2.755617900605826,2.0869752884770323,1.4850619754451038,1.001421215481365,0.6463875301589226,0.3940401850166335,0.2243347873759621,0.11911149123576466,0.06011479065783237,0.030873004564269904,0.01670537310560956,8.224182477892416,7.077134207929547,6.427762929166762,5.749225649079672,4.963511567689005,4.129969635833146,3.2810263865144194,2.4983128195487945,1.8330276816869704,1.2817651281413667,0.8459558107271931,0.5255102799870444,0.31101479657384506,0.18427857573009712,0.11270164164635296
0.0,86.0,86.0,0.0,120.0,0.0,0.0,0.0,0.0,-107.0,0.0,-45.0,0.0,0.0,0.0,34.27253218749016,17.55503396713325,6.187185409487372,4.847126340036455,4.155957619354904,3.4874476527181453,2.778391215687916,2.1032884545274246,1.4958546762147935,1.0081078342341085,0.6503417683026492,0.3962636438394144,0.2255296054673091,0.11970059051669914,0.060298057967305356,0.03079885727880517,0.01652870047885607,8.26434487247445,7.117861731456453,6.46542363041961,5.783012226938899,4.992387980922641,4.153408668109767,3.2989200958901086,2.51126728384562,1.8420479074806897,1.2878059522141523,0.8498722333480959,0.5278935524996773,0.3120815793435564,0.1842423530591666,0.11200453091018445
0.0,87.0,87.0,0.0,120.0,0.0,0.0,0.0,0.0,-107.0,0.0,-45.0,0.0,0.0,0.0,34.27253218749016,17.55503396713325,6.236671235977169,4.890270784429693,4.192613993545951,3.5174968746912034,2.8013952230326957,2.119751943029275,1.506734791719788,1.0148396193584657,0.6543162140126989,0.398493592257642,0.22672514406500083,0.12029255391056438,0.06049031932664215,0.030735884428027715,0.016360509890922234,8.305125489643384,7.15890868399633,6.503355558529598,5.817027544880069,5.021445890287973,4.176980074905087,3.316898518312867,2.524266786731182,1.851084394007512,1.2938439630527738,0.8537773096971334,0.5302758420109246,0.31317389281843766,0.18424823153713224,0.11134484904441584
