Line_number,Fiducial,Easting,Northing,Height,Elevation,tx_pitch,tx_roll,tx_yaw,txrx_dx,txrx_dy,txrx_dz,rx_pitch,rx_roll,rx_yaw,PX,PZ,S0X_time_1.086e-05,S0X_time_3.256e-05,S0X_time_5.426e-05,S0X_time_8.680e-05,S0X_time_1.411e-04,S0X_time_2.279e-04,S0X_time_3.689e-04,S0X_time_5.860e-04,S0X_time_9.115e-04,S0X_time_1.411e-03,S0X_time_2.192e-03,S0X_time_3.418e-03,S0X_time_5.339e-03,S0X_time_8.301e-03,S0X_time_1.338e-02,S0Z_time_1.086e-05,S0Z_time_3.256e-05,S0Z_time_5.426e-05,S0Z_time_8.680e-05,S0Z_time_1.411e-04,S0Z_time_2.279e-04,S0Z_time_3.689e-04,S0Z_time_5.860e-04,S0Z_time_9.115e-04,S0Z_time_1.411e-03,S0Z_time_2.192e-03,S0Z_time_3.418e-03,S0Z_time_5.339e-03,S0Z_time_8.301e-03,S0Z_time_1.338e-02
0.0,0.0,0.0,0.0,120.0,0.0,-0.6431615722588724,5.814704539932247,4.741772168434284,-107.0,0.0,-45.0,2.884134839887973,-5.30021020285774,-1.517724182516961,34.26675005680039,17.578289281573518,1.6830945185676516,1.5140694148910454,1.4530632384417608,1.3878496551293789,1.3078879248872575,1.2146267618518944,1.1060417904090802,0.986797906544701,0.8616659472455666,0.7296959185786327,0.5932984213037101,0.4592456931121545,0.3359761481654078,0.23184619274140802,0.14490282466738755,3.248646394148382,3.0001876169737356,2.910268438498874,2.813400689823976,2.693213901590736,2.5507009842674844,2.3811925761053367,2.1899627080580877,1.9825676657990847,1.7548677910132207,1.5075427354114885,1.249082414972764,0.9929383988106742,0.7564034762306987,0.5359540680810472
0.0,1.0,1.0,0.0,120.0,0.0,6.1814170477412524,18.844575040116766,1.4850977247925705,-107.0,0.0,-45.0,1.1500631668029833,6.811655288679873,-3.1037840205539844,34.26675005680039,17.578289281573518,1.6189813123577366,1.4132684467459873,1.354843797210307,1.293791393978833,1.2195154088685636,1.133224969148459,1.032919635258943,0.9227925399529846,0.8071390222988813,0.6849755406972567,0.558421138890625,0.4336558925053695,0.31847848315273214,0.22073350805358702,0.13866996076786586,3.1679599857339755,2.858441164581948,2.769699611144484,2.676607990311937,2.562142981457173,2.4270670186006496,2.2668034609845553,2.0862129341034135,1.8904144202919813,1.6753733482952406,1.441585485595328,1.1969025876983872,0.9538868412119608,0.7288376637966386,0.5183168971499487
0.0,2.0,2.0,0.0,120.0,0.0,-0.7095003179499866,2.792978909588534,-3.9820854753229273,-107.0,0.0,-45.0,4.896829935314038,-3.1092514173635344,-1.2034773751638204,34.26675005680039,17.578289281573518,1.574561648057388,1.3223737026032647,1.2651680071759774,1.2076988173433092,1.1384918608770214,1.0584769311399116,0.9656585826370744,0.863800203980724,0.7567668235370599,0.6435480637837218,0.5260027587615966,0.4097735900004304,0.30207073942939977,0.21025732074010192,0.13275729083107102,3.114309302608146,2.72848674888007,2.6385849294230197,2.548621487781393,2.439312452307656,2.3110709266204004,2.1593638310824996,1.9886537960970032,1.8036468611291776,1.6004056221440914,1.3792587114776511,1.1474691785406372,0.9167739933107812,0.7025423798848204,0.5014152495575709
0.0,3.0,3.0,0.0,120.0,0.0,-5.463367180675764,13.70107766470494,12.23329441773322,-107.0,0.0,-45.0,-0.9713221378128756,0.597785007957734,1.000217933502575,34.26675005680039,17.578289281573518,1.5464884257623395,1.241315657299379,1.1832804862352886,1.1288004912356444,1.064106821199168,0.9897496008471167,0.9037125150775127,0.8093653468197921,0.7101826782452825,0.6051330963178413,0.4958431210908895,0.387467441969953,0.28667477269783354,0.20037572699121758,0.12714592826701618,3.083283040675826,2.6112899522314574,2.5164568274137684,2.4288245614887174,2.3241264981826664,2.2021637420940112,2.0583804765459046,1.8968529313378049,1.7218958201229901,1.5296615528382647,1.320326848488705,1.1006113446975812,0.8814858468799938,0.6774481310937618,0.48521266322480416
0.0,4.0,4.0,0.0,120.0,0.0,-6.690404742145118,6.921701720632562,10.603186816014183,-107.0,0.0,-45.0,2.8134337282721047,-3.496364824534817,0.5397807289031569,34.26675005680039,17.578289281573518,1.5312371490981114,1.1702176878208113,1.1086076478305606,1.056421120723389,0.9957297739478453,0.9264789829251155,0.8465932567714444,0.7590793821767946,0.6670565279767641,0.569477199566761,0.4677604207932603,0.36661746188120153,0.27221872283776455,0.1910499104005542,0.1218182305858821,3.0700205326841337,2.5079899571586335,2.403110453205817,2.3166759292899792,2.216041333228745,2.0998416048538577,1.963399666297558,1.8104119473708755,1.6448206305500153,1.46286099719038,1.2645716544932086,1.0561703257087511,0.8479160337055888,0.6534897614383237,0.4696747401260496
0.0,5.0,5.0,0.0,120.0,0.0,9.908844136825856,-9.465305973706068,-2.422886452282947,-107.0,0.0,-45.0,3.024505453673271,-3.1467257913400655,2.96981956467027,34.26675005680039,17.578289281573518,1.5256147724787494,1.1091191937430822,1.040761873701142,0.9899767561758002,0.9328005226911508,0.868161594320881,0.7938636821548277,0.7125752736348006,0.6270908562903891,0.5363510115154135,0.4415893448292016,0.3471139369436869,0.25863645829428233,0.18224389276953767,0.11675770991014567,3.0700482844763775,2.4193795798887154,2.2986212000491855,2.2117246042624363,2.1145617545682227,2.0036417117447742,1.8740037548521353,1.7289635167463486,1.57210672859983,1.3997448305524287,1.2117908073469976,1.0139984987510593,0.8159652581907535,0.6306061521357853,0.45476901667839115
0.0,6.0,6.0,0.0,120.0,0.0,-8.453257924464195,-11.65454259841104,9.194281605121521,-107.0,0.0,-45.0,2.49416275808945,-4.7094531968986875,4.413329822489164,34.26675005680039,17.578289281573518,1.5269823548945152,1.0578006495957908,0.9795013641727525,0.9289746922342682,0.8748210323806598,0.8143471792488942,0.74513174031348,0.6695228115031844,0.5900171160879307,0.5055467073365151,0.4171794158467703,0.32885645695269666,0.24586707349980966,0.17392430648891422,0.11194895035043415,3.0796510296204267,2.345611771955129,2.2032555912695644,2.113630399769574,2.019238604971999,1.9131388622922874,1.789808082886673,1.652168735985429,1.5034634686039312,1.340073216445418,1.1617966245916276,0.9739585137402654,0.7855407755781091,0.6087399438593978,0.44046484296470995
0.0,7.0,7.0,0.0,120.0,0.0,0.9725725930046245,6.681555972484887,-5.54073326654458,-107.0,0.0,-45.0,-2.715284497807695,-7.133194754947192,2.838136482083982,34.26675005680039,17.578289281573518,1.5332875651828914,1.015744414010509,0.9246593970640509,0.8730115697827836,0.8213489569948468,0.7646324888025338,0.7000452472881377,0.6296244872673881,0.5555925887687256,0.47687575369879803,0.39439351749782353,0.3117530429212722,0.23385443397908262,0.16606018654631186,0.10737753174387468,3.095938780689705,2.286171988263735,2.1173201674700164,2.022172921137581,1.929668562327243,1.8279424813044503,1.7104581346145706,1.5797147304919603,1.438622131114803,1.2836240287228724,1.1144148940188279,0.9359225011232092,0.7565559119124219,0.5878372796928518,0.42673327019124824
0.0,8.0,8.0,0.0,120.0,0.0,0.9528645458712113,-9.36682224146943,-3.9413529363854867,-107.0,0.0,-45.0,-0.5564444316366224,1.1927654312797742,-3.7725182716300676,34.26675005680039,17.578289281573518,1.5430020011341237,0.9821882197870861,0.8760731640871703,0.8217642911876296,0.7719929920589054,0.718655909441053,0.6582873441264436,0.5926118821194557,0.5235976179440823,0.4501669200107493,0.3731065799009882,0.2957193645301733,0.22254676433733878,0.15862278038480737,0.10302995920904566,3.116763604985191,2.240016833700076,2.0410192618313836,1.937237815469694,1.8454965935661591,1.747693969896379,1.6356269653726567,1.5113124779974827,1.377334106874488,1.2301914122180926,1.069483804953469,0.8997713458981353,0.7289296222026542,0.5678475671596889,0.4135469457231981
0.0,9.0,9.0,0.0,120.0,0.0,-8.669846177961238,21.767756601271664,0.8496115265571493,-107.0,0.0,-45.0,-0.8635127180519717,4.3093175432743855,2.1251224138581986,34.26675005680039,17.578289281573518,1.5550247449947043,0.9562158812025106,0.8335336846561262,0.7749734164270765,0.726409464872325,0.6760928160901986,0.619572538599875,0.5582424964055448,0.4938331693972786,0.42526451455239966,0.35320440647595724,0.2806780366855479,0.21189627483106874,0.15158537399935887,0.09889359802249115,3.140583195740349,2.2057688056602403,1.9743653806108807,1.8587826499535824,1.766419149864146,1.6720644739863815,1.565012899003703,1.4466948228455774,1.3193692424195589,1.1795844688000694,1.0268529711516559,0.8653940219754271,0.7025860835550791,0.5487232578312656,0.40088001511554094
0.0,10.0,10.0,0.0,120.0,0.0,2.260320798915103,-14.61572897465302,-12.667480403141425,-107.0,0.0,-45.0,3.3638286579073675,-7.9122691416955515,-2.2511877418618043,34.26675005680039,17.578289281573518,1.5685843705590203,0.9368472359041741,0.7967627643469055,0.7324226512952786,0.6842991136737325,0.6366516118987179,0.583643250345887,0.5262969591862292,0.4661186757251722,0.4020268177432654,0.3345826257381301,0.2665579865888093,0.20185882266945804,0.14492313280582877,0.09495661340486708,3.1663210812073292,2.1818976933195433,1.91714970519918,1.7867935842188798,1.6921852275198157,1.6007532723502065,1.498337459841601,1.385614662783285,1.2645143331899533,1.1316260571629249,0.9863825370590383,0.8326869815299263,0.6774543203338208,0.530419643135294,0.3887080306601299
0.0,11.0,11.0,0.0,120.0,0.0,-6.356262212370083,-10.297810295928317,11.445177713229196,-107.0,0.0,-45.0,-0.7967578325260618,-4.714855105884965,-4.7775271225957,34.26675005680039,17.578289281573518,1.5831533743291404,0.9231096870699524,0.7654123490678271,0.6939189460392116,0.645403182813057,0.6000704134625756,0.5502667844517574,0.49657656848376314,0.4402901293742255,0.38032468859009366,0.3171457536645399,0.2532938837131935,0.19239360459583066,0.1386129559523854,0.09120791484984236,3.193244637654906,2.1668598158102896,1.8689585664604056,1.7212447076699753,1.6225933336391407,1.5334868221664686,1.435343501469017,1.327843297442577,1.2125717496810278,1.0861516961506605,0.947942359874208,0.8015535945030615,0.6534678586609382,0.5128946650972834,0.37700786601522185
0.0,12.0,12.0,0.0,120.0,0.0,-1.6078801081645206,0.03939810478985706,-0.19831917377993769,-107.0,0.0,-45.0,-1.8228607682644569,-3.834926213241392,-2.5640072881404787,34.26675005680039,17.578289281573518,1.5983792483736012,0.914087282530563,0.7390778419183214,0.6592764787386229,0.6094985142752238,0.566114276996574,0.5192326730732223,0.4689011207732998,0.4161983924756803,0.36004032359030136,0.3008063539953353,0.24082562595587656,0.18346287765671834,0.13263334286646902,0.08763710464496108,3.2208671268999107,2.1591912743732466,1.8292158592416667,1.66206774814775,1.5574841403676405,1.470018223642207,1.3757935214595052,1.2731689280423064,1.163358183152729,1.043008562536536,0.9114112605220873,0.7719036338709204,0.6305644077998785,0.4961087408494787,0.36575763649500886
0.0,13.0,13.0,0.0,120.0,0.0,4.153504358626975,12.870093977733553,-12.310804682863061,-107.0,0.0,-45.0,-2.510483237705733,7.421044451872973,-2.6215729829952004,34.26675005680039,17.578289281573518,1.6140317703780944,0.9089498662991804,0.7173175682676476,0.6283059224363556,0.5763918501057856,0.5345728060270487,0.4903503410515024,0.443106993367395,0.3937076962793184,0.34106615005502483,0.2854842853759344,0.22909787600213805,0.1750317053868518,0.12696427094293172,0.0842344302497219,3.248873053562395,2.1575624803624605,1.7972344564952718,1.60913481608317,1.4967300494270086,1.4101266902610494,1.3194681756562483,1.221395294533699,1.1167034994804035,1.0020545748917253,0.8766763373042908,0.7436528026964351,0.6086855661798009,0.4800245998371244,0.3549366246133309
0.0,14.0,14.0,0.0,120.0,0.0,2.062952647432928,-9.774198044104192,2.0360903504175205,-107.0,0.0,-45.0,-1.1671223236028183,5.539742523608197,-3.336519480287551,34.26675005680039,17.578289281573518,1.6299642005255388,0.9069669642283137,0.699672900453541,0.6008088666587735,0.5459138569301438,0.5052579738372813,0.463447061828542,0.41904544731369553,0.3726943069263756,0.3233038380702124,0.2711060256009278,0.21805964261082672,0.1670677269257208,0.12158708338107875,0.08099074021998412,3.277063413633725,2.160804052227253,1.77226558778249,1.5622531457884212,1.4402235234421896,1.3536166218019743,1.2661650056845268,1.1723404347705226,1.072449691767751,0.9631575557205039,0.8436323366283796,0.7167222993379571,0.5877765500151751,0.46460713273898097,0.3445252105044531
0.0,15.0,15.0,0.0,120.0,0.0,-1.5131242274895058,-4.585053789829104,10.851057806253035,-107.0,0.0,-45.0,-1.6646634874423971,-3.702186258531004,0.5075897439445498,34.26675005680039,17.578289281573518,1.6460855756567632,0.9075110020527742,0.6856859473203258,0.5765763951400277,0.5179134266395324,0.47800203200578373,0.4383661725410567,0.39658112246306865,0.3530453376046339,0.3066634172579692,0.2576040644055874,0.20766390212203373,0.15954094683852035,0.11648438627083786,0.07789744339463431,3.305316735347844,2.1679132781875774,1.7535405407360627,1.5211689270774738,1.3878659472627235,1.3003160300897463,1.215697371182229,1.12583555233461,1.0304499235887643,0.9261944646232414,0.8121810757832874,0.691038417507036,0.567785942655757,0.4498232511986537,0.33450480687494116
0.0,16.0,16.0,0.0,120.0,0.0,-0.38359959915650776,0.61389135676691,-6.514570299568172,-107.0,0.0,-45.0,-4.060203805288403,-1.1780628732878995,-4.639484090360827,34.26675005680039,17.578289281573518,1.6623414382076147,0.9100536037848199,0.6749135163450323,0.5553905318675295,0.49225268451881576,0.45265543629566096,0.41496551512417146,0.37559070060689254,0.3346576897829276,0.29106248621401265,0.2449163572784545,0.19786725601032149,0.15242354364400545,0.11163995411186454,0.0749464710856436,3.333562069349401,2.1780483036223255,1.7403028149065456,1.48557689336274,1.339558277347347,1.2500742691538538,1.1678935488890023,1.0817239839645205,0.9905676551908302,0.8910506959334297,0.7822309132074019,0.6665321781647499,0.548665462965729,0.4356417575359329,0.32485779816894705
0.0,17.0,17.0,0.0,120.0,0.0,2.763667021306448,0.10310123043456088,-5.289586542148157,-107.0,0.0,-45.0,3.167999383423677,-0.47759091725310654,-0.2776827267613813,34.26675005680039,17.578289281573518,1.678700743214695,0.9141577596011226,0.6669371754525519,0.5370273466207084,0.46880294988823823,0.42908477867111927,0.39311606783501385,0.3559617165718467,0.31743710836707484,0.2764255040153323,0.23298583365760775,0.18862962076963422,0.14568969525667347,0.10703864302504285,0.07213024203504906,3.361760696435682,2.1905151856026683,1.7318310358953906,1.4551327386012236,1.295194125455936,1.2027591935426085,1.1225959392400398,1.0398602615191208,0.9526758451311059,0.8576194349976041,0.7536962621008108,0.6431389905219242,0.5303697511787105,0.42203322367395363,0.3155674836541623
0.0,18.0,18.0,0.0,120.0,0.0,8.889629584782853,12.444148214453534,-9.450575196963609,-107.0,0.0,-45.0,-0.23805795155908616,-2.170154030674718,1.506668082476522,34.26675005680039,17.578289281573518,1.6951471545613748,0.9194678362087184,0.6613698187032525,0.5212607629563111,0.4474417174712944,0.40717075483312604,0.372700731657524,0.3375915004278569,0.3012973374301864,0.26268315452499996,0.22175995364528742,0.17991394682601242,0.1393154197333452,0.1026663109843262,0.06944162992250995,3.3898940067050227,2.204751339927688,1.7274539501494244,1.4294661746914132,1.2546553968616914,1.1582539720016296,1.079660314935944,1.0001092652479986,0.9166562200863053,0.825801067931273,0.7264971435892846,0.6207983396622186,0.5128561708087283,0.40896987857948736,0.306618024157768
0.0,19.0,19.0,0.0,120.0,0.0,2.839468293456129,-9.174480655836526,-10.443066072994428,-107.0,0.0,-45.0,-1.6719377227948087,-3.0757973845577924,-3.8878857862434666,34.26675005680039,17.578289281573518,1.711673378011695,0.925698778500265,0.6578593622060037,0.5078664028470355,0.42805059594047046,0.3868062164479428,0.353613239348262,0.32038623632463886,0.2861593647774479,0.24977177537557407,0.2111903080500766,0.17168596353698926,0.1332784298771903,0.09850974445881357,0.06687393322509205,3.417955634430851,2.2203077199537047,1.7265591179164517,1.4081932024038866,1.217810241590558,1.1164538151071561,1.0389550546982302,0.9623454644897939,0.8823986061780323,0.7955026402301671,0.7005587759758106,0.5994534985370491,0.49608462531837033,0.3964255035701242,0.29799439220202023
0.0,20.0,20.0,0.0,120.0,0.0,-6.742651740309011,8.91678065946352,5.595362294729696,-107.0,0.0,-45.0,-3.3650721434006847,-3.0631986256583517,-0.048672699835253574,34.26675005680039,17.578289281573518,1.7282775456044641,0.9326253943036266,0.656090219960919,0.49662506135222667,0.41051406141579583,0.3678943592872629,0.33575716068970257,0.3042601250350655,0.271950745069396,0.23763284450284472,0.20123225715898133,0.16391394765711687,0.12755800039782508,0.09455659091111905,0.064420847247144,3.445946458531982,2.2368312290005328,1.7285968463089785,1.3909268032527546,1.1845128819577062,1.0772628517342895,1.000360323919927,0.926452239560191,0.849800316039468,0.7666373600376177,0.6758111969269676,0.5790512622867549,0.4800173883558868,0.38437533489438197,0.28968232530703875
0.0,21.0,21.0,0.0,120.0,0.0,6.951503616429665,-24.0551110338943,13.700257254493543,-107.0,0.0,-45.0,-4.883818101473958,-3.0814423246822216,-1.0269248389258943,34.26675005680039,17.578289281573518,1.7449609552256973,0.9400722841314907,0.6557831398743682,0.48732560415343185,0.3947188507147496,0.3503470888522217,0.3190449844545194,0.28913463832322067,0.2586049925562421,0.22621251794947486,0.19184460416503804,0.15656851293204727,0.12213484645633056,0.09079529664888131,0.062076438152745404,3.4738714900532264,2.2540482838158353,1.7330806746755074,1.3772857223763022,1.1546048160129185,1.0405913337634214,0.9637671858051295,0.8923212757426983,0.8187655868211428,0.739124142198936,0.6521889157367119,0.5595417030256052,0.4646189464741121,0.37279597303851486,0.28166828224464147
0.0,22.0,22.0,0.0,120.0,0.0,-9.033061635219982,21.64923231258397,-5.702371608084709,-107.0,0.0,-45.0,-2.323650497019245,8.66755631152861,-1.2904995331006255,34.26675005680039,17.578289281573518,1.7617266866238825,0.9479047406636854,0.6566938800023355,0.4797672183825885,0.38055381879672473,0.3340835898134352,0.3033972643263828,0.2749378540638874,0.24606103565411488,0.2154612133881332,0.18298929963820487,0.14962241873356957,0.11699101254064027,0.08721504957224224,0.05983511884664345,3.501737975947305,2.271750039826592,1.739585461089775,1.3669013145103157,1.1279169199089618,1.0063532819896936,0.9290766466118909,0.8598520180312116,0.7892050651888083,0.7128871895168812,0.6296305930847529,0.5408779433916406,0.4498558533369858,0.3616652982577417,0.27393940204227263
0.0,23.0,23.0,0.0,120.0,0.0,8.037766741734732,12.134006955803443,-11.755635400160909,-107.0,0.0,-45.0,4.597244275651809,-3.1298607197795487,2.3270553312357656,34.26675005680039,17.578289281573518,1.7785787726153433,0.9560207734987728,0.6586111054352748,0.47376103265239594,0.36791010407007785,0.31902910947099683,0.2887418216529355,0.2616038618371556,0.23426272660858846,0.20533323444899126,0.17463117383482984,0.14305039586911084,0.11210977072115882,0.0838057264016639,0.0576916265620091,3.5295542705343887,2.289779507240648,1.7477438778595733,1.3594225998652436,1.1042720430729236,0.9744646233844999,0.896198653608962,0.8289511742265916,0.7610353359725326,0.6878556078956942,0.6080787459554865,0.5230159473097873,0.4356965945040888,0.3509623918695722,0.26648346555023816
0.0,24.0,24.0,0.0,120.0,0.0,-0.2466522330255181,15.927222491612774,8.239272511540456,-107.0,0.0,-45.0,-1.140893438091358,4.625589323075783,-1.1024508850914092,34.26675005680039,17.578289281573518,1.7955217147671252,0.9643442965037008,0.6613537997639729,0.4691311688641535,0.3566814736122835,0.3051139513639771,0.2750130019921297,0.24907222962105904,0.2231584003412036,0.19578643149535943,0.16673769399963123,0.13682898789521145,0.10747552743008477,0.08055784400806612,0.05564100202492072,3.557329181355836,2.308020595598379,1.7572419247015352,1.3545197611942998,1.0834877790953792,0.9448418187363561,0.8650510732070963,0.7995322543149781,0.734178491446655,0.6639630523434581,0.5874794756038043,0.5059143265507114,0.42211146196126414,0.3406674628836067,0.2592888593989533
0.0,25.0,25.0,0.0,120.0,0.0,5.722301984803266,-8.693362919743098,-14.415773159575027,-107.0,0.0,-45.0,0.9683703401232924,2.953212440522641,-3.3605528376991636,34.26675005680039,17.578289281573518,1.8125602083353838,0.9728194358689074,0.6647684145900921,0.4657153087551704,0.3467647507140116,0.29227266453616885,0.26215098492018263,0.23728752322838237,0.2127004772753665,0.18678189498684375,0.15927874412928855,0.1309364064385737,0.10307373799170326,0.07746251450124611,0.05367857007613564,3.585071601875489,2.3263889994509435,1.76781391149601,1.3518863396179155,1.0653791836967095,0.9174009431800858,0.8355586798030964,0.7715151355490418,0.7085617382991332,0.6411474010949454,0.567782216646666,0.489534161790828,0.40907243763557727,0.3307617795755928,0.2523445421855078
0.0,26.0,26.0,0.0,120.0,0.0,6.698088400168654,-14.460900001331673,4.6400465715185994,-107.0,0.0,-45.0,-4.8621598225184846,-4.985178296470584,-2.2364824948961495,34.26675005680039,17.578289281573518,1.8296989915229989,0.9814058676617093,0.6687259246129317,0.463364862293987,0.3380602552053501,0.2804434070855548,0.2501011477196404,0.2261988712417103,0.2028451055137182,0.1782836780103659,0.1522264249435285,0.12535239918318825,0.09889082820608894,0.07451140376330771,0.0517999216404813,3.6127903136829853,2.344824762436562,1.7792372419464706,1.35124037914558,1.0497612887632581,0.8920571597348029,0.8076521843941061,0.7448256449171333,0.6841170392743557,0.6193504554092107,0.5489395055272602,0.4738388369918223,0.3965530851969665,0.32122760564419384,0.24564001274043176
0.0,27.0,27.0,0.0,120.0,0.0,7.363587891851985,17.351720239651186,-12.886779047682886,-107.0,0.0,-45.0,2.4551292687542627,3.3187151155666523,-4.289784502715931,34.26675005680039,17.578289281573518,1.8469427668439937,0.9900750669407831,0.6731189116992848,0.46194482016341654,0.3304722106524014,0.26956745911742,0.23881348369999725,0.21575956932660087,0.19355183821830166,0.1702585449512461,0.14555487205298168,0.12005812932007777,0.09491412235600256,0.0716966931417,0.05000089694309823,3.640493886378991,2.3632863180966655,1.7913272371192697,1.3523247450436024,1.0364513240587874,0.8687245154349875,0.7812673274890307,0.7193951532781924,0.6607807863448083,0.5985176628730295,0.5309067667467539,0.45879388602185844,0.3845284495069475,0.312048140617125,0.2391652803363781
0.0,28.0,28.0,0.0,120.0,0.0,2.1792428691635237,-3.7178892859616113,-7.047959558523782,-107.0,0.0,-45.0,3.3157877210114517,-0.9216852831757105,-2.5513186415925917,34.26675005680039,17.578289281573518,1.864296163204326,0.9988073402564446,0.6778587663882115,0.46133336345687376,0.3239090910866448,0.2595888593994247,0.22824207537889182,0.20592671887774044,0.1847833424545081,0.1626757436232907,0.13924009052757838,0.11503606537923201,0.09113177706716712,0.06901104404168233,0.04827756987984202,3.6681906321797766,2.3817457929214965,1.8039321667764157,1.3549068098155543,1.0252706053534217,0.8473159880182224,0.7563440546963273,0.6951601779781332,0.6384935021670336,0.5785978622892332,0.5136421153915863,0.44436685053549513,0.37297496312743966,0.3032074641990632,0.23291083671012017
0.0,29.0,29.0,0.0,120.0,0.0,-9.544438443398581,11.640159771106788,-0.1759693152249131,-107.0,0.0,-45.0,-4.296456351030569,-6.616734827681794,3.552847353535501,34.26675005680039,17.578289281573518,1.8817637202661703,1.0075895145593072,0.6828730674269682,0.461421293239638,0.318283893681097,0.25045414111869696,0.21834462188329037,0.19666089592252073,0.17650513612178864,0.1555067984819227,0.13325980425885356,0.11026988047305825,0.08753272050633093,0.06644756518093371,0.04662623345650874,3.6958885901603638,2.400185361983675,1.8169286013336154,1.3587776686807296,1.01604608095906,0.8277437155454124,0.7328257867650068,0.6720619929701976,0.6171995665621999,0.5595430484395542,0.4971061746061369,0.43052714821569177,0.36187035935084394,0.2946904842776434,0.2268676297784661
0.0,30.0,30.0,0.0,120.0,0.0,-7.582429853433199,13.335946779993549,1.6287617579583653,-107.0,0.0,-45.0,2.1625254420322895,1.3993303313341539,1.3420619300580334,34.26675005680039,17.578289281573518,1.899349884545766,1.0164131640860061,0.6881031777024575,0.4621113323712111,0.3135143333891576,0.24211214446443213,0.20908201895976838,0.1879258470361914,0.16868534992399273,0.14872532281135534,0.12759331867773088,0.10574436007857954,0.0841065964502547,0.06399978228979458,0.04504338621827461,3.723595525880685,2.4185944635090415,1.8302171544232304,1.3637510171364624,1.0086115504812194,0.8099193493132459,0.7106587896238696,0.6500462471794877,0.5968469648559623,0.5413081551817828,0.4812619067740702,0.4172459505594533,0.35119359125630123,0.28648288832567537,0.22102703893694706
0.0,31.0,31.0,0.0,120.0,0.0,-8.335201450376575,-16.014044036577207,-8.249404491298403,-107.0,0.0,-45.0,4.597898468736922,5.6552254593054805,-3.449342006040197,34.26675005680039,17.578289281573518,1.9170590113784267,1.0252732695103135,0.6935020773065829,0.4633173426870011,0.30952296184149874,0.2345138867290836,0.20041798907735522,0.17968820969871022,0.16129451163942615,0.14230684800942253,0.1222213955389283,0.10144531757292712,0.08084371280254303,0.061661610059468346,0.04352571959689669,3.751318938533917,2.4369677008126676,1.84371865283072,1.3696617976991903,1.0028085826202902,0.7937544800700094,0.6897916446073012,0.6290625930266968,0.5773870551157695,0.5238508554736432,0.46607445727817726,0.4044960694590773,0.34092475633714886,0.2785710979579026,0.21538085183791256
0.0,32.0,32.0,0.0,120.0,0.0,2.952978388113861,-21.17993210893293,-1.5267933816287922,-107.0,0.0,-45.0,3.0802916860261025,6.2672320996291795,0.21088531864866944,34.26675005680039,17.578289281573518,1.9348953695965359,1.034167218195245,0.699032440730535,0.4649634925447537,0.3062372165663928,0.22761247380536023,0.1923187583637484,0.1719172550482785,0.15430535023984474,0.13622866829601157,0.11712613861652492,0.09735951681462167,0.07773499417467528,0.059427326157620815,0.04207010610883654,3.779066071433301,2.455303284531083,1.8573707451913548,1.3763647014209823,0.9984871654831111,0.7791610975113341,0.6701748148148854,0.6090643276819584,0.5587743516172321,0.5071313770168984,0.451511009808785,0.39225185189435596,0.33104502628127913,0.2709422264191334,0.20992124255184974
0.0,33.0,33.0,0.0,120.0,0.0,9.847190776009711,-24.409478251412004,1.2540379294354622,-107.0,0.0,-45.0,0.5200288260433572,-7.361316423797552,0.02377621592923873,34.26675005680039,17.578289281573518,1.9528631472928089,1.0430940691262482,0.7046649547644941,0.4669834028429019,0.30358940857133054,0.22136304005802593,0.18475277658099548,0.1645846513748038,0.1476926176797871,0.13046969934714747,0.11229088927431148,0.09347460113273465,0.07477193818312267,0.05729154714637797,0.04067358834268948,3.8068439237057343,2.473601892502384,1.871124941935839,1.38373259194559,0.9955061251035489,0.7660520524353532,0.6517603004738048,0.5900080498300035,0.5409663222259882,0.49111233229312556,0.4375406522843348,0.38048908210825844,0.3215365815198611,0.26358403879763437,0.20464075102235532
0.0,34.0,34.0,0.0,120.0,0.0,5.988593938658616,-4.7252738446846365,9.9249897290697,-107.0,0.0,-45.0,-1.1050874114575637,-5.346930972343555,-0.3172331329798439,34.26675005680039,17.578289281573518,1.970966457872356,1.052054020000076,0.7103768661091371,0.46931929379051757,0.3015166570757657,0.2157227063848504,0.17769047602665175,0.1576642469691704,0.1414329264320189,0.12501034951056278,0.10770013098091384,0.08977902814818078,0.07194657514645071,0.05524920615184465,0.0393333686790256,3.834659262165771,2.491865847404202,1.8849440654771508,1.3916549051811253,0.9937333472842165,0.7543414992756474,0.6345013741775279,0.5718533345902183,0.5239231977658749,0.4757585618255879,0.4241342525343955,0.36918489069005417,0.3123825501907196,0.2564849147733214,0.199532263731381
0.0,35.0,35.0,0.0,120.0,0.0,-5.808219591040129,-1.3358110622388075,12.99896891096677,-107.0,0.0,-45.0,0.46073779782317104,2.3798305284651438,-3.2278458714116987,34.26675005680039,17.578289281573518,1.989209346031929,1.0610480263920732,0.7161507425459273,0.4719211497967522,0.29996078015713734,0.21065054875306904,0.17110406512329757,0.1511318711249689,0.13550460107982884,0.11983240239365817,0.10333940193472033,0.08626200990706484,0.06925143089522039,0.053295532147098194,0.038046799690127614,3.8625186329141816,2.5100985324837084,1.8988000806040872,1.4000360655861774,0.9930458356172474,0.7439453037788288,0.6183523858103287,0.5545624288528794,0.5076077918291175,0.4610369895572953,0.41126434297445347,0.35831767003663045,0.3035669511910989,0.2496338137246229,0.19458899549710004
0.0,36.0,36.0,0.0,120.0,0.0,8.221911589547801,4.626707983826943,13.170406488531455,-107.0,0.0,-45.0,-1.1291145485902696,1.9221952342758648,0.37137702865613154,34.26675005680039,17.578289281573518,2.007595793521202,1.0700775336579544,0.7219734283491387,0.4747459157051306,0.29886814958464825,0.2061075715720287,0.1649673525019661,0.14496515220125486,0.12988754249086337,0.11491890973418353,0.09919521504845943,0.08291345785580902,0.06667949243359336,0.05142603072231129,0.03681137517113553,3.890428372484247,2.5283039830407525,1.9126722696531449,1.4087939501148796,0.9933296354316221,0.73478140631251,0.6032686266530328,0.5380999687613116,0.49198532984549986,0.44691648928937944,0.3989050135731348,0.34786699570527435,0.29507464102048864,0.24302024203114028,0.18980447233203432
0.0,37.0,37.0,0.0,120.0,0.0,3.557542673311291,22.432001479564498,-4.533410191061964,-107.0,0.0,-45.0,4.882630875157112,-4.709056087308934,-2.2634821868816832,34.26675005680039,17.578289281573518,2.026129724641356,1.079144291200594,0.7278351730618857,0.4777567341028356,0.2981895173877104,0.2020566819468337,0.15925559755706173,0.13914335171887315,0.12456310328908475,0.11025409357038846,0.09525498461896441,0.0797239322325015,0.06422417621511238,0.049636466226267335,0.03562472175777514,3.9183946184853355,2.5464866057356037,1.9265457145114862,1.4178584226539763,0.994479649986192,0.7267701357568294,0.5892062424172776,0.5224327204698995,0.47702328654824805,0.43336776118034975,0.3870318124761408,0.3378135532101742,0.2868912641380591,0.23663422242130175,0.18517251529406542
0.0,38.0,38.0,0.0,120.0,0.0,-8.322143481167544,-8.498181041443924,-3.750470562146578,-107.0,0.0,-45.0,2.2420380237866313,9.921404604134885,-3.3419257907720756,34.26675005680039,17.578289281573518,2.044815011478362,1.0882502260450362,0.7337289124390731,0.48092223049154875,0.29787982088217735,0.1984626621843967,0.1539453837152507,0.13364721349614456,0.11951397351091764,0.10582325682287748,0.09150695907508917,0.0766845954890658,0.06187929881644833,0.047922845173202555,0.034484591089257874,3.94642331974469,2.564650989479812,1.9404100471810826,1.427169955007118,0.9963993718157766,0.719834472291339,0.5761221856048746,0.5075293447027797,0.4626912312441904,0.42036321736752824,0.3756216537071315,0.32813906985065305,0.2790032065810087,0.2304662652253903,0.18068722526750272
0.0,39.0,39.0,0.0,120.0,0.0,8.392232861180954,-21.281700238834134,10.49572924546315,-107.0,0.0,-45.0,-1.7134517138075833,1.3921933990846505,1.4344162909568823,34.26675005680039,17.578289281573518,2.063655478882969,1.0973973584913619,0.7396496809580878,0.4842158506408573,0.2978979720451753,0.19529213893822484,0.14901451098558943,0.12845882684600232,0.11472407547924916,0.10161270148664238,0.08794015925687095,0.073787169394951,0.059639049812158916,0.046281400817732715,0.033388852478039625,3.9745202459650915,2.5828017809404447,1.9542584319126661,1.436678344904559,0.9990005489321282,0.7139002598098781,0.5639741984912937,0.4933601850730895,0.44896068051064697,0.40787687583780197,0.36465273141502846,0.318826251192216,0.2713975526100908,0.22450734140456804,0.1763429686156753
0.0,40.0,40.0,0.0,120.0,0.0,-3.9872994838950993,1.5959668245970455,14.312819859326115,-107.0,0.0,-45.0,-1.9832820617818148,0.9352886234541913,-0.4874864221547712,34.26675005680039,17.578289281573518,2.0826549092123603,1.1065877471654675,0.7455941365334083,0.4876152524005859,0.29820663633744743,0.19251354813175764,0.1444419047147526,0.12356150286608605,0.11017846705571153,0.09760965370992401,0.08454432173254631,0.0710238955055835,0.0574979666709547,0.04470857880862994,0.03233548605101241,4.002690996918994,2.6009436048991597,1.968086744292855,1.446341536960768,1.002202802673985,0.7088963703530233,0.5527208190708022,0.4798970796270848,0.43580495810195674,0.39588426174474767,0.3541044401800442,0.3098587218519312,0.2640620441668068,0.21874885723593912,0.17213436365047094
0.0,41.0,41.0,0.0,120.0,0.0,-0.27423587482032374,5.798361040052601,10.909308206766479,-107.0,0.0,-45.0,-2.6372152605702546,7.0086007343911625,-1.8206906086477637,34.26675005680039,17.578289281573518,2.1018170468474486,1.1158234542770666,0.7515601797109251,0.49110175257780303,0.29877200534412723,0.19009709534148622,0.14020753783722747,0.11893966286275917,0.10586325253930697,0.09380219510772127,0.08130984670776156,0.06838749870812624,0.05545091150973742,0.043201023839547756,0.031322576329331504,4.030941011198283,2.6190810152145487,1.9818929157226834,1.45612454882543,1.0059332114207018,0.7047548240038325,0.5423214033856122,0.46711319466714146,0.4231990619589308,0.3843623154421787,0.3439573009283876,0.30122097026787076,0.25698504294336866,0.21318263054243886,0.1680562678679359
0.0,42.0,42.0,0.0,120.0,0.0,-5.003987159656019,-9.058079904597705,-11.025664057825075,-107.0,0.0,-45.0,1.485512637962242,2.932162003620517,-0.38293429319225414,34.26675005680039,17.578289281573518,2.1211456024979283,1.1251065245244214,0.7575466514748106,0.4946598281473231,0.2995635669486225,0.18801471169541642,0.1362923642689345,0.1145787379639792,0.10176550056988873,0.09017919972252693,0.07822775012386497,0.06587115358354942,0.05349304955596744,0.041755567221466845,0.030348306216522437,4.059275574536847,2.637218466269739,1.9956764151317128,1.4659985018580277,1.0101258721253357,0.7014108682914484,0.5327361587271277,0.4549828795885241,0.4111195382810946,0.37328930657807985,0.33419289203863756,0.29289829715826315,0.25015549488183625,0.2078008683643593,0.16410376590247164
0.0,43.0,43.0,0.0,120.0,0.0,8.157886133544125,8.990574218258551,-4.745435088988588,-107.0,0.0,-45.0,-1.0601338768229915,-3.4485044913147522,-4.799014976448311,34.26675005680039,17.578289281573518,2.140644257305853,1.1344389730356712,0.7635530957307449,0.49827667002420867,0.30055387616877344,0.1862400055888061,0.13267826143189196,0.11046507899663328,0.0978731684704026,0.08673027610387088,0.07528961958018973,0.0634684533478984,0.05161982918189672,0.04036921530773659,0.029410951366754905,4.0876998277220045,2.655360297838684,2.0094378432779707,1.4759397534016439,1.0147214496598373,0.6988030214097172,0.5239261831993447,0.44348154123449934,0.3995443626521363,0.36264475366605464,0.32479378525229086,0.28487676740001305,0.2435628969326959,0.20259614597671066,0.160272158155341
0.0,44.0,44.0,0.0,120.0,0.0,6.299905414909933,-7.164574969086075,0.7111347076587329,-107.0,0.0,-45.0,4.364473659038456,8.41778065345332,2.8947794065400068,34.26675005680039,17.578289281573518,2.1603166667576437,1.1438227791599693,0.7695795744290023,0.5019417868476083,0.3017183292644588,0.18474821067009017,0.12934798020961139,0.10658587573225488,0.09417503252432977,0.08344571403185223,0.07248757374924507,0.06117338115720388,0.04982696338591707,0.039039138708149686,0.02850887490723286,4.116218774110414,2.6735107285207063,2.023178618408844,1.4859291260475147,1.019666722263756,0.6968730835827717,0.5158535080451315,0.4325855361262188,0.3884528282111557,0.35240934862193224,0.31574348602752295,0.2771431650781559,0.23719726591595897,0.19756138716353788,0.15655695005616183
0.0,45.0,45.0,0.0,120.0,0.0,2.3301579546486177,-9.551592257625252,-8.362665570252634,-107.0,0.0,-45.0,-1.9792661502667785,0.5652587459833285,-3.446977580615629,34.26675005680039,17.578289281573518,2.1801664644141234,1.1532598839439763,0.7756265250871167,0.5056466556732947,0.3030349432644646,0.18351613063189834,0.12628510091351822,0.10292908464067774,0.09066062373648638,0.08031643545847096,0.06981422498423788,0.05898028357998723,0.048110412606976745,0.03776266223359782,0.027640522490570817,4.14483728676431,2.6916738544759484,2.0369007352784445,1.4959512280860163,1.024914129914246,0.6955661207740478,0.5084811399408009,0.42227207884759094,0.3778254408438421,0.3425648858196014,0.3070263779995832,0.2696849514779901,0.2310491093395523,0.19268984566661895,0.15295384191879463
0.0,46.0,46.0,0.0,120.0,0.0,-4.830147727623022,-20.080050751932667,-0.06467353605286341,-107.0,0.0,-45.0,0.5661651923327629,4.691975739935618,4.090608673857318,34.26675005680039,17.578289281573518,2.2001972654681063,1.1627521898517588,0.7816946521188645,0.5093844161141279,0.3044841426510076,0.1825220813756078,0.12347399408818167,0.09948336433326295,0.08732016866815981,0.07733394928451316,0.06726264484575332,0.05688384605891301,0.04646636876767099,0.036537255517499034,0.026804417654771595,4.173560115224331,2.7098536513064504,2.050606582456531,1.5059938585555086,1.0304213311573678,0.6948304246983085,0.5017731011584335,0.41251916484969126,0.36764382133528484,0.33309419528126244,0.2986276712338715,0.26249022581000303,0.22510939804054206,0.18797508773183752,0.14945871935558733
0.0,47.0,47.0,0.0,120.0,0.0,-3.7641933410733213,3.9061322465258,-3.9278843740129155,-107.0,0.0,-45.0,-3.139613628689787,-0.6787360185287419,-1.9148545152033956,34.26675005680039,17.578289281573518,2.2204126701390328,1.1723015617882204,0.7877848448495616,0.5131496042720333,0.3060485545768616,0.18174583111873344,0.12089978519771948,0.09623801792458181,0.08414453497321721,0.07449030962933376,0.06482633229912506,0.05487907019908405,0.04489124045044226,0.035360524264465405,0.025999157470055774,4.2023918919355125,2.72805397769474,2.0642988054833076,1.5160474898577818,1.0361507728314427,0.6946174528017836,0.49569446608086887,0.40330550597235276,0.35789061438554715,0.32398107967240475,0.29053335397906255,0.2555476884744478,0.21936954052464017,0.18341097568199644,0.14606764421631485
0.0,48.0,48.0,0.0,120.0,0.0,3.3467960518711273,-3.6315962375510047,-12.13092612490272,-107.0,0.0,-45.0,-4.557011218101539,-7.406871513802282,-2.370894578003131,34.26675005680039,17.578289281573518,2.240816266914151,1.1819098288288254,0.7938981163883491,0.5169379227420758,0.30771281366760855,0.18116853899418456,0.11854832241900577,0.09318294159237257,0.08112518129174458,0.07177807728642269,0.06249918435631665,0.05296125273486521,0.04338163911931991,0.034230202080582785,0.02522340845329134,4.231337138343222,2.746278579931136,2.0779802057110213,1.5261048207431072,1.0420692761495054,0.6948817515543761,0.49021139303788813,0.3946104770511817,0.34854940434524717,0.3152102548203893,0.2827301476479027,0.24884660668763436,0.21382135888852855,0.17899165244983284,0.1427768460203253
0.0,49.0,49.0,0.0,120.0,0.0,-5.934337172338726,11.441461297916554,9.052277841921729,-107.0,0.0,-45.0,-2.6287925147578086,-8.099432218814165,-4.1348856808290835,34.26675005680039,17.578289281573518,2.2614116356456275,1.1915787862877443,0.800035558638649,0.5207460430116425,0.3094633771762899,0.18077269265742676,0.1164061469217039,0.09030857866880299,0.07825411118326721,0.06919028408941946,0.060275468956330264,0.0511259660401594,0.04193436630691933,0.03314414284324465,0.02447590273214874,4.260400270675834,2.764531096805019,2.0916536666344983,1.53616039252111,1.0481476417714353,0.6955808660716197,0.48529115082331203,0.38641407207615647,0.3396046374847724,0.30676729351757764,0.27520546477278124,0.24237678230583537,0.20845706621802876,0.17471152700965717,0.13958271385245624
0.0,50.0,50.0,0.0,120.0,0.0,-0.38945997641163643,-0.5591786869873339,-8.392009372466376,-107.0,0.0,-45.0,-1.0578009950805067,1.4266020779576642,-0.405306359958713,34.26675005680039,17.578289281573518,2.282202350512742,1.2013101979066059,0.8061983096683639,0.5245714367010208,0.3112883510065316,0.18054204537761087,0.11446046514356957,0.08760587865018238,0.07552383080363027,0.0667203999415765,0.0581497998964465,0.04936904005885176,0.04054640169307069,0.032100313571768166,0.023755434442397763,4.289585605430534,2.782815064557682,2.105322101168302,1.5462102615744313,1.054360275771854,0.6966752387662339,0.4809021395624704,0.3786968684841652,0.331041550570243,0.2986385724055381,0.267947369701745,0.23612852169518087,0.20326924536282953,0.17056526065034971,0.13648178869520552
0.0,51.0,51.0,0.0,120.0,0.0,1.4184619601940813,-13.554546755594982,-5.115504410308407,-107.0,0.0,-45.0,-2.1514242387711837,-9.003529000131461,2.345338820097517,34.26675005680039,17.578289281573518,2.3031919828580545,1.2111057980418283,0.8123875304463118,0.528412232274224,0.3131773269006093,0.18046155304574402,0.1126991226750576,0.0850662605661137,0.07292731004905684,0.0643623022868464,0.05611711364323138,0.0476865455428014,0.039214892007494596,0.031096787763031587,0.023060856342932062,4.318897364578329,2.8011339217340456,2.1189884147059606,1.556251721595482,1.0606848377853972,0.6981280994283833,0.47701390583884734,0.3714399982948036,0.3228461054836895,0.29081122176639235,0.2609445418186583,0.23009260750730573,0.19825082899576668,0.16654775403643096,0.13347075617137039
0.0,52.0,52.0,0.0,120.0,0.0,-6.314063421004534,-8.843330665720323,13.369437196416001,-107.0,0.0,-45.0,-4.165896543303042,4.992464053247389,1.1820606872431885,34.26675005680039,17.578289281573518,2.3243841039060253,1.2209672937876184,0.8186043885979485,0.5322670940721805,0.3151212308987983,0.1805173114894308,0.11111057945311129,0.08268158020164328,0.07045794690835304,0.0621102478230976,0.05417264786736457,0.04607477849444911,0.0379371406944681,0.03013173915911824,0.02239107663421229,4.348339680503567,2.819491013855023,2.132655479928123,1.566283069394564,1.0671019120763068,0.699905348854328,0.473597152168879,0.3646251249303536,0.315004929595363,0.28327307807139845,0.25418624108833243,0.2242602722307972,0.19339508087123722,0.1626541350076162,0.13054643967302348
0.0,53.0,53.0,0.0,120.0,0.0,9.517084248532136,-16.82991183054567,2.8931810105374964,-107.0,0.0,-45.0,2.6940742536429143,6.1284207158993915,0.4892730941549486,34.26675005680039,17.578289281573518,2.3457822873721397,1.230896367006896,0.8248500473594539,0.5361351207688457,0.3171121830138326,0.18069649444112046,0.10968388603308933,0.08044410071649054,0.06810953478021159,0.05995884627768744,0.0523119215600951,0.04453024571985289,0.036710598282462495,0.02920343591649393,0.02174505596681551,4.377916600692617,2.8378895978810914,2.14632612024409,1.5763034086081762,1.0735947018257992,0.7019754378869697,0.47062374104481597,0.3582344246921032,0.3075052615730709,0.2760126391558649,0.2476622757439208,0.218623173397861,0.18869557820350677,0.15887974707064095,0.12770579385426192
0.0,54.0,54.0,0.0,120.0,0.0,-7.126143453851523,22.74811978219138,2.438045067859541,-107.0,0.0,-45.0,-0.06654739938706022,-6.329023760766981,1.5956078465896306,34.26675005680039,17.578289281573518,2.3673901119701464,1.240894676262131,0.8311256583322003,0.5400157606117382,0.31914336792756953,0.1809872924660482,0.10840866076280337,0.07834646625327925,0.06587623252742854,0.05790303608307702,0.05053071660168451,0.04304965140592683,0.035532853406341054,0.02831023514855515,0.021121804627723,4.407632092185572,2.856332846463887,2.1600030994865067,1.5863124861438596,1.0801487465508102,0.7043092434987732,0.46806669385678606,0.3522505719924999,0.3003349022971776,0.26901902190427696,0.24136297194948308,0.21317337033416636,0.18414619509136604,0.15522013854033861,0.1249458984665181
0.0,55.0,55.0,0.0,120.0,0.0,-5.0322895660444855,-20.26411917637652,-2.6585078043017614,-107.0,0.0,-45.0,-0.6478807251433967,8.93096543766281,-3.271293950007851,34.26675005680039,17.578289281573518,2.389211163824547,1.2509638586482288,0.8374323569759231,0.5439087410716728,0.32120891640419535,0.18137885311750096,0.10727506772603283,0.07638167817149247,0.0637525370538648,0.0559380618055534,0.048825060663616277,0.04162988464287961,0.034401624433916436,0.027450577815537842,0.020520379892841934,4.437490045803972,2.87482385199516,2.1736891160615746,1.5963105567116296,1.086751662254436,0.7068799433368358,0.4659001850644961,0.34665672756327287,0.2934821705400026,0.2622819223405958,0.23527914528536614,0.2079033023476528,0.17974108692086901,0.1516710522898468,0.1222639525166354
0.0,56.0,56.0,0.0,120.0,0.0,2.841489275445978,-22.93834680880325,-1.7575713688023633,-107.0,0.0,-45.0,-3.5906092503522036,-8.727917149235303,2.960114160260635,34.26675005680039,17.578289281573518,2.41124903879498,1.2611055315341335,0.8437712600432797,0.5478140107844452,0.32330379702367695,0.1818612225508533,0.10627379535680402,0.07454307358530443,0.061733258203307974,0.054059453193705705,0.04719121133676123,0.04026800781939466,0.03331475165250775,0.0266229839377152,0.019939883535051404,4.467494280166773,2.893365630467126,2.18738680021335,1.6062982712965996,1.0933929036552517,0.7096628899596924,0.46409953202364673,0.3414365289718325,0.28693586306446767,0.2557915780267875,0.229402073917912,0.2028057682592511,0.17547467568273653,0.14822841607252465,0.1196572687290958
0.0,57.0,57.0,0.0,120.0,0.0,-1.0526624426458966,22.672010479395325,8.323422887779671,-107.0,0.0,-45.0,3.570533727943115,-4.416963718357585,1.9107097224856062,34.26675005680039,17.578289281573518,2.4335073447187545,1.2713212942211485,0.8501434643642181,0.5517316919140735,0.3254237177686786,0.1824252887940035,0.10539603565197783,0.07282430592142947,0.059813495792174994,0.05226300572529563,0.04562564138718553,0.038961245824079685,0.03227018997465875,0.025826048109628446,0.019379459477816587,4.497648545506058,2.9119611251588484,2.2010987134141704,1.6162765859107953,1.100063547643373,0.7126354858242102,0.46264118088776196,0.33657408288090046,0.280685218798219,0.24953873267829332,0.22372347332786532,0.19787390718506603,0.17134163614554818,0.14488833338065255,0.11712326829496703
0.0,58.0,58.0,0.0,120.0,0.0,-6.464564251198032,-18.869433961283217,5.291680471279186,-107.0,0.0,-45.0,2.049554973314703,3.116132784197948,-1.7095393523953373,34.26675005680039,17.578289281573518,2.455989703577309,1.2816127295256199,0.8565500465467071,0.5556620412990668,0.32756503694591543,0.18306272684025415,0.10463346392982727,0.07121932724763334,0.057988618600269506,0.050544762541759304,0.044125025049924035,0.03770697599212381,0.03126600212540307,0.0250584352947423,0.018838291585085966,4.527956527293151,2.930613210161628,2.2148273491635675,1.6262466874167751,1.106756096959778,0.7157770599266414,0.46150268900759966,0.3320539585788406,0.2747198867454442,0.24351460290898055,0.21823547248380756,0.19310118048571145,0.1673368828299718,0.14164707480832356,0.11465947589122823
0.0,59.0,59.0,0.0,120.0,0.0,-6.407963792345641,-15.490536457378756,-4.543328162399581,-107.0,0.0,-45.0,-2.979556281119823,2.8078926711445042,-2.6917350766600903,34.26675005680039,17.578289281573518,2.478699753592014,1.2919814052926815,0.8629920632807951,0.5596054189574489,0.32972468288687407,0.18376594570030894,0.10397821909762561,0.06972237215363834,0.056254245155639794,0.04890099766897825,0.04268622527891861,0.03650271874108176,0.030300352276407892,0.02431887688144854,0.018315601578843283,4.558421849685166,2.9493246937544435,2.2285751346827936,1.6362099336359575,1.1134643029862132,0.7190687468629766,0.4606627042416935,0.3278611823905163,0.26902989730843957,0.23771084702044445,0.21293059135789458,0.18848135480416003,0.16345555773318704,0.1385010698880769,0.112263514955135
0.0,60.0,60.0,0.0,120.0,0.0,-2.182897917110722,24.119987081822373,-7.169548790626968,-107.0,0.0,-45.0,-3.0400158857103388,-8.212369710389613,-1.841716703525468,34.26675005680039,17.578289281573518,2.5016411512543852,1.302428875846509,0.8694705520234259,0.563562262721639,0.3319000818509863,0.1845280375227444,0.10342288440277687,0.06832794299397425,0.05460622616096147,0.04732820043128989,0.041306281878477166,0.0353461288441967,0.029371500095030624,0.02360616698273529,0.017810647076260917,4.58904807880145,2.968098321638218,2.2423444331448796,1.6461678053380306,1.120183006460548,0.722493368948603,0.4601009415757205,0.3239812326509184,0.263605636703893,0.2321195357519656,0.20780171969116082,0.1840084861187424,0.15969301875614983,0.13544689937278484,0.10993310319923255
0.0,61.0,61.0,0.0,120.0,0.0,9.321692957657593,-5.412065521717313,-10.149197898993211,-107.0,0.0,-45.0,-3.8619847338365942,2.637979586112941,-3.0728004528018396,34.26675005680039,17.578289281573518,2.5248175732954197,1.31295668338149,0.875986531908688,0.5675330679501435,0.33408909354477817,0.18534272886695488,0.10296046865064332,0.06703079632704484,0.05304062841979517,0.0458230609731436,0.03998240044812562,0.034234987293823016,0.02847779517879393,0.022919158963134595,0.017322719738955907,4.619838725838655,2.9869367800359496,2.256137546192863,1.6561218680530454,1.1269079948914116,0.7260353219244844,0.45979815742797675,0.32040003498676134,0.25843782417416117,0.2267331249081278,0.20284209692471014,0.1796769047429191,0.15604482878966955,0.13248128793620614,0.10766604835351755
0.0,62.0,62.0,0.0,120.0,0.0,-8.341809090018991,-7.976400395941074,-6.585647508855155,-107.0,0.0,-45.0,-1.669189582961458,4.118541065203612,-1.170128141122814,34.26675005680039,17.578289281573518,2.5482327185985043,1.3235663592977744,0.8825410047774019,0.5715183714198492,0.3362899536713885,0.18620433418916718,0.1025843878785603,0.06582593040651595,0.05155372013155649,0.044382456809467424,0.03871194207863597,0.03316719371127001,0.027617671848065104,0.02225676217775105,0.01685114352736007,4.650797250032757,3.0058426986644116,2.2699567165806616,1.6660737419556853,1.1336358754317053,0.7296804646756785,0.45973612199497504,0.31710395770538236,0.253517491710887,0.22154442978145786,0.19804529322125414,0.1754812012080392,0.15250674541829756,0.12960109726730112,0.10546024412206825
0.0,63.0,63.0,0.0,120.0,0.0,1.6203230374491362,0.5886726421107333,5.004746164663626,-107.0,0.0,-45.0,0.821018637969023,-6.947089669277069,0.28811676757030025,34.26675005680039,17.578289281573518,2.5718903100600192,1.334259425484042,0.8891349562556142,0.5755187386409523,0.3385012229342785,0.18710771158057907,0.10228844748014718,0.06470857360033128,0.050141957434022,0.043003440331770434,0.037492413742402274,0.03214075926286157,0.026789644271794925,0.02161793890927211,0.016395273053685322,4.681927061475782,3.0248186535821966,2.2838041308296604,1.6760250783426218,1.1403639619783075,0.7334160132968338,0.45989758996648783,0.3140798071363472,0.2488359660265094,0.2165466012876765,0.19340519150875873,0.17141621296969567,0.14907471120380172,0.1268033195349985,0.10331366634224584
0.0,64.0,64.0,0.0,120.0,0.0,8.702574593786668,3.0029371670910976,-4.553567278159971,-107.0,0.0,-45.0,1.4683826365975925,4.073574142920721,-2.008148644205029,34.26675005680039,17.578289281573518,2.5957940964016175,1.3450373955498336,0.8957693568367955,0.5795347539575335,0.3407217419354616,0.18804822077695887,0.10206682477730954,0.06367417362942376,0.04880197208171594,0.0416832272024056,0.03632145932619801,0.0311538000451476,0.0259923019030843,0.02100170148986079,0.015954492027398168,4.7132315237945575,3.043867169918278,2.297681921835011,1.6859775414613347,1.1470901752910767,0.7372304397575743,0.46026626991424185,0.3113148228099244,0.2443848525280913,0.21173310373131413,0.1889159704844175,0.1674770118823239,0.1457448445126005,0.12408507120161709,0.10122436933527947
0.0,65.0,65.0,0.0,120.0,0.0,7.702166468293239,-4.955788785729563,8.349277727746138,-107.0,0.0,-45.0,2.627432490012702,-1.941764862267954,-3.6308168809078136,34.26675005680039,17.578289281573518,2.6199478539377887,1.3559017760095375,0.9024451629402556,0.5835670129016718,0.34295059143052964,0.1890216834411538,0.10191405203963705,0.06271838753282405,0.0475305601575326,0.04041918557430035,0.03519685125879257,0.030204530905134853,0.025224305203115062,0.020407109595790417,0.015528211787539013,4.7447139566983605,3.0629907244850507,2.311592171383926,1.6959327946545115,1.1538129549643321,0.7411133753478105,0.46082679263368637,0.3087966723888933,0.24015602106699235,0.2070976941198604,0.18457208852290505,0.16365889239058834,0.14251343085391577,0.12144358716451455,0.09919048243774067
0.0,66.0,66.0,0.0,120.0,0.0,6.215013083438588,6.989603164817364,10.802173194435127,-107.0,0.0,-45.0,4.83602457372222,2.9643642221570836,-0.15596043082750022,34.26675005680039,17.578289281573518,2.644355388302236,1.3668540674199439,0.9091633179302847,0.5876161163592972,0.345187057428853,0.1900243457038309,0.1018249999524297,0.06183707227850713,0.04632467172345024,0.039208826077907884,0.03411648268990475,0.02929125966404341,0.024484381633565963,0.019833267703508146,0.01511586991657832,4.776377638401952,3.082191748279623,2.3255369125669385,1.705892489961313,1.1605311821348459,0.7450555190180523,0.46156467869417733,0.3065134462966752,0.23614159325685666,0.20263440294515778,0.1803682684379203,0.15995736038966726,0.13937691469760152,0.11887621520681266,0.09721020670402619
0.0,67.0,67.0,0.0,120.0,0.0,-5.613411548319178,17.324983108060763,3.379067624763273,-107.0,0.0,-45.0,-2.7488000637001386,2.2046811250811764,-4.638510201710021,34.26675005680039,17.578289281573518,2.6690205361363533,1.3778957654732242,0.9159247530885363,0.5916826661830803,0.34743060065644005,0.1910528429334231,0.10179486153553695,0.06102627595029391,0.04518140132418816,0.03804979252120679,0.03307836018062172,0.02841238171555307,0.023771321899139976,0.019279322696643446,0.014716928930872297,4.808225807930096,3.1014726288772345,2.33951813207529,1.7158582604678634,1.1672441118694188,0.7490485506726751,0.46246630542993816,0.3044536520064152,0.23233393117092094,0.19833751635163188,0.17629948305040924,0.1563681227099727,0.13633189174263746,0.1163804107392812,0.09528181177057445
0.0,68.0,68.0,0.0,120.0,0.0,4.926375603987873,8.641021028152373,-6.393065904841023,-107.0,0.0,-45.0,-2.4051218505425354,-3.8007108482561662,-0.7006917838923918,34.26675005680039,17.578289281573518,2.693947166742849,1.3890283620471564,0.9227303885372464,0.5957672619531192,0.3496808299298931,0.19210416669359934,0.10181913651571095,0.06028222945054685,0.044097979265130524,0.036939853252312214,0.03208059686870705,0.027566374971747666,0.02308397642317409,0.018744461614188152,0.014330875043092033,4.840261667309281,3.1208357127206323,2.3535377723849473,1.7258317148275284,1.1739513142393754,0.753085049423739,0.4635188735824217,0.30260620797294085,0.22872562724749776,0.19420155961213878,0.1723609415207483,0.15288707718501626,0.13337510160917232,0.11395373181657097,0.09340363287308946
0.0,69.0,69.0,0.0,120.0,0.0,0.5979659261534191,-20.858692254298433,-7.5608348823527685,-107.0,0.0,-45.0,3.0083103554579207,6.668324866352318,-2.1377772163874473,34.26675005680039,17.578289281573518,2.719139183707523,1.4002533462144493,0.9295811341140106,0.599870498641324,0.3519374790220003,0.19317563383558883,0.10189361615534727,0.0596013386665283,0.04307176359281703,0.035876893137711655,0.031121406075215997,0.026751795132034226,0.02242125204056662,0.01822790953077672,0.013957216992313141,4.872488383652107,3.140283307309453,2.3675977338320378,1.7358144334794414,1.1806526231570929,0.757158416769401,0.4647103737842366,0.3009604372032156,0.22530949524952915,0.19022128183367654,0.1685480764054887,0.1495103032641311,0.13050342092875283,0.11159383441202521,0.09157406800855362
0.0,70.0,70.0,0.0,120.0,0.0,8.165927517384677,6.878105070991069,10.175866108211128,-107.0,0.0,-45.0,-2.5944257230019896,1.5973228368935626,-1.621636123895632,34.26675005680039,17.578289281573518,2.7446005264919235,1.4115722052130357,0.9364778902005502,0.6039929649816215,0.35420038663180625,0.1942648576633347,0.10201436854037912,0.05898017705524271,0.04210023271277392,0.03485890611233087,0.030199095321548266,0.025967271252202412,0.021782108893397056,0.01772892756060396,0.013595484937727496,4.904909091139352,3.1598176832936336,2.38169987658654,1.7458079661840529,1.187348092118753,0.761262804623394,0.4660295530556866,0.2995060604715119,0.222078562140163,0.18639164181703496,0.1648565314021977,0.14623405313455268,0.12771385680896621,0.10929846793629662,0.08979157523431215
0.0,71.0,71.0,0.0,120.0,0.0,-0.4473008949193602,-3.967658578371779,9.458861003757356,-107.0,0.0,-45.0,-2.1747380982969524,8.574321978013813,-2.221878820490819,34.26675005680039,17.578289281573518,2.770335171999506,1.4229864253791875,0.9434215485087454,0.608135242386489,0.3564694791040914,0.19536972110160034,0.10217772432979494,0.0584154786075751,0.04118097858544386,0.03388398826059772,0.0293120607285306,0.025211501592545305,0.02116555751568666,0.017246810977115456,0.013245229412200658,4.937526892904551,3.179441076474955,2.395846022531785,1.7558138305693836,1.194037956066666,0.7653930480902396,0.46746588146715995,0.29823318919359565,0.21902606075133169,0.1827077949965262,0.16128214974845295,0.14305474331998305,0.12500354065025776,0.10706547098590809,0.08805467009693962
0.0,72.0,72.0,0.0,120.0,0.0,-3.875386178012114,5.3632188448923195,-11.404223009121285,-107.0,0.0,-45.0,-0.7640659846175035,9.168227461031616,-0.4120422890743294,34.26675005680039,17.578289281573518,2.796347136117834,1.4344974930453762,0.9504129928274606,0.6122979042821611,0.3587447555744508,0.19648835179078944,0.10238026296875974,0.05790413115764578,0.0403117004465044,0.03295033139043771,0.028458781771357307,0.02448324972557126,0.020570656094723208,0.016780887441149073,0.012906020332151356,4.970344862825632,3.1991556897208753,2.410037957057266,1.7658335114437123,1.200722598652458,0.7695446028542288,0.4690095191039814,0.2971323179801465,0.21614542313624202,0.1791650813882965,0.15782096324322653,0.1399689467252053,0.12236972229407181,0.10489276730874514,0.08636192318405038
0.0,73.0,73.0,0.0,120.0,0.0,4.792038443808195,-10.63525754017558,11.098526814080603,-107.0,0.0,-45.0,-1.111654230676813,-6.019794600955355,4.337126159788255,34.26675005680039,17.578289281573518,2.822640475239101,1.446106895404723,0.9574530997336366,0.616481515760963,0.36102627524625736,0.19761909902723326,0.10261879936672627,0.05744317000769104,0.039490199002934566,0.032056217064702464,0.027637816366242216,0.02378134088530293,0.01999650789726814,0.016330515330685774,0.012577446060438606,5.00336604722773,3.218963694794688,2.42427743077168,1.7758684606811754,1.2074025242481379,0.7737134870285057,0.47065128345495616,0.29619431689386505,0.213430274509523,0.1757590144782685,0.15446918186082098,0.13697338509859305,0.11980976448274988,0.1027783619742753,0.08471195779258732
0.0,74.0,74.0,0.0,120.0,0.0,-5.481554212621669,-10.80101388774401,-7.277101531321328,-107.0,0.0,-45.0,0.03311901183662336,-1.1719145941589222,1.4443778758288541,34.26675005680039,17.578289281573518,2.849219287761283,1.4578161213439251,0.9645427392708146,0.6206866334705723,0.3633141465344782,0.1987605124639568,0.10289037104119615,0.0570297718425431,0.03871437106084269,0.03120001105695195,0.026847796266486007,0.023104658541538325,0.01944225884980676,0.015895082165853072,0.01225911251917112,5.036593466501306,3.2388672341061087,2.438566161142367,1.7859200975281926,1.214078334115009,0.7778962272931621,0.4723826173314569,0.2954104234375435,0.21087442769048048,0.17248527098354544,0.15122318392917,0.13406492188646266,0.11732113761285658,0.10072033773701997,0.08310344770750198
0.0,75.0,75.0,0.0,120.0,0.0,-2.3993570481805975,-6.594498277589299,-9.51359329387896,-107.0,0.0,-45.0,3.158903100493781,0.5082423131319658,4.886776763761972,34.26675005680039,17.578289281573518,2.876087715572003,1.469626662246473,0.9716827755979609,0.6249138056773486,0.36560851783831805,0.19991132248439128,0.10319222572700262,0.056661248910999086,0.03798220454531407,0.030380158200756194,0.02608742274733645,0.02245214118368833,0.018907095262769163,0.01547400312325317,0.01195064234953831,5.0700301166392565,3.258868422386171,2.4529058340665206,1.7959898092121755,1.220750706199891,0.782089809137981,0.4741955574106393,0.29477223430208194,0.20847187797557806,0.16933968142397512,0.14807950684578616,0.13124055545518845,0.11490141476472175,0.09871685158255439,0.0815351150850998
