Line_number,Fiducial,Easting,Northing,Height,Elevation,tx_pitch,tx_roll,tx_yaw,txrx_dx,txrx_dy,txrx_dz,rx_pitch,rx_roll,rx_yaw,PX,PZ,S0X_time_1.086e-05,S0X_time_3.256e-05,S0X_time_5.426e-05,S0X_time_8.680e-05,S0X_time_1.411e-04,S0X_time_2.279e-04,S0X_time_3.689e-04,S0X_time_5.860e-04,S0X_time_9.115e-04,S0X_time_1.411e-03,S0X_time_2.192e-03,S0X_time_3.418e-03,S0X_time_5.339e-03,S0X_time_8.301e-03,S0X_time_1.338e-02,S0Z_time_1.086e-05,S0Z_time_3.256e-05,S0Z_time_5.426e-05,S0Z_time_8.680e-05,S0Z_time_1.411e-04,S0Z_time_2.279e-04,S0Z_time_3.689e-04,S0Z_time_5.860e-04,S0Z_time_9.115e-04,S0Z_time_1.411e-03,S0Z_time_2.192e-03,S0Z_time_3.418e-03,S0Z_time_5.339e-03,S0Z_time_8.301e-03,S0Z_time_1.338e-02
0.0,0.0,0.0,0.0,120.0,0.0,-0.9811927701564478,0.2594941081448481,0.8556027952777872,-107.0,0.0,-45.0,-0.48572042657698766,-0.5176441819741722,-0.21280856210078736,34.2899281565393,17.53971554092155,5.8829232890554595,3.3636566649064115,2.279379707466959,1.4791944107495274,0.8811064539377266,0.5042447298522978,0.27652174592177725,0.14841342026100368,0.07897453383258032,0.04077348054948392,0.020164603214862162,0.009553995868622512,0.004346705994358693,0.0018985898357280105,0.0006628267266386437,8.122262995820877,5.791168464253824,4.516066325214399,3.3872690646116546,2.375799519952849,1.603631339672163,1.041966008706721,0.6627150432086056,0.4166937413150116,0.2548899057642436,0.15015832456012823,0.08511295535460478,0.04648571483825272,0.024610839810989178,0.011894499394060922
0.0,1.0,1.0,0.0,120.0,0.0,0.48340289620559473,-0.46592497363459073,-0.2464474735466724,-107.0,0.0,-45.0,0.2559086830552193,0.2914246603711459,-0.45905924757151917,34.2899281565393,17.53971554092155,5.88246855411434,3.3537758470395063,2.25905659885899,1.453528603076522,0.8575831666395901,0.487736156344278,0.2670390321480296,0.14358490610910815,0.07665871238798704,0.039727820939139895,0.019721874481498074,0.009377016101971496,0.0042794499477859516,0.0018741360179123545,0.0006555409227895467,8.12193709362634,5.780678279728077,4.490315445227854,3.348369909241319,2.332537864600481,1.5666775384593488,1.0160630212737982,0.6466990645230712,0.4074414716852125,0.2498611959109852,0.1475872652208585,0.08386898988046733,0.0459126710535514,0.024357168591160928,0.011794566904662572
0.0,2.0,2.0,0.0,120.0,0.0,-0.2256960375215884,-0.4838766895941984,0.42664873027982986,-107.0,0.0,-45.0,-0.7101174116854381,-0.23984159372548963,-0.0792126409206646,34.2899281565393,17.53971554092155,5.882011414689239,3.3444135064071103,2.2400032670519012,1.429424490846185,0.8353516138833247,0.4720361682418225,0.2579769236627479,0.13895134893297637,0.07442687448269716,0.03871547840924922,0.019291271839478943,0.0092041355819755,0.004213498248294002,0.0018500735168444117,0.0006483271862169379,8.121607563713704,5.770650746109759,4.465911037531138,3.3114203458549647,2.291183749698405,1.5311390832199974,0.9910461173829761,0.6311832875484688,0.398451705742174,0.24495945950573353,0.14507267543549812,0.08264835015364723,0.04534868211812361,0.024106838672337556,0.011695667453082998
0.0,3.0,3.0,0.0,120.0,0.0,0.5157614173682938,-0.16875368608333763,0.20475601752047323,-107.0,0.0,-45.0,0.8609959462806216,0.14700138556213926,-0.7238866051951871,34.2899281565393,17.53971554092155,5.881545210747809,3.3354565151298265,2.2220404181490094,1.4067240779770493,0.8143164780164637,0.45709630685492453,0.24931247192931624,0.13450282445060216,0.07227512668172757,0.03773508399594397,0.01887236434532701,0.00903523026570282,0.004148817319765986,0.0018263941231557682,0.0006411860058754218,8.1212692381197,5.760982838449481,4.4426677428843675,3.276237638635304,2.251617027330772,1.4969495116533504,0.966878185854825,0.6161477650504615,0.3897147243657487,0.2401804731706704,0.14261291488666147,0.08145045703736424,0.044793558329270754,0.02385979206632382,0.011597788914917527
0.0,4.0,4.0,0.0,120.0,0.0,0.38544243223519903,-0.04246482696364873,-0.2721054422675553,-107.0,0.0,-45.0,0.5100874575652543,-0.5505235466559517,0.23927636092689375,34.2899281565393,17.53971554092155,5.881064357985626,3.3268113769162553,2.205012513358541,1.3852836862536373,0.7943882030605691,0.44287095222107414,0.24102426538111976,0.13023007470395595,0.070199817622848,0.036785344771949224,0.018464741878174474,0.008870181295848918,0.004085374828065625,0.0018030898698674766,0.0006341177275195815,8.120917733878567,5.751588968638355,4.420423837746006,3.2426535804392316,2.2137220607602983,1.4640443802452794,0.9435238502422948,0.6015736102525071,0.3812213045142138,0.2355202091688522,0.1402064098505,0.08027475157242225,0.044247115596421145,0.02361597220254085,0.011500919294905673
0.0,5.0,5.0,0.0,120.0,0.0,-0.04472013650908924,0.8351799637390487,-0.5442334699148361,-107.0,0.0,-45.0,-0.6986829016051945,0.354765300803187,0.0937182749092369,34.2899281565393,17.53971554092155,5.8805640027076365,3.3184001138546897,2.188784536567245,1.3649731450862335,0.7754829622430852,0.4293171436558563,0.2330922828791719,0.12612444716526003,0.06819751780364341,0.03586503818048169,0.01806801378073165,0.00870887469656728,0.004023139612011311,0.0017801530222721475,0.0006271225746546554,8.1205491905089,5.742397227832871,4.399037967311344,3.210513980094835,2.177388271740485,1.4323613361831389,0.9209493373235591,0.5874429141089547,0.37296268371071994,0.23097482278961748,0.13785164943549538,0.07912069398912701,0.04370917520630962,0.02337532387862649,0.011405046723726296
0.0,6.0,6.0,0.0,120.0,0.0,0.01726543161507066,0.35498293877835474,0.3707070512295605,-107.0,0.0,-45.0,-0.8046548533242468,0.8052526994138818,0.3461568297624362,34.2899281565393,17.53971554092155,5.880039788862869,3.3101571065079893,2.173239128014822,1.345674841332987,0.757522551272849,0.4163944272825408,0.2254977673257914,0.12217784086858634,0.06626500148817992,0.034973006898613816,0.017681807613512773,0.008551201093399342,0.00396208161982684,0.0017575760683687005,0.000620200665219919,8.120160094715619,5.7333465296438435,4.378386274102551,3.1796779074893613,2.1425104912177977,1.4018401871217379,0.8991223654116646,0.5737386710093985,0.364930527794269,0.22654064077813377,0.13554718209673974,0.07798776278366287,0.04317956360143746,0.023137793213404482,0.011310159455434262
0.0,7.0,7.0,0.0,120.0,0.0,-0.8195898945942584,-0.36004907260300123,0.8046636617090865,-107.0,0.0,-45.0,0.8525666480063043,-0.3308193233330792,0.27653328078964257,34.2899281565393,17.53971554092155,5.879487695439387,3.3020266521983745,2.1582740874052204,1.3272827107097767,0.7404342206597486,0.40406472227896595,0.21822311633230743,0.1183826586474155,0.064399230473444,0.034108154172136584,0.017305768010940362,0.00839705545501244,0.0039021718505883774,0.0017353517098186735,0.0006133520250498848,8.11974715946353,5.724384423811771,4.358359914541978,3.150016807576441,2.1089891466921444,1.3724229609491132,0.8780120494273408,0.5604447120239973,0.35711690158469117,0.2222141507063753,0.1332916124008066,0.07687545385348306,0.04265811217075435,0.022903327602035846,0.011216245865653968
0.0,8.0,8.0,0.0,120.0,0.0,0.29672037302148224,0.5311043509875291,-0.20300342065226817,-107.0,0.0,-45.0,0.9121071111627967,-0.8726769935950691,0.8479208161368428,34.2899281565393,17.53971554092155,5.878903919253345,3.29396106507505,2.1438002227086845,1.309701226136332,0.7241504613928106,0.39229219990676256,0.21125178725288357,0.11473176469269686,0.06259733949157602,0.03326943957110262,0.016939555629246275,0.008246336854633256,0.003843382300191176,0.0017134728533841047,0.0006065765989013753,8.11930723777421,5.715465410174129,4.3388629317535345,3.121413559882862,2.0767303186000614,1.3440539508195999,0.8575888199031383,0.5475456448940104,0.3495142421537123,0.21799199119454823,0.13108359801907613,0.07578327968682157,0.04214465705161808,0.022671875673208993,0.011123294450504993
0.0,9.0,9.0,0.0,120.0,0.0,0.281510165264095,-0.1146864487421222,-0.8070627205989012,-107.0,0.0,-45.0,-0.49731432313993573,0.8788261780363471,0.03429378962537877,34.2899281565393,17.53971554092155,5.878284787790463,3.285919186597115,2.129739509150154,1.2928444187184511,0.7086087575307657,0.38104317123320036,0.2045682142768124,0.11121844675679063,0.06085662305429439,0.03245587512139873,0.016582846177243874,0.008098948249272785,0.0037856859114000535,0.0016919326028210127,0.0005998742596376309,8.11883725917316,5.706549627740778,4.319810443506314,3.0937615344007057,2.045645695017594,1.3166797431468729,0.8378243533771497,0.5350268000513912,0.342115334431074,0.2138709429021548,0.12892184692976344,0.07471076860196983,0.041639038942208384,0.02244338724824119,0.01103129382614294
0.0,10.0,10.0,0.0,120.0,0.0,0.6316641688749927,0.1788032454164783,-0.4387847056242167,-107.0,0.0,-45.0,-0.6562682084539468,0.0980902325075943,-0.9750479029808947,34.2899281565393,17.53971554092155,5.877626692424323,3.27786520873888,2.1160235196324453,1.2766349528920038,0.6937513176030555,0.3702859808565823,0.19815773561730404,0.10783638242113285,0.059174523571741654,0.03166652177306163,0.016235329522052887,0.007954796275025799,0.00372905652757541,0.0016707242511949584,0.000593244816009686,8.118334181195689,5.697601826780276,4.301127102834371,3.0669636762473327,2.015652449973943,1.290249228019896,0.8186915119591063,0.522874182019841,0.33491328890669303,0.2098479202167425,0.1268051148109933,0.07365746403240159,0.04114110292364632,0.02221781330197529,0.010940232728799905
0.0,11.0,11.0,0.0,120.0,0.0,-0.9016618375445131,0.31259616367709575,-0.19869296072727516,-107.0,0.0,-45.0,0.37922799376696226,0.663557718454483,0.760663416421713,34.2899281565393,17.53971554092155,5.876926035759354,3.2697677371002767,2.1025920890333394,1.2610032673558633,0.6795247947282635,0.3599909049681472,0.1920065291444526,0.10457960892328914,0.0575486205999969,0.03090048617067258,0.015896708862737665,0.007813791056921092,0.00367346884970907,0.0016498412735971415,0.0005866880193541648,8.117794951081718,5.688590555940508,4.282745791422163,3.0409316384892855,1.98667306647476,1.264713592715892,0.8001642901830802,0.5110744256105633,0.32790152121762045,0.20591996357607098,0.1247322026090681,0.072622923854247,0.04065069829117061,0.021995105925376665,0.010850100015190382
0.0,12.0,12.0,0.0,120.0,0.0,-0.624452819225441,-0.34973960392171666,-0.18588469633528493,-107.0,0.0,-45.0,0.9874041048045974,0.8924026355244961,-0.758048200307492,34.2899281565393,17.53971554092155,5.87617918896442,3.2615990394010885,2.089392178090627,1.2458867867157344,0.665880003361446,0.3501300528003293,0.18610155508303466,0.10144249610521737,0.055976621090344084,0.030156917695215505,0.01556669996558372,0.007675846031951158,0.0036188983964350607,0.0016292773202283956,0.0005802035694392924,8.117216474479756,5.679487513973307,4.264606510083507,3.015584973619969,1.9586351213756474,1.2400262997487341,0.7822177675791235,0.4996147563811193,0.3210737334327124,0.2020842323662017,0.12270195426765226,0.07160671975295094,0.04016767839376451,0.021775218289729587,0.010760884663165821
0.0,13.0,13.0,0.0,120.0,0.0,0.3259168629801743,0.0012575341431897424,0.27535013705707834,-107.0,0.0,-45.0,-0.4844676697933583,0.7497400039991058,0.45838893550414905,34.2899281565393,17.53971554092155,5.875382456301977,3.253334438296725,2.0763769066368263,1.2312292043671949,0.652771638756939,0.3406772709930474,0.18043050463258348,0.09841972210123008,0.0544563505295186,0.02943500575028255,0.015245030455426743,0.007540877784077031,0.0035653214667243673,0.0016090262098332208,0.0005737911196398634,8.116595589050021,5.670267028415226,4.246655435370244,2.990850388216655,1.9314710457265423,1.2161430513174634,0.7648280656878219,0.4884829548767447,0.31442389686891065,0.19833799834392715,0.12071325460500745,0.07060843662626823,0.03969190048171034,0.021558104612354773,0.01067257577252781
0.0,14.0,14.0,0.0,120.0,0.0,0.10346524862972273,-0.7978730390615896,-0.7696995617833495,-107.0,0.0,-45.0,-0.27827961759647635,0.04075516605099283,-0.6051520109118067,34.2899281565393,17.53971554092155,5.874532044921701,3.2449518173843135,2.06350473006818,1.2169798343854137,0.6401580036559822,0.33160805071679617,0.17498175356968362,0.09550625143309936,0.0529857448740293,0.028733977268586047,0.014931439158037968,0.007408805890132059,0.0035127151050008106,0.0015890819234579277,0.000567450281565463,8.115929041543968,5.660905632924931,4.22884411590987,2.9666610614174993,1.9051178711983154,1.1930217422017555,0.7479723084999657,0.4776673242210129,0.307946236291291,0.1946786395372223,0.11876502732762786,0.0696276720210114,0.039223225561582906,0.021343720123764044,0.010585162565909627
0.0,15.0,15.0,0.0,120.0,0.0,-0.1702577553037019,0.6940889633336544,-0.774787039712022,-107.0,0.0,-45.0,-0.2802590495000721,0.9546213455493131,-0.7534006270325568,34.2899281565393,17.53971554092155,5.873624038555223,3.236431216630504,2.0507387367867413,1.2030930285580006,0.6280007453977046,0.32289943757304795,0.16974432006319862,0.0926973152222205,0.05156284319355722,0.028053094417409795,0.014625675489100464,0.007279552775672301,0.0034610570684497446,0.0015694385985169602,0.0005611806292447618,8.115213467384676,5.651381721850099,4.211128786208856,2.9429560254213527,1.8795169707005863,1.1706224031654489,0.7316285855254674,0.4671566606671456,0.30163521536493754,0.19110363458198115,0.11685623316972603,0.06866403560119617,0.038761518258236226,0.021132021036182898,0.010498634389671585
0.0,16.0,16.0,0.0,120.0,0.0,-0.9460697801980342,0.904833353210517,-0.6529134342380722,-107.0,0.0,-45.0,-0.06915129611306536,-0.12450045288537726,0.909491326523717,34.2899281565393,17.53971554092155,5.872654374129409,3.2277544989438245,2.038046047793932,1.189527653832153,0.6162646055952393,0.3145299443872571,0.16470782607549592,0.08998839326576123,0.05018578094874736,0.02739165248399355,0.014327498885762199,0.007153043579927943,0.0034103257963165987,0.001550090523142179,0.0005549817029364684,8.11444537206724,5.641675265682251,4.193469779271934,2.9196796047662494,1.854613799262978,1.148907136834784,0.7157759168819254,0.45694022676273166,0.2954855232406587,0.1876105574574914,0.11498586814894937,0.06771714864544214,0.038306646683382115,0.02092296451336635,0.010412980714747057
0.0,17.0,17.0,0.0,120.0,0.0,0.6680390106460774,0.8036772323380792,-0.6685334046556675,-107.0,0.0,-45.0,-0.47520016168953916,-0.5005427915557445,-0.9285785201473322,34.2899281565393,17.53971554092155,5.871618820574925,3.2189050737366163,2.0253973025997145,1.1762466250893602,0.6049171836875261,0.30647946704656287,0.1598624618401374,0.08737519775609502,0.0488527838375906,0.0267489779239028,0.014036678277182746,0.007029206029106881,0.003360500381024987,0.0015310321308083757,0.0005488530126306439,8.113621113893448,5.631767574845918,4.175831022472022,2.8967809103637507,1.8303576396209005,1.1278400478582211,0.7003942199461164,0.44700772681918305,0.2894920621687559,0.18419707258669296,0.11315296192962415,0.0667866435716686,0.03785848231038592,0.020716508641651806,0.010328191137412717
0.0,18.0,18.0,0.0,120.0,0.0,-0.4197442112763001,-0.9104927355196493,-0.6484812299246114,-107.0,0.0,-45.0,0.11781306386515711,0.7364575875906463,-0.9396010180026906,34.2899281565393,17.53971554092155,5.87051295928769,3.2098676664382033,2.0127662181592187,1.1632164881298355,0.5939287150386652,0.2987292035342589,0.15519895300243533,0.0848536584510617,0.04756216215229892,0.026124426557252035,0.01375299159081461,0.006907970317372398,0.0033115605409486373,0.0015122579952065727,0.0005427940412749612,8.11273688768668,5.621641102112392,4.158179603701101,2.8742133839296895,1.806701355660025,1.107387168961372,0.6854642772347739,0.4373492844127393,0.28364993604582334,0.18086093027058486,0.11135657628550281,0.06587216348727148,0.037416899854923434,0.020512612402176632,0.01024425537994133
0.0,19.0,19.0,0.0,120.0,0.0,-0.27042213677048754,0.7057473063223834,-0.9895497905241051,-107.0,0.0,-45.0,0.6632774320347534,0.7640422904504982,-0.10332324459791598,34.2899281565393,17.53971554092155,5.869332165828476,3.2006281252934707,2.000129209698834,1.1504070479201316,0.5832718637767502,0.29126157629128735,0.1507085300870207,0.08241990912734641,0.04631230559531216,0.025517381899263548,0.013476225291518377,0.0067892689949043605,0.003263486594714883,0.001493762825360351,0.0005368042477665061,8.11178870922174,5.611279276077945,4.140485396997,2.8519343884003905,1.7836011558703002,1.0875163843047877,0.6709677052781601,0.4279554216764394,0.27795443980912304,0.17759996242905252,0.10959580365476357,0.06497336176313473,0.03698177716119292,0.020311235644214727,0.010161163291118294
0.0,20.0,20.0,0.0,120.0,0.0,-0.0889381933298179,0.6841481548331805,-0.451593456429803,-107.0,0.0,-45.0,-0.19927805809496402,-0.8812329823776981,0.17140524091513543,34.2899281565393,17.53971554092155,5.86807159247915,3.191173258546906,1.9874650640610885,1.1377910374508062,0.5729215302678309,0.2840601579969397,0.14638290001248805,0.08007027517263274,0.04510167850895559,0.024927253612859607,0.0132061739509287,0.0066730368624806306,0.003216259436911454,0.0014755414609638497,0.0005308830695874489,8.110772410828362,5.600666389685579,4.122720781239064,2.829904882899125,1.7610163696917025,1.0681973203300714,0.6568869398987628,0.41881703477925514,0.2724010510705745,0.1744120783345321,0.10786976582223924,0.0640899016254469,0.03655299509271703,0.020112339060635216,0.01007890516523284
0.0,21.0,21.0,0.0,120.0,0.0,0.08985397364533054,-0.7386619368968859,0.1313823043819784,-107.0,0.0,-45.0,-0.4396499461467227,0.47356750383296076,-0.6467798481168865,34.2899281565393,17.53971554092155,5.866726151566641,3.1814906968349073,1.9747546580448334,1.125343823136917,0.5628546727280066,0.27710960065749696,0.14221421953144922,0.07780126215503884,0.04392881548668016,0.02435347607108367,0.01294263984480748,0.006559210872107877,0.003169860515093339,0.0014575888679448543,0.000525029927196314,8.109683610581222,5.589787433591521,4.104860293824683,2.808089026562887,1.7389092319437618,1.0494013148856145,0.6432051827203052,0.4099253844802678,0.2669854187224669,0.17129526133728645,0.1061776125749314,0.06322145577990283,0.03613043742971686,0.01991588416166751,0.009997471252848193
0.0,22.0,22.0,0.0,120.0,0.0,-0.5181179421028224,0.44191546558663886,0.984383660611639,-107.0,0.0,-45.0,0.8689779623816081,-0.32973400743293246,0.44935585940323297,34.2899281565393,17.53971554092155,5.865290499434431,3.1715687760781752,1.9619807144448873,1.1130431419003315,0.5530501420756565,0.2703955687056766,0.13819507011785953,0.07560954536389779,0.042792317298467476,0.023795507026615897,0.012685432574989816,0.0064477300334586434,0.003124271807973452,0.0014399001342063913,0.0005192442241799976,8.108517682541882,5.578627950052747,4.086880326826651,2.78645382261275,1.717244680692935,1.0311013820785906,0.6299063505524485,0.401272087145638,0.2617033523988811,0.16824756578382405,0.10451852043832534,0.062367706054576894,0.03571399077113792,0.019721833249772076,0.0099168513165584
0.0,23.0,23.0,0.0,120.0,0.0,-0.0025775440294020235,-0.8923011429045065,-0.1778642903669363,-107.0,0.0,-45.0,0.09949210637050743,0.7201951405499858,0.8784043198469675,34.2899281565393,17.53971554092155,5.86375902019339,3.1613964372730075,1.9491275907818695,1.100868867556485,0.5434885302832784,0.26390467521357486,0.13431843444311942,0.07349196011478845,0.04169084713770218,0.023252826369189426,0.012434368716137973,0.006338535325280538,0.0030794758047784474,0.0014224704655701394,0.0005135253490973593,8.1072697785691,5.567174044134564,4.068759058648843,2.7649689978852408,1.695990174475956,1.0132720297443616,0.6169750999889668,0.39284908103993704,0.25655081954897485,0.16526711277524558,0.10289169168028264,0.061528343039799684,0.03530354443801482,0.019530149400538554,0.00983703571246894
0.0,24.0,24.0,0.0,120.0,0.0,0.8507615211079771,0.6237214990520346,0.692111274303401,-107.0,0.0,-45.0,-0.534593569047288,-0.5141361468210732,-0.003039201987639295,34.2899281565393,17.53971554092155,5.86212580996298,3.1509631409284635,1.9361810962349613,1.0888028028603771,0.5341520305899574,0.25762442152721016,0.13057767428113098,0.0714454927546805,0.04062312714668772,0.022724934968397767,0.012189271484087981,0.006231569611772969,0.0030354554856340784,0.0014052951819045036,0.0005078726784343157,8.105934798458456,5.555412261193668,4.0504762056304715,2.7436067013980954,1.675115514448942,0.9958892292425549,0.6043967769587394,0.38464861979622483,0.2515239359013313,0.16235208752972377,0.10129635317613878,0.06070306576714409,0.03489899038415502,0.019340796439269576,0.00975801492334374
0.0,25.0,25.0,0.0,120.0,0.0,-0.5965913607757258,0.6040542889735496,-0.5810570467891689,-107.0,0.0,-45.0,-0.30571299188317913,0.16060508961266384,-0.7564765677069305,34.2899281565393,17.53971554092155,5.86038466112076,3.1402587934347155,1.9231283324675341,1.0768284941990447,0.525024309089928,0.25154314035377484,0.12696650963354145,0.06946727232596674,0.03958793518962762,0.02221135359497477,0.011949970424336693,0.006126777563502817,0.002992194302925123,0.0013883697134121898,0.0005022855785631269,8.104507375535855,5.543329517658923,4.032012859171098,2.7223412901535236,1.6545926808201672,0.9789303417824875,0.5921573897100407,0.376663258858243,0.24661895856542335,0.1595007365084205,0.09973175539445972,0.05989158139797248,0.03450022310986905,0.019153738919951712,0.009679779558178732
0.0,26.0,26.0,0.0,120.0,0.0,0.10112843052607512,0.9352970450212885,0.8795394539230126,-107.0,0.0,-45.0,0.0018852697682656405,-0.7395052343299746,0.6869619102352433,34.2899281565393,17.53971554092155,5.858529046516145,3.1292736835797825,1.909957555129722,1.0649310664893614,0.5160903868950099,0.24564994213371777,0.12347899902445339,0.06755456281131944,0.03858410185389848,0.021711621913461068,0.01171630111927263,0.006024105582566332,0.0029496761635848146,0.0013716895970867858,0.0004967634075634612,8.102981862126473,5.530913039867321,4.013351342848765,2.7011491368355256,1.6343956807737157,0.9623740470530484,0.5802435824337991,0.3688858427030071,0.24183227957571304,0.15671136471362415,0.09819717143824667,0.05909360492720001,0.03410713957948281,0.0189689421050241,0.009602320351617781
0.0,27.0,27.0,0.0,120.0,0.0,0.9462202759259661,-0.13210646354460898,-0.9659595185100398,-107.0,0.0,-45.0,-0.8221331241588525,0.766660169292736,0.8858185663559173,34.2899281565393,17.53971554092155,5.8565521035735495,3.117998427677391,1.8966580532107409,1.0530970760185892,0.5073365320966208,0.23993466458848922,0.12010952088510686,0.06570475590334914,0.0376105076591958,0.02122529754042867,0.011488104912776258,0.005923501731713292,0.0029078854122404044,0.0013552504733149776,0.0004913055169001925,8.101352314839502,5.518150309712996,3.9944750868426726,2.6800084571164007,1.614500407327691,0.9462002743856512,0.5686426095423855,0.3613094927660419,0.23716041984064348,0.15398233314615128,0.09669189613784164,0.05830885890136053,0.03371963914241934,0.01878637194589575,0.009525628163216482
0.0,28.0,28.0,0.0,120.0,0.0,-0.040466370892495496,-0.006198706299547663,-0.9457335792145163,-107.0,0.0,-45.0,-0.932335239184116,-0.7279752303245082,0.6656448411648854,34.2899281565393,17.53971554092155,5.854446618222622,3.1064239220397085,1.8832200438387094,1.0413143792211923,0.49875016077882556,0.2343878253220243,0.11685275595876014,0.063915364250009,0.03666608045626849,0.020751955163004716,0.011265228650939152,0.0058249156671834005,0.0028668068151753304,0.0013390480826237488,0.0004859112529713792,8.099612479615812,5.505029016095771,3.9753685173758626,2.658899154530848,1.5948845085298449,0.930390136606405,0.5573423106220268,0.35392759600229073,0.23260002346243325,0.15131205641019266,0.09521524519208946,0.05753707315012849,0.03333762345767133,0.01860599506418085,0.00944969397656861
0.0,29.0,29.0,0.0,120.0,0.0,0.810241179782146,-0.13778458924853254,-0.27586239786484046,-107.0,0.0,-45.0,0.4214089191598851,0.29582608229681817,0.12938080632097382,34.2899281565393,17.53971554092155,5.852205008603168,3.0945413017478636,1.8696345804826298,1.0295720156146222,0.4903197463678581,0.22900057734506046,0.11370367066367403,0.06218401513268184,0.035749792998817274,0.02029118571291501,0.01104752443776214,0.005728298575021315,0.002826425545056316,0.0013230782625659827,0.0004805799585282347,8.097755776490917,5.491537011338113,3.956016959232447,2.637802681095922,1.5755272663753495,0.9149258666737408,0.5463310860762915,0.3467337940248807,0.22814785239681876,0.1486990004547746,0.09376655435457786,0.05677798453050805,0.03296099642148631,0.01842777873362302,0.009374508898307056
0.0,30.0,30.0,0.0,120.0,0.0,-0.9240394290849545,0.02074862407426936,0.7506307186729186,-107.0,0.0,-45.0,0.4840071996295934,-0.5488533187307425,0.6794920990363009,34.2899281565393,17.53971554092155,5.84981930850071,3.08234190485089,1.8558934728120224,1.0178601033210246,0.4820347366425686,0.22376466738558656,0.11065750135829773,0.06050844453907327,0.03486066067382121,0.01984259559170671,0.010834849404771106,0.005633603110651821,0.0027867271663814166,0.0013073369447334313,0.0004753109739728735,8.095775284029974,5.4776622718850225,3.9364065496897918,2.6167019120532804,1.5564094848299679,0.8997907571487109,0.5355978734761231,0.33972197277188076,0.22380078142489557,0.14614168044194095,0.09234517866200548,0.056031336682955464,0.03258966409809769,0.01825169086267366,0.009300064156992844
0.0,31.0,31.0,0.0,120.0,0.0,0.04783487740255232,0.6307318467641372,0.13384894787141732,-107.0,0.0,-45.0,-0.059257565358028286,0.5132785870772347,-0.2462326903973311,34.2899281565393,17.53971554092155,5.847281150475112,3.0698172412691074,1.8419892167236458,1.006169745783162,0.4738854777719736,0.2186723968456354,0.1077097394577192,0.0588864915974853,0.033997739377034736,0.019405805943218044,0.010627065493587561,0.005540783341517745,0.0027476976216110165,0.001291820151893327,0.0004701036385416357,8.09366372339514,5.4633928627190365,3.916524162447765,2.5955810332874196,1.537513386352302,0.8849691025055842,0.5251321246289397,0.33288625265788085,0.21955579341186424,0.14363865873258602,0.09095049170195045,0.05529687979874511,0.03222353465334189,0.018077699977694338,0.009226351101901993
0.0,32.0,32.0,0.0,120.0,0.0,-0.9942509754808151,0.7367463977177731,-0.9297308470482202,-107.0,0.0,-45.0,0.7286324356956746,-0.631611807381204,-0.0006480074802814872,34.2899281565393,17.53971554092155,5.844581748649987,3.056958965797113,1.8279149332595694,0.9944929484433108,0.46586314478878343,0.21371658526381085,0.1048561173545443,0.05731609334292709,0.03316012352172269,0.01898045196970054,0.010424039250564473,0.005449794692591535,0.0027093232179403975,0.0012765239952414482,0.00046495729137802143,8.091413442008015,5.448716905016907,3.896357340342017,2.5744254401317845,1.518822516327565,0.8704461442587044,0.5149237833759867,0.3262209791730302,0.21540997482990787,0.14118854298161865,0.08958188491753143,0.05457437039793443,0.03186251829101468,0.017905775206755802,0.00915336120172845
0.0,33.0,33.0,0.0,120.0,0.0,-0.45802470151862806,-0.9692713691262327,0.6807008202762754,-107.0,0.0,-45.0,0.17681228665107973,0.5165700622314937,-0.8373951767513059,34.2899281565393,17.53971554092155,5.841711881134636,3.043758854700244,1.813664315323185,0.9828225442957492,0.457959677950305,0.20889053614388986,0.10209259510074753,0.05579527978881694,0.03234694416987605,0.018566182288331883,0.010225641632660293,0.005360593894585675,0.0026715906146791654,0.001261444671762624,0.00045987127249940866,8.089016396771777,5.433622546651973,3.875894235802609,2.5532216464155493,1.5003216548496978,0.8562080188566938,0.5049632641234376,0.3197207138969971,0.21136051152460447,0.1387899843348374,0.08823876694660496,0.05386357111732936,0.031506527191825215,0.017735886264008058,0.009081086043207703
0.0,34.0,34.0,0.0,120.0,0.0,0.8332657263251642,0.33647360007455984,-0.6756376417746226,-107.0,0.0,-45.0,0.51472510525686,0.011980460823315164,-0.35168959333416017,34.2899281565393,17.53971554092155,5.838661872053343,3.0302087854802395,1.7992315812544464,0.971152127348559,0.45016772447946246,0.20418800501229292,0.0994153478099179,0.05432216928094583,0.031557367276209475,0.018162658325134393,0.010031747823805127,0.005273138934707293,0.0026344868112066133,0.0012465784617005456,0.0004548449236690735,8.086464136818684,5.418097935209137,3.855123558167823,2.531957202728989,1.4819967353164734,0.8422417082759315,0.4952414311092049,0.3133802258995088,0.20740468470625467,0.1364416757204983,0.08692056299335076,0.05316425050788927,0.03115547545481752,0.017568003434596094,0.009009517329679865
0.0,35.0,35.0,0.0,120.0,0.0,-0.16910594078917152,0.2483892269161483,-0.24800406231558636,-107.0,0.0,-45.0,0.871965013377699,0.4173722282709389,0.8313026124013945,34.2899281565393,17.53971554092155,5.835421573159125,3.0163007194545175,1.7846114344574409,0.9594759931408275,0.44248058521843314,0.19960316957073934,0.09682075374177611,0.05289496411282346,0.030790592036170798,0.017769553743586367,0.009842237061056032,0.00518738900980114,0.002597999135471206,0.0012319217261250713,0.00044987758917436127,8.083747785749006,5.40213119323161,3.8340345270898464,2.510620622996687,1.4638347693320763,0.8285349932307243,0.4857495784038615,0.30719448350257794,0.20353986714924802,0.13414235022915338,0.08562671423023377,0.052476182841047055,0.03080927904113431,0.017402097560097685,0.008938646879597912
0.0,36.0,36.0,0.0,120.0,0.0,-0.07392306970268114,0.22374118036133783,-0.8291991055197592,-107.0,0.0,-45.0,0.5807272253222893,0.04121564370471775,0.7069047432596125,34.2899281565393,17.53971554092155,5.831980345010303,3.002026686851356,1.7697990283858558,0.9477890855585487,0.43489216576504275,0.19513060181478248,0.09430538303302195,0.05151194638371554,0.030045849330030426,0.01738655390542792,0.009656992469896597,0.005103304481740656,0.0025621152330016347,0.0012174709045947242,0.0004449686165189617,8.080858023327112,5.385710395462116,3.812616831377843,2.489201318546491,1.4458237774422629,0.8150764089070189,0.4764794106408883,0.30115864638253026,0.19976351958421773,0.13189077957582032,0.0843566772284751,0.05179914792344664,0.030467855720000346,0.01723814002445899,0.008868466624993675
0.0,37.0,37.0,0.0,120.0,0.0,-0.19385243235785454,0.49918259085844063,0.8624184378719468,-107.0,0.0,-45.0,-0.37890260250634045,0.11308454372689924,0.18831300273532192,34.2899281565393,17.53971554092155,5.828327037688996,2.987378774172339,1.754789936287722,0.9360869492781724,0.42739693169746196,0.19076524199392603,0.09186598704049037,0.05017147408254327,0.029322400255874386,0.017013355361396372,0.009475900908090909,0.005020846834939356,0.0025268230564046484,0.0012032225129076357,0.00044011735703463505,8.077785066599306,5.368823547877864,3.7908605927169137,2.4676895389498936,1.427952725257705,0.8018552031191724,0.4674230244684557,0.29526805799241945,0.19607318726913922,0.12968577263904857,0.0831099234153074,0.05113293091964584,0.0301311250168226,0.01707610274040526,0.008798968609906763
0.0,38.0,38.0,0.0,120.0,0.0,0.4789382695132127,0.4660023039161898,-0.9875251380505239,-107.0,0.0,-45.0,-0.7620572679421986,0.20886443218141437,0.8107310955967102,34.2899281565393,17.53971554092155,5.824449971040566,2.972349113615568,1.7395801251931178,0.924365687242236,0.41998986752583384,0.18650237429443586,0.08949948826435247,0.04887197738244416,0.02861953474497811,0.016649665369798314,0.009298852817536708,0.00493997863585837,0.002492110855324363,0.0011891731409424352,0.0004353231664201691,8.074518650396547,5.351458568349953,3.768756333781746,2.4460763189874237,1.4102114645511759,0.7888612967845805,0.458572890712347,0.2895182382875206,0.1924664967268285,0.127526174071852,0.08188593855641037,0.05047732218234752,0.02979900816329578,0.01691595813631473,0.008730144988793423
0.0,39.0,39.0,0.0,120.0,0.0,-0.20365181072721827,-0.7851862201046993,0.7569131429061648,-107.0,0.0,-45.0,-0.9204587239738558,-0.5433123106771875,-0.1461445695882857,34.2899281565393,17.53971554092155,5.82033691441239,2.956929874389266,1.7241659336987345,0.9126219226379307,0.41266643904006406,0.18233760413162753,0.08720297082070969,0.04761195513222103,0.02793657025365029,0.016295201441011625,0.009125742083613636,0.0048606634943950955,0.002457967166836386,0.0011753194505766246,0.0004305854052094279,8.071048007182451,5.333603268784882,3.746294950332473,2.424353431161824,1.3925906789429663,0.7760852466083508,0.449921837237267,0.28390487673839626,0.1889411526374546,0.12541086297988943,0.08068422226203162,0.049832117089757086,0.029471428049418245,0.016757679143524332,0.008661988024909615
0.0,40.0,40.0,0.0,120.0,0.0,0.021991704036285586,0.42059011531350654,-0.6632760279032015,-107.0,0.0,-45.0,-0.21890418845978488,0.1514961843792939,0.8752214344032478,34.2899281565393,17.53971554092155,5.815975065868972,2.9411132557770667,1.7085440531637004,0.900852764908097,0.4054225587513578,0.1782668369442219,0.084973671434459,0.046389971532152414,0.027272850526158854,0.01594969090615947,0.008956465901550456,0.004782866027047073,0.002424380806252626,0.001161658173684159,0.00042590343917793034,8.067361846204143,5.315245338629648,3.723467686939908,2.402513343243477,1.3750818338165391,0.7635182098692929,0.44146303249191465,0.2784238256175142,0.18549493487571486,0.12333875166261418,0.07950428751540509,0.0491971158896876,0.02914830917732089,0.016601239184056916,0.008594490088689288
0.0,41.0,41.0,0.0,120.0,0.0,-0.8731455779054123,0.6582234952123698,-0.5954845785095564,-107.0,0.0,-45.0,-0.9850939333435502,-0.4723211606429363,0.8917416013846058,34.2899281565393,17.53971554092155,5.811351030858497,2.9248914818436513,1.6927115119828917,0.8890557793756526,0.39825455415117383,0.17428625838921818,0.08280897092468206,0.04520465298272074,0.026627744423842144,0.015612870508346715,0.008790924649378948,0.004706551821750174,0.002391340858321051,0.001148186110209029,0.00042127663969035125,8.063448331899277,5.296372329642786,3.7002661160385615,2.380549180387134,1.357677130132488,0.7511519111989914,0.4331899697213871,0.27307109354666526,0.1821256956832678,0.12130878441346651,0.0783456602221757,0.04857212355005653,0.02882957761683039,0.016446612158751067,0.008527643656110901
0.0,42.0,42.0,0.0,120.0,0.0,0.42659128882780006,-0.9754729444518113,-0.5585693940159617,-107.0,0.0,-45.0,0.4758099902406645,-0.40108022221989725,0.1399356629282582,34.2899281565393,17.53971554092155,5.806450800303479,2.9082567976939284,1.67666566264871,0.8772289601080576,0.3911591385351171,0.17039231584149808,0.0807063861562087,0.04405468509578316,0.026000644815925195,0.015284486014973443,0.008629021767066836,0.0046316874042994895,0.002358836668791133,0.0011349001263064333,0.00041670438399521936,8.059295061508468,5.276971641852875,3.6766821200505255,2.358454691408021,1.340369461833225,0.7389786112471773,0.42509645182929745,0.267842839293515,0.17883135696783292,0.11931993637546076,0.077207878779633,0.047956949615444784,0.028515160962670413,0.01629377243577437,0.008461441307067658
0.0,43.0,43.0,0.0,120.0,0.0,0.06864271182960802,-0.36054593806568547,-0.7153066033167357,-107.0,0.0,-45.0,-0.096464766278342,-0.0019532371599511045,-0.8995936273498626,34.2899281565393,17.53971554092155,5.801259728084785,2.891201467220439,1.6604041713507176,0.8653707056883564,0.3841333841612318,0.16658170110808565,0.07866356243225163,0.04293880985856802,0.02539096752795697,0.014964291849762246,0.008470663641454237,0.004558240206259095,0.0023268578363319727,0.001121797152553117,0.0004121860554712063,8.054889041836107,5.257030510643022,3.652707876361816,2.3362242188485283,1.3231523765537285,0.7269910771289807,0.4171765768707727,0.2627353658065566,0.17560990772115243,0.1173712124488039,0.07609049366462554,0.04735140806939739,0.028204988293235648,0.016142694839507934,0.008395875723738774
0.0,44.0,44.0,0.0,120.0,0.0,0.947136426084896,-0.5996817106379251,-0.7138063570563096,-107.0,0.0,-45.0,0.46445996266179757,-0.5434888065606673,0.7693238757231284,34.2899281565393,17.53971554092155,5.795762507884922,2.873717772293174,1.6439250098958846,0.8534797975947713,0.37717469753211114,0.16285133427249815,0.07667826630425792,0.041855822941605295,0.02479815034413057,0.014652050743238844,0.008315759496647196,0.004486178534287402,0.0022953942047841003,0.0011088741822223981,0.0004077210438302991,8.050216665097192,5.2365359949161165,3.6283358449666983,2.313852672505578,1.3060200393748709,0.7151825545525328,0.4094247241567757,0.2577451144784642,0.1724594015486619,0.1154616462474361,0.07499306703911993,0.046755317202178744,0.027898990130856168,0.015993354639783654,0.008330939688970265
0.0,45.0,45.0,0.0,120.0,0.0,0.7422540907326347,-0.9624098000783483,0.7431790830272906,-107.0,0.0,-45.0,-0.004511691735862522,0.2379605900953936,0.8227766573189421,34.2899281565393,17.53971554092155,5.789943149351748,2.855798013363459,1.6272264497608253,0.841555380921844,0.37028079660848445,0.15919834858996723,0.07474837877629872,0.04080457114241188,0.02422165206004703,0.014347533400508587,0.008164221289541532,0.004415471540793338,0.002264435855723986,0.0010961282696191883,0.00040330874528088996,8.045263683779801,5.215474966310275,3.603558758624915,2.2913355061230396,1.2889671993754779,0.7035467415287794,0.4018355409495413,0.2528686596285897,0.16937795430432176,0.11359029910161847,0.07391517237242691,0.046168499483707534,0.027597098403486838,0.015845727541463024,0.008266626084667054
0.0,46.0,46.0,0.0,120.0,0.0,-0.3091088772635413,0.7373713604272125,-0.16583268285396224,-107.0,0.0,-45.0,-0.9702115428412568,-0.40086407828197035,0.8861072067500826,34.2899281565393,17.53971554092155,5.783784953539167,2.837434511469572,1.6103070581122736,0.829596947203545,0.36344968977853837,0.1556200763594247,0.07287188888245275,0.03978394995731023,0.023660951582784407,0.014050518185253384,0.008015963610176716,0.004346089195854501,0.0022339731013294004,0.0010835565284742614,0.000398948562655441,8.040015184445428,5.19383409944823,3.5783696154026776,2.2686686969842826,1.2719891587574097,0.6920777635690479,0.3944039297285606,0.2481027031958562,0.16636374182463484,0.11175625910387668,0.07285639407918763,0.045590781441406415,0.027299246407756335,0.015699789674342345,0.008202927890200166
0.0,47.0,47.0,0.0,120.0,0.0,-0.25508474776143863,0.07523742996086624,-0.274646719369642,-107.0,0.0,-45.0,0.7442522000630485,-0.6279171718851937,-0.055960649177163146,34.2899281565393,17.53971554092155,5.777270487575603,2.818619611646392,1.5931656956535987,0.8176043191228495,0.3566796564223391,0.15211403570304952,0.07104688761673726,0.03879290127433299,0.02311554707536962,0.013760790818961244,0.007870903586641723,0.004278002260329694,0.002203996477528255,0.0010711561303960572,0.00039463990550772535,8.034455560379952,5.171599863217876,3.5527616734913066,2.2458487281671426,1.2550817443346471,0.6807701502797828,0.38712503600633735,0.24344406963386875,0.16341499775633125,0.109958640195859,0.07181632717227164,0.04502199354272549,0.027005368773308842,0.015555517583370091,0.00813983818083044
0.0,48.0,48.0,0.0,120.0,0.0,0.3205565450367842,0.4738714372174688,-0.5090727853625823,-107.0,0.0,-45.0,0.8410646471152115,0.7974398653250196,-0.4174136465588958,34.2899281565393,17.53971554092155,5.770381558505053,2.799345687755069,1.575801516173679,0.8055776369134733,0.34996922892444604,0.14867791818881107,0.06927156219618434,0.03783041118062636,0.022584955142985124,0.013478144094470183,0.007728960794266018,0.0042111822601001185,0.002174496737415823,0.0010589243033713284,0.0003903821901791408,8.028568482998336,5.1487585130943545,3.5267284482176127,2.222872573247804,1.2382412811926704,0.6696188132678674,0.37999423667308335,0.2388897010004558,0.16053001147265827,0.1081965812937801,0.07079457692978995,0.04446197008211282,0.026715401428388,0.015412888219167758,0.008077350126152821
0.0,49.0,49.0,0.0,120.0,0.0,-0.08310691292263872,-0.5647954602363827,0.8098208685335035,-107.0,0.0,-45.0,0.20211935237201217,-0.12835509358487251,-0.8249740504666787,34.2899281565393,17.53971554092155,5.763099186238773,2.7796051487613225,1.5582139676906142,0.7935173462780233,0.3433171760003252,0.1453095772358613,0.06754419063866901,0.03689550787821761,0.02206871005845,0.013202377602977966,0.0075900571688626945,0.004145601461383054,0.0021454648449290513,0.0010468583303238552,0.0003861748398440699,8.022336871894906,5.125296084526964,3.500263711178423,2.1997376832616027,1.2214645683385275,0.6586190252739815,0.3730071288495887,0.23443665223428348,0.15770712607361548,0.10646924545033692,0.06979075857548966,0.04391054907221249,0.02642928156659758,0.015271878928838557,0.008015456988564523
0.0,50.0,50.0,0.0,120.0,0.0,0.1092227565531192,-0.7506846384869426,0.16999051207820326,-107.0,0.0,-45.0,0.39833258774387215,0.8858551326427491,0.7586696473965653,34.2899281565393,17.53971554092155,5.755403575548498,2.75939044650311,1.5404027950965868,0.7814241876631054,0.33672248721346765,0.14200701724680592,0.06586313663807473,0.03598725970240553,0.021566363024698616,0.012933297473731464,0.007454116923786045,0.004081232847058732,0.002116891968763175,0.0010349555477156805,0.0003820172845302044,8.015742863419167,5.1011983874269475,3.47336149144781,2.176441975747618,1.2047488561747286,0.647766400455518,0.3661595192277664,0.23008208661150298,0.15494473646581555,0.10477581905110601,0.06880449697182829,0.04336757213908711,0.026146947614796516,0.015132467447054074,0.007954152121755289
0.0,51.0,51.0,0.0,120.0,0.0,0.9419322389377929,-0.6882437859030699,-0.3095341563412599,-107.0,0.0,-45.0,-0.8786587528803274,-0.17055985518189432,0.44604055078912874,34.2899281565393,17.53971554092155,5.747274087006651,2.7386940850633987,1.5223680443056298,0.7692991867174178,0.3301843585592205,0.13876838341940836,0.06422684472084486,0.035104773236728094,0.021077481472356784,0.012670716125616094,0.007321066470611666,0.004018050093957976,0.0020887694765197033,0.0010232133441995571,0.0003779089612797332,8.008767775942033,5.076451001902083,3.44601608065953,2.152983826407702,1.1880918247396643,0.6370568760628644,0.359447413822172,0.2258232713760261,0.15224128752023663,0.10311551104280611,0.06783542632530046,0.042832884421225195,0.025868339202084468,0.014994631887412572,0.00789342896814515
0.0,52.0,52.0,0.0,120.0,0.0,-0.8186846527324452,0.6918280854756305,-0.6046459538916815,-107.0,0.0,-45.0,0.3914333298777877,-0.9788239491102815,0.6036112353921488,34.2899281565393,17.53971554092155,5.738689208206373,2.717508632156457,1.5041100667389573,0.7571436449828148,0.32370217975107984,0.1355919519331275,0.0626338357229965,0.034247191514662566,0.020601648389832725,0.012414452030347536,0.007190834343109882,0.00395602755109627,0.0020610889290660953,0.001011629159314565,0.00037384931651744235,8.001392062215338,5.051039275513792,3.418222051819454,2.1293620672382585,1.171491557569451,0.6264866971996857,0.35286700779356645,0.22165757354200302,0.14959527231568673,0.10148755218755945,0.06688318990455858,0.04230633447184809,0.025593397129890245,0.014858350734046436,0.007833281048383134
0.0,53.0,53.0,0.0,120.0,0.0,0.18957126195963814,-0.48308633068734985,0.8258385734120228,-107.0,0.0,-45.0,-0.8319991739802868,-0.6015640243804581,0.5381326677090619,34.2899281565393,17.53971554092155,5.729626521437437,2.695826729999224,1.4856295252190637,0.744959133821255,0.3172755212195511,0.1324761211041489,0.06108270239845332,0.033413692334164975,0.020138461680819564,0.012164329486713001,0.007063351124449979,0.003895140218751414,0.0020338420751132165,0.0010002004822218177,0.00036983780056639576,7.993595319738691,5.024948319066057,3.389974216035235,2.1055759617589844,1.1549465487034445,0.6160523913222893,0.3464146776990338,0.21758245584029295,0.14700523037358684,0.09989119437357184,0.06594743976187435,0.04178777416660277,0.02532206334265901,0.014723602833485928,0.007773701990711909
0.0,54.0,54.0,0.0,120.0,0.0,0.35517985092687665,0.2353304179151512,-0.5903791852795572,-107.0,0.0,-45.0,-0.35842426687741313,0.6707007008785308,0.6347309200251672,34.2899281565393,17.53971554092155,5.720062669327422,2.673641111489716,1.4669274054749317,0.732747487461276,0.31090412141900164,0.12941940328882587,0.0595721053032463,0.03260348661770046,0.019687533562400737,0.011920178402308294,0.00693854937799286,0.00383536372826424,0.0020070208460066736,0.0009889248504870325,0.00036587387126173746,7.985356203268746,4.998163009140951,3.3612676846472067,2.0816252204731915,1.1384556601835063,0.605750761528431,0.3400869709753571,0.21359547283621125,0.14446974608421825,0.09832570990974186,0.06502783647705442,0.041277058611522754,0.02505428090011586,0.014590367386756365,0.007714685499339616
0.0,55.0,55.0,0.0,120.0,0.0,-0.5612585188394783,-0.2910780578695604,-0.8693420152740787,-107.0,0.0,-45.0,-0.4029384664838678,-0.2796274339669298,-0.7780206682540474,34.2899281565393,17.53971554092155,5.709973322026721,2.6509446158055177,1.448005023280304,0.7205107968911748,0.30458787648869096,0.1264204166848055,0.0581007689607078,0.031815816875000444,0.01924848998047698,0.01168183408758558,0.006816363580315656,0.003776674322766843,0.0019806173506822103,0.00097779984890008,0.00036195699323593363,7.976652399950107,4.970667987931638,3.3320978627153632,2.0575099918441704,1.122018115133497,0.5955788685043332,0.3338805979565517,0.20969426719117534,0.14198744710817737,0.09679039087680724,0.0641240489028745,0.04077404605624489,0.02478999395000845,0.01445862394170768,0.007656225362720501
0.0,56.0,56.0,0.0,120.0,0.0,0.17218946809334645,-0.11920885819172677,0.2610714282085562,-107.0,0.0,-45.0,0.6828605201217721,0.6927538447737678,-0.32344383023587064,34.2899281565393,17.53971554092155,5.699333141548928,2.627730206586059,1.428864034689903,0.7082514046044958,0.29832682984790976,0.12347787785225034,0.05666747820447865,0.031049955735023983,0.018820970054892132,0.011449137057953994,0.006696730057211232,0.003719048838598497,0.001954623870808156,0.0009668231083290436,0.00035808663785157427,7.967460585714617,4.942447665847811,3.3024604623208504,2.033230861008166,1.1056334832671997,0.5855340162701355,0.32779242373129264,0.2058765660680276,0.13955700285948608,0.09528454849603098,0.06323575392195055,0.04027859780973162,0.024529147701823472,0.014328352385561103,0.007598315452236153
0.0,57.0,57.0,0.0,120.0,0.0,0.5498993203820095,0.7103476603480858,-0.4458113061581481,-107.0,0.0,-45.0,-0.07420660630654585,-0.22358208133548696,0.6283408991826271,34.2899281565393,17.53971554092155,5.688115744438325,2.6039909921972457,1.4095064473671122,0.695971899894382,0.2921211623625007,0.12059059466741903,0.055271074720898226,0.03030520454905061,0.018404625549587415,0.01122193284440231,0.006579586922294608,0.003662464687432925,0.0019290328561053344,0.0009559923046160824,0.0003542622831258974,7.957756378935096,4.913486225863785,3.2723515179290703,2.008788849725056,1.0893016673290536,0.5756137386302865,0.32181946035646225,0.2021401776747964,0.13717712304562743,0.09380751252179564,0.06236263621250816,0.03979057815888742,0.02427168840133931,0.014199532937671804,0.007540949720912064
0.0,58.0,58.0,0.0,120.0,0.0,-0.42898421591670655,0.4685629558688269,-0.6442156812341557,-107.0,0.0,-45.0,-0.8745523828911177,-0.40655252288808774,0.46855222401141994,34.2899281565393,17.53971554092155,5.676293662628948,2.5797202482065607,1.3899346329634596,0.6836751146091803,0.28597118302045704,0.11775745967800749,0.05391045377978989,0.029580892061356404,0.01799912036649788,0.0110000718121914,0.00646487401807565,0.003606899839075962,0.0019038369198273691,0.0009453051575050847,0.000350483413639875,7.947514291076949,4.883767629766328,3.241767403851153,1.984185417478855,1.0730228903700845,0.5658157862789199,0.315958859410368,0.1984829879417929,0.13484655626204745,0.0923586306569767,0.061504388022634915,0.03930985428994217,0.02401756330597643,0.014072146142496845,0.0074841222021656975
0.0,59.0,59.0,0.0,120.0,0.0,0.9540218826194589,-0.32866910094127255,0.2101822389123209,-107.0,0.0,-45.0,-0.5156002655633651,0.6014535094335356,0.5335127159709756,34.2899281565393,17.53971554092155,5.66383830235266,2.5549114422081933,1.3701513405114836,0.671364119285518,0.27987732005917015,0.11497744383193147,0.05258456114328749,0.028876373144159567,0.017604130061994686,0.010783408987210261,0.006352532859382326,0.003552332804905348,0.0018790288343975316,0.000934759429600956,0.0003467495204356539,7.93670767406916,4.8532756264795545,3.2107048538480427,1.959422463644312,1.056797683766722,0.5561381145129671,0.31020790486979827,0.19490295732718102,0.13256408863883035,0.09093726799002114,0.06066070895262805,0.03883629621247946,0.023766720660912104,0.01394617286275624,0.007427827008583876
0.0,60.0,60.0,0.0,120.0,0.0,-0.7394687629908709,0.7944009703469181,-0.08725588972162712,-107.0,0.0,-45.0,-0.1112785360386126,-0.8554226260825597,0.5192214383821867,34.2899281565393,17.53971554092155,5.650719900947783,2.5295582611494023,1.3501597107926373,0.6590422195782256,0.2738401124914372,0.11224959055344905,0.05129239014295892,0.028191027593667154,0.0172193413847422,0.010571803889596228,0.006242506579011465,0.0034987426219236116,0.0018546015271972873,0.0009243529253649981,0.00034306010090156766,7.925308664093403,4.82199376266678,3.1791609829280607,1.934502330638991,1.0406268758951853,0.5465788715087297,0.3045640062957668,0.19139811774629642,0.13032854253736897,0.08954280645272675,0.0598313057450575,0.038369776685999106,0.023519109675936553,0.013821594272791083,0.00737205833073068
0.0,61.0,61.0,0.0,120.0,0.0,-0.05214578071029141,-0.368409087205293,-0.6858594063316383,-107.0,0.0,-45.0,0.8949845342198581,0.7519032573211513,-0.8661599305286698,34.2899281565393,17.53971554092155,5.6369074814152285,2.503654641321301,1.3299632916408775,0.6467129529088089,0.2678602019814552,0.109573010142535,0.05003297891606674,0.027524258984252453,0.01684445183391649,0.01036512037426151,0.006134739875502464,0.0034461088373914112,0.0018305480764968607,0.0009140834901398253,0.00033941465864440465,7.913288121466228,4.789905395833545,3.147133311394906,1.9094278079820364,1.0245115813784489,0.537136387120126,0.2990246923134376,0.18796656962019395,0.128138775294993,0.08817464429778728,0.05901589208220377,0.037910171148900725,0.023274680503012006,0.01369839185210177,0.007316810435979698
0.0,62.0,62.0,0.0,120.0,0.0,0.4577421954395824,0.5004976717530112,0.1489128672395792,-107.0,0.0,-45.0,-0.5173557192060978,-0.16026705680231124,0.6521471471665024,34.2899281565393,17.53971554092155,5.622368804566816,2.4771948011896443,1.3095660541403773,0.6343800852560226,0.2619383250258319,0.10694687447533911,0.0488054077923657,0.02687549357792978,0.016479169236787754,0.010163226477978009,0.006029178962927978,0.003394411494017146,0.001806861707520529,0.000903949009201345,0.00033581270334690324,7.9006155662649995,4.7569937101831865,3.1146197912083657,1.8842021371817654,1.008453190826727,0.5278091621594376,0.29358760437242726,0.18460647903903837,0.12599367801562197,0.0868321955952087,0.05821418839053856,0.037457357649787415,0.02303338421450955,0.013576547379062776,0.007262077667364466
0.0,63.0,63.0,0.0,120.0,0.0,-0.11961840328207685,0.5796649782534464,0.3344632926144018,-107.0,0.0,-45.0,0.5507973373439572,-0.34257975323044243,-0.8281747021036097,34.2899281565393,17.53971554092155,5.607070318609873,2.450173277253721,1.2889724096723894,0.6220476080131824,0.256075305398182,0.10437041198536556,0.04760879682333456,0.02624417928645628,0.016123211344733063,0.009965994272703579,0.005925771522606292,0.003343631115678056,0.0017835357886441699,0.0008939474068407682,0.0003322537506143107,7.887259109323118,4.723241735505796,3.081618834724392,1.8588290173738204,0.9924533609959897,0.5185958581237532,0.28825049077428067,0.18131607503614916,0.12389217440461534,0.08551488974677413,0.05742592165193382,0.03701121678099701,0.022795172782100866,0.01345604292480798,0.0072078544424460204
0.0,64.0,64.0,0.0,120.0,0.0,0.028981596223732087,-0.2785117515541311,0.38755330816094546,-107.0,0.0,-45.0,-0.6501148680718534,-0.5601587293815993,0.6448106794887607,34.2899281565393,17.53971554092155,5.590977106015337,2.422584963134249,1.268187227761665,0.6097197348376321,0.25027204681912596,0.10184290290667064,0.04644230344625363,0.025629784683525655,0.015776305446794363,0.009773299724844019,0.0058244666566466975,0.0032937486936491065,0.0017605638277193268,0.0008840766454774428,0.00032873732181176133,7.873185378194869,4.688632369413739,3.0481293458850125,1.8333126116304634,0.9765140052921244,0.5094952873325788,0.28301120095461985,0.178093646968641,0.12183321964609178,0.08422217101776754,0.05665082522131774,0.03657163161426337,0.022559999056279402,0.01333686084728746,0.0071541352521915175
0.0,65.0,65.0,0.0,120.0,0.0,-0.050368559790965106,0.048985783415643525,-0.4957123061652635,-107.0,0.0,-45.0,0.2846719209889239,0.18881474195935666,-0.36582342716747496,34.2899281565393,17.53971554092155,5.574052827829231,2.3944251523233477,1.247215854694984,0.5974008981674683,0.24452952573820352,0.09936367486038468,0.04530512024505888,0.025031798069032253,0.015438188000132117,0.009585022559907992,0.005725214843329768,0.0032447456732861224,0.00173793946851977,0.0008743347247920226,0.0003252629444904179,7.858359443995915,4.653148418913499,3.014150771390555,1.807657559089115,0.9606372699999178,0.5005064094913346,0.2778676779176799,0.1749375426770755,0.11981579916411225,0.0829534981130674,0.05588863864629638,0.036138487638873444,0.02232781674655261,0.013218983785363236,0.007100914743262824
0.0,66.0,66.0,0.0,120.0,0.0,-0.8927738527749958,-0.0811361184091639,0.0377096294017123,-107.0,0.0,-45.0,-0.5488316824842527,0.8958919757775514,-0.5757517726109957,34.2899281565393,17.53971554092155,5.55625966682916,2.3656895857982363,1.226064132801857,0.5850957439592429,0.23884878394668574,0.09693209921750118,0.044196472662366544,0.024449726598598117,0.015108604279271928,0.009401046130629505,0.005627967894778096,0.0031966039410009973,0.0017156564873439426,0.0008647196808846351,0.00032183015562377743,7.842744779802696,4.616772739036985,2.9796832584250525,1.7818690189267634,0.9448254241236592,0.49162836453919656,0.27281793847735825,0.1718461707683922,0.11783892648822086,0.0817083439351581,0.055139107467672484,0.03571167270449676,0.022098580402651273,0.013102394652396312,0.007048188296579605
0.0,67.0,67.0,0.0,120.0,0.0,-0.3570352451063119,0.24904930710029105,-0.32497229775592174,-107.0,0.0,-45.0,0.5439738727554306,-0.2951620823400831,-0.6081881390894561,34.2899281565393,17.53971554092155,5.537558257065501,2.3363744963180197,1.2047384197893511,0.5728091350110077,0.23323092368550055,0.09454758440914124,0.043115617848878234,0.023883095320497587,0.014787308030538312,0.009221257299831833,0.005532678912904991,0.0031493058126224375,0.0016937087895057582,0.0008552295854767455,0.0003184384860736665,7.826302998035694,4.579487844890597,2.9447272218739378,1.7559525366556974,0.929081243662809,0.48286030050953804,0.2678601246968083,0.1688179800215254,0.11590164649021668,0.08048619441045303,0.054401983168027815,0.0352910769505151,0.02187224539381205,0.01298707663378711,0.006995949772747017
0.0,68.0,68.0,0.0,120.0,0.0,-0.8341731312294436,0.4597160194380776,0.8533477171800061,-107.0,0.0,-45.0,0.0850407276092624,-0.538662687590074,-0.8455472911705122,34.2899281565393,17.53971554092155,5.51790762747619,2.3064766691766914,1.183245610099005,0.5605461397999935,0.22767709850733564,0.0922095749642982,0.042061841885666355,0.023331446497907745,0.01447406115192658,0.009045546313482051,0.005439302252126223,0.003102834020659353,0.0016720904062920885,0.0008458625451004061,0.00031508747846269565,7.808993936714151,4.541276407671012,2.909283895503232,1.729914204709707,0.9134075782006454,0.47420154151000304,0.2629924380641129,0.16585147689327506,0.11400302983597706,0.07928654889566324,0.053677022890385576,0.034876592762540376,0.021648767892721358,0.012873013178361994,0.00694419394503783
0.0,69.0,69.0,0.0,120.0,0.0,0.5206302516790176,0.8242814337098383,-0.03755699052180539,-107.0,0.0,-45.0,0.7851869082647751,-0.5046960120777115,-0.0034739853708654067,34.2899281565393,17.53971554092155,5.497265130167157,2.2759934985978556,1.1615931553055303,0.5483120305830895,0.22218850750669653,0.08991754681170933,0.04103445834728787,0.022794338788485902,0.014168633382491547,0.008873806687956834,0.005347793479999289,0.0030571717030084557,0.0016507954917737025,0.0008366167003405473,0.00031177668037094344,7.790775489191232,4.5021211414089795,2.873355199959951,1.7037606180700515,0.8978074893120945,0.4656515182721965,0.2582131560361617,0.16294521653556499,0.11214217363898532,0.07810891950402692,0.0529639893264687,0.03446811471296365,0.02142810485708808,0.012760187994307429,0.006892915654531502
0.0,70.0,70.0,0.0,120.0,0.0,-0.04482069822763535,0.16771172017321345,0.14110627254469188,-107.0,0.0,-45.0,-0.7864372026130588,-0.8179364233549853,0.5692048610453659,34.2899281565393,17.53971554092155,5.475586368423301,2.2449230511280662,1.1397890852748902,0.536112278619245,0.21676638869964684,0.08767100378537725,0.040032806639465374,0.02227134651073808,0.013870802005230266,0.008705935099487095,0.0052581093401133025,0.003012302391785899,0.0016298183197710455,0.0008274902250845534,0.0003085056442217227,7.771603490134365,4.462004854070198,2.8369437902022736,1.6774988827296788,0.8822842417595897,0.45720976014826514,0.2535206276208096,0.1600978007388285,0.11031820056069515,0.07695283072641189,0.05226265056765369,0.034065539507721086,0.02121021401245843,0.012648585044094031,0.006842109808950398
0.0,71.0,71.0,0.0,120.0,0.0,-0.18567675717329224,0.8047188678265746,0.06277326971541486,-107.0,0.0,-45.0,-0.6214326892886262,-0.5265702609542637,0.30088235104039684,34.2899281565393,17.53971554092155,5.45282512136926,2.2132641340129107,1.1178420295166238,0.5239525488486975,0.21141201243873675,0.08546947430082812,0.03905625042997638,0.021762058946027323,0.013580351562562156,0.008541831277856387,0.005170207716310117,0.002968210002536983,0.0016091532809194196,0.0008184813258007203,0.00030527392721171914,7.751431592986445,4.420910505368362,2.8000531058719664,1.6511366241494028,0.8668412945915241,0.4488758873339211,0.24891326914320053,0.15730787595767412,0.10853025794342837,0.07581781906527486,0.051572779960717685,0.033668765934671024,0.020995053835515233,0.01253818853954077,0.006791771381498506
0.0,72.0,72.0,0.0,120.0,0.0,0.5218578723231233,0.9858278533604274,0.9960264623389461,-107.0,0.0,-45.0,0.5324957508668422,0.2883999369429926,0.9840869480831351,34.2899281565393,17.53971554092155,5.428933265323127,2.1810163688482134,1.095761238584439,0.5118386939474561,0.2061266748458273,0.0833125081937799,0.038104176168186454,0.021266079674549146,0.013297073583827668,0.008381397904163637,0.005084047598166012,0.002924878823795436,0.0015887948798165507,0.0008095882408286383,0.00030208109128247913,7.730211138322745,4.378821271979009,2.762687424657626,1.6246819955789278,0.8514822920864782,0.4406496032989362,0.24438956018850116,0.15457413141588236,0.10677751697461862,0.074703432680976,0.05089415596816806,0.03327769481350767,0.02078258353783572,0.01242898293699556,0.0067418954097068755
0.0,73.0,73.0,0.0,120.0,0.0,0.3142384647964087,0.09146835366091266,0.791877242464375,-107.0,0.0,-45.0,-0.3280654601035664,0.4268981600895805,0.5420535033324236,34.2899281565393,17.53971554092155,5.403860691942971,2.1481802708049984,1.0735566053571821,0.49977674767365127,0.20091169124802905,0.08119967371388266,0.03717599168891131,0.02078302594369551,0.013020766324280323,0.008224540512467245,0.004999589047692502,0.0028822935069928337,0.001568737732264177,0.0008008092396998594,0.00029892670314793075,7.707891012501682,4.335720620905115,2.7248519186836178,1.5981436861047589,0.836211054487812,0.43253068740790296,0.2399480397136865,0.151895297287913,0.10505917188131207,0.07360923104996782,0.050226562032994956,0.032892228947171635,0.020572763050105792,0.012320952932647202,0.006692476994307561
0.0,74.0,74.0,0.0,120.0,0.0,-0.1734529143039807,-0.4957599509542918,0.9748149546016616,-107.0,0.0,-45.0,-0.8610478159963999,-0.1667924106231511,0.45657869141128926,34.2899281565393,17.53971554092155,5.377555223333804,2.114757333730738,1.0512386860073182,0.4877729174206334,0.19576838960442977,0.07913055466705164,0.036271124896595355,0.020312528067295877,0.012751234515044396,0.00807116739513967,0.004916793167192934,0.002840439056688121,0.001548976562583281,0.0007921426224654853,0.00029581033436555497,7.684417495994365,4.291592391811559,2.68655271394182,1.5715309282751313,0.8210315684743962,0.4245189877157069,0.2355873023216001,0.14927014295421653,0.10337443915382037,0.07253478463440217,0.04956978644765474,0.032512273074681346,0.020365553006755716,0.01221408345794447,0.006643511298149077
