Line_number,Fiducial,Easting,Northing,Height,Elevation,tx_pitch,tx_roll,tx_yaw,txrx_dx,txrx_dy,txrx_dz,rx_pitch,rx_roll,rx_yaw,PX,PZ,S0X_time_1.086e-05,S0X_time_3.256e-05,S0X_time_5.426e-05,S0X_time_8.680e-05,S0X_time_1.411e-04,S0X_time_2.279e-04,S0X_time_3.689e-04,S0X_time_5.860e-04,S0X_time_9.115e-04,S0X_time_1.411e-03,S0X_time_2.192e-03,S0X_time_3.418e-03,S0X_time_5.339e-03,S0X_time_8.301e-03,S0X_time_1.338e-02,S0Z_time_1.086e-05,S0Z_time_3.256e-05,S0Z_time_5.426e-05,S0Z_time_8.680e-05,S0Z_time_1.411e-04,S0Z_time_2.279e-04,S0Z_time_3.689e-04,S0Z_time_5.860e-04,S0Z_time_9.115e-04,S0Z_time_1.411e-03,S0Z_time_2.192e-03,S0Z_time_3.418e-03,S0Z_time_5.339e-03,S0Z_time_8.301e-03,S0Z_time_1.338e-02
0.0,0,0.0,0.0,121.0,0.0,0.0,0.0,0.0,-90.0,0.0,-45.0,0.0,0.0,0.0,58.892325333327804,19.630775111109287,5.348876653842069,3.743794057961679,3.0142930659923466,2.469623261572223,2.2197885259220147,1.6184885921481598,1.224328688854661,0.9847063763567366,0.6411935532145545,0.48625836781428516,0.3165757163819321,0.17366219715492262,0.0997580278806969,0.059351722511183584,0.024857003260508086,9.060847236444753,7.761216767322534,7.067209466249649,5.447871895254103,4.5954219199166,3.769801084440487,3.3588212931360024,2.920871841572914,2.0108419931255472,1.6600167309630356,1.1375027512392637,0.7128652982204869,0.474076195774723,0.32756430836377165,0.17087188555647492
0.0,1,1.0,0.0,121.0,0.0,0.0,0.0,0.0,-90.0,0.0,-45.0,0.0,0.0,0.0,58.892325333327804,19.630775111109287,5.171169520274094,4.083692614466975,3.1268482395452994,2.4502980365531006,1.9943840877942958,1.500751213408891,1.2963931527872001,0.917254037180778,0.6214356531217389,0.43867546625035864,0.27262606353295604,0.18130221145394187,0.10300423164585171,0.058727192413745764,0.022795817875230835,9.53735486994407,7.4333648839757265,6.413727929798586,5.70553374099107,4.52670699533789,3.983264503540226,2.9666708800206867,2.8519620760830877,2.128528938007593,1.6159899954306838,1.1200111988586607,0.78288122240996,0.5031790880596031,0.3366364812586667,0.2041812519020595
0.0,2,2.0,0.0,121.0,0.0,0.0,0.0,0.0,-90.0,0.0,-45.0,0.0,0.0,0.0,58.892325333327804,19.630775111109287,5.847340121239152,3.410531586807405,3.1112550734094304,2.7465694398780007,1.9497409331186304,1.5354256708491016,1.22467178224895,0.9007211969038686,0.6736625687154781,0.4812906524501324,0.29528587320504784,0.18354592479453774,0.10878640892491453,0.05348683052115811,0.021770614046515195,9.903879535534323,7.216684283561691,5.747882178636294,5.285792610084192,4.739560546209552,3.6946430841913376,3.399983839643272,2.6182941320847384,2.037790294524885,1.7643287949071182,1.1431623286577581,0.7771182561106803,0.5246457596458667,0.34509390309436444,0.19882243564435262
0.0,3,3.0,0.0,121.0,0.0,0.0,0.0,0.0,-90.0,0.0,-45.0,0.0,0.0,0.0,58.892325333327804,19.630775111109287,5.59948924186749,3.985289053382899,3.1141261564670017,2.7106341497831052,1.9474587799026477,1.4899714348618252,1.166258720821388,0.8710631278118556,0.6143027617620416,0.4075024441568316,0.2845936983177538,0.1779517639817232,0.10499309264941804,0.057296128544507906,0.02600661306096352,9.544181098979747,6.930958992405319,6.605182972163339,5.544270588544209,4.458395468326723,3.6724988955124678,3.178563702021749,2.6522310921486794,2.127879733832936,1.4665390564285377,1.1878196064311008,0.7191276751852886,0.5091102275978937,0.31623297388520955,0.1964799475770499
0.0,4,4.0,0.0,121.0,0.0,0.0,0.0,0.0,-90.0,0.0,-45.0,0.0,0.0,0.0,58.892325333327804,19.630775111109287,5.6009447634102365,3.9648704349803356,3.1292002302798485,2.5794154096775825,1.989754399315433,1.555268462536004,1.291962227381019,0.8974301956361787,0.6079421584783263,0.4513761852554023,0.2958092912786817,0.17300110669828217,0.10827874339550221,0.05340119106931579,0.02091059956305495,9.296572218325974,7.211669056841593,6.420961808818594,6.092913703665404,4.977113216033387,3.950606939340498,2.988280315078874,2.709499772200649,2.0531800496736357,1.6529073964038963,0.9772889812148261,0.7796161021131948,0.5239684546791025,0.30342886378848266,0.18809041118012337
0.0,5,5.0,0.0,121.0,0.0,0.0,0.0,0.0,-90.0,0.0,-45.0,0.0,0.0,0.0,58.892325333327804,19.630775111109287,5.3970665188433395,3.70387161267136,3.2516946610071544,2.3388866564853243,1.9302953461687564,1.4653025059274893,1.1201713751083167,0.8434277665079203,0.6341093814779243,0.44586180593251745,0.27755162055516314,0.1800409257399704,0.10120970268005137,0.05247245385991659,0.025140748822468216,8.685763423614539,7.744127214876663,6.1506583529729095,4.974472645250165,4.3511145860986,3.6760387450146803,3.0669107209850854,2.4188174856857407,2.010555005262051,1.5799729459848955,1.1402261357086836,0.8118079420122765,0.5296291265134336,0.3170736545372269,0.1771140839569058
0.0,6,6.0,0.0,121.0,0.0,0.0,0.0,0.0,-90.0,0.0,-45.0,0.0,0.0,0.0,58.892325333327804,19.630775111109287,5.323661537032299,3.8532043344735447,3.3718188045146853,2.6051167610916557,1.8758854312495878,1.4870594845605254,1.0924104650422808,0.8983562387824519,0.6332958391770015,0.4241102644650229,0.27267918693734655,0.18208963950815202,0.09603689342475413,0.0486053888271437,0.025432634673508748,8.873139678034024,7.505927001424702,6.440407848967935,4.649494871805878,4.319355628697104,3.6794849333690367,2.9628061559530163,2.41175313888105,2.0527973870684053,1.6276414265409394,1.2020123174142558,0.7620750201530204,0.5275700528174286,0.31528090469875525,0.18334122504457176
0.0,7,7.0,0.0,121.0,0.0,0.0,0.0,0.0,-90.0,0.0,-45.0,0.0,0.0,0.0,58.892325333327804,19.630775111109287,5.113028242549091,4.082492334581951,3.204700913988221,2.3569578496308714,1.8723792836341182,1.3732289430843254,1.1111067611872394,0.8435614470918891,0.6627965721602268,0.41696914421954073,0.260658168929428,0.16538071881464592,0.09524881145866115,0.04733234642547197,0.021294310923539412,9.957064197586531,7.559133089079076,6.385868574883198,5.456968101068074,4.341566740989567,3.6748782337283643,3.2797550729002793,2.3124932815463715,2.0330087407732393,1.542093355813174,1.112503330687592,0.7699582864182004,0.47637315286192145,0.315102526507362,0.18593931803871264
0.0,8,8.0,0.0,121.0,0.0,0.0,0.0,0.0,-90.0,0.0,-45.0,0.0,0.0,0.0,58.892325333327804,19.630775111109287,5.853331252112454,3.7706391752042894,3.335607843419532,2.371642037894308,1.9134502139507135,1.3084152602429717,1.0802492844636284,0.878277984127176,0.5839254261440389,0.39084767757976996,0.2507579636134103,0.1716737511280801,0.09963185664317345,0.05609427726985287,0.03050188554346212,9.669355107675361,7.54047237367704,6.112007135422259,5.506244135323697,4.707966587494764,4.039149968427964,3.1385751892900746,2.424803718103259,1.754967766347498,1.5394345057919043,1.1582702783708316,0.776209239495955,0.4632462430120459,0.30810485238033114,0.17133572917797377
0.0,9,9.0,0.0,121.0,0.0,0.0,0.0,0.0,-90.0,0.0,-45.0,0.0,0.0,0.0,58.892325333327804,19.630775111109287,6.211133031018504,4.0588210290345605,3.421481759610146,2.455735110510527,2.0639244608545533,1.482296205085069,1.0367259559174054,0.7423382238064887,0.5843361144438848,0.40062064807929665,0.29632438397262845,0.16245935039768228,0.08859870578526,0.04804452823385153,0.02889622568644685,9.842670630862983,7.000040698195548,6.39890355238284,5.680098311863417,4.3043338802933535,3.5759159851610445,2.9771392674398984,2.281628513214301,1.9897574088482817,1.3440573169393388,1.0008111171982688,0.7719909023725257,0.4845008955659078,0.3069394428028356,0.1783622501595218
0.0,10,10.0,0.0,121.0,0.0,0.0,0.0,0.0,-90.0,0.0,-45.0,0.0,0.0,0.0,58.892325333327804,19.630775111109287,5.495258234601562,3.866607950000934,3.041216749396823,2.618979699131719,1.8322394217624887,1.453530289834959,1.143553805766911,0.836638365732134,0.6269936577357054,0.41608383504936575,0.2760992524487886,0.15082562869000005,0.10631899635699987,0.049103629030731545,0.021036732466389936,9.239637595836438,7.41189108206,5.681553862143725,5.34764039583807,4.3728703508985935,3.6238006536066427,2.829276413273272,2.5225471845349325,1.8752702020142051,1.3371952199484214,1.040481734153388,0.7695896690923414,0.48316311249245264,0.3125946928283736,0.1782507101288485
0.0,11,11.0,0.0,121.0,0.0,0.0,0.0,0.0,-90.0,0.0,-45.0,0.0,0.0,0.0,58.892325333327804,19.630775111109287,5.561778247808351,3.685041146984837,3.2819283940482387,2.5667158516649202,1.7429779811222061,1.4090230173497673,0.9982668339926637,0.7928220691114606,0.5439402599397213,0.390477390477199,0.2841398907481597,0.1635251725644808,0.09038799480531556,0.05088039825858779,0.02698493469713118,9.795042289683819,7.27533245548112,6.849173076555764,5.185054621616623,4.364659320437606,3.7759614456252155,3.076928799542717,2.6627348818487504,1.7529512339479492,1.369478508073255,1.0217360509729587,0.7065591364855904,0.4768259391701371,0.3274968628526823,0.1752270719534658
0.0,12,12.0,0.0,121.0,0.0,0.0,0.0,0.0,-90.0,0.0,-45.0,0.0,0.0,0.0,58.892325333327804,19.630775111109287,6.1537597009263685,3.8431897599486966,2.8403422964294878,2.2578923110832068,2.0740550840548444,1.3720297888231954,0.9725137345814383,0.8024493257800888,0.5657532027608774,0.3480996768738206,0.26894215880731936,0.15989011195583633,0.09608825640068569,0.05345796070229772,0.029338979630449853,9.81459954920062,7.523814851414907,6.382206125451332,5.199450476193064,4.588152284943157,3.459912612480551,2.993364121932926,2.419907507738996,1.8858697586223334,1.4446221064453288,1.0392763401608194,0.7262162729453293,0.47511434678124326,0.30808958070270803,0.1787213051308704
0.0,13,13.0,0.0,121.0,0.0,0.0,0.0,0.0,-90.0,0.0,-45.0,0.0,0.0,0.0,58.892325333327804,19.630775111109287,5.516193188872502,4.160861973505277,3.11632979049085,2.462461144696008,1.7366392873042744,1.431669811621545,1.1063665358634447,0.71343559496451,0.5757341426509595,0.31239703535829433,0.24851681479210655,0.15445292234164698,0.09302520612502714,0.051316808672701164,0.027336945553005882,9.627206628735156,7.595056747544602,6.0004160556780235,5.315375489688428,4.177543801906694,3.565964642218194,2.7634620760593225,2.248456744274809,1.8548917311892157,1.263462406824203,1.1448378466459193,0.7807438524753962,0.44895471631353795,0.28388816498216357,0.18522758773955703
0.0,14,14.0,0.0,121.0,0.0,0.0,0.0,0.0,-90.0,0.0,-45.0,0.0,0.0,0.0,58.892325333327804,19.630775111109287,5.388928102484886,3.7890407392281054,3.0967961999886158,2.34435561940031,1.752417546906972,1.3021239197504453,0.9601285032091467,0.7068534724417312,0.569119022742404,0.40410267174334025,0.2288946021100362,0.1443498174780672,0.09043251304924967,0.04843799990351041,0.022479651925458057,8.62307988581527,6.9207032036832326,6.2380765976523005,5.636542496628285,4.470810002976484,3.3132826783241915,2.8913116254257845,2.189726070156697,1.7736240335790547,1.325033102471629,0.9896365898559278,0.6874411436815592,0.463189140265285,0.299637233578737,0.1657309095606979
0.0,15,15.0,0.0,121.0,0.0,0.0,0.0,0.0,-90.0,0.0,-45.0,0.0,0.0,0.0,58.892325333327804,19.630775111109287,5.3735626138608446,3.852303573657759,3.1410229131907723,2.6527612474223723,1.884534775907586,1.296919964013742,0.9907304575746503,0.7674850522210571,0.5299483797887553,0.33790888597401125,0.22849845122230858,0.14841315168436728,0.09085289950019257,0.04794580706792768,0.022786826227153723,8.973800477196098,7.476240402960624,6.86092695911497,4.917603076179371,4.70872413225876,3.4741945275027795,2.9782748428936796,2.4655418640018745,1.847250733459021,1.3571380027596758,0.9491304443879895,0.7208297779494884,0.4605626979251773,0.2723908089513002,0.17303198825027313
0.0,16,16.0,0.0,121.0,0.0,0.0,0.0,0.0,-90.0,0.0,-45.0,0.0,0.0,0.0,58.892325333327804,19.630775111109287,5.229603125108007,4.03528977177712,3.0414221722906927,2.3483555366158964,1.891776750697906,1.335197185109393,0.9949826022998196,0.6691230305840234,0.49897693227464984,0.3633510891444765,0.2351586112084758,0.13834744054882508,0.08558300260113216,0.045338121491619865,0.02172328963651325,9.257667295544413,6.628208246178805,6.73896584810156,5.151784828628173,4.538626611764257,3.8169385764358905,2.912386767598133,2.0090061551990535,1.748731117414882,1.2579303391626813,0.9543648950837261,0.7656603976314722,0.5010448047362983,0.2789349482471618,0.16740747682575172
0.0,17,17.0,0.0,121.0,0.0,0.0,0.0,0.0,-90.0,0.0,-45.0,0.0,0.0,0.0,58.892325333327804,19.630775111109287,5.795989212939999,3.5034783868848036,3.3172505615114374,2.3216846380492537,1.899830098956572,1.3632093908880172,0.9854493095684833,0.7253932086212385,0.5441082405195828,0.36017043493188766,0.25150705830038145,0.16239491141793755,0.08107764556204175,0.04977606966477398,0.022224012337255333,9.449847691056224,8.186243232459947,6.200181029328995,5.509775377642643,4.612723861519618,3.8140724680364695,2.6106788658398616,2.083903938926784,1.7148310171521128,1.4282022898092945,0.8844289292536804,0.6713801383460238,0.4243595490520455,0.3178023709264964,0.16780288506317284
0.0,18,18.0,0.0,121.0,0.0,0.0,0.0,0.0,-90.0,0.0,-45.0,0.0,0.0,0.0,58.892325333327804,19.630775111109287,5.8214114531841865,4.10343067793047,2.8901027719711285,2.336362566972878,1.7362327618178672,1.343951414953455,0.935962310841154,0.7277222605952964,0.4728374279522892,0.3504039428074393,0.25673593799897076,0.14462084651077367,0.0882789660667792,0.04602420688411685,0.02224923295931659,9.59634670727031,7.675835803123088,6.426093077127114,5.299816654893174,4.112792526150593,3.703629725937055,2.523456610364928,2.132309501054745,1.8702897890326424,1.4132200369192989,1.0055203300286792,0.6479655188284034,0.4416444878920795,0.26834987656048664,0.1739496368336492
0.0,19,19.0,0.0,121.0,0.0,0.0,0.0,0.0,-90.0,0.0,-45.0,0.0,0.0,0.0,58.892325333327804,19.630775111109287,5.411702552677559,4.3256138932015755,3.435553936712034,2.4888900313582925,1.695475196440417,1.3996823677792323,0.916524302028997,0.6628368807734569,0.5159227429298983,0.38399946307217747,0.21298862435299543,0.15541879557398242,0.08548633359340681,0.053033827586718714,0.023861289564507907,9.932948430193852,7.713836485141833,6.7331813877797,5.3849157673280175,4.570023874091256,3.638531555041771,2.9516833100483537,2.4550725476590323,1.6136702554801634,1.367868710031447,0.9523064936530965,0.6546799547913639,0.4705273937814472,0.27770146461597484,0.16683165029596908
0.0,20,20.0,0.0,121.0,0.0,0.0,0.0,0.0,-90.0,0.0,-45.0,0.0,0.0,0.0,58.892325333327804,19.630775111109287,5.935199852119683,3.7934794474140143,3.3061284664241364,2.1424453998381865,1.7303747629897246,1.325672525414368,0.9011765166960085,0.6662852931717583,0.5000106117416043,0.3854876585770241,0.22875950797664668,0.1613998575409448,0.08348742048335779,0.042107730896309994,0.02265922284267493,9.607358835999053,7.403748030651938,6.340412509996307,5.422482272068866,4.388020131331242,3.2994418981365823,2.839346911218712,2.1055977839940727,1.866890481578083,1.2797256398180574,0.999461478643036,0.6874978663191335,0.44188698375062757,0.2943017380308413,0.14968142368068882
0.0,21,21.0,0.0,121.0,0.0,0.0,0.0,0.0,-90.0,0.0,-45.0,0.0,0.0,0.0,58.892325333327804,19.630775111109287,5.714945694046016,3.9428250120794566,3.2398372855701734,2.5132511835805627,1.798039090300077,1.2386337388686404,0.9292877941674554,0.6745666314371455,0.4941992869070447,0.30732394256245293,0.20804808693232113,0.14385490324102376,0.07523716451201713,0.0422389120888082,0.02265517224646858,9.472049882762168,7.869203509757215,5.6319846703998415,5.320636160669772,4.567648130668872,3.2997434583670477,2.792128069552409,2.2113573963328155,1.6248362428587066,1.2243166210628162,0.9068560001959916,0.6579088252586048,0.44152460963079226,0.26710796131460574,0.16055139359327514
0.0,22,22.0,0.0,121.0,0.0,0.0,0.0,0.0,-90.0,0.0,-45.0,0.0,0.0,0.0,58.892325333327804,19.630775111109287,5.725318930689307,4.105444705311341,3.1539295809461745,2.5169386179466646,1.9501497730927637,1.333850767579624,0.9044657948560294,0.7184277733486347,0.45205153833378264,0.35117306638658485,0.23042264574963414,0.1384248903266117,0.07789041772876279,0.044533235039473984,0.019705575382140003,9.170200242191616,8.556513755739799,6.21022468118326,5.075205792957941,4.7083754173641,3.4994673841199493,2.798712585678827,2.265834301142767,1.7701207883748833,1.2102901072526644,0.991211796357157,0.6436322483556666,0.4429108989597515,0.28272341890318836,0.15589375346830678
0.0,23,23.0,0.0,121.0,0.0,0.0,0.0,0.0,-90.0,0.0,-45.0,0.0,0.0,0.0,58.892325333327804,19.630775111109287,5.509596223122047,3.8130045088134,3.0704598828111025,2.3192674215178943,1.8342915746239468,1.2956570236216547,0.8525397688500995,0.616113213388141,0.47713171054604314,0.30775417199888194,0.2252994052660206,0.15433568655873223,0.0884316822730883,0.03412813930748774,0.019037266629739844,9.233794240239067,7.683079505954977,6.421067100095596,5.6205292147356705,4.101423561261541,3.3245690825910286,2.549319986539429,1.9202955197075777,1.6556429517694171,1.2377464992865228,0.935256123736284,0.6619117666196332,0.4193839119921802,0.26213315773200874,0.17007119064274134
0.0,24,24.0,0.0,121.0,0.0,0.0,0.0,0.0,-90.0,0.0,-45.0,0.0,0.0,0.0,58.892325333327804,19.630775111109287,5.224618961830128,4.040375899323898,3.2209698089456964,2.5607884286928746,1.856003131639414,1.1952852339101083,0.9416189492530939,0.6414310242351903,0.4582324241569577,0.321121770172766,0.21099719582167015,0.1332593239707196,0.08155247765741128,0.043299847081420005,0.022845701408220263,8.837294686199943,7.709315396031965,6.504251492971035,6.015043111825035,4.325288201376941,3.5064580677031754,2.7012291864332405,2.007679726470301,1.6681623165359507,1.3779925504495838,0.9215026117904291,0.6734914237740086,0.4008898158464504,0.26307553373980175,0.16026297628450617
0.0,25,25.0,0.0,121.0,0.0,0.0,0.0,0.0,-90.0,0.0,-45.0,0.0,0.0,0.0,58.892325333327804,19.630775111109287,5.605029305356457,4.3196027301692705,3.2585858753430568,2.527400998781918,1.8420852443653672,1.335875917523198,0.9080072690160961,0.5650242873916214,0.4218483996152989,0.32381902905467824,0.221956270542437,0.13026106886363725,0.08149930806222686,0.04334656344694614,0.022627209930139912,9.750233457724123,8.102770282869024,6.551401256199121,5.805020351192081,4.314029022031752,3.4984839381900894,2.5674412126674553,2.076592181854858,1.5220235926770038,1.16638896237264,0.9623849399127212,0.6568065151671735,0.434994937453911,0.250880194114722,0.1691612704174424
0.0,26,26.0,0.0,121.0,0.0,0.0,0.0,0.0,-90.0,0.0,-45.0,0.0,0.0,0.0,58.892325333327804,19.630775111109287,5.745586801752469,4.120799809853339,3.3293589220973367,2.2135729627193754,1.6829745208952016,1.3150503327197334,0.8906107666289654,0.6124227965965178,0.4661074469462372,0.3113191710804899,0.2070874911311104,0.13209318689656624,0.08511424086217464,0.04365140820788004,0.025376298564496927,10.416176577602197,8.215289936417816,6.5019420665955,5.596050793337085,4.463822974228113,3.1950414737008703,2.733366984104502,2.107774120834419,1.5178670460791468,1.2560723975842951,0.8857055531633998,0.6106692397073473,0.4189810888959678,0.25997150127976315,0.17305226079978234
0.0,27,27.0,0.0,121.0,0.0,0.0,0.0,0.0,-90.0,0.0,-45.0,0.0,0.0,0.0,58.892325333327804,19.630775111109287,5.759943528680847,3.9880942812757048,3.287718193770664,2.491605470895591,1.9874758045562382,1.2923964509470423,0.8654428948476953,0.5979704589690488,0.4574920086601517,0.33104032006510015,0.2150767856820819,0.13108455984663706,0.07871220864841227,0.03889222685666441,0.018765823648433107,10.617714159330538,7.375076626165396,6.348381708178002,5.163411162417166,4.522209932773775,3.6486539071374033,2.3968581325438922,2.0254068438277795,1.5326696194826916,1.2339423380459862,0.9003494268279573,0.6291834494041988,0.4262884378835755,0.23767662933209469,0.16092312872686215
0.0,28,28.0,0.0,121.0,0.0,0.0,0.0,0.0,-90.0,0.0,-45.0,0.0,0.0,0.0,58.892325333327804,19.630775111109287,5.349577574799105,4.47793802436142,3.302180671299121,2.4860896507576276,1.8278621261921124,1.3089927530924637,0.8902613072525769,0.5953738779061747,0.43477280179625133,0.30537402587338097,0.19884046172010358,0.1281484390516412,0.07387302630897868,0.03860335571593256,0.023488341112444234,9.120571456852703,7.485097337808953,6.3794619144391795,5.050952996582313,4.405847389539549,3.477501926798749,2.7324814877836356,1.9013967115477908,1.6607365423369198,1.2041810297398428,0.8691093590595091,0.6087146965739493,0.4188046697472539,0.2596484424206123,0.16184034357284097
0.0,29,29.0,0.0,121.0,0.0,0.0,0.0,0.0,-90.0,0.0,-45.0,0.0,0.0,0.0,58.892325333327804,19.630775111109287,5.921071966753435,4.388787553854922,3.4990665479607244,2.462891993587508,1.8412398575356617,1.2697011600381785,0.8685268207568478,0.5802868355932721,0.40836188320275396,0.3103310364115892,0.19172710979168728,0.12201269262726631,0.08166190942755022,0.044388658016392024,0.017584150145168436,9.741751858155943,7.9673057296526,6.576126057418688,5.487462202078775,4.024373619973651,3.4824734337897016,2.3803020496859215,2.166766142287013,1.5716527828264402,1.1890523224809915,0.8744192597876314,0.6192785085911208,0.4298197692670583,0.27638446409772854,0.1486204158451812
0.0,30,30.0,0.0,121.0,0.0,0.0,0.0,0.0,-90.0,0.0,-45.0,0.0,0.0,0.0,58.892325333327804,19.630775111109287,5.693468380539148,3.9763605400554627,3.3161013420984635,2.6075329412706414,1.6944936397496093,1.1394169081312793,0.8960029711539763,0.5958389733474501,0.44303613607921805,0.29569142608515236,0.1969016744126285,0.12577734946336197,0.07156510889097756,0.03932899621905182,0.019200162686807926,10.275566605262616,7.436864239821883,6.294393780839947,5.325519500772739,4.320650075262712,3.5162761117489114,2.296259875906609,2.005552719080511,1.580764809178124,1.2121984176921874,0.9387571464349383,0.5727701197941027,0.3965039004035923,0.25676559059542875,0.1525836686151045
0.0,31,31.0,0.0,121.0,0.0,0.0,0.0,0.0,-90.0,0.0,-45.0,0.0,0.0,0.0,58.892325333327804,19.630775111109287,6.192871633254191,4.071463672158702,3.1447241232194,2.585611386301779,1.9236241212929543,1.3123937266240007,0.7341473721516378,0.577534418490628,0.4150385930029518,0.2835010981095782,0.21440883658772444,0.12361417303764292,0.0756463346563429,0.04587804300425418,0.019636074557496344,9.702267121689761,8.109183398287007,6.416239477191834,5.760876591320693,4.808832241698817,3.3102336364359313,2.497126736050624,2.1090302330059294,1.4921045251230485,1.2334092702426078,0.8638518909002714,0.5891236670371294,0.4175206388255739,0.25781015795884515,0.15136837348474105
0.0,32,32.0,0.0,121.0,0.0,0.0,0.0,0.0,-90.0,0.0,-45.0,0.0,0.0,0.0,58.892325333327804,19.630775111109287,5.681493878686542,3.860133452058189,3.3710314453228705,2.455117410494177,1.7228542729873173,1.3043783913843454,0.8441431016940534,0.622818609370967,0.41281182266469263,0.27662190339458426,0.20415612933830646,0.1256417173820939,0.07750328746849533,0.04063395832965781,0.020188362213368474,9.588784101004723,7.6787315042644275,6.446861383604063,5.3780494192954835,4.328664788099016,3.4107275266283072,2.5949738227807972,1.8902402925386876,1.3981344443151493,1.1486988355421945,0.816795596233722,0.5894130809041204,0.41387592965250986,0.2550060892135105,0.14712933773516837
0.0,33,33.0,0.0,121.0,0.0,0.0,0.0,0.0,-90.0,0.0,-45.0,0.0,0.0,0.0,58.892325333327804,19.630775111109287,5.850448809672743,4.420774129617313,3.3489466466485487,2.224062664671664,1.787333978824729,1.1893011410152323,0.8875212529948434,0.6179998691343171,0.3932705920251533,0.2981273984127938,0.20754678970281937,0.11499441387813855,0.07314613552596605,0.04062948016097246,0.023367462988569163,10.438947268249496,7.718813574668688,6.043874982924983,5.048876029294033,4.335651809768745,3.49514381372848,2.3312198362451952,2.0309292642917183,1.51202045762498,1.096073476253893,0.8079305551448438,0.5409474665191122,0.3826379780996829,0.25304042047621017,0.15124955949157654
0.0,34,34.0,0.0,121.0,0.0,0.0,0.0,0.0,-90.0,0.0,-45.0,0.0,0.0,0.0,58.892325333327804,19.630775111109287,6.056820952261349,3.7049944970616058,3.4399388401414033,2.4532069692955587,1.9726967125352894,1.3024213111040317,0.8776949888571152,0.5802130884360809,0.38951724267048654,0.33012066393518014,0.18336416983222947,0.10728224316823642,0.07346888966509459,0.045125437245266686,0.02265381278889476,9.886492501484785,7.2110994980402685,6.482078500748269,5.425992311733845,4.416505636022372,3.317652410870171,2.55926894181394,1.9324602338204098,1.4653144847148907,1.2080293432338425,0.864312629898345,0.6214794018794848,0.399823741415031,0.25592395682305447,0.14796020085306427
0.0,35,35.0,0.0,121.0,0.0,0.0,0.0,0.0,-90.0,0.0,-45.0,0.0,0.0,0.0,58.892325333327804,19.630775111109287,5.846362522190048,4.068766734086439,3.1167418486211655,2.5098099975316983,1.7212223527334003,1.2845949346269188,0.8934307762539853,0.5993863519055743,0.4182615758403062,0.24695574760175634,0.1997332031580546,0.11395064178002676,0.0737423233567958,0.04183039525713864,0.018614556697574093,10.021967727326022,8.062509296843784,6.800382066904671,5.262449935949179,4.833844597412973,3.286468824038168,2.678926405166485,2.046891638950694,1.3794337147968285,1.0301726821252564,0.7582773414454648,0.6024352866381727,0.40743477332723144,0.2641352234150195,0.15091974335667582
0.0,36,36.0,0.0,121.0,0.0,0.0,0.0,0.0,-90.0,0.0,-45.0,0.0,0.0,0.0,58.892325333327804,19.630775111109287,5.754394462605487,4.2485101776533,3.1990407551885682,2.3148076406188416,1.9048279911985428,1.350671714042505,0.8977895773695502,0.6188981579141557,0.39347315677228245,0.26696402173394473,0.1853092622736794,0.11616940128432442,0.06617966061734859,0.038102666357515316,0.022871729457752135,9.682562594271712,7.632617678437151,5.931327818001253,5.501428070275389,4.342461725687114,3.1604894200387306,2.352553393947536,1.9587945811247751,1.560088021491609,1.0962381603048819,0.8257085335001494,0.6235012363075837,0.35995270692676873,0.24327495048277703,0.14165897651154857
0.0,37,37.0,0.0,121.0,0.0,0.0,0.0,0.0,-90.0,0.0,-45.0,0.0,0.0,0.0,58.892325333327804,19.630775111109287,5.576455592647538,3.7026763358231856,3.288517764630576,2.5207111135348126,1.8215361107354837,1.1814101140768565,0.8659669775101871,0.5496049087663918,0.41560834506232924,0.264773930619054,0.17955883875172632,0.11627604743186663,0.06413331632217323,0.037096320724964445,0.01925053979600028,10.431062811577299,7.685195934113402,6.513252721963715,5.165485527027441,4.447072839188633,3.380153771781056,2.649826756369231,1.8610048634749567,1.394220259962335,1.1315117815150637,0.8399569506558875,0.5574600065312567,0.42782750187475754,0.24256434636752827,0.1400510700745601
0.0,38,38.0,0.0,121.0,0.0,0.0,0.0,0.0,-90.0,0.0,-45.0,0.0,0.0,0.0,58.892325333327804,19.630775111109287,5.421372696598731,3.9632146607034464,3.1297648066746415,2.81527586805875,1.9101798040532725,1.197871745976709,0.8266025630821768,0.5201812488518739,0.39912788000072186,0.2688513089559738,0.1607178224445599,0.11458669376475758,0.06725583060734697,0.035001791602993035,0.01593828151824679,9.28729037795448,7.393984474592834,6.337691634032505,5.64437275170815,4.427319577795205,3.3309687799501586,2.5016297798953255,1.9326645085342324,1.472858712439208,1.09308991489677,0.7944303352285201,0.5710856606396228,0.3326353487958011,0.2520754673037628,0.14131217061247833
0.0,39,39.0,0.0,121.0,0.0,0.0,0.0,0.0,-90.0,0.0,-45.0,0.0,0.0,0.0,58.892325333327804,19.630775111109287,6.786031139809245,4.123748718216468,3.44273697557248,2.4521987445989772,1.9422959937118611,1.3828223297604143,0.8421803658558293,0.571888600883875,0.3951116227718183,0.2844285144281982,0.17325168631557025,0.10809578370874436,0.06732151195992778,0.03768302998063021,0.017784840168978584,9.775103413616945,7.075200433894455,6.688963793932473,5.95087285512829,4.253727092828458,3.2177730286501474,2.4449111625813202,1.7609867592450417,1.4681659844036112,0.9878407652085981,0.822451314536183,0.5626033445779817,0.3778312001364674,0.23329675182957998,0.1445238888073538
0.0,40,40.0,0.0,121.0,0.0,0.0,0.0,0.0,-90.0,0.0,-45.0,0.0,0.0,0.0,58.892325333327804,19.630775111109287,5.6795938243372195,3.8160832626244905,3.19067664596328,2.544140872123234,1.836141380315414,1.260146418546135,0.8222175499946597,0.5378027894419168,0.37031321974409204,0.27250474551681214,0.17624205304990456,0.10157200463704401,0.06770681844652342,0.036621634194700915,0.01734878100531646,10.244722435731655,7.847858562606302,6.404457131898982,5.684735299246151,4.1466554129957425,3.423186788021751,2.4223688849072698,1.899320161001202,1.4103898624044602,1.0346477830991874,0.8623763328846914,0.5379695531340032,0.4027637564550629,0.23020025021722845,0.15716145725133188
0.0,41,41.0,0.0,121.0,0.0,0.0,0.0,0.0,-90.0,0.0,-45.0,0.0,0.0,0.0,58.892325333327804,19.630775111109287,5.403500835734504,4.199351210795779,3.6187637473451297,2.5700961271517495,1.9671920406935826,1.1895368900925964,0.7843665536871273,0.5686943306106895,0.38274076370650206,0.2821377940195317,0.16505065591930973,0.11513275718488634,0.06415953750995446,0.0387342828752043,0.02013536421497535,8.694513522470274,8.006408884779065,6.8929341611469805,5.9566538790757395,4.448232761743922,3.355643049942963,2.6488513456341503,1.8025275065490463,1.220238743367775,1.1192073553800157,0.7806205593339552,0.6242581052639942,0.376350872338762,0.23149309278644,0.15514288488668485
0.0,42,42.0,0.0,121.0,0.0,0.0,0.0,0.0,-90.0,0.0,-45.0,0.0,0.0,0.0,58.892325333327804,19.630775111109287,6.267851460993138,4.09333686175669,2.9948099766719065,2.5667228689401,1.7202798603782794,1.3319228155407026,0.820775443352639,0.6234965831674415,0.3530444338545534,0.2533880397389915,0.17821781571453724,0.10298795692636854,0.05851194456540499,0.03695253660534564,0.018675017544610775,9.512301970658815,8.170636202483367,6.542836434643488,4.9823152763682765,4.34299228237903,3.5354061887937624,2.5402056379612272,1.871159493445113,1.3651353734458398,1.1250626082556507,0.7489252910930799,0.6128372162510879,0.3881584148556573,0.2352514159367027,0.14416355588265167
0.0,43,43.0,0.0,121.0,0.0,0.0,0.0,0.0,-90.0,0.0,-45.0,0.0,0.0,0.0,58.892325333327804,19.630775111109287,6.485577995578575,4.151620587563192,3.237873731323809,2.463174337232649,1.7723291124950027,1.1706300687619078,0.9004041674238367,0.5640277210143947,0.3828125331514952,0.22318947343497544,0.17187662569821455,0.1111207618331467,0.06382119207900337,0.03535616705973288,0.018914936200364555,9.890111507167896,7.633674820005797,6.606661198156127,5.791813976524459,4.561178749840206,3.176505926498694,2.688780854452023,1.7287815456842308,1.3424095640527633,1.0029089543836376,0.7508492930147892,0.5220532413835023,0.4064307078151149,0.23834649079040468,0.12741789043389898
0.0,44,44.0,0.0,121.0,0.0,0.0,0.0,0.0,-90.0,0.0,-45.0,0.0,0.0,0.0,58.892325333327804,19.630775111109287,5.99824520016862,3.9723996733868985,3.3437957169456487,2.670489982896075,2.012976190606151,1.3529386634854492,0.7971260882188657,0.5282084587411857,0.38186969406874827,0.26531262370553094,0.1652097922289647,0.11017621651469221,0.06522454208649191,0.03725388781477253,0.01870620052637377,9.551121980802087,7.267083342929412,6.75857178429894,5.545557807104488,4.2124682891253595,3.1503787092211275,2.2996092041813516,1.7464559800091994,1.312768545798115,1.0673693630100098,0.8320546573176042,0.5685825786487447,0.3850697018225279,0.22405655268848113,0.12564619006118746
0.0,45,45.0,0.0,121.0,0.0,0.0,0.0,0.0,-90.0,0.0,-45.0,0.0,0.0,0.0,58.892325333327804,19.630775111109287,6.1875148681184875,4.187256207756446,3.5411935756610164,2.6604895473579115,1.9467891855106423,1.2946041010629215,0.7882811832885503,0.5416645191023405,0.3674665859665024,0.2596803227652205,0.17379048044644252,0.1075737600542314,0.06011002888174516,0.0357554271849247,0.018537913706972917,10.597262878022802,7.968660863141282,6.444888904556629,5.384693140028872,4.801026287292311,3.3071528539461283,2.396081013700633,1.6436066286174758,1.3929550747025234,0.9595791195285593,0.7687675548522294,0.5519941268910098,0.3481187734548677,0.2437271693429677,0.14195819413416474
0.0,46,46.0,0.0,121.0,0.0,0.0,0.0,0.0,-90.0,0.0,-45.0,0.0,0.0,0.0,58.892325333327804,19.630775111109287,6.032843641191772,4.334225836448519,3.2478132993213,2.671178764895268,1.7622283825041707,1.3009892382710961,0.7910583311720017,0.5755300074826833,0.3578729655215872,0.24099971488561933,0.15426432717642985,0.09299118074605293,0.061056786790070754,0.03446946536278512,0.02402506997064659,10.754390550436714,7.831432834022295,6.830456146222314,5.3021719145754185,4.388552574587046,3.546747057676687,2.535570454436512,1.8938490785455173,1.3790847720935382,1.0505908015054182,0.7366128445880855,0.5105950958302437,0.3449510165923722,0.22183643732753283,0.13706320548381387
0.0,47,47.0,0.0,121.0,0.0,0.0,0.0,0.0,-90.0,0.0,-45.0,0.0,0.0,0.0,58.892325333327804,19.630775111109287,6.100699724311702,4.030932240204565,3.5194857714733816,2.587366147858413,1.9132948841751996,1.3314640124070782,0.8962015453238996,0.5047877515873914,0.35825095958130815,0.24284625026808662,0.15465540457929727,0.1106957478315344,0.05820017967361377,0.032159138695783074,0.016569428637373422,9.268455542389255,7.821456949548422,6.2636168896267685,6.192195855128838,4.463157983799622,3.2065794897169293,2.4799371392147433,1.7644906780900287,1.4254270734189567,1.0403572862717263,0.6787890632011342,0.5153064718405543,0.3483374922959782,0.24547901832277214,0.13784481177507632
0.0,48,48.0,0.0,121.0,0.0,0.0,0.0,0.0,-90.0,0.0,-45.0,0.0,0.0,0.0,58.892325333327804,19.630775111109287,5.826813981809104,4.082943976139279,3.528626811696571,2.5910269247612554,1.9544148961948036,1.1943903642108835,0.7656441235368785,0.5137788245058482,0.347252872091446,0.25125095624426136,0.14813715971045038,0.10461314180540998,0.057609316973770426,0.038256103536179004,0.017572581412138005,10.153003696541436,8.277987616022454,6.0056266727574865,5.675251570129353,4.476600818407299,3.4042375003295238,2.5671692059398463,1.670667462417574,1.4422148433198863,0.9750481773778414,0.7356817154584091,0.5302051713658562,0.33532706823247826,0.24977680634469612,0.13167272738107333
0.0,49,49.0,0.0,121.0,0.0,0.0,0.0,0.0,-90.0,0.0,-45.0,0.0,0.0,0.0,58.892325333327804,19.630775111109287,5.79176535121411,4.274693753866779,3.384098448763954,2.6309000585730273,2.011053025789333,1.210998540577095,0.873719831382928,0.5483752637777044,0.34450649002296074,0.2351700903115081,0.16582636537460813,0.09313043582110134,0.05812102411030259,0.04434971948193668,0.018381124428256887,9.984371873104259,8.12518868379054,6.82988010707986,6.0345314743471015,4.153460995126349,3.4303965502961375,2.43980366414441,1.6520761732214837,1.4073914760669988,1.0096959701182249,0.7744708364686808,0.5491257684398655,0.3471733466561438,0.23704639223733262,0.14871953202915428
0.0,50,50.0,0.0,121.0,0.0,0.0,0.0,0.0,-90.0,0.0,-45.0,0.0,0.0,0.0,58.892325333327804,19.630775111109287,5.770289456153703,4.323869754770551,3.417017947247738,2.392368778163186,1.8974133735172198,1.2946156187433118,0.7840138757774455,0.46923115693835926,0.3498111395396201,0.24155022304402135,0.1441121504441229,0.10300321212853966,0.06579615425903945,0.03517428539714166,0.016027819649925,9.614154352985354,8.284446818939294,6.389702116822176,5.780570789829854,4.436763035779298,3.2432018974308745,2.4753595114762916,1.7627944000935303,1.3146475408124818,1.0754380060443323,0.6957728664773366,0.4885420720149406,0.3090139672153939,0.25382690755747245,0.13825921160608537
0.0,51,51.0,0.0,121.0,0.0,0.0,0.0,0.0,-90.0,0.0,-45.0,0.0,0.0,0.0,58.892325333327804,19.630775111109287,6.136377722762167,3.8529932039708727,3.3157014008499868,2.575466708280808,1.863827931991378,1.3260624791489877,0.7701787512918209,0.5475178375991034,0.3282055537662104,0.22564810235978722,0.1405152921485151,0.10266053896910168,0.054900016202115334,0.037020520201476385,0.016954838446782763,9.030516011401456,7.85713766253211,6.560632139645669,5.855294193147162,4.843428699432255,3.557491881180691,2.616335563550903,1.7942275964564491,1.315150483182597,0.9815480925081104,0.6996789144608697,0.5424765215153576,0.34541141552516524,0.2201278609879735,0.13423929380275273
0.0,52,52.0,0.0,121.0,0.0,0.0,0.0,0.0,-90.0,0.0,-45.0,0.0,0.0,0.0,58.892325333327804,19.630775111109287,6.087592130859718,4.444390990034295,3.3540549286924786,2.572560135230165,1.6723724899563686,1.275138515523616,0.8448816331503084,0.5156540200046364,0.33933607609711813,0.218723622363232,0.16764713490379154,0.09444047641597239,0.060566014189252185,0.02966634750840868,0.014736961034039537,10.070040133851334,7.626600910656894,6.425551929007425,5.6793945582764955,4.652274824662588,3.4925251103814676,2.7476495482013155,1.8186514346676932,1.383848031150624,0.9143219841571646,0.7083311797699144,0.48914218495400136,0.34681790718561734,0.2183398633898045,0.13997819990005378
0.0,53,53.0,0.0,121.0,0.0,0.0,0.0,0.0,-90.0,0.0,-45.0,0.0,0.0,0.0,58.892325333327804,19.630775111109287,6.225975302904575,4.4969902392032335,3.3445211593107294,2.746882550362793,1.885962461652748,1.2563931815852951,0.8420659996294981,0.518777820335001,0.30690467108402725,0.2280110029823932,0.1603657555013397,0.104421514968803,0.0623583696796116,0.038358400034036656,0.018613518633450288,10.88559847288616,8.482778406626526,6.945666301269316,5.639621154753996,4.374968091605096,3.3578100220317584,2.6298341822710034,1.8476934026153813,1.3025130925483925,0.9004778543909076,0.6921630062244308,0.5134746064201058,0.34183587540108473,0.21878360023297916,0.12400418806888018
0.0,54,54.0,0.0,121.0,0.0,0.0,0.0,0.0,-90.0,0.0,-45.0,0.0,0.0,0.0,58.892325333327804,19.630775111109287,6.077736386340916,4.621298227213047,3.558381880082148,2.7006576010633254,1.8876801112120873,1.3156200220061172,0.7410657217631372,0.5069636302098807,0.3286060313996103,0.23738067869995888,0.1525412770144143,0.10142293553794735,0.060664338838124346,0.03189204049465145,0.015960461607735517,10.696525183662132,7.164430619953606,6.301159580770304,5.613364692266435,4.944336096520665,3.3448683996008466,2.2614332660603025,1.9106162124769233,1.1820288628818103,0.9153996756072804,0.7212253557524294,0.5095979421469621,0.33595475421160903,0.24720537432468584,0.13318027052479128
0.0,55,55.0,0.0,121.0,0.0,0.0,0.0,0.0,-90.0,0.0,-45.0,0.0,0.0,0.0,58.892325333327804,19.630775111109287,6.73466199978204,4.3832918023267755,3.373874112268272,2.770295776375932,1.982793437597169,1.334988347066548,0.7713920623336502,0.4847138627749181,0.3296212636640452,0.20584449873546007,0.1543331021173155,0.09287866204070926,0.0589402291878407,0.029557913477380512,0.019248904939823702,9.48648373727443,7.277339274960173,7.058773493144458,5.618082035004569,4.537689524517338,3.5237314202554817,2.817851974682088,1.721742256087219,1.3265240561081664,0.9581262793691722,0.70263923424122,0.4712708321613957,0.3278732201407929,0.21464610311981724,0.13914787621297295
0.0,56,56.0,0.0,121.0,0.0,0.0,0.0,0.0,-90.0,0.0,-45.0,0.0,0.0,0.0,58.892325333327804,19.630775111109287,6.307721104164727,4.127750403009449,3.5648560175047677,2.611938804011585,1.906240494638373,1.3768080264683693,0.8111743074839933,0.5338027800720386,0.2958995043221587,0.19591643737941247,0.15145458804254142,0.0878924473198788,0.06320555127373989,0.03360182001156799,0.014670992484185776,9.405635169409395,8.056395619529766,7.195554908821258,5.311901529273209,4.517662793667416,3.507596287201534,2.4635004332140675,1.733138202480084,1.37699603005284,0.9616285285367933,0.6493041308239482,0.48995888479974176,0.3196452269111213,0.23402811500832324,0.1409817916901011
0.0,57,57.0,0.0,121.0,0.0,0.0,0.0,0.0,-90.0,0.0,-45.0,0.0,0.0,0.0,58.892325333327804,19.630775111109287,6.175548168023014,4.356436097475994,3.3112354687662604,2.639625121040353,1.863521910435299,1.4046986548574067,0.869964921341201,0.5442427829667863,0.3329464776623494,0.23228435040669562,0.15734845483067966,0.09201431346277275,0.05897520393647713,0.03224255065765791,0.018227371324558324,9.535266510173713,7.356899236960897,7.21119597587653,5.470663812313408,4.714056746626695,3.5147744111516017,2.767089036320085,1.6604015864324053,1.349152355497811,0.9456750595100153,0.6953515908898448,0.5025680622755266,0.33131802616242656,0.21863350145644603,0.1306822270228838
0.0,58,58.0,0.0,121.0,0.0,0.0,0.0,0.0,-90.0,0.0,-45.0,0.0,0.0,0.0,58.892325333327804,19.630775111109287,6.3318065810040105,4.510849211914614,3.587121072265193,2.512006903978772,1.930603479736427,1.2493531344787487,0.841532224197779,0.5016997247802621,0.3589672383477569,0.2076017190140942,0.14344835399116093,0.09831976694099644,0.0512020503496946,0.031104366640020524,0.016963812452437683,9.953568512387077,8.654260993072889,7.202848504340597,5.656071017149213,4.389134190597064,3.7281811724744984,2.4474419925824176,1.796331774412266,1.3103542000094381,0.9352455361639868,0.6626422294985185,0.46342024706562795,0.3252239939621882,0.20529095648749074,0.12577010130948024
0.0,59,59.0,0.0,121.0,0.0,0.0,0.0,0.0,-90.0,0.0,-45.0,0.0,0.0,0.0,58.892325333327804,19.630775111109287,6.272846631285894,4.242345051034276,3.33494850256433,2.606681632457019,1.9302419043109855,1.2159960355101607,0.8155466146828322,0.5063976509985585,0.3412648714361633,0.2198954043740358,0.14797042691982837,0.0912117733640312,0.056135728930110054,0.031116192859471946,0.015872670815244055,10.18271235949606,7.437320463464947,6.9330715510351455,5.499248684593017,4.396722727005328,3.3645649510698603,2.514816860787161,1.7560262525801857,1.2325045960239394,0.8670204902618903,0.7355459884474934,0.47469682845837446,0.32107975939555533,0.2047551082839737,0.13339145804318475
0.0,60,60.0,0.0,121.0,0.0,0.0,0.0,0.0,-90.0,0.0,-45.0,0.0,0.0,0.0,58.892325333327804,19.630775111109287,6.436535294773202,4.2108188779986815,3.7716915850263284,2.4314542827391357,1.9959884297137802,1.3765806010838644,0.7940278159298547,0.5425240546640011,0.3249533295731191,0.2102949450460807,0.15368266687369087,0.09118010741644896,0.053750411044793764,0.0338953086736285,0.01710541898898608,9.791247935086483,7.539293448378265,7.491914294903339,5.704716530335049,4.442131592171266,3.4300400932390285,2.4326637945653853,1.7646104727395253,1.3111596905154155,0.8550613917661704,0.6812957585372817,0.475100259358059,0.31244247377914763,0.20429008135016724,0.1360124910310954
0.0,61,61.0,0.0,121.0,0.0,0.0,0.0,0.0,-90.0,0.0,-45.0,0.0,0.0,0.0,58.892325333327804,19.630775111109287,5.661484537360644,4.6538836097458045,3.1379682762356316,2.5482571251007946,2.10980976852564,1.288390390933899,0.8203255852556943,0.5047434876612318,0.3155717645430237,0.2267892034701088,0.11633941664147368,0.08178145900059065,0.053504549078131174,0.029529898757268375,0.01280036018874759,10.030570011717415,7.930359491457917,7.125395552373037,6.025638817422922,4.67168631281837,3.5769351511464156,2.6043718665186795,1.6877163846897616,1.324707537504282,0.8412673812880678,0.6191176082506414,0.5029376324313037,0.3481108757065455,0.2001456551415316,0.1237661332850075
0.0,62,62.0,0.0,121.0,0.0,0.0,0.0,0.0,-90.0,0.0,-45.0,0.0,0.0,0.0,58.892325333327804,19.630775111109287,6.056356981637106,4.540316418812555,3.499657886474491,2.6159583184456965,1.9694334412858165,1.3277948091319678,0.8639293559266461,0.5085435932423413,0.32152330635076043,0.1989851071726755,0.13635997983544595,0.08587218061210455,0.05311004982302355,0.031304610257778934,0.01483813938265194,10.612289379822982,9.095983210385842,6.865968339395806,5.986340533400584,4.430113749669738,3.5321740505458417,2.5919404073834307,1.9572189124996089,1.1996935379423672,0.8405700946014462,0.6472909775892101,0.47129374439146576,0.340314522491151,0.2208717961154937,0.12408132065413782
0.0,63,63.0,0.0,121.0,0.0,0.0,0.0,0.0,-90.0,0.0,-45.0,0.0,0.0,0.0,58.892325333327804,19.630775111109287,6.450372008766286,4.668798925789773,3.425551573118212,2.9975699076174687,1.965131758312052,1.3597053609345648,0.8289728961513017,0.48624481854489826,0.31766884698055287,0.20579955293836918,0.13010608424113562,0.08915001470610105,0.053861545868900046,0.026330401524442153,0.013411341172295631,10.162393710850976,8.51260235415531,6.738744602795479,6.566813581331653,4.414266616348696,3.7011822846110407,2.5149317217000102,1.8923831921686822,1.2820608588869575,0.905940821088176,0.6599748972741498,0.5197186380447938,0.29361303499817326,0.1926497803370215,0.12183748510767908
0.0,64,64.0,0.0,121.0,0.0,0.0,0.0,0.0,-90.0,0.0,-45.0,0.0,0.0,0.0,58.892325333327804,19.630775111109287,6.856047689987114,4.327132301265897,3.7114119470050912,2.753785416486157,1.9163357074193608,1.3177257922717003,0.7380384669246924,0.4904397842947359,0.29193023453518424,0.20506142914721465,0.12895129862403806,0.08717829934143644,0.05110592420139684,0.031005964743167563,0.013941581343306756,9.986553921672197,7.939439065026503,7.248703922044785,6.432936216145294,4.640747526376462,3.35137903528801,2.4060349447300537,1.7812540396376635,1.205199733913985,0.9257411907268651,0.6438586454659444,0.45553762423724453,0.30115026966720015,0.2309583728053322,0.1314879261829077
0.0,65,65.0,0.0,121.0,0.0,0.0,0.0,0.0,-90.0,0.0,-45.0,0.0,0.0,0.0,58.892325333327804,19.630775111109287,6.680228453206595,4.678828484768417,3.425031080330353,2.842438456602855,2.049984549768768,1.2838161095480367,0.837308240413716,0.5706880399832874,0.31811370700933517,0.22163505707112383,0.12865783857021978,0.08817665920274141,0.053799152340943686,0.0311480017482525,0.01046900972455881,10.396725531663778,8.20734535130997,7.40883920112669,5.755883843556912,4.314674613835813,3.553645712158093,2.57824229808318,1.7639110724811893,1.267465412551353,0.887362418148767,0.659658122827193,0.4431058327552563,0.3281349647027984,0.2112710113466548,0.10868288943757361
0.0,66,66.0,0.0,121.0,0.0,0.0,0.0,0.0,-90.0,0.0,-45.0,0.0,0.0,0.0,58.892325333327804,19.630775111109287,6.298057302804119,4.770603662408991,3.709243258629547,2.673872056652204,2.0209044346358103,1.2902396520833945,0.7961340414954172,0.501738239392957,0.31625624401171937,0.2194960422046917,0.14350892286390815,0.08024414095965993,0.05137320518817873,0.029199074416593657,0.01433546905708137,10.351269548242865,8.074130297247438,7.161093114071814,5.980490275587091,4.32278908924439,3.42191900808654,2.4676956736237874,1.831089914074427,1.168206755989435,0.9719507594808232,0.5832945102081432,0.42438537260227427,0.30200623735022186,0.20257604774895907,0.13333284459436928
0.0,67,67.0,0.0,121.0,0.0,0.0,0.0,0.0,-90.0,0.0,-45.0,0.0,0.0,0.0,58.892325333327804,19.630775111109287,6.401267675577848,4.452597850716139,3.604252290263654,2.6007566115668137,2.0061181565922848,1.3202717071730383,0.9147741411854802,0.5020618888052568,0.30992578499246076,0.20094331684167854,0.13340811966349295,0.08962633961199265,0.0520542521063814,0.028862082370254078,0.013328566955058851,10.510779063514905,8.271580911277116,6.944830985934795,5.814316112610973,4.339991135220444,3.3211828681455375,2.5475902144062452,1.787789069841903,1.18982300444633,0.8943586649147455,0.6601156641005523,0.504149182310281,0.26789939875382146,0.20390678110051505,0.12438524160384841
0.0,68,68.0,0.0,121.0,0.0,0.0,0.0,0.0,-90.0,0.0,-45.0,0.0,0.0,0.0,58.892325333327804,19.630775111109287,6.649908658067614,3.9307911057536487,3.7228479909515344,2.9105936104577044,1.936347080422979,1.2629637515058423,0.7884295955938871,0.4935585479179737,0.33365352896225875,0.20044666440962003,0.1271585294763291,0.085050061429115,0.04954871163920425,0.025034542415628205,0.014831005716253847,10.335562515653214,7.916184514101788,6.602306205770319,6.084788947976704,5.231138123357764,3.293766587409219,2.2535398378004494,1.662148543517952,1.3469761283579402,0.9107854807463228,0.6363219792035041,0.4580961069802853,0.31050201118336535,0.2012172683864891,0.13973859237278913
0.0,69,69.0,0.0,121.0,0.0,0.0,0.0,0.0,-90.0,0.0,-45.0,0.0,0.0,0.0,58.892325333327804,19.630775111109287,7.042168307642515,4.393851420141863,3.524800354096511,2.793227927729581,1.9456931680953284,1.1772189601993175,0.7314571049539493,0.48890765440542244,0.3158638334681844,0.19088193209552626,0.12437127597545815,0.08608304531417375,0.049787347192360054,0.030885916611075055,0.016589914543062766,9.68117081559049,8.30223381423798,7.072065252791247,5.8212487203286045,4.782777502259087,3.587877071879847,2.5455466180068367,1.6872014814859067,1.298307199206922,0.9081489936611953,0.6706742361398528,0.462721546152698,0.30190160545505285,0.21054238494813213,0.12152106363455122
0.0,70,70.0,0.0,121.0,0.0,0.0,0.0,0.0,-90.0,0.0,-45.0,0.0,0.0,0.0,58.892325333327804,19.630775111109287,6.595280868250226,4.101385101178827,3.2229649132228837,2.707550547370193,2.0251145763978142,1.335658288363036,0.823046103491742,0.49652496855351924,0.29569377281560444,0.19282308963755926,0.1373415253191565,0.08279712360619655,0.048617599742577726,0.029741768887169347,0.014547619634874295,9.673862316106705,8.214486355997273,7.178572738711959,5.9327158189098395,4.4430704921936615,3.1124368469542882,2.709497742425879,1.8868823449272933,1.3687446618727197,0.944211464545529,0.6024395051215109,0.42288261836251956,0.27922309858275035,0.19890036803848082,0.1307372697058435
0.0,71,71.0,0.0,121.0,0.0,0.0,0.0,0.0,-90.0,0.0,-45.0,0.0,0.0,0.0,58.892325333327804,19.630775111109287,6.282628753826642,4.766356581324362,3.4097276905537215,2.7847044508619976,1.9684283019929187,1.3780088716725896,0.8238029805308352,0.531627626247285,0.3263987356374244,0.19386720804477248,0.13833068066134122,0.07914160732847364,0.04713750734311102,0.02152458496436684,0.015213434406700635,9.532451041872367,7.866173095381711,7.155066595295592,6.319071380790015,4.464620867975972,3.017304111042529,2.613864340995754,1.6800627134466617,1.2065819087214473,0.8579442045067822,0.6618242881856775,0.4812416127933418,0.2948190467410964,0.20199514349280948,0.1263701348514179
0.0,72,72.0,0.0,121.0,0.0,0.0,0.0,0.0,-90.0,0.0,-45.0,0.0,0.0,0.0,58.892325333327804,19.630775111109287,5.980735731664361,4.683632693386092,3.354286155762567,2.645292528419452,2.033793704567101,1.3204114917756558,0.855125298842958,0.4831375865272713,0.31168812511203636,0.19621988989456432,0.12973605415419984,0.07623110291979011,0.045719416553439834,0.029759520855812023,0.013941506591315768,10.82595398371031,9.190209540555841,7.9025306346861175,6.165567216776519,4.6882116948720745,3.4062979544644163,2.4640865378163253,1.5659219817223988,1.229205533048368,0.9107245024414867,0.612550238286585,0.44811532529306203,0.3043816128986807,0.20051373923504684,0.11009771123777704
0.0,73,73.0,0.0,121.0,0.0,0.0,0.0,0.0,-90.0,0.0,-45.0,0.0,0.0,0.0,58.892325333327804,19.630775111109287,6.619143211426991,4.51774729677696,3.6973246915117084,2.5602330084259983,1.9347453918797126,1.264227617980006,0.8120642320332085,0.47753570355065716,0.32421327326278876,0.21188333719412936,0.1261824712613301,0.07245869263085584,0.04598613739677598,0.029764380071178077,0.013164161068476787,10.427861485727654,8.237099891179527,6.7245149303412735,5.9251851168064595,4.687167914005919,3.6310485147815994,2.5169029192034755,1.793331582853716,1.2998107274272261,0.9212898158366776,0.5874565560456311,0.43203536380391994,0.3080168930926866,0.18622762082938,0.1316359820461558
0.0,74,74.0,0.0,121.0,0.0,0.0,0.0,0.0,-90.0,0.0,-45.0,0.0,0.0,0.0,58.892325333327804,19.630775111109287,6.326120372729888,4.8324983920483735,3.476073297923576,2.896194476167521,1.976550072659496,1.3580742195509,0.8129316841383765,0.4857074726617208,0.32314168301775037,0.18633880347540252,0.1433502956510323,0.08305045862120544,0.047547333904060574,0.03029806071956273,0.014458729177959555,9.46912643472995,8.786539433887237,7.6350169891562665,5.420538033651359,4.877997795139179,3.4385802879324103,2.6170238749011254,1.7682990020130622,1.2372155255777892,0.8462882930645126,0.627481609460767,0.4274352548881641,0.27543572798296917,0.1943470273589268,0.1120177547139091
0.0,75,75.0,0.0,121.0,0.0,0.0,0.0,0.0,-90.0,0.0,-45.0,0.0,0.0,0.0,58.892325333327804,19.630775111109287,6.30147913117663,5.089124406099968,3.4184515979169885,2.6594654909204927,1.9863558941543724,1.3588607615766748,0.8549046100239406,0.49796232284693986,0.30960715939347944,0.19564253471897697,0.1318941576226486,0.07592085889598411,0.044108387757842794,0.02846103938248538,0.014403737768378048,9.733888662196597,7.963824703173557,7.135892647557107,6.180170957725992,4.405888940022482,3.2621822641800464,2.7193920413013855,1.8083987990442345,1.2111505722236116,0.9383844181981478,0.616898052588188,0.4292719900704483,0.26681224332565584,0.1831309598221951,0.12166291004388824
0.0,76,76.0,0.0,121.0,0.0,0.0,0.0,0.0,-90.0,0.0,-45.0,0.0,0.0,0.0,58.892325333327804,19.630775111109287,6.262484511986818,4.312168247840929,3.27894498181766,2.6265484895714004,1.9666112123732327,1.217769478179791,0.8596474530826712,0.46754088214677525,0.3206121176919243,0.1977165054972451,0.12734061029295163,0.07913544054440026,0.04612495816546462,0.025012841809157575,0.016172429419087413,9.572238532161842,8.495407520938954,6.779901589582703,6.9247006946077425,4.598478158123296,3.8564242857309283,2.4001033186457166,1.6766481622472396,1.217528699342206,0.8129275612627624,0.6372724853618779,0.43721308427451094,0.2825001067390306,0.17297429913285506,0.11224922139955217
0.0,77,77.0,0.0,121.0,0.0,0.0,0.0,0.0,-90.0,0.0,-45.0,0.0,0.0,0.0,58.892325333327804,19.630775111109287,6.591753549928774,4.59157682982064,3.6902409381370185,2.510578746507048,1.9651038019806457,1.2776332536979196,0.8123689334078946,0.5235001812836568,0.32764256289342486,0.1850405486904576,0.1210150457060086,0.08236801107907563,0.04410967352229244,0.024339666332390184,0.012711608926354308,10.334187392118421,8.794389090323609,7.10144520605486,5.992502956323691,4.802813286661914,3.6214206093428496,2.7780681815743296,1.8438110864709545,1.1930270800626932,0.9305837989579513,0.6156735229991221,0.4001735354956112,0.29319330301073515,0.18865846414555998,0.11427002369666847
0.0,78,78.0,0.0,121.0,0.0,0.0,0.0,0.0,-90.0,0.0,-45.0,0.0,0.0,0.0,58.892325333327804,19.630775111109287,6.504205952870228,4.344631666595839,3.6694247516214715,2.7278397158465455,2.03834356518594,1.368859136238478,0.7654799689452302,0.47006561538230845,0.30188609256216314,0.19558864186436722,0.1361138002761845,0.07565696000797832,0.05093691936786199,0.030621018991616844,0.014344927022214562,9.707695500560533,9.220372520795282,6.983771531931968,5.82155641732471,5.110221886332089,3.473157067311818,2.6027439909209917,1.8077090563605929,1.299816516164413,0.8051063324696314,0.5934339553868413,0.40715812294774234,0.2752859890710581,0.19850416064397658,0.11158116669469109
0.0,79,79.0,0.0,121.0,0.0,0.0,0.0,0.0,-90.0,0.0,-45.0,0.0,0.0,0.0,58.892325333327804,19.630775111109287,6.519143941369632,4.406400396434865,3.8336047861137024,2.6843687103070777,2.114437625683412,1.3204712746466725,0.847752345722829,0.49076174491191427,0.32708464698917933,0.16937559216777323,0.11967564164821627,0.07031203541829562,0.04542422094422443,0.02601217545778961,0.015779448134047518,10.070334461954321,7.857912358619535,7.309786815355462,5.905000951929363,5.05882858463123,3.8091677590573645,2.519094845889546,1.8144102245661469,1.326482159273264,0.8324690928418794,0.5421472919114427,0.41554916395911473,0.30569117519108335,0.19719264561385672,0.1186251319055346
0.0,80,80.0,0.0,121.0,0.0,0.0,0.0,0.0,-90.0,0.0,-45.0,0.0,0.0,0.0,58.892325333327804,19.630775111109287,6.61114984729771,4.480972014336896,3.6704740063998265,2.5908138400185976,1.9983469164100698,1.3566105534059227,0.8484118929426104,0.5043287434861222,0.3012225436377172,0.17257908638093838,0.11590178400889384,0.07727140660096025,0.04872372582987617,0.027389503457462005,0.014377036623039872,10.8261740561022,8.227587271590354,6.736375623343047,5.52002527777825,4.845765566755189,3.7034526169423723,2.4933945256965004,1.846263634467306,1.2437385424567546,0.8380511623297823,0.5960467616832419,0.414170124479879,0.2813992946703343,0.19191012610950306,0.10933173883266219
0.0,81,81.0,0.0,121.0,0.0,0.0,0.0,0.0,-90.0,0.0,-45.0,0.0,0.0,0.0,58.892325333327804,19.630775111109287,6.5420088629208895,4.826401057992037,3.4945642505849075,2.79771244902564,1.9249905370493228,1.3504858327473328,0.7977627358216461,0.5256459159808127,0.31271440697113095,0.17315830481712186,0.12553767455511233,0.07382819896932227,0.045977631232914415,0.02964727307815879,0.013176609038127955,10.296179937769388,7.987024107491978,6.609587604385636,5.870757675505008,4.5636116835566956,3.8434066512076925,2.649824911459196,1.825033033815769,1.2204559549632772,0.9189222976093558,0.5421243294089514,0.39929477796250606,0.25875060725298993,0.17941372722410723,0.11285978682813887
0.0,82,82.0,0.0,121.0,0.0,0.0,0.0,0.0,-90.0,0.0,-45.0,0.0,0.0,0.0,58.892325333327804,19.630775111109287,7.01047240090874,4.713512323297626,3.650137836401984,3.1410366542576016,1.8520621626591338,1.3066862737029707,0.8226823137091227,0.5077976762596256,0.3278474415748641,0.19513594584267654,0.11216136696994555,0.06903311028455912,0.04277994821265269,0.02436365367761169,0.01348593678980262,10.051763666537221,8.521778667346448,7.2939406466749315,5.953978838528876,4.98684697174011,3.6694428461408974,2.568916821420256,1.715714162127012,1.2659995512656743,0.8165644024576257,0.5907319700874859,0.4059554777664385,0.28296779370806385,0.17920265098018867,0.10437056765331412
0.0,83,83.0,0.0,121.0,0.0,0.0,0.0,0.0,-90.0,0.0,-45.0,0.0,0.0,0.0,58.892325333327804,19.630775111109287,6.195478710980344,4.270297948131611,3.8782720768531003,2.9628186167562345,2.0884893903116386,1.3838045988738115,0.8171788280332875,0.49327849858837103,0.28199810714285817,0.18664187404328092,0.11876943345458783,0.07010549280942432,0.043901068708925836,0.02537048179838766,0.0111683107651509,11.024600742227072,8.227888552351965,6.597543353009416,5.7175548352191585,4.832884607298143,3.6641855036961517,2.411919792584541,1.6700830641771802,1.1612229508819432,0.822930375746367,0.5157359703263832,0.3914965325156484,0.2618501292663355,0.1794524532502822,0.11004593235589268
0.0,84,84.0,0.0,121.0,0.0,0.0,0.0,0.0,-90.0,0.0,-45.0,0.0,0.0,0.0,58.892325333327804,19.630775111109287,7.07237749654797,4.21013261173023,3.774514921849539,2.8156043277167,1.9638559184539885,1.2937745534839795,0.8041608148536334,0.5105404296595958,0.33458248588017087,0.17792756350980085,0.112434162466295,0.07725506934535577,0.038692932930566776,0.02150422250164982,0.015475965573052716,10.602475146695964,8.815862014306974,6.645891067633106,6.22319572660971,4.747907140885136,3.7594524453087432,2.498737463017054,1.6842003798299627,1.1589256719062764,0.8567290389944096,0.5697204573888268,0.4118789400323056,0.2913720885031279,0.17618359827142985,0.12352843342603292
0.0,85,85.0,0.0,121.0,0.0,0.0,0.0,0.0,-90.0,0.0,-45.0,0.0,0.0,0.0,58.892325333327804,19.630775111109287,6.698650315463206,5.079512142565682,3.680151194738365,2.751073987996321,2.024082702926868,1.2811853423545156,0.8655661774823078,0.4854187544874736,0.2935475381162963,0.17714010529789861,0.11870406140723555,0.07750280482333397,0.04386196332141368,0.027668612447303627,0.014561263896088666,9.74562615020301,7.681655171504943,7.160513983281154,6.1255757955279195,4.678605890668726,3.4233717119259404,2.487779238635494,1.7957938183489992,1.2490465889492355,0.8195900221048039,0.5590855653802914,0.40063119901822164,0.28197528193483123,0.17765721139856622,0.1064750260170264
0.0,86,86.0,0.0,121.0,0.0,0.0,0.0,0.0,-90.0,0.0,-45.0,0.0,0.0,0.0,58.892325333327804,19.630775111109287,6.6432122660832835,5.0858923923172945,3.6958432902661476,2.8151044826551432,1.9154910322198155,1.3816191126340316,0.90009568443092,0.5783424269558892,0.31238184568998456,0.16518112638122914,0.09383459320068206,0.07433396023580753,0.046814181746605926,0.026349754304754894,0.015260872396989963,10.05491345954278,8.774863323518266,6.94881428189548,5.995948270320262,4.943715972537355,3.3859497816382196,2.4502942661208644,1.7200316485935416,1.2183571518407446,0.8882139154555396,0.6196121355919565,0.3717197636022472,0.2768911990015653,0.1896928141797474,0.10644651117877718
0.0,87,87.0,0.0,121.0,0.0,0.0,0.0,0.0,-90.0,0.0,-45.0,0.0,0.0,0.0,58.892325333327804,19.630775111109287,6.868016566971564,4.794527456930902,3.425065328550491,2.7135959724191063,2.0163194988798607,1.3119309757058872,0.882365254215795,0.513871821972201,0.3045257762043372,0.17707808273217654,0.12059753333837785,0.06832115917119234,0.04309457762745691,0.024457512050524283,0.01299904193507392,9.885955575489335,8.317968903722173,7.580469513576938,6.032684181279485,4.635125701849543,3.6015061503011907,2.5916012873568652,1.7533696804544077,1.2862254915102926,0.860699495470757,0.5634562893962647,0.39549968505126226,0.27732061216034604,0.1808345804776986,0.10091535942297168
