Line_number,Fiducial,Easting,Northing,Height,Elevation,tx_pitch,tx_roll,tx_yaw,txrx_dx,txrx_dy,txrx_dz,rx_pitch,rx_roll,rx_yaw,PX,PZ,S0X_time_1.086e-05,S0X_time_3.256e-05,S0X_time_5.426e-05,S0X_time_8.680e-05,S0X_time_1.411e-04,S0X_time_2.279e-04,S0X_time_3.689e-04,S0X_time_5.860e-04,S0X_time_9.115e-04,S0X_time_1.411e-03,S0X_time_2.192e-03,S0X_time_3.418e-03,S0X_time_5.339e-03,S0X_time_8.301e-03,S0X_time_1.338e-02,S0Z_time_1.086e-05,S0Z_time_3.256e-05,S0Z_time_5.426e-05,S0Z_time_8.680e-05,S0Z_time_1.411e-04,S0Z_time_2.279e-04,S0Z_time_3.689e-04,S0Z_time_5.860e-04,S0Z_time_9.115e-04,S0Z_time_1.411e-03,S0Z_time_2.192e-03,S0Z_time_3.418e-03,S0Z_time_5.339e-03,S0Z_time_8.301e-03,S0Z_time_1.338e-02
0.0,0.0,0.0,0.0,120.0,0.0,0.0976270078546495,0.38506318015553176,-0.4447425874105362,-107.0240403389464,0.0,-44.993881490911704,-0.7040334195216622,0.3991501204495027,0.9959245026573469,34.27502789733331,17.548303877028573,4.422513605213606,2.730376724966755,2.2135553825505943,1.6411761648458554,1.7176287605773557,0.9079965590042351,0.4460197539164156,0.5602763215532638,0.4532252888023669,-0.021682229909536138,-0.18144048257318066,0.20539170162397638,-0.33900355981546404,-0.20516134285065896,0.16826176577952265,6.917356642541604,4.876356044167438,4.30792006005064,3.722314959311887,3.0112512023372364,2.640234870028606,2.0007936516640976,1.330030632232233,0.8792003706568691,0.7676865838475079,0.30741535750146426,0.16641100949195228,0.13604614759778566,0.18532547914539643,0.1676374722590448
0.0,1.0,1.0,0.0,120.0,0.0,0.43037873274483895,0.45050855963928105,0.17356869291633759,-107.0277397558222,0.0,-45.02801033516755,-0.2984921922547515,0.9359311332084541,-0.2756218821212213,34.27502789733331,17.548303877028573,4.50809890040541,2.7321188507273844,1.9442279083615701,1.764422022227138,1.2776865681533134,0.8621264033217086,0.9831720281768731,0.28079626862827817,0.1468201479285911,0.19035870806117144,0.2867453596870893,0.11253863216853012,0.4875087893079739,-0.007049094214781157,0.046593417587528475,6.9603310608971025,5.082108206056543,4.345787427260683,3.7598179902004905,3.099922959139592,2.602429212154607,2.07663176777004,1.3290728674242651,0.9663068865396462,0.6036585598904362,0.42556091078487296,0.1255261629075949,0.31627176001535423,-0.057124990320335654,-0.005233367407728444
0.0,2.0,2.0,0.0,120.0,0.0,0.20552675214328775,0.002648763853404512,0.7277112118464628,-106.93261266851786,0.0,-45.04058362048315,0.9426175936495366,0.9888015792953588,-0.05870210157218092,34.27502789733331,17.548303877028573,4.74395742437124,2.7426648413576102,2.3630652054876853,1.751630143441614,1.4438590654783272,1.0769167532626769,0.9958008599800928,0.5626719892774819,0.391769982528833,0.02205747996458389,0.234043872348059,0.0702518100144712,0.25271155745450585,0.3520025665286072,-0.05046694488840862,6.878917045388629,4.836350003464573,4.293090777130935,3.7581914252565998,3.278466627212585,2.6191244888053915,1.9642419920447265,1.5237784908517973,0.8704103382770252,0.6475957615140114,0.3265320096243441,0.270447510948256,0.23458416381387132,0.03125694584112636,0.06694541060751433
0.0,3.0,3.0,0.0,120.0,0.0,0.08976636599379373,0.9121672694464478,-0.7649362880759338,-107.15994904164651,0.0,-45.00146394406384,-0.6164601176620557,-0.09635663466048072,-0.24350965015307646,34.27502789733331,17.548303877028573,4.599480960499028,2.552482345391251,2.2698933629182343,1.910982116394302,1.5551279289308657,1.0690921189395803,0.7661207255116184,0.2655286032602343,0.20682847213286193,0.23969466075012258,0.22490514909589482,-0.03943267738067932,0.03267173818854154,0.04542797972116229,0.036909738778637825,6.997856260002408,4.742537389161696,4.321339512406936,3.8476248113157343,3.1703033091088884,2.8517237949341308,2.069743440320151,1.6218794977851099,0.9231983395684993,0.5513032492585757,0.3990871075031593,0.06352707540727134,0.13435172069389814,0.06858448867433288,0.11859023555427038
0.0,4.0,4.0,0.0,120.0,0.0,-0.15269040132219058,0.2879803984592748,0.03475821430822834,-106.92616383741948,0.0,-44.93255032949297,0.841033237252376,-0.8582604436315833,0.9590538586709172,34.27502789733331,17.548303877028573,4.704450291063108,2.6362717042682715,2.039340984861774,2.1839948014971857,1.359039502475651,0.9440297579124146,0.5850816019472552,0.6812926994841109,0.193467178838447,0.02209187897997797,0.09908047444064769,-0.0006463122464020754,-0.10115452581623874,0.1360303434973513,0.18536963981314108,7.055150776914999,5.049221011476062,4.388701635449699,3.6511528838000906,3.478548813117795,2.7523781304342196,2.1617987747498963,1.6254224878245631,1.168725410917834,0.6988489553642919,0.43388983771878153,0.1685360104042014,0.12221052986115012,-0.0140598298856206,-0.034508035642414
0.0,5.0,5.0,0.0,120.0,0.0,0.29178822613331223,-0.15228990288364064,-0.7358637873096934,-107.03949398487532,0.0,-45.125263482218685,0.11402618901145431,-0.4144119371189623,-0.6506832292099884,34.27502789733331,17.548303877028573,4.3977020903698705,2.698016577690702,2.446351686671392,2.4624997451100934,1.5518902033032624,0.911770055340784,1.0212065787664526,0.4542000436724024,0.18291645847369248,0.19660709688086292,-0.13405234067878252,0.07499828510228265,0.0008925222102001921,0.023661610406638667,0.06797707310511321,6.945059522955858,4.978910877625252,4.393331098736543,3.9057458781476444,3.2193049780008796,2.6097221650375535,2.1378371952773367,1.423029403429204,1.0783852448796516,0.7721360313237527,0.4650938946647027,0.13673903664710946,0.04674995168001243,0.0928151694344127,-0.005517884354602792
0.0,6.0,6.0,0.0,120.0,0.0,-0.12482557747461498,0.2127864282558487,0.4337193623851874,-106.98975446422172,0.0,-44.97644521744682,-0.17116345205245673,-0.6952905886245391,-0.34402399818384066,34.27502789733331,17.548303877028573,4.513606129782963,2.8511790379184845,2.0879658281366145,1.828780385785795,1.389128404817438,0.9844651912047393,0.6689402427633468,0.6432878719777433,0.31983939466625366,0.016840991180975207,0.043932397467507024,-0.24318838203648643,-0.10919949568963826,0.37631375551308704,-0.012956489038369913,7.029616136345099,4.984508403837034,4.418140205992578,3.950616196497499,3.2326986177865744,2.7819838220373665,2.3381118314226623,1.5232010963734437,1.0506969365016567,0.6822891215302517,0.45004869098857936,0.28630033347068506,0.24056162681047927,0.10993875045642834,0.025318028527289156
0.0,7.0,7.0,0.0,120.0,0.0,0.7835460015641595,-0.961613603381333,-0.2078805943854125,-106.99397991525493,0.0,-45.03410699837612,0.7614952697374062,-0.1650272504079764,0.3606973320300031,34.27502789733331,17.548303877028573,4.824084053502323,2.884911958263729,2.009291994185772,2.372820635486326,1.8636228154661574,1.1559763307766757,0.9046334620317344,0.7733453349863091,0.2939143817930322,0.30272932448809564,0.27814823459679744,-0.13400430002638505,-0.08593544292857044,0.16560152683101617,0.08178679607797729,7.056268846578195,4.992027131965949,4.36578102642488,3.681424463098799,3.2474140164253154,2.8153490110619988,2.2963253738721336,1.6868802005048733,1.123686668905613,0.7095150730440717,0.4607459696920426,0.25482830455407723,0.2570841393439926,0.08053774783189713,-0.09970384925451359
0.0,8.0,8.0,0.0,120.0,0.0,0.9273255210020586,-0.39685036665090134,0.13084262371701794,-106.94109574254873,0.0,-45.11778661531122,-0.13015900523940116,-0.7374213430534879,-0.8735847633227387,34.27502789733331,17.548303877028573,4.335340678041254,3.050195606090489,2.0833231977450324,2.066606249234368,1.5101307583253207,1.1698666889928926,0.8309909015165361,0.7712743247404603,0.30261964894729254,0.17877796326078227,-0.17146441383762612,0.07798330543235067,0.1096118493803052,0.048678989479309674,0.24284164365043198,6.952584039135523,5.0563618274003606,4.597778601530483,3.7473730287446525,3.3378412806454945,2.979038922299185,2.3367227156758554,1.7337395713277899,1.2441869141526896,0.7878444872609753,0.6042862898962054,0.2903191492933923,0.1575914267632418,0.08364060168189075,0.049498056085741794
0.0,9.0,9.0,0.0,120.0,0.0,-0.2331169623484446,0.3203470749853701,-0.6334403275718428,-107.01672467163971,0.0,-45.121606442697754,0.44520501733028517,0.208235608041764,0.214498748023082,34.27502789733331,17.548303877028573,4.361951806584342,2.9257411281712975,2.2888569497580677,2.2717341456112616,1.5564636955879576,1.2875187194746087,0.9126954628081057,0.4633799171004827,0.5198589122053985,0.521263029557397,0.0938374785357077,-0.00727840442459729,-0.0418634218946313,-0.3172146731362863,-0.02772909019642088,6.979966418935725,5.157835623509819,4.540120492313567,3.8874000318215596,3.373694874581922,2.967997018902458,2.252005332281695,1.6482955343784083,1.3252311634557743,0.8757455655799151,0.47282908595634054,0.21168095875142012,-0.03885851753598063,0.12393314269630218,-0.04625040587783558
0.0,10.0,10.0,0.0,120.0,0.0,0.5834500761653292,-0.41984478557911187,-0.7103044813132455,-107.04237661134778,0.0,-45.057048968383455,-0.25803691452516037,-0.2343838816842918,-0.04470699424716784,34.27502789733331,17.548303877028573,4.209400862479826,3.0915705022414053,2.446624539127289,1.7477170243547844,1.3632665658797822,1.3790437416339099,0.7277183012382595,0.8123477041292272,0.46574325127275323,0.2923964088449027,0.17028205960459397,0.07930554860852429,0.171288153655353,-0.06981802143017903,0.017674192980514626,7.045046377121324,5.117986591396016,4.320320183215093,3.8961027906087153,3.4460695340024006,2.828720270848652,2.469532497699388,1.6865244585938146,1.2046878188842707,0.8724003709926491,0.515773047978985,0.2605123397383186,0.077489878508476,0.10038458335618348,0.12616906342071
0.0,11.0,11.0,0.0,120.0,0.0,0.05778983950580896,0.23603085799768309,-0.02388743870209087,-106.91888463808431,0.0,-44.98628065276293,0.8901181837482277,0.79077176857642,-0.4320000464757978,34.27502789733331,17.548303877028573,4.689270374994244,2.667499200184123,2.661634734618977,1.7052062391666962,1.3082136505453077,1.4055991836290929,0.9339572856826955,0.502116650015165,0.17844152440073852,0.6079425710054946,0.12488534429066112,0.140254611770229,0.0754280062072874,0.08320433478049054,0.0957823621254018,7.0462508267193344,5.027582669877266,4.438852222823981,3.7797578594685484,3.3533288099468055,2.915158895439135,2.417360837518615,1.8073978212225141,1.212290936828282,0.7047519326936604,0.24735192140870915,0.38559838938544533,0.09682589622613627,0.03582081021405411,0.046555187319500535
0.0,12.0,12.0,0.0,120.0,0.0,0.13608912218786462,-0.14246259810846773,-0.28877452430008876,-107.14776086357132,0.0,-44.97543356662625,0.32636426610468333,0.9355893435970037,-0.523173438151884,34.27502789733331,17.548303877028573,4.3270022874493,2.7621638087407083,2.729788062352654,2.073212498948206,1.6683324166809803,0.9629871666535201,1.3002919979926943,0.36060827043963295,0.7127408131908817,-0.15162923754117366,0.3509478530292236,0.32869594452165735,-0.12004884412633775,0.08142259472208453,0.0971524381968608,6.85971500205025,4.9218649896684665,4.343986938228397,4.044757456069107,3.4428594285196747,2.844871850704527,2.4281913336563004,1.8209108759702544,1.1957933210767966,0.7298658947874566,0.56155428928062,0.24216250859883343,0.16270048242352908,0.21786847611799065,0.0802866660843497
0.0,13.0,13.0,0.0,120.0,0.0,0.8511932765853221,-0.7290518715550995,0.8808638905056261,-106.99872911364342,0.0,-45.058686348292355,0.34306022372193745,0.09376980333884433,0.029025486597513472,34.27502789733331,17.548303877028573,4.437660836394882,2.872414619172449,2.199106659641231,2.2873737492267083,1.5138936537959844,1.2909858182469425,0.968766157253324,0.6473872336461957,0.0479146027247887,-0.029405124940449112,0.03487294020464389,0.10732775627548091,-0.0011845070221819798,-0.15529486210457802,-0.22841233036505884,6.9143655466916325,5.05012937411932,4.565865775326901,3.969000517208385,3.531700418926521,2.8566593858634697,2.322716168386248,1.757894455301636,1.2144290726406024,0.9177236942875767,0.4533300983708956,0.25191796599759886,0.1517700936806341,-0.035416896684204696,0.00780582834202943
0.0,14.0,14.0,0.0,120.0,0.0,-0.8579278836042261,-0.40343534808793846,0.5306505076139305,-107.08424533891431,0.0,-44.936436188036666,-0.3398975464767901,-0.4503528602648068,-0.26414483892591734,34.27502789733331,17.548303877028573,4.47213574297641,2.785970074783605,2.3787834935147605,1.863483500388293,1.5864518356071133,1.4962679781267842,0.918878584950521,0.8292230856013796,0.4568985669032924,0.36091392631935726,-0.0167035628215427,0.0724282474975197,0.04637812945931741,-0.09577376878076392,-0.13802228966195268,6.78441456680954,5.290933620243938,4.42030663743462,4.168708051465911,3.434711225521103,2.84349317717256,2.4262605977936396,1.748778535216762,1.3624261606531591,0.8465061132623036,0.5843878826910639,0.21993847938265554,0.2369842611815935,0.12542096263715222,-0.04404914606935139
0.0,15.0,15.0,0.0,120.0,0.0,-0.8257414005969186,0.13992982140252974,0.4973272397010946,-107.04759833676603,0.0,-44.91106353146775,0.44623859363602875,0.1844608375236736,-0.0869602174746893,34.27502789733331,17.548303877028573,5.130806290067013,2.9745964819327084,2.8266563965338327,2.313853423056311,1.6032924898018777,1.198772070134203,0.8605458167082748,0.3173892958805693,0.2838188385265444,0.2759125480166204,0.38364296646024754,-0.0765724853102473,0.17584365826767942,-0.20538844652914076,-0.09728749265631433,6.915814446183248,5.180187271942596,4.5984285440923385,4.145628457460771,3.582015786754875,2.9716059337905634,2.4174427578895425,1.9822002982997091,1.278229844228931,0.9661640319310758,0.388351153383647,0.3522411460346036,0.12402757909154344,0.08442823285527021,0.13062794539076353
0.0,16.0,16.0,0.0,120.0,0.0,-0.9595632051193486,0.18174552249634646,0.8074394794918669,-106.87429645740855,0.0,-44.97524458844022,0.24558065449222852,0.7935223164488197,-0.32504523647152017,34.27502789733331,17.548303877028573,4.653580436394431,3.055063551250364,2.6928489936882287,2.107716299203749,1.8593552912182507,1.222860326538142,0.9380558500352644,0.5540181102265677,0.5935401718510482,0.31075955719538273,0.036959725179654415,0.08496774193328963,0.20414567215964316,0.0034135683050715232,-0.1594649299304257,6.992877599281529,4.929412081450927,4.652703795711222,4.013996572528874,3.467019515111905,3.0508623447047456,2.25483044056073,2.03286591733553,1.2981644023494068,0.8614080540057696,0.6588486039326692,0.38702582326206486,0.39060746881289765,0.06758911924789877,0.02862037459039849
0.0,17.0,17.0,0.0,120.0,0.0,0.665239691095876,0.1486504976991576,-0.8331551291159629,-107.00278721415349,0.0,-45.036962666738006,-0.5718322405867036,-0.18653330832850346,0.9409873871919552,34.27502789733331,17.548303877028573,4.339010944378442,2.844856583859717,2.3055629214006435,1.969491228594847,1.3459734453783714,1.5857258297271528,0.6968869454713151,0.162368214740244,0.2126657747106706,0.1403195621667589,-0.07011283631548748,0.24929586344381843,0.0023088678223381065,0.014870119145317901,0.10850425549619423,7.016522107942518,5.285002146469179,4.463586101994508,4.018991421692803,3.603788422795042,2.7126744870813737,2.266594585844838,1.9060325179747637,1.3139653549041768,1.012254802811249,0.6514174350357625,0.22302742116891228,0.21235769883611746,0.19541135936894816,0.053287914859834876
0.0,18.0,18.0,0.0,120.0,0.0,0.556313501899701,0.30640163971426726,0.10438493984481312,-106.98780814392804,0.0,-44.929723800968105,-0.5907241010363864,0.1041565533839417,-0.733121136508792,34.27502789733331,17.548303877028573,4.442752282886199,3.0873202133799813,2.5717119588573163,2.16433033426243,1.8004521751393396,0.7648250153081051,1.109478352347559,0.9761184087656876,0.5017542771201008,0.28347873856066413,0.25171387764585373,0.1204648005933972,0.13892664857907178,0.01111430490860149,-0.12793397733607684,6.862410843614153,5.077355523357626,4.454116622648582,3.9812232640725354,3.736609434787638,3.0661187592662844,2.35421863505995,1.8321776747155687,1.385141574753113,0.8782991819645778,0.5951201729165418,0.4088033814756762,0.1771960517789621,0.1206166817900764,0.1197599829149621
0.0,19.0,19.0,0.0,120.0,0.0,0.7400242964936383,0.30420654000337777,0.16895213791153774,-107.1113476784816,0.0,-44.95278776902104,0.6418956882116117,-0.45669446478770825,-0.8063920936432516,34.27502789733331,17.548303877028573,4.586426600814442,2.993559237680534,2.4145677578557194,2.0748660055806383,1.6246287021291166,1.2130674510590793,0.9914992603288302,0.7651520337452968,0.4573996993323056,0.3415341200435187,0.007857512254236337,-0.1429505925546641,0.09946825799370898,0.12940682037755208,0.012451067557028777,7.157344498626248,5.313685830835971,4.926023574750643,4.0946061672522465,3.460298469074236,2.925514865331484,2.372098064923245,1.9292716676643447,1.1822658472294987,1.075722404170588,0.5780856647106669,0.32393935097482424,0.08822932121579406,0.08275994006419188,0.04323960576753169
0.0,20.0,20.0,0.0,120.0,0.0,0.957236684465528,-0.1371631291320521,0.923872757094458,-107.04556529117467,0.0,-44.94578703679032,0.9147413611663578,-0.08911170109994604,-0.3132165424181679,34.27502789733331,17.548303877028573,4.622174827635826,3.021005645752472,2.379854022581858,1.931504746855813,1.7936735841403018,1.3337631693586298,1.0023343290675972,0.8573746521184887,0.2598150246480928,0.11208298842803333,0.35526463830200444,-0.18910681925015893,-0.1964214777155012,0.1521014926301082,0.04492435913976544,7.009481440969865,5.2181215460694155,4.651095925480922,4.125635165964964,3.727194411433394,2.974713354862527,2.42435863926679,2.06993975385764,1.4034457339541593,1.1737130284603148,0.6009645254870796,0.4769415191514544,0.040992016312074,0.10877755878822029,-0.09754284043778608
0.0,21.0,21.0,0.0,120.0,0.0,0.5983171284334472,0.793093191702126,-0.4157049464149023,-106.98771516245445,0.0,-45.04102897968572,-0.10817341124079033,-0.19657292924080272,0.1820538017409825,34.27502789733331,17.548303877028573,4.817335071744481,2.7490239664689518,2.55786346864174,2.05811038566464,1.497897225118901,1.0361871198503687,0.8838222094819214,0.9824172073711046,0.3919863822414752,0.4234442169498608,0.13186697650615814,0.2188264799636469,-0.2845009987107831,-0.05733217823854603,0.1672167865765669,6.981897525897465,5.237739007454828,4.620120086149446,4.280447130952506,3.631670387286093,3.0343855243189584,2.5167504558335874,1.962829940254428,1.4329889789475085,1.1218971206653947,0.6152304230640342,0.38581412743968957,0.13576063167248162,0.11065261574696299,0.18479115172688393
0.0,22.0,22.0,0.0,120.0,0.0,-0.07704127549413631,-0.26487625990420693,-0.5183424401691064,-106.97782764418042,0.0,-45.177159656579676,0.2407756815583144,-0.503173069834058,0.3183529437000565,34.27502789733331,17.548303877028573,4.53425198593498,2.781590301456399,2.7066517413966737,2.097390668650493,1.7359493497267304,1.325907401834318,0.9945464546625646,0.8319100141805585,0.3020687788614358,0.09392127228654124,0.15949758209115758,-0.20670452450935017,-0.20560147653600505,0.3330432294589582,0.1343700391388423,7.006532349606142,5.408905583191364,4.5726588242201744,4.140053921983283,3.6833955083485272,3.13609128804634,2.5149668428673397,1.6665816518175922,1.3312730649644766,1.0333624189327906,0.597904939176999,0.597108098634934,0.28036450191761636,0.14913903732942158,-0.05419038810749344
0.0,23.0,23.0,0.0,120.0,0.0,0.5610583525729109,-0.12827014946874638,-0.7994121154690044,-106.96144459035042,0.0,-44.867700561157264,0.7407705434072896,0.011732767650616704,-0.2054865056639159,34.27502789733331,17.548303877028573,4.660096473219437,3.056443849723851,2.748431937975816,2.3003898446767232,1.9170387581764863,1.178067639058986,1.236514002981706,0.4462182566827724,0.35953825206470647,0.34777891203888556,0.12201349164259484,-0.10158338176617734,-0.10991550332691166,-0.25334651269968594,0.09576038192906472,7.169247297215165,5.275062546231655,4.665164226110728,4.033226043616629,3.7314411464575183,3.287130928820352,2.293377805099295,1.8212837159993573,1.3691894680018477,0.9467364851249707,0.6607131211616639,0.5203367917513684,0.2918660906183635,0.1486087924366715,-0.018374927652471645
0.0,24.0,24.0,0.0,120.0,0.0,-0.7634511482621336,0.7838467100313442,-0.9671407408170516,-106.99946075631765,0.0,-45.100679900215624,-0.05442481799960734,-0.37923834804037715,0.9985559878443422,34.27502789733331,17.548303877028573,4.456131691661188,2.8809498195590293,2.8438147001691534,2.1436479214293365,1.6622307731928352,1.3192111857578457,1.1391519127890712,0.4629699001644178,0.7034945640289071,0.3042228133894283,0.11346503310801727,0.14955674133993138,0.0697426080144959,-0.0460933691908156,-0.038906650114726424,6.912805462681794,5.381880776585307,4.67156211261416,4.109351359545915,3.6690868064760944,3.209927740812285,2.48078047735611,1.8754681355314096,1.4825522917771037,1.1905998674613905,0.5156866515885798,0.41565444067239765,0.22404698365988984,0.20720472479706908,0.13472036997431058
0.0,25.0,25.0,0.0,120.0,0.0,0.27984204265504764,0.6123879780921715,0.8590586335843811,-106.96706223697159,0.0,-45.00223550449127,0.9021119388314567,-0.25393027223850506,-0.2962140076139148,34.27502789733331,17.548303877028573,4.645994757078564,2.7336471275934384,2.7249988087683996,2.0178521638135587,1.5842479970846983,1.566190170161967,0.8388547078539965,0.9436300273258561,0.5199163015897843,0.3361118963774661,0.2066065848017734,-0.20697243226028164,-0.2723396301276154,0.050456631175422595,0.10220604083531049,7.036696714135456,5.232270028656531,4.754643388850244,4.224956973167759,3.5666402680640727,3.1915494059987495,2.3222352942636455,2.002168643645493,1.4898974421351991,1.1134624644924331,0.565173753193783,0.39670714168366433,0.4040893038573786,0.16491509293839754,0.05669050353792083
0.0,26.0,26.0,0.0,120.0,0.0,-0.7132934251819072,0.40777716708073264,0.3398330931818201,-106.97163863046028,0.0,-44.85120341554877,0.045987947354030334,0.049940884508528516,0.4428133359199049,34.27502789733331,17.548303877028573,4.795830549577418,3.0837740143065373,2.9989060796023996,2.365613457730783,1.7520908157402013,1.4154354629125745,0.9371870974306923,0.9145102790897148,0.22067485974734163,0.006478864611666579,0.4079821714109756,0.4473801564593236,0.11443865672313173,0.033162540490017725,0.1176694269389195,6.953395354907702,5.366914092955406,4.778474579186764,4.322738791070053,3.519887442148254,3.0479569086007055,2.5932129985444337,1.8870990869821376,1.3667196989363486,1.2190759525706538,0.6691072895772947,0.3414197794063193,0.06211256663124273,0.17305487735994018,0.11076305493203435
0.0,27.0,27.0,0.0,120.0,0.0,0.8893378340991678,-0.7995462253753978,0.5703058240462755,-107.11435877568778,0.0,-44.979338952732846,0.6345051174926579,0.501190045857975,0.2751653890615857,34.27502789733331,17.548303877028573,4.640779992840248,2.880708294138228,2.608056414340843,2.0489373998511415,1.6098895523814656,1.3612296157327897,0.8268240977047701,0.7502807899959212,0.5751028007547427,0.14231302048534894,-0.07719829374692111,0.34715645742856055,-0.12688755349423897,-0.09923427329545811,0.041485918672074816,7.11432192722964,5.338503114432119,4.847650487267661,4.230340609232711,3.600091224846071,3.2633295067045647,2.7703947950877024,2.1288711601344517,1.4836796307969944,1.2080829953150123,0.7061065719701539,0.3566478020806607,0.25931695971206536,0.10184981223935886,-0.037544838926267754
0.0,28.0,28.0,0.0,120.0,0.0,0.04369664350014335,0.8389652274893471,-0.43653978849210184,-106.99768714238061,0.0,-44.940672095402604,0.78440681687491,-0.33298506841744935,0.6261077264949213,34.27502789733331,17.548303877028573,4.532524007359343,3.2568493782041443,2.2897563152721174,2.328044862764979,1.4982357268054245,1.0100155533068191,0.6940144918024598,1.0563456423235973,0.43871585689722176,0.30590892938529984,0.4063009017054946,0.24081191758157583,-0.20363352730506978,0.16385802516104322,0.03666444920275613,7.005441807214149,5.391926155307129,4.961768250295967,4.197477119563652,3.7645185287011405,3.1285868361374933,2.3486879306885613,1.8921608933051177,1.4965046630552399,1.165934903545485,0.7729135598291577,0.459739463918107,0.14832001962343433,0.2727567563829064,0.06975652090393358
0.0,29.0,29.0,0.0,120.0,0.0,-0.17067612001895283,0.42848259909822284,0.17282033237265337,-106.95200609951671,0.0,-45.09389978558636,0.6713635921283799,0.8483175332415271,0.95245132690764,34.27502789733331,17.548303877028573,4.520543275461239,3.0923449071153257,2.8157222712073344,2.235059915675521,1.9657801309245,1.5957784289526056,1.0965662552076132,0.5656290532936219,0.4999571491562112,0.30175684432760785,0.48466108785478257,-0.19844934894264937,0.013266887145424351,-0.08545948870362367,0.0627239405117675,6.754104145339153,5.539159462913377,4.8416420740500605,4.112600840871778,3.7008551689602918,3.2076117544252236,2.3806347709244107,1.979923337024133,1.3841880970085445,0.9998824218389811,0.6905273986219149,0.427975929811956,0.18291652068764783,0.13875462570922284,0.1242110190227583
0.0,30.0,30.0,0.0,120.0,0.0,-0.47088877579074606,0.997694013135733,-0.8720894677580378,-106.9631325112041,0.0,-45.11110418467085,-0.6179309210399513,0.7246370936718047,0.7795873128910804,34.27502789733331,17.548303877028573,4.6721094914357835,3.4152404717405975,2.9395456358176157,2.171457686128765,1.7030016340439047,1.1105257933992059,1.0098919341011814,0.6567017649642315,0.6154026144167914,0.035274251158040004,0.11820540693236158,0.24985953582435255,-0.08831254587554578,-0.11572249267245617,-0.24327124364011182,7.38708047751615,5.345931598664514,4.716031568934214,4.2476874192421015,3.6745601049599697,3.1308877731279234,2.6363325420030344,1.9588011036230415,1.404344431208068,0.9231046828726954,0.6968988069673303,0.4207132084481308,0.3659690343704698,0.1247686090865665,0.04379606141296337
0.0,31.0,31.0,0.0,120.0,0.0,0.5484673788684333,-0.7011033906840125,-0.028744808130754196,-107.02274117562317,0.0,-45.03329392449872,0.21667493782582775,-0.9026194080489429,0.5291239487154171,34.27502789733331,17.548303877028573,4.531171397281526,3.1100636781850652,2.6069413117352194,2.198542590402742,1.657819283867536,1.5139535087096403,1.0136861227439433,0.6896932653525367,0.18444750982051478,0.38507163196831734,0.2523407031205319,-0.05993563795136522,0.2083270444965015,-0.2188683628929583,0.001669243033945222,7.037915698479676,5.302015069297649,4.906507591939788,4.5445511297083545,3.782914521565042,3.1255140330106,2.609451916478963,2.007032202480005,1.502542098839852,1.0260641012073886,0.8321721524842183,0.4635100037405285,0.18496149425312844,0.10896690511754828,-0.01221054956667602
0.0,32.0,32.0,0.0,120.0,0.0,-0.0876993355669029,0.7362521147364285,0.9549902794888936,-107.0503516567212,0.0,-44.93182814159785,-0.17385740561833013,-0.49271495148635447,0.39649695563658116,34.27502789733331,17.548303877028573,4.627815843626773,3.06808824496739,2.497410592544019,2.42523729037794,1.7918035562713273,1.526520863546044,0.926951496298983,0.71863029500604,0.36228712449455613,0.42685454209267737,0.12751568589131804,-0.0398646280300345,-0.24342251317991723,0.06338551463699038,-0.11612976362327793,7.078063830814104,5.419685708956443,5.015638410087425,4.4381261704866,3.8419321842481224,3.1244425314470834,2.622862191431779,2.173894240056991,1.426855327382962,1.088619999065175,0.555883197968845,0.5540233282050144,0.20018823118902906,0.19033508446565656,-0.09844815949790553
0.0,33.0,33.0,0.0,120.0,0.0,0.13686789773729702,-0.6750141306472504,0.7530104906331816,-107.0698944952701,0.0,-45.02164059047796,-0.7660816585979515,-0.10772897468159615,-0.32900366064820075,34.27502789733331,17.548303877028573,5.108742928409033,3.142516294687905,2.8283597741506186,2.3272572327011725,1.8114753579821588,1.7388379876053484,0.7605362554140245,0.786003075697993,0.6478547606256938,0.29948680942875155,0.15202189768125082,0.06280784637804748,-0.1714442953358351,0.022933122817900598,0.09377517950823498,7.097406227588158,5.4676663323372425,4.875648474085635,4.368586305779318,3.9474462209969636,2.9859234364434015,2.591204217800373,1.9812618183825645,1.6531315955239754,1.0838434993630477,0.8501884355513596,0.23976611042742912,0.28051219365053526,0.14757644356474153,0.17888846529918084
0.0,34.0,34.0,0.0,120.0,0.0,-0.9624203991272897,0.23111912856768835,-0.32368209632630873,-107.00819087572134,0.0,-45.04966477006697,-0.19366754125597604,-0.7907442225150518,-0.7046288435865853,34.27502789733331,17.548303877028573,4.447370468423627,3.201909585840033,2.759339078494888,2.2256498773679234,2.0914171635359735,1.3864727691727399,1.4192543795570944,0.9229396035943997,0.6578871302627607,0.40397735613915886,-0.009262012003855763,0.014496178840202364,0.13891631213833172,0.13317800919535874,0.2303912153516334,7.040314274218877,5.4224142113248375,5.051385761277885,4.331412734193155,3.924775531202802,3.344230341530589,2.644967715052683,1.9867624268594997,1.5238457024447105,1.1402542868125514,0.7201302620612025,0.6363298284292463,0.15380015558926624,0.03526163299643077,-0.03030478442618966
0.0,35.0,35.0,0.0,120.0,0.0,0.23527099415175412,-0.752360034301117,0.923140309082997,-106.92918250752751,0.0,-44.98762704437844,-0.3775117574666135,-0.30304802193300584,-0.8747279938803805,34.27502789733331,17.548303877028573,4.664435835960352,2.843248321221754,2.650345573554483,2.213813596889229,1.8988330186296896,1.5318660179199988,0.8462164964050876,0.9003220648088802,0.8092062915135766,0.2732611015297421,0.4480209222640068,0.1243119360504389,0.3831725523205183,0.20910483462067345,-0.2626918964011498,7.110076105699015,5.6676969776797055,4.9811417723168026,4.438351336590756,3.9861973684721748,3.159935154618922,2.6121475336287276,2.0623568491294253,1.4942413156221517,1.088321295400193,0.7959611795863955,0.4809049758000069,0.17338434758488125,0.028166222532182525,-0.0126897361276316
0.0,36.0,36.0,0.0,120.0,0.0,0.22419144544484282,0.6960164586444688,-0.536596747057591,-107.1219877563426,0.0,-44.93237904884518,0.6447900014088561,0.480195051235365,-0.5161965915970304,34.27502789733331,17.548303877028573,4.791847399703626,3.2449278400923243,2.633048556102515,2.241140341304156,1.6227704250221613,1.5419642022166338,1.0656114984882163,0.5257413340925954,0.5031121087835775,0.5442675009993717,0.05026345571608473,0.3178022753564028,-0.013700621806314324,0.05146054798161939,0.022898058396857192,7.291333573686671,5.587296781403849,4.87194414744949,4.319128720937787,3.7032972353445888,3.070396904210689,2.6267804640705323,1.9444482578746385,1.524851043025307,1.029546136224466,0.6587617415492374,0.40249244968572945,0.3122600174622345,0.21130085818196004,0.09125707516468709
0.0,37.0,37.0,0.0,120.0,0.0,0.23386799374951384,0.6146379174500214,0.8986376448313629,-107.04124323310809,0.0,-45.09030876244209,-0.9319557621811106,0.36102896228565173,-0.13543703763740278,34.27502789733331,17.548303877028573,4.610132715956142,3.4186206888081783,2.936052199969894,2.4187579596080933,1.8025810031978635,1.6042713766853838,1.154525383937371,0.2042240045305862,0.6133154713257192,-0.017984758439821058,0.2942930313829947,0.06601472892166019,0.2479186657988531,0.0009511179917629543,-0.14606939679849174,7.109819943900442,5.715964598879956,5.02822242183376,4.4734790556945025,3.9674962600538475,3.286993776244959,2.633300292933731,2.182231251075277,1.6883353636257956,1.158522232751804,0.7083451936742451,0.5861975220898877,0.3584240808681251,0.19447030453808356,-0.048721937294924744
0.0,38.0,38.0,0.0,120.0,0.0,0.8874961570292483,0.13820147722918663,0.8827554094129972,-107.07123765346417,0.0,-45.075658937132715,0.917268842986832,0.2447688571320097,0.04399254725996493,34.27502789733331,17.548303877028573,4.844125068659982,3.180220392218043,2.799312451166177,2.430055105353179,1.9440850222735164,1.402401443496203,1.3121499723453287,0.4579958534360303,0.6311291384489799,-0.00618218799413206,0.24743258351836647,-0.05900583314696688,0.19441090318606116,0.03302873853035709,0.048932152553406945,7.012573109872032,5.540701254442504,5.07288292221481,4.572968701729106,4.222458282828179,3.3038960473880827,2.7449711056878514,1.9023748159281082,1.4171586778676553,1.0725629192603938,0.6290621092073126,0.5894077882412212,0.21847443904096103,0.2554778630285562,0.19218419488854352
0.0,39.0,39.0,0.0,120.0,0.0,0.3636405982069668,-0.18563340554800067,0.5984051747047834,-106.95094015492246,0.0,-45.04929182840684,-0.28854362181426185,0.42105680544469126,0.5461671081097432,34.27502789733331,17.548303877028573,4.838125942721063,3.4379517511797686,2.8394641582959133,2.5027134279380325,2.0276534232380183,1.4757241048043759,1.1831368541310048,1.0628025463866635,0.6309928146623525,0.3742683964542805,0.2044979055967379,-0.0795172435935582,-0.13261022481347076,0.07408963077990004,-0.22873462282633092,7.054888232489453,5.790660708829234,5.291301158313685,4.3456576267734786,4.101344676852662,3.2740640800105636,2.6562238433544048,2.053432558568122,1.6551017059011954,0.9597643555581762,0.7859803962465286,0.3727518990532116,0.3094961537397405,0.27165364786063206,0.06106736772199256
0.0,40.0,40.0,0.0,120.0,0.0,-0.280984198852428,-0.8616660090897239,0.26089587373358225,-107.0346443516607,0.0,-44.931585101580495,-0.3389410968141608,-0.5901526260805965,0.917481846113186,34.27502789733331,17.548303877028573,4.916686405292258,3.444062769161614,2.7223722448869805,2.6996715728447684,2.2638696738958117,1.634140986871281,1.113737412161407,0.6836253942095775,0.40035845145728804,0.6163289854924592,0.42871520439118616,0.08505055101399028,-0.2269732046635487,-0.46782434515313864,-0.17947298962225283,7.145253385842366,5.829483681613295,5.02404647479354,4.609121337900293,4.0859326250628865,3.325521470610079,2.655301761610987,1.944000261763093,1.4415834324201346,1.1547833063996573,0.7297414432758442,0.47346985267585195,0.2568983352728537,0.19513897449432038,-0.007652271464087458
0.0,41.0,41.0,0.0,120.0,0.0,-0.1259360924013171,0.3948575462891273,0.748575933249894,-107.02941485363468,0.0,-44.9853236546282,-1.004291938617861,-0.31660377027053577,-0.765359039230378,34.27502789733331,17.548303877028573,4.791716879615488,3.7483819106264114,2.743758674745317,2.3881583642120354,1.8614214423838917,1.5986187931234865,1.2891619060901542,0.6817845236340921,0.43717982011957146,0.2732916059705187,0.27743505872798446,-0.03025907576284427,-0.019244443345597738,-0.38846643668303776,-0.23058677420037643,7.159449622151068,5.7960190324643825,5.15659447295396,4.4534939467227,3.813152371678416,3.346290947592453,2.5136661520911145,2.1873037875460617,1.569519300181325,0.9691552952469726,0.663342828401041,0.40027349987531785,0.19452178578045332,0.0048471866481612225,-0.014732214095680984
0.0,42.0,42.0,0.0,120.0,0.0,0.3952623918545297,-0.09291463464386229,-0.4139594309844066,-107.01355934812103,0.0,-44.866740411839345,-0.6712678674250946,0.35248496455492573,-0.7859917196124169,34.27502789733331,17.548303877028573,4.73790252695019,3.280435724117676,3.1245638621039133,2.477611056460289,1.8024662415812844,1.469452006065173,0.9591585203720167,0.721160045302811,0.6678312683957148,0.3672606233227758,0.5820600403086198,0.16289548888380767,-0.11105895681473277,0.1587019184716842,0.19244737252586272,7.321681162878982,5.588656752701002,5.13111890639056,4.724530847411464,3.801899571674011,3.2914927695414127,2.5487827028567738,1.9985169107127043,1.4719774801796779,1.2425074654973138,0.7347853750888442,0.39119100501343224,0.1736771286356493,0.15209423605731515,0.06285549237651848
0.0,43.0,43.0,0.0,120.0,0.0,-0.8795490567414603,0.44411119894069584,0.6978871106258364,-106.97216292181908,0.0,-44.94147214213555,-0.17704583618000397,0.7584695260626542,0.1793894460271015,34.27502789733331,17.548303877028573,5.150840043104935,3.533632782371805,2.6695200934120056,2.3610763297100883,2.191945354597906,1.428754005695339,1.4300435443238966,0.5855513762064509,0.6178593036889372,0.17603547882505213,0.10070652445944615,0.2883885105548497,0.02485322584523965,0.1596736737443531,0.08836587085513073,7.292277471358705,5.63831524117721,5.147864584546958,4.668830257390651,3.9121286972171365,3.531495173680037,2.6272089410653643,2.0698388882966574,1.4785966902766976,0.927665442207115,0.9260466057117563,0.4544641161213514,0.22911067944866262,0.12346036317495504,0.19084013304055364
0.0,44.0,44.0,0.0,120.0,0.0,0.33353343089133536,0.7327646518572584,0.23575338383504763,-107.02452431238436,0.0,-45.00219344855435,0.8792100292623223,0.0873561076561904,0.4907961478945859,34.27502789733331,17.548303877028573,4.713454014269185,3.5924200341985246,2.8796239293998513,2.3857258387585127,2.1153120370360217,1.7284111083583396,1.0385776633559183,0.6480414246862722,0.3170152693870252,0.5184925941769631,0.09067927034700293,-0.2183961322931081,0.28983629575893793,-0.2152199135604905,0.14109901925560728,7.234667560341584,5.801970610216514,5.131795369511959,4.685541634086301,3.8432232894497376,3.4382738800910726,2.8775927366794676,2.195838687103068,1.3870686809433306,1.0410886541544682,0.7466413985145371,0.5205638655736994,0.2623473506229986,0.0988823825902577,0.11850372928133707
0.0,45.0,45.0,0.0,120.0,0.0,0.3412757392363188,0.9510430100057716,-0.973526284482201,-107.19038394092499,0.0,-44.920932635119456,-0.6616486188238162,-0.43460069810892676,0.6963007606939697,34.27502789733331,17.548303877028573,5.147521949756253,3.4451318586168234,3.117211745992031,2.0392586166600353,1.8565938512848037,1.5042622447546097,1.0504555282802213,0.84624927054624,0.7004595511712909,0.41678543690908376,0.08383692709646808,-0.16123871336411089,0.1437374406358727,-0.295384014650289,0.11951445200807044,7.202142230800189,5.656646376570471,5.257127145648145,4.6678294514618734,4.040291980893092,3.3838910556419135,2.774079048675386,2.208786073238724,1.6355792272351788,1.2333097353757574,0.7634746702184041,0.6265679416769527,0.325754255601987,0.09603622305021658,-0.03064356493870811
0.0,46.0,46.0,0.0,120.0,0.0,-0.5792348778523182,0.711606684785222,-0.30553296413556086,-106.96604300678828,0.0,-44.98678143670426,0.9762898798513542,-0.9395294839880348,0.8716641604335771,34.27502789733331,17.548303877028573,4.976113972127577,3.2672204340729833,2.8221467562712603,2.577831750470221,1.9315236293696263,1.4053353481064883,1.1384883548997375,0.8052639195485025,0.4906397231821195,0.26521142266597936,0.34015104181119565,0.16098203835993982,0.010105581824650024,0.44437166939997264,0.04075834618980702,7.380680763680993,5.755290271864814,5.09398850910661,4.603221431442407,4.035430628242328,3.3569124344451784,2.8802748394148834,2.1143482843508155,1.6383244974367812,1.1379223964461496,0.7309862118225195,0.4860206329127575,0.4309077604861973,0.07765497659172613,0.1355133940487595
0.0,47.0,47.0,0.0,120.0,0.0,-0.7421474046902934,-0.9765718316299961,-0.7037182781036699,-106.9725598151455,0.0,-45.044057584531714,0.7071118584596094,0.4206736579484267,0.966852484521284,34.27502789733331,17.548303877028573,4.751376668027701,3.4532850509814677,3.027603296600298,2.613312111168612,2.3272659216114753,1.5750890270670577,1.0023856809508727,0.9114782449059464,0.4658782043002372,0.37380682818530037,0.17366110927903813,-0.23192541789491686,0.1365442507137353,0.12142090910254329,0.1667788444782406,7.478691295040259,5.707596242028361,5.335494231401499,4.761307878860439,4.0394160828107335,3.467775526630688,2.807507792779482,2.014508279126462,1.6237228963133912,1.060066984971453,0.7141756091170596,0.32420214997847474,0.23670811015375018,0.12960160761245101,0.11709318732336904
0.0,48.0,48.0,0.0,120.0,0.0,-0.36914329815163227,-0.2800438710432722,0.9636587796365064,-107.0137213142707,0.0,-44.957501572234676,-0.07137085519763481,-0.9842317929831192,-0.20039661555094823,34.27502789733331,17.548303877028573,4.970974602228367,3.27415861525692,3.2114089286538583,2.550762502745636,2.1615573885511115,1.7689074250330936,1.4123000931907048,1.1467327174282156,0.5196580583179148,0.38809168517605735,0.008633860413196859,0.28662282484597257,-0.15412839023281183,-0.2887909643542198,0.150380892272061,7.204609900983179,5.966806437974286,5.3494546714742786,4.5568618129963765,3.809495517528876,3.326844895428167,2.770871960840576,2.023229703110411,1.5431819381145242,1.0132755744904887,0.7933021322172267,0.49662326272540275,0.23828198705413353,0.2739899547140541,0.2021494057648952
0.0,49.0,49.0,0.0,120.0,0.0,-0.2725784581147548,0.45998112484811604,-0.043259385920023874,-107.067752288792,0.0,-45.04352041586631,-0.2842783626639949,-0.25464186035800895,-0.23932963294485377,34.27502789733331,17.548303877028573,5.100382460720896,3.251621491725272,2.867058275028248,2.667609998622195,1.9735911186805684,1.519071654843052,1.3270201555416932,0.8966521815985102,0.7643662171979325,0.2614028032534927,0.43358684196017827,0.009097120457140853,0.30815784113885414,0.03996452185943444,-0.13998038470850405,7.081885236310231,5.867314567628196,5.299714878577124,4.859809948938728,4.114310506094745,3.4137966039112455,2.892180169508896,2.1311896487424375,1.5567381857479172,1.20899607609797,0.7355380831793055,0.551012969224743,0.2301253841483788,0.1309705673723062,0.08346927401899454
0.0,50.0,50.0,0.0,120.0,0.0,0.14039354083575928,-0.656740645477119,-0.005217269002674607,-106.97801374308241,0.0,-45.01814981880024,-0.5325991274207289,0.0610744291255636,-0.7043826466054552,34.27502789733331,17.548303877028573,4.934629655600499,3.617323815110399,3.2502122214690194,2.688263056426517,2.1913875645612912,1.5037998671886452,1.3265796725883336,0.9294215380588551,0.7132521936630871,0.21155841807987444,0.16735058991083696,0.21451376667225178,-0.053955384421212615,-0.01678867061067624,0.33883402199275386,7.54501247448394,6.076931480060269,5.464007486637805,4.673546299451228,4.2031934963157624,3.438502128115849,2.6865522794909773,2.1121867248281974,1.6297261796705267,1.1074106751367163,0.7329816009586326,0.5657881777264527,0.298909866482896,0.1732055484583978,0.08072448873470206
0.0,51.0,51.0,0.0,120.0,0.0,-0.1227969730753593,0.042073212408258565,0.2789450327974472,-106.97629777915402,0.0,-44.91701358150263,0.22457681430081522,0.8442229235343861,0.3698688773671188,34.27502789733331,17.548303877028573,4.894860513877688,3.3867444594837623,3.1797957213356534,2.538820306993723,1.7528773031233655,1.558989680771826,0.9888403833081102,0.9394482920808265,0.6319545052539964,0.42542062560142346,0.08333867445238263,0.23218106414020098,0.10627579036260904,-0.04807232313219788,-0.06977109096593138,7.429646835877679,5.902896063981703,5.418015952020884,4.9287336443378065,4.376838629700129,3.669685614517448,2.9001738726155093,2.022469134968738,1.558291465162493,1.111449366524796,0.9396089386875446,0.43271879536705543,0.3227805221421447,0.16284625431931396,-0.011469008560629365
0.0,52.0,52.0,0.0,120.0,0.0,0.9767476761184524,-0.8913240233214927,-0.26283078774076496,-107.0293770551688,0.0,-45.00633009288859,-0.9306273831258707,-0.8210109099341998,0.31352391688167414,34.27502789733331,17.548303877028573,5.123330942798745,3.7503856827148634,2.910558420466035,2.879191809061001,1.754843569651254,1.5349478956234452,1.3634551852543026,0.6116928306041706,0.6049970164646854,0.11605609275455456,0.18321185664954212,-0.2917479398105105,-0.0931359737136977,-0.24252546683311066,-0.06078332218087067,7.283540225953972,5.907634178243001,5.502358423216236,4.737486428910011,4.25893814180797,3.6834044806393154,2.8352484834177765,2.0961056113991257,1.5104478237338002,1.1003026981315414,0.8549301838209987,0.5129479689426505,0.37434212823384383,0.22404420861530105,0.08493691619654808
0.0,53.0,53.0,0.0,120.0,0.0,-0.7959103785039439,-0.6000069502071999,-0.7261994566288021,-107.01354571691097,0.0,-45.05019633670885,-0.9145830818058168,-0.18811535606343255,0.7241251917024145,34.27502789733331,17.548303877028573,5.162331279421721,4.055542339263677,3.436131073732522,2.6175381922939502,2.3321605591041763,1.7584629735406658,1.4006362487755413,0.9446335835163798,0.3768563961376211,0.06164502556497464,0.2992466484097094,0.43544094112771015,-0.08113240605579441,-0.009383571493488427,-0.1695757680887532,7.500474474045389,5.7431701685905425,5.176369504141004,4.904462510033097,4.20200142272828,3.4773590180647176,2.803298421892973,2.2440285883192663,1.5974591074005515,1.0678857273310929,0.7069961884085946,0.5820031287245959,0.24488566158828876,0.03303920812298472,0.08230979644850527
0.0,54.0,54.0,0.0,120.0,0.0,-0.5822464878103306,-0.9629564110787721,0.644235466388491,-107.05813478140777,0.0,-45.02902110571472,-0.19542858767885138,-0.9513736005796845,-0.8054840104247187,34.27502789733331,17.548303877028573,5.190144256428192,3.983916616013918,3.236385940951892,2.5722265735393144,2.2543512328490665,1.795807524550941,1.1997260154849245,0.8236732354317844,0.5951991228090111,0.3321759664011397,0.24455149588981304,-0.06773757953083759,-0.14512046647033935,-0.12048269704054017,0.11882433356895472,7.403922128516634,6.16842453939417,5.443997432082404,4.7584091356050155,4.357917915890737,3.543707709076813,2.979163978769716,2.2595671741744083,1.855319719185623,1.1546994507329527,0.8787946034407815,0.5846044017657414,0.24406882815101763,0.14267927712711062,-0.055858091128803106
0.0,55.0,55.0,0.0,120.0,0.0,-0.6773809642300075,0.5873954067148413,-0.6203041761944841,-107.01116181825546,0.0,-44.93613808840071,-0.8842061938518204,-0.31477803131681936,-0.004446184349316429,34.27502789733331,17.548303877028573,4.80725855299574,3.7837012001468544,3.369619137740308,2.8336904559216336,2.246338662952175,1.8322924288306168,1.1098384359743898,0.7886207471257728,0.6815043006987644,0.42112096153595274,0.16603118013699175,0.3366029682972571,-0.1690051426711542,-0.06565020030555135,-0.040072222743541205,7.492684262511263,6.074801409000521,5.347532924956387,4.970749228601628,4.373530743017913,3.6418250786762543,2.9244027895013693,2.0232373815971454,1.563208973589562,1.2250146559787385,0.7932505548837644,0.5532980222660796,0.18194942643417478,0.1539371452157867,-0.048685787696806135
0.0,56.0,56.0,0.0,120.0,0.0,0.30621665093079686,-0.5521506238792397,0.02263796509291205,-107.09690183406772,0.0,-45.03453379208855,-0.46671595195490906,0.2444621176795898,0.16216385934412614,34.27502789733331,17.548303877028573,4.750057745941028,3.8450265861217865,3.404510159327089,2.782277043412396,2.194786921760572,1.4074736638764016,1.4017686278036054,0.8339070097437646,0.8978091781096023,0.5111561284997664,-0.1430970412937829,0.23979602304321695,-0.186532793065746,-0.10677237716021606,-0.03434150581466304,7.398118972184522,6.1514531249698985,5.4032632205184985,4.808234435471512,4.342126301124474,3.5796757329443727,2.892205082110804,2.0009527433881225,1.6395188316378673,1.0996000113065998,0.7159498127702799,0.5918261402315379,0.19910031966312353,0.06316757766518998,0.04616796820784917
0.0,57.0,57.0,0.0,120.0,0.0,-0.4934167949204358,-0.3092966386061946,-0.5513659420505215,-106.97391757368551,0.0,-45.02417942792816,-0.5382127273356976,-0.44186410354280325,-0.5168859199201632,34.27502789733331,17.548303877028573,5.248210352669676,3.649372919631883,3.504025163653271,3.027218017445427,2.05641973414145,1.6569484978311646,1.092490392699125,0.5501863102314495,0.6117224214363559,0.47664409069344593,0.5519183107596126,-0.04428387665899304,0.28402560166857593,0.25475415367667764,0.04285271072429525,7.505478203338962,6.2381133356096115,5.7794398174874155,5.018109459395514,4.29169618844509,3.5068508299749626,2.9192418876347346,2.3308297964118596,1.6867965643253513,1.114163129638482,0.8120221337980545,0.49828092608835534,0.32324518729803375,0.01364822641656463,0.1252921469173851
0.0,58.0,58.0,0.0,120.0,0.0,-0.06737845428738742,0.8561625869311817,-0.8043110310119319,-107.05902303067651,0.0,-45.031893296227096,-0.4786436900632717,-0.5805001006887298,-0.6619491877416774,34.27502789733331,17.548303877028573,5.3012390018000906,3.9328005463095232,3.2972476294720354,2.444738002881096,2.2309550130072546,1.9046906426146843,1.0862294959912229,0.5018247268281447,0.2929599569362112,0.40554873004824554,0.2697051160041435,0.2637022928063146,0.045082135045221815,-0.2335849642572439,-0.13164053270577086,7.55337639786549,6.181276047854584,5.654572454113335,5.039272720207122,4.2980142412961735,3.598475179235204,3.092584058496903,2.2798885716249173,1.6572138988771707,1.234900364925024,0.8270831987067523,0.3157100336525568,0.3596231313760136,0.32590577957888733,0.007752746890660883
0.0,59.0,59.0,0.0,120.0,0.0,-0.5111488159967945,0.40882880384706555,0.7243830348433666,-106.98511855326048,0.0,-44.98850465660374,-0.7610021104634722,-0.7685935333458127,0.7191616728392429,34.27502789733331,17.548303877028573,5.496114263577921,3.828943140542025,3.3795819778968466,3.0007485724515703,2.119824653989782,1.9499712819791568,1.031508369212167,0.7031059691738115,0.4613389304412463,0.467636090887213,0.147336465524825,-0.15031361161580326,0.01776002104522688,-0.11024717888112047,0.13473998674616358,7.428713297879756,6.203611055711611,5.560868341745122,5.065418122687915,4.322763106886434,3.6698014160906283,2.648247137363583,2.258058109222034,1.7162930217100176,1.177242092599987,0.8710432871616518,0.581329621834663,0.4201446885388742,0.17389148208357416,-0.092250393335816
0.0,60.0,60.0,0.0,120.0,0.0,-0.6820608327089606,-0.9363221409373843,0.9458389780462606,-107.08787268226675,0.0,-45.02409311002347,-0.9151440673832829,0.15428048804068362,-0.8829301555288824,34.27502789733331,17.548303877028573,4.782062556711511,3.6022297024685654,3.3438156885638977,2.794907194687331,2.31941664642926,1.6255925847465336,1.1249134242945813,0.9601370272152839,0.6825664750251538,0.3099401913518565,0.20053572720754684,0.18187637325771153,0.14218709458239603,-0.17183519285394883,-0.1144077207112798,7.338952837106578,6.165574058871336,5.731912708327117,5.104626411068786,4.244586621361036,3.708071417184329,2.9379578470935384,2.2089715877293066,1.5466343994359393,1.1837143417305949,0.8746630569078924,0.3190906990577692,0.2687309256742874,0.36706585452965446,0.13835022120265636
0.0,61.0,61.0,0.0,120.0,0.0,-0.7792497176713897,-0.6706116870041745,0.9216693161260003,-107.03687860286685,0.0,-45.10011475306078,-0.6356646402722202,0.39054001180937203,-0.05875819216385425,34.27502789733331,17.548303877028573,5.312248267924573,3.798451119076368,3.2499752440093634,2.8310945715921676,2.579870606567262,1.8351063333099045,1.1092057175577263,1.0749240755333254,0.520071727478056,0.6507439611928898,0.11021890898104264,-0.06008894320521033,0.08586549480033714,0.19388544033107416,0.18757363034379534,7.53616450039659,6.139208536729383,5.607824987491204,4.839802163480649,4.287631453810927,3.6528352359223977,2.983171241295894,2.2342685469316748,1.6839650175994834,1.1669850286787402,0.8838659071627426,0.43606444823449747,0.38132079545479824,0.34204902576448903,0.12130880290991258
0.0,62.0,62.0,0.0,120.0,0.0,0.31265917893054684,0.24295680299952704,0.8131109984423579,-107.00690558781662,0.0,-45.05544880886532,0.26236148738025866,0.3439142811916447,-0.7683319973982294,34.27502789733331,17.548303877028573,5.183592915773936,3.8681793372688906,3.6335405953989848,2.6596344701469046,2.129104960975644,1.5535993016340084,1.0453473174460572,0.6890322094028496,0.7122337569937213,0.5492139507029212,0.0886073346106961,0.14910093317427678,0.18681747465616583,0.04256427034143136,-0.15461472768090206,7.353993650508979,6.409918601663559,5.754458934125175,5.1617027034008744,4.288999293240924,3.7155469630765596,3.0220108297024337,2.309447236071814,1.6239838764014844,1.3042567725287297,0.6756102710639893,0.6043673462343767,0.40475654328559957,0.3085021674585975,0.04955193433563436
0.0,63.0,63.0,0.0,120.0,0.0,-0.7236340973027724,0.15445717720833518,0.5480946653972776,-107.10379373824182,0.0,-45.058299315094146,0.9364388817892356,0.8977220414410148,-0.08588247733726528,34.27502789733331,17.548303877028573,5.117863574486979,4.154879229675933,3.300688712942565,2.9003834423826267,2.2634811364233385,1.613818275329809,1.3388804046547647,0.6332234612797063,0.6808785361447229,0.1918389226283669,-0.089259466518784,0.10530211814367299,0.13085143019843326,0.12468033999388031,0.15016233911235544,7.266165989830144,6.20030211281425,5.73898040415706,5.296158883728072,4.521016610154436,3.912418750828181,2.917078706448114,2.315557199861099,1.5962900419670376,1.1746268793989212,0.7515155994417896,0.46386436918557034,0.2734962291380177,0.16942236397269192,0.08266582498678204
0.0,64.0,64.0,0.0,120.0,0.0,-0.606835276639893,-0.5242143572509828,-0.33370969594271616,-106.99280325792874,0.0,-44.92229253847155,1.0279237711776967,-0.9945935722129946,0.9599246526846186,34.27502789733331,17.548303877028573,5.452657698004063,4.061685030752649,3.3956226193884573,2.818006872199596,2.2833201909261454,1.7086425374521315,1.3778870868427349,1.0363110923859247,0.803155839421174,0.22294494394740227,0.2920362429682007,-0.12585454299082885,0.12116489980266627,0.2118405287222292,-0.0160244482637456,7.722616295968474,6.216320020265534,5.652714059063519,5.13486216955511,4.57079384275133,3.6833399736238,2.938671356529484,2.1992192830771633,1.7293752036946521,1.3349330024652057,0.887012347124256,0.5868359843948175,0.2917069473230793,0.11995182012234978,0.1415791122623608
0.0,65.0,65.0,0.0,120.0,0.0,-0.2625496586780718,0.8684279958495875,-0.8377972200240065,-107.02369672268,0.0,-44.94920787236819,-0.2155875990509387,0.29439330778807205,-0.1525872930890544,34.27502789733331,17.548303877028573,5.368053750991811,4.034042867618807,3.6587896937333344,2.901919133278012,2.204062063189709,1.9672662711928592,1.3135652804922715,0.7065737571927265,0.3894473076888342,0.3797086162451162,0.6157907163869154,0.047338015707864514,-0.0005306146095658409,0.2878864112541965,-5.44417972153273e-05,7.429249667424948,6.196447314699549,5.931095154236893,5.253943789994018,4.5726855709787335,3.740808460563843,2.924757398185326,2.286760889967168,1.7297249199296565,1.1420991727842773,0.8767093797946547,0.41038515938375575,0.28176646766382624,0.1531162258612941,0.0206238724946103
0.0,66.0,66.0,0.0,120.0,0.0,0.6419864596958702,0.22793191193179196,-0.18551765717238533,-107.10889726236309,0.0,-44.963296288787504,-0.7209467944507203,0.20078447419527912,0.7142498350091346,34.27502789733331,17.548303877028573,4.966461356811386,4.186449638273887,3.3743395768442093,3.209768486600246,2.3133606898874985,1.718310447336656,1.3243514302300496,1.08043824635613,0.4886464222742719,0.5410474534910654,0.46168773136144536,0.28623524199321526,0.33749717475196606,0.24838028606299975,0.27016544530395453,7.84072122034888,6.443404435013138,5.767669198017834,4.946870335760142,4.358228380868475,3.718075335342698,2.974854294247695,2.303444475792656,1.6262886828945595,1.0747440859826887,0.8152480891962842,0.5095804485500455,0.24036094917764178,0.10607803707055338,-0.0008622796005534478
0.0,67.0,67.0,0.0,120.0,0.0,-0.8057974484138775,0.07126560604991661,-0.5355317156581145,-107.08145267213202,0.0,-45.031584894829024,0.27957406145891556,0.17747921994057636,-0.7653688716336122,34.27502789733331,17.548303877028573,5.357082854010546,3.9690111456343233,3.7849677990906967,3.0313903439790093,2.216059186451369,1.7788689623787128,1.1064888206797858,1.0787410458017812,0.8321391848500553,0.5840148558487042,0.015866025340587314,0.10036382782526652,-0.011071292855187896,0.12300832886893834,-0.16316354767690325,7.578567567189057,6.401694584057528,5.867117180719458,5.312951722941373,4.492241557718566,3.856634558372268,3.114014696376003,2.3077202497623257,1.6093990443043795,1.1191916215381583,0.8846760917933845,0.48513101334351333,0.1601672774420597,0.2281679687589066,0.09488718111106648
0.0,68.0,68.0,0.0,120.0,0.0,0.6758898149976078,0.17981995270914197,-0.735024730484034,-106.96217999474487,0.0,-45.05098697137463,-0.18081409646314725,0.9255406396804848,-0.45749584647627173,34.27502789733331,17.548303877028573,5.188099613422363,4.394669025423974,3.7341061584652784,3.036516984370857,2.1791769932067653,1.5893664958293545,1.2712076291900312,0.6038107821301344,0.6643648891993141,0.12354990215647954,0.24312247875933332,0.06695288028999721,0.1808154962218647,-0.134610747440161,0.05713981153577595,7.514302658112943,6.581009099798228,5.8668735277793305,5.318482697579472,4.406056147659381,3.8584147552258976,3.0753013967008593,2.3758568641485125,1.7676423747752446,1.2160161147370254,0.9474201902487006,0.5159715641356104,0.24909676256458155,0.16914712418155808,-0.0004940825047446418
0.0,69.0,69.0,0.0,120.0,0.0,-0.8078031842120739,0.46024405903353927,-0.8931456364263495,-106.94402775090305,0.0,-45.031719850103585,0.9066976568406123,-0.9662566532599206,-0.192414518665331,34.27502789733331,17.548303877028573,5.408356975583069,4.167645763435292,3.5329986712989525,3.0723296985939417,2.7901216876701307,1.9601358305470633,1.526391689684005,0.8227663908835892,0.4943121975768721,0.30460397466202727,0.3629526938934642,-0.2530940656281335,-0.11907807373222067,0.04441180285493928,-0.028285782755093056,7.968256969652082,6.572883222241949,5.8339325732306255,5.10897901546973,4.539118685677762,3.684323037986822,3.106743077175637,2.3660570428174155,1.7753813317954714,1.4354508327306732,0.7509736376875461,0.5142773253486072,0.20770609002819307,0.16816118164329774,0.22629840248039707
0.0,70.0,70.0,0.0,120.0,0.0,0.9529189300267915,-0.3761100090407963,0.45118872842115754,-107.00824428998625,0.0,-45.06574250640948,-0.8911392016914924,0.3929648614029002,-0.20037571998133852,34.27502789733331,17.548303877028573,5.647860721726445,4.21439322350615,3.6826815682575336,2.8333265451011878,2.3789649383963707,1.8860054187734905,1.361986339573511,0.6473535720588272,0.657458712645053,0.4205348542236988,0.15129990932947898,0.11834202463136599,-0.19624086553273642,-0.2273443671935888,0.03345956182191934,7.662094318021165,6.551481339020546,6.042899660057232,5.298670516509198,4.288471561659896,3.827898064338215,3.023331146584165,2.3369479920191814,1.8387821911601263,1.0936745124123883,0.8602154862814378,0.6765308305368187,0.2617409917541222,0.21851720171535402,0.17117947734130834
0.0,71.0,71.0,0.0,120.0,0.0,-0.06269759670459685,-0.20355787556781624,-0.9771450827499379,-106.97470238674747,0.0,-44.84392497552581,0.48188207299339414,0.6273572994037269,0.34276695734030627,34.27502789733331,17.548303877028573,5.610954230605106,4.139311875696921,3.530280965894334,3.2239885339166814,2.5797132485381016,1.7420072668775308,1.1434801529039504,0.6970936433646819,0.8939562010794999,0.3620805760834852,0.6253450083739246,0.21386687378784258,0.13493209766825212,0.07986737524314663,0.18208557168658118,7.652984090274454,6.849159445221482,5.964085211996719,5.266582048723439,4.659750398135681,3.981584898624101,2.983622683539583,2.4279123143901287,1.6888024594733895,1.199583408419965,0.794849690745085,0.6046075223824153,0.21940300487288555,0.19444478940452628,0.05533921328456532
0.0,72.0,72.0,0.0,120.0,0.0,0.9535221763806743,-0.5803125020497557,0.5411614970055525,-106.98600977729294,0.0,-45.14033260302321,-0.48774319920527026,0.01961439324316827,-0.31056374524898467,34.27502789733331,17.548303877028573,5.435185587006331,4.0726221075458415,3.4669105557832576,2.80408344971076,2.655263108084721,1.8547411498779034,1.3911559071637936,1.1365773575062017,0.39365711119968305,0.21222057831529104,0.2623503394452007,-0.19576967316512156,-0.03995548235994315,-0.13157079338702737,0.0671369425003415,7.75119310467057,6.865860664303907,6.11931893444691,5.27830720176563,4.607609845093848,3.8465202936584877,3.4468549353892373,2.230282563750706,1.7853933885828759,1.054575228215989,0.8421559017182771,0.7106801274373575,0.2836602298825127,0.2768474372698501,0.0805946030862231
0.0,73.0,73.0,0.0,120.0,0.0,0.20969103949009193,-0.6276139882393277,-0.7061067091992499,-106.97939856361702,0.0,-44.96474946655789,-0.5444595309379775,-0.3320702608063817,0.4275337368200327,34.27502789733331,17.548303877028573,5.556199692005041,4.294458426937692,3.6149119937271443,3.018277988105543,2.264770381355597,2.1859088180113466,1.3020368137830858,0.9864000059934136,0.45708873553981166,0.571499209195937,0.17196898873926053,0.10340871249896766,-0.25477655303192875,0.09567046515350483,0.32185824528792745,7.724896304960881,6.601463895148622,5.90609831526939,5.42082036477132,4.682978796944181,3.980204807261371,3.17586511916177,2.310984767950634,1.7946795579979373,1.2253528778698293,0.7442844936758652,0.5265934588474872,0.6640451900671878,0.38593098718662744,0.09949568695510108
