Line_number,Fiducial,Easting,Northing,Height,Elevation,tx_pitch,tx_roll,tx_yaw,txrx_dx,txrx_dy,txrx_dz,rx_pitch,rx_roll,rx_yaw,PX,PZ,S0X_time_1.086e-05,S0X_time_3.256e-05,S0X_time_5.426e-05,S0X_time_8.680e-05,S0X_time_1.411e-04,S0X_time_2.279e-04,S0X_time_3.689e-04,S0X_time_5.860e-04,S0X_time_9.115e-04,S0X_time_1.411e-03,S0X_time_2.192e-03,S0X_time_3.418e-03,S0X_time_5.339e-03,S0X_time_8.301e-03,S0X_time_1.338e-02,S0Z_time_1.086e-05,S0Z_time_3.256e-05,S0Z_time_5.426e-05,S0Z_time_8.680e-05,S0Z_time_1.411e-04,S0Z_time_2.279e-04,S0Z_time_3.689e-04,S0Z_time_5.860e-04,S0Z_time_9.115e-04,S0Z_time_1.411e-03,S0Z_time_2.192e-03,S0Z_time_3.418e-03,S0Z_time_5.339e-03,S0Z_time_8.301e-03,S0Z_time_1.338e-02
0.0,0.0,0.0,0.0,120.0,0.0,-6.905853669885671,-3.1163287747474584,-4.919213113430633,-107.18265968897776,0.0,-45.09121591553816,-2.3072580223784205,-2.1712032365179983,-3.1871906795080243,34.38865340974415,17.459227116127643,4.617921964325978,2.6633321330510187,2.204545249204293,1.7246136875478373,1.2961305893316,0.7925293576919084,0.4122447469490384,0.18709669936746667,0.07290209652372716,0.03688911610205935,-0.01214657111547237,0.009582924283496701,0.010607249096682486,0.009042653125838112,0.015139583942725283,6.956194495910598,5.175441851954241,4.090698175422165,3.5380710025512916,3.0268589830700665,2.1525968420230224,1.3483431667928132,0.7448823044074664,0.35542302818185695,0.1569704618446098,0.06729712822206083,0.009236408925113536,-0.00704948318132934,-0.004584831433677472,-0.008857698886863658
0.0,1.0,1.0,0.0,120.0,0.0,-9.110079279866357,-0.16312467437055744,6.904827880457777,-107.15400764162504,0.0,-44.82394883675934,-1.8081496381989006,-9.984945982071187,3.02389539840161,34.38865340974415,17.459227116127643,4.458624589830512,2.6678131065276833,2.2227664610614535,1.7945234226111952,1.3338746710121883,0.8707740815964669,0.4692333343618055,0.23518537219077612,0.0764092152618474,0.03425423444972373,0.01549146930409643,0.01837650421752417,0.004361381708158204,-0.020438190749420763,-0.018857775929567076,7.064285077365141,4.907387299172173,4.225648012132404,3.7950807836038076,2.949197088509577,2.2347413304609285,1.568805986406371,0.8900506532484697,0.4447335393445152,0.1973843874592665,0.10394473412431765,0.029390202411736656,-0.0059969363014396905,0.023263690905441534,0.009384355340694804
0.0,2.0,2.0,0.0,120.0,0.0,2.0943273642200957,-8.204671474476115,8.795307989081213,-106.77465109560384,0.0,-45.2154886529207,-0.8428963630665929,4.938940683918247,4.897660382656973,34.38865340974415,17.459227116127643,4.445517432303548,2.661821189921265,2.1341838797856973,1.8192517232280858,1.4084275120902447,0.9242918077258496,0.5283884388720232,0.2784198846255193,0.11385292944791789,0.0425791763566598,0.010010526250829072,0.011314630407441247,0.004662425531275138,0.01708007752529579,0.006915687765600694,7.108676442708158,4.7190071557596225,4.382322824413988,3.744545227688479,3.171602754782453,2.4258088856001043,1.644725585141281,1.0082336262855074,0.5019230422673944,0.2506992637396185,0.09760091419331543,0.047034666656154835,0.005529897901268945,0.02354076513919307,0.008929847191419678
0.0,3.0,3.0,0.0,120.0,0.0,-4.558861204745741,3.1549743389478344,14.354086434433174,-107.27509242354904,0.0,-45.20200222335727,-3.052249894827385,4.9371283539112945,1.9963665748380688,34.38865340974415,17.459227116127643,4.7284954798500145,2.712922584136666,2.2791780154604533,1.883762182245106,1.4183637695144042,1.0228501202251683,0.6101262137021223,0.3112731701958942,0.12779335013068233,0.05604719381595864,0.011739109913962292,0.01492145410103823,0.011061122253954298,0.013686284626586841,-0.002328720055034833,6.926313587002739,4.97758224614545,4.33813593102376,3.7678540951762867,3.153950293819054,2.4864823387659607,1.7983286066147879,1.056783491909916,0.6195352821384905,0.3003110150584696,0.1298221660921979,0.052609524060533194,0.014424928516703593,0.001094603603416516,0.028338543718030722
0.0,4.0,4.0,0.0,120.0,0.0,7.449855052989125,-5.492488603150143,6.72858802897596,-106.98929944505726,0.0,-45.37086604307001,-4.560957040753163,5.552515337931432,0.6804944883208393,34.38865340974415,17.459227116127643,4.542247392194602,2.6585550056237772,2.353541652722417,1.7785384952812338,1.5221057941554574,1.1036933798015955,0.6832231298385378,0.3657643955399957,0.1571367184880087,0.07858527513935729,0.021598720839478,0.01834163813115824,-0.008676870607872603,0.015597070775207141,0.007523835729252039,7.017341944997716,4.987059817753938,4.48946890683959,3.7885602423177898,3.358680711589972,2.5923662346654606,1.8485679600876541,1.1817202921752554,0.6858791478741327,0.34394677811895663,0.15731893752073509,0.06151126512288782,0.02874383541858188,0.0013500029526241838,0.00710478795266423
0.0,5.0,5.0,0.0,120.0,0.0,-8.883535424160824,6.418601319797503,5.563045802617324,-107.05600007156487,0.0,-45.142055083799534,0.5789536816847184,1.612234556611707,3.3695737888841197,34.38865340974415,17.459227116127643,4.466310693085896,2.7469044947894004,2.1799904780517343,1.8402770872944267,1.5099202797646563,1.0914560693775364,0.6983420912488633,0.34942560013964385,0.19715896262758906,0.07190390991951079,0.03891574340141166,0.01277750359529652,0.025538843925424607,-0.0066044422454447065,0.0029167266448114843,6.96599134114591,5.124691321259723,4.506404106454001,3.9448899788562533,3.2923913641983793,2.8021369359879396,1.90329915629384,1.250282839619168,0.7612933401923336,0.3771982888234131,0.17031986470029836,0.0766107329574131,0.04483289993038042,0.011271911597938545,0.005788668130152061
0.0,6.0,6.0,0.0,120.0,0.0,8.751164827001446,-16.876459031590574,10.792788315535773,-106.6569581121044,0.0,-44.983986352792854,3.618534321063346,6.369128395074583,-1.666042155513936,34.38865340974415,17.459227116127643,4.620153602423481,2.7380364743240118,2.3256506838884046,1.924002601832592,1.5094617781840574,1.0862898478278047,0.6999324421399851,0.42695379867610567,0.20602661025363617,0.08294962620452526,0.03826056590637683,0.018478549292867096,-0.0003111973494018326,-0.0016624527725622395,0.013687736697022052,6.980778138451104,5.126942994597797,4.376453024381981,3.8889405837548554,3.3877497840738138,2.6298455599722605,2.0593476544795326,1.3439782535854357,0.7863259955040178,0.3825975011383854,0.1994844996889214,0.08024806121167716,0.0193918433532122,-0.0033943905079126084,0.0006897802040399573
0.0,7.0,7.0,0.0,120.0,0.0,-0.4960534260473022,0.2839666779384409,-4.183187294110876,-106.93400394063582,0.0,-45.34816878230241,-1.996256191569414,6.555845799695685,1.0921238536323834,34.38865340974415,17.459227116127643,4.448619315595399,2.7524569884661068,2.2931961355702937,1.9355691076623347,1.5655532687866334,1.147502858578793,0.7719682502347166,0.45658586421937475,0.22368832412183376,0.10781845455483363,0.03246751560822495,0.007071760207993058,0.01386852374447231,-0.019230285762990473,-0.013784705094621744,6.954716660343498,5.26758915104825,4.357442343536685,3.9347663548594127,3.3902187596110216,2.726783910228008,2.0179566184741127,1.4162412933471222,0.8570216437711662,0.49216769813483613,0.23217293991420268,0.11739286017447742,0.035668183753131806,-0.012826633709705111,-0.012986674683887686
0.0,8.0,8.0,0.0,120.0,0.0,8.492862973659278,2.6866362063306326,6.4441567420466015,-106.75228686291379,0.0,-45.12393964479507,-3.4768382001457754,8.921817048379456,3.5460568061074778,34.38865340974415,17.459227116127643,4.698792046087356,2.7390688574543245,2.2338703503307027,1.9743199708174233,1.6049829464184273,1.1931040571603027,0.8317115111369442,0.4523492119988844,0.23731637619996285,0.10245195619245143,0.04532556285712409,0.01354808305995975,0.002892961784332001,-0.010738166180885274,0.0034794251779427595,6.793574822769165,5.057223488873474,4.39433713358165,4.005281510184631,3.4311605315788407,2.7808011499563237,2.0757216724603698,1.4957964462279525,0.9442661784226932,0.4929923515949721,0.25263212938340385,0.09857938701101025,0.031958087849328486,0.02223521121602063,0.004375178925916514
0.0,9.0,9.0,0.0,120.0,0.0,-1.5204747811853743,24.17246123514255,6.236808270745136,-107.15272045838547,0.0,-45.2466914055299,-4.542575418616551,-7.441495026383283,-1.8822424536186633,34.38865340974415,17.459227116127643,4.641089233543505,2.77878282262196,2.268134851195744,1.922354825516488,1.548760600331536,1.167423735167168,0.8265804800233375,0.4881280198528331,0.24370573441470933,0.11841976084045036,0.0387105159916264,0.012258499278058818,0.007035448286134279,0.01048459010353946,-0.003937334683458608,6.960639961358622,5.291389684988552,4.399893580220592,4.002325504227823,3.434176898283834,2.7695489985962305,2.1955136589321675,1.5258335437638357,1.0039752266507544,0.5503196268105739,0.2696642059086068,0.10858671554754117,0.03691731793620978,0.021539369318015224,0.014192768445245356
0.0,10.0,10.0,0.0,120.0,0.0,7.521502089124411,16.983524667612087,1.4556783857249833,-106.84536337101721,0.0,-44.44806541024484,4.716171116386211,1.0396385096349174,1.8016575151586327,34.38865340974415,17.459227116127643,4.534597500608218,2.7865154963700345,2.33146619147232,1.940138294214729,1.632978579658908,1.2220771142915694,0.8453796961320126,0.5055577124173736,0.27402008434923675,0.13760004077600488,0.05180738520530203,0.04137778660681926,0.008690426018052647,-0.01563433781480005,-0.004009811826373153,6.969284126281527,5.219591749761131,4.448243818191609,3.943224294193035,3.5105429444571863,2.7776990959823844,2.2752600099743696,1.6013146678959869,1.0175829696286822,0.5570085549710792,0.2789377084118905,0.1232954786489961,0.06299764950616143,0.03154299060312711,-0.0044914323179004395
0.0,11.0,11.0,0.0,120.0,0.0,3.5806368397904222,4.652723902191536,3.9917763789671454,-106.79772138523259,0.0,-44.78277329101557,3.855126349988835,-5.619563836296731,3.8886212081770726,34.38865340974415,17.459227116127643,4.5387595092060335,2.827082937447397,2.4455610390600495,1.9961695972005589,1.6192037980871867,1.270338670809489,0.8652729192974887,0.5466907069975364,0.2938387481973189,0.14243482686744188,0.038439107674129454,0.007333867312082685,-0.000548018245786497,0.014537615247988078,-0.0019076130259378303,6.83178373465069,5.290784587130523,4.53904067826276,4.090960653924177,3.4071304607157242,2.9388958404389496,2.206732613015044,1.6720630170615847,1.0624605615348133,0.6034640711879955,0.30255654828279827,0.14509614871172463,0.044295368600295336,-0.008802452216530136,0.019737762100004587
0.0,12.0,12.0,0.0,120.0,0.0,-0.535874121280111,-24.582625699537875,6.839239317643393,-107.02396410547063,0.0,-45.03220884531086,-0.18823899910386335,-1.9511129441027268,-1.2202235027260788,34.38865340974415,17.459227116127643,4.5201591363312374,2.9003653911106513,2.399555925382551,1.9437571265998008,1.6031843223130424,1.209631435630183,0.8843302595670849,0.5370022187153746,0.3231576929438812,0.14920997895924953,0.0668281046550726,0.023823490344157063,0.02201142530273445,0.015247466634011022,0.007952816034753884,7.201497575586005,5.22526316517754,4.459370979858029,4.045133477710853,3.4455104368912846,2.875470842674655,2.296136401257746,1.6702121309104265,1.09532847727186,0.6853367911684572,0.3655493789066873,0.15523525688005274,0.0451524049002125,0.023281642668512122,0.006404371767720456
0.0,13.0,13.0,0.0,120.0,0.0,-1.0525240145950931,-0.37888208967872217,11.490082739535385,-107.61856044371164,0.0,-45.05648575101783,3.0179285776875626,8.05470003261123,2.6810242709311263,34.38865340974415,17.459227116127643,4.66559677584882,2.824979072358693,2.3822933286030596,2.0008897377745134,1.6509215198770744,1.2949984743005232,0.8842278240355117,0.5870083408720751,0.31322844605559175,0.15622336662993097,0.08254667159355594,0.02620956266005169,0.02042481781635202,0.01415180426607461,0.02106878933953201,6.954608805307912,5.195733092610945,4.593231919030919,4.200731564281608,3.5159422441030665,2.9106836413974007,2.436469753102958,1.6770238694071935,1.15093494611601,0.7181528112715406,0.3731143710241115,0.16759845349066657,0.06626373216476168,0.02756567476737477,0.026233265216471256
0.0,14.0,14.0,0.0,120.0,0.0,-2.1166069337475584,-24.89607709991232,13.139299294761386,-107.36568302807804,0.0,-45.09461488037934,-3.2483901775636217,4.3828931286886395,-3.555688394706018,34.38865340974415,17.459227116127643,4.675192566685181,2.9527883805316946,2.3445596532829103,1.9894406278019716,1.5989513802339963,1.2637008836576176,0.9467728322272894,0.6198395996777973,0.33536976133171126,0.17736958112094872,0.05575076869818975,0.02458510296227626,0.007949771105164552,-0.013344064172549628,0.008170880533166346,6.874229404304688,5.27401283820565,4.379704882993762,4.030126671647814,3.5441969207228725,2.9019780756301494,2.3902914727670006,1.7315808716765244,1.2230969531702982,0.7526224051990872,0.39833423548404506,0.18780957357263497,0.08949056527829352,0.01216775909685216,0.010205497408270455
0.0,15.0,15.0,0.0,120.0,0.0,-6.342226142171166,-3.9133168245409813,1.1677219753353043,-106.68570250894096,0.0,-45.04856795912639,3.031145969616624,-6.079913485159716,3.9167704632570572,34.38865340974415,17.459227116127643,4.625499989967361,2.8782190706048567,2.379253503662355,2.0343425575026215,1.6853353926142751,1.283871532278074,0.8956595703482675,0.6035805242942132,0.35459909377047727,0.1721117319109748,0.08300905963534302,0.03409944984296023,0.003575244263239117,0.0019318136249234512,0.007139997278717794,7.084216710346854,5.192202717540797,4.691088747435609,3.987315470174808,3.4933370050990367,2.8992861940794454,2.4419590314799113,1.859865261033953,1.2691763803164375,0.7403967773701122,0.4480068707207429,0.20948699421757322,0.07876359857980848,0.033557077313952396,0.020301124125940123
0.0,16.0,16.0,0.0,120.0,0.0,5.3056913452575465,-8.768198231962337,5.387217398491149,-106.45082282010573,0.0,-45.11711821018447,-2.655859906446515,7.951918430903099,3.8901357599926225,34.38865340974415,17.459227116127643,4.619670010846897,2.98948876865492,2.407119471750639,1.9366293061739412,1.7130891366770002,1.2461902851361308,0.9259402478001308,0.638059507539411,0.3991675532557847,0.18599967889429958,0.07595578845143582,0.029996168938228186,0.024981270103161077,-0.018086542794757122,-0.006502342344226604,6.885334306437767,5.4403082546049015,4.650680648222571,4.148462928212444,3.5849348679024953,3.034975679017731,2.342603185082276,1.773080006015676,1.2700284786684914,0.7965507394352971,0.42912792484028733,0.19805622595479347,0.08762824904966991,0.04784510716062385,0.004050531840003106
0.0,17.0,17.0,0.0,120.0,0.0,7.5479175188208885,-21.669793750926193,0.6085543090617307,-107.16171192871289,0.0,-44.66769089127855,-0.4301017572105047,4.60713003748147,3.986541293125338,34.38865340974415,17.459227116127643,4.728664930669633,2.9417150587239296,2.3647253439829683,2.086819989861625,1.6481496839609726,1.2609672247895365,0.913746762669805,0.6390597523689797,0.3857645756182636,0.182084143066484,0.10331519394327433,0.013022655015858683,0.0015804133633331996,0.028139023076856944,-0.010612159974040978,7.244913648446721,5.247985856512619,4.692344948525171,4.066797366578753,3.649427399382638,2.9318871048984696,2.482732160028823,1.7836324907696526,1.3140325915511257,0.8328708541052512,0.4652830230150821,0.20950746784519,0.08895552308946328,0.0273898507475816,0.014415357743595333
0.0,18.0,18.0,0.0,120.0,0.0,-0.41446053093768853,2.938032079899866,5.666473259803823,-106.88054311961051,0.0,-45.133255112277865,-3.2194731675689674,2.1834677397905526,3.2175914172052007,34.38865340974415,17.459227116127643,4.548675682075455,2.8972097133087,2.5092600975825907,2.0313269027753735,1.6423853827888195,1.312751616831197,0.9574024289354595,0.6376555057425146,0.39113084842547197,0.19133178612696286,0.12460585278141093,0.02458450133958332,0.015134215065331996,0.006856035550319406,-0.0123400934896165,6.959710786172084,5.087198406772369,4.726138527242834,4.16501581775512,3.407935989789028,3.046162670620183,2.417512680895637,1.756563372926533,1.315273538663005,0.8425051958449717,0.4494049070795613,0.22984730460354028,0.09632175198525073,0.03604986648525939,0.03127853496726565
0.0,19.0,19.0,0.0,120.0,0.0,-1.3946415228816953,11.420848252023681,-5.0530190442304,-106.88782391381804,0.0,-44.77383259721033,-2.2801710038138854,-8.292971391138309,-2.3242557548593954,34.38865340974415,17.459227116127643,4.731902404205744,2.9292880473427165,2.4734469357837874,2.135745544466028,1.7256749110167138,1.3552859288997006,0.956817118550208,0.6646006184891977,0.40027661878664955,0.2268972773764584,0.11508447847243286,0.03793734265057065,0.019030347772157213,0.002873916013909619,-0.000954016198133171,7.002857900271324,5.13816100774484,4.934949742162822,4.11796582450087,3.6204792705901214,3.1573561909372923,2.4883210807733906,1.9282972591385594,1.3590302181299034,0.8810703509362334,0.4543433354945726,0.26205402336159256,0.11549191860688092,0.041166151802558754,0.024020112428891186
0.0,20.0,20.0,0.0,120.0,0.0,5.099572978927295,-22.09626671251034,-6.912147466032639,-106.77822736123797,0.0,-44.579468514736476,-1.1845843815737338,4.855478789732237,1.4864967205017425,34.38865340974415,17.459227116127643,4.511717616679896,2.864184200390161,2.5243798876459986,2.0921518854435446,1.7165787002035198,1.3346462615608865,0.9751756663704472,0.6877066359705589,0.4203702423557596,0.22358796974606077,0.07675935721294841,0.03773438096263361,0.007759488028212477,0.015537025771220955,0.01641424780022967,7.190211303485219,5.300449089034614,4.59678280972864,4.100864574682495,3.6285521029767174,2.950007328034007,2.506053243939692,1.9182552596128988,1.3735070690382354,0.8742541124244795,0.5201600215378422,0.24615967355755988,0.10089080430256593,0.04359155084108234,-0.007559354148522915
0.0,21.0,21.0,0.0,120.0,0.0,-8.16986866517591,-24.883260003804903,-4.695342576217882,-107.13383164219617,0.0,-44.98377164438813,-4.530040837163434,-3.329820615528414,-0.2645609498762109,34.38865340974415,17.459227116127643,4.774964721193054,2.960981566380173,2.436114965957532,2.0898855265959497,1.6906612193374564,1.3748519160714465,0.9756553079749214,0.6738971650078204,0.42219752124622434,0.24015444367686678,0.11436045558863198,0.06674693759694897,0.012101491882971032,0.018182983324897727,0.00688101752517305,7.0720061239683485,5.349457677162001,4.7402696711073755,4.1653570013434,3.5972782436476223,3.02497819381174,2.4564175861612947,1.8640714377228043,1.4360307767701967,0.9235517953236133,0.5253423469334169,0.29185394142595955,0.10179272883420938,0.056116148495108036,0.020199002861933144
0.0,22.0,22.0,0.0,120.0,0.0,-2.962578637854567,18.054179538939664,-8.15163429755567,-106.79650982594077,0.0,-44.77245448124141,-3.3343895993952177,-6.471234038025067,4.241007357486643,34.38865340974415,17.459227116127643,4.544465611450287,3.0255313468224365,2.5139321949023983,2.1663935925056284,1.7353428703780853,1.3363360703492302,1.0574407363093596,0.6600599606182049,0.42525358985325196,0.23675470096518558,0.1134399556690292,0.056906813898788225,0.019570055785702672,0.012725026483732204,-0.0004041774586831077,6.879400578140392,5.185073237364071,4.738945247323251,4.274939396557111,3.5868511038547606,3.1513838090209383,2.4175271526162945,1.9127369482665688,1.4141274125571013,0.9172981398742879,0.5463124664631104,0.27636444784851283,0.15043298203241928,0.039107418470204124,0.027599586065637664
0.0,23.0,23.0,0.0,120.0,0.0,7.210197118115094,1.0878009657907377,-4.387352012220216,-107.2300500277393,0.0,-45.15402784142775,0.7744898172105769,4.133344328187778,-0.025700829646689627,34.38865340974415,17.459227116127643,4.632978029217901,2.9251420638258083,2.5900731722291366,2.149014563698764,1.735956962725059,1.3839733779105283,0.9971236222665043,0.6588065442928055,0.43104766435560526,0.25973813695712256,0.11809236782755886,0.03874552784538323,0.0005401666622422835,0.01734407878732453,0.0009828406273607146,7.059619812867421,5.340639265207055,4.645326617919463,4.19770776235432,3.6350597628528067,3.086150415222451,2.4903116667388816,1.9299116537236791,1.4136655566634149,0.9140087936869381,0.5623668850726541,0.2902571720513811,0.11791165576959227,0.0725785932737527,0.014721569812118822
0.0,24.0,24.0,0.0,120.0,0.0,5.417333592693176,12.484959894155125,-5.369556730141284,-107.22777969907322,0.0,-44.86695141813111,1.6732058237974101,1.3784606876706071,3.3043358322923417,34.38865340974415,17.459227116127643,4.765250467173057,2.9807686296273483,2.624183798222775,2.086626828277308,1.755515008160618,1.394809881129569,0.9823801565314308,0.6895415754270872,0.45558760575462676,0.2547568225324257,0.13871105115450105,0.04584330793902491,0.0028554260844202532,0.009883760882414976,-0.006402839798658693,6.8020073074350496,5.323518692626375,4.726951990862428,4.205470837764064,3.749969146533532,3.035762434591613,2.50068034053288,1.9487541960157704,1.4236160387825847,0.9457660307465466,0.5628975212630004,0.296938738229417,0.14506898642114888,0.05792044389522729,0.017111454478468582
0.0,25.0,25.0,0.0,120.0,0.0,9.412209544860406,-4.0946378895570845,10.39913009232204,-107.11008741811726,0.0,-44.965542601164685,1.655955674748414,4.421096980579364,4.934531310034405,34.38865340974415,17.459227116127643,4.624340082657253,3.0493945205378648,2.6059632616401736,2.1331330419116257,1.7769251451484356,1.3793889564861597,1.0032215420931028,0.7106809774589762,0.44526718483259903,0.27321289857671294,0.1297189136114891,0.0545483332415989,0.01992572135034681,0.018097568360643447,-0.004396462028049777,7.080524413737033,5.3319028493978085,4.726378162672519,4.30549411118621,3.787596510526913,3.1411705690224965,2.502949329199622,1.8816707903555512,1.3974069494508783,0.990575717489155,0.576194900575608,0.31910963360343353,0.12939406514093446,0.05788015010377364,0.02264548551992608
0.0,26.0,26.0,0.0,120.0,0.0,-7.73294410351,-9.67679996337248,4.273842271866528,-107.2740126872702,0.0,-45.1991686852855,1.7788855612654568,-6.8936430183588,3.1366253044390255,34.38865340974415,17.459227116127643,4.62816541079945,3.159031467777491,2.567051408846147,2.2025005718121946,1.7989831782763883,1.3910979030185897,1.0028859897439573,0.7155398236249398,0.4326504474495256,0.2835074989489204,0.11722995567557636,0.05529063142916674,0.012865009684183738,0.01890124501481117,0.010753937408810584,7.09770377055931,5.305988745837879,4.8069582105253525,4.112118254275686,3.669797505845485,3.072916533784937,2.5074414211398515,1.9186291459640126,1.4388073535320578,0.9994028561128082,0.5917566215369557,0.3422017388077847,0.14572140567423975,0.06216797878058804,0.028785765617150554
0.0,27.0,27.0,0.0,120.0,0.0,9.163289869920657,21.6494114411716,-13.299348713946985,-107.19550980018977,0.0,-45.09961962215611,2.678640586859419,-0.39173585926181076,0.24974358562397647,34.38865340974415,17.459227116127643,4.77770032129302,3.202495253496431,2.654390238280834,2.2019652597379133,1.7222567554144315,1.408545331878992,0.9809914162992271,0.7261417985119085,0.47879565599974316,0.27425849985452294,0.15903263890468594,0.06324233398632056,0.025132751672907745,0.024541701457847842,-0.003281157573644832,7.325326054537326,5.63477495622998,4.959785743816982,4.360168048222215,3.643254232133062,3.1617629389422515,2.4937892749352732,1.9985043895575008,1.4409830156579349,1.01638570148965,0.6322988883136398,0.36063830638182903,0.1579657143316348,0.051826810803339465,0.030490282432510625
0.0,28.0,28.0,0.0,120.0,0.0,1.8153389901318207,-22.24452005344309,3.5538279318395283,-106.9203965584637,0.0,-45.18057725343972,-3.8632872237987743,-9.574160459715046,1.6823294387836354,34.38865340974415,17.459227116127643,4.764061589799513,3.007161439078411,2.592402957861282,2.253778538950931,1.9076498670125004,1.3950510657862694,1.036504693513594,0.7075590321707844,0.48997173079730183,0.2683734371281374,0.1383867322216303,0.06251698715735704,0.018872385022980432,-0.003299585413284893,-0.014409021563402994,7.12057590853827,5.3191425750839505,4.843425526878484,4.236686904576604,3.7760642411517082,3.2164080164001123,2.5941091431788266,2.047600269469912,1.463947796647423,1.040765593709833,0.628402898395962,0.3469686066415236,0.165069524708869,0.06577580757648871,-0.00811620148609742
0.0,29.0,29.0,0.0,120.0,0.0,-7.667452322187676,19.25521002142186,10.144456381845306,-107.2238835314516,0.0,-44.9527614789486,-0.4851395215437608,-0.03166626952833873,1.161368097626009,34.38865340974415,17.459227116127643,4.611925991423949,3.0651869234057765,2.733272031830361,2.258924585806717,1.8352779878470826,1.397450742894245,1.0042062835240237,0.6978782573705885,0.4786607830843339,0.26429710379778415,0.15540032326406314,0.07502644508514315,0.030095805947676486,-0.0038366970434220056,-0.0029672496182462853,7.162739518144135,5.3923511173071486,4.905357343160389,4.4286347359895295,3.685569896473648,3.221522728383158,2.588360430810625,2.028327762741051,1.457437835289903,1.0271467191957722,0.6508060770436592,0.34793680898970214,0.17464173992874027,0.06835201757684403,0.027062193608534436
0.0,30.0,30.0,0.0,120.0,0.0,-9.195945247803621,5.384995986980716,-14.223891073578264,-106.66731577330232,0.0,-45.07611315178394,0.005230716449027506,-1.5751398238149008,1.4536632697066478,34.38865340974415,17.459227116127643,4.726490452609385,3.227202996648241,2.656981252641069,2.291946630028858,1.8468840267236364,1.424103883383995,1.0557902835528914,0.6950683115136801,0.4521676433660988,0.2857358401762197,0.12865863289196597,0.0932765484215654,0.02447265056721756,0.004600381483252975,0.0027651330173663366,7.255862042819373,5.59578117711072,4.754186531473469,4.418698572548312,3.774363401958016,3.2483382614248817,2.5502987363074716,1.993465987444181,1.499750542745256,1.0368666823786414,0.6698905498704748,0.34047873334021894,0.18391528989942107,0.08665288505375959,0.02626813434484833
0.0,31.0,31.0,0.0,120.0,0.0,-5.330388495445626,13.773137642726077,-0.8141884550827054,-106.35526853798585,0.0,-45.139976876442674,4.947343446726214,1.2825162091867153,-2.2272394181823763,34.38865340974415,17.459227116127643,4.898630971043971,3.185421049904972,2.607776696912727,2.2912083278784596,1.8763543775661513,1.4433624117245343,1.0601119129367953,0.6925147596489202,0.510563472532649,0.2868025100678527,0.15388743612710112,0.07798410390417045,0.027727542032468244,-0.000489658885420536,0.005029747001482965,6.844844386689875,5.613548961450251,4.963955305384032,4.336710957674103,3.823527347014815,3.2660064124676316,2.5754046721363117,2.056687918817701,1.4988284432674603,1.1038541920779652,0.651629889551297,0.36751787382040757,0.1798886645990696,0.06744759824194974,0.04437637969391839
0.0,32.0,32.0,0.0,120.0,0.0,7.6059921033323405,4.578934325397665,-1.498157351348679,-106.59078328058428,0.0,-44.92947475465006,-2.510916267552265,-3.8060114577162203,2.472935641891258,34.38865340974415,17.459227116127643,4.657401723591452,3.306665437261914,2.7165004541753657,2.293016258809516,1.8710830789809574,1.462507120151159,1.06827839997214,0.7228443218777867,0.4984405850307777,0.30027073313815955,0.16773627867421412,0.07964431568104777,0.04576801462815591,0.011079817327975614,-0.006035938072526226,6.927501151399509,5.542730540345429,4.869899974163299,4.6752083226789605,3.853000280134899,3.137659057756967,2.6071188912781356,1.9485827057605392,1.5870064818589722,1.0785704231115936,0.6840974154330381,0.4113190638137536,0.18834028723203294,0.058622055893289005,0.007079250815102061
0.0,33.0,33.0,0.0,120.0,0.0,-7.83228140467751,24.927846102866553,14.698447508091153,-107.03676894932754,0.0,-45.274893765301016,2.9072888293628085,6.291064461918342,-3.619312579907774,34.38865340974415,17.459227116127643,4.950072379639317,3.246032066449314,2.6421227159242893,2.3090302549598323,1.8818445958244792,1.4721909162316547,1.0393353060617063,0.7414159035990963,0.5142434850157953,0.2969943137150498,0.15762020603630855,0.09380193881871177,0.03785489550251206,0.014698876113614305,-0.007481031534677397,7.0554891888611015,5.643679098544109,4.935493776015536,4.4510090825438535,3.857348482321284,3.196941196532359,2.6325652330528677,1.9923854756412107,1.4873423580285063,1.0916571478534254,0.6429942051818489,0.3747202736720234,0.21277085114480332,0.09709962780875522,0.027263416895284952
0.0,34.0,34.0,0.0,120.0,0.0,-6.0797728868708,-5.887223051499195,9.782613850518857,-107.1497736538962,0.0,-45.29639560005947,-0.38199899701121404,-9.24346172288592,3.9515304980147192,34.38865340974415,17.459227116127643,4.68816394640959,3.081006339668358,2.7594349611366544,2.348614114732255,1.8341347893736204,1.42081726579235,1.0129458312939759,0.7550712598289596,0.49829029315096873,0.3275628947227879,0.17566736970369745,0.07327866608889977,0.02091096574679782,0.029529722132354073,0.0005766619939250209,7.079008930949362,5.480989803127743,4.877619636409707,4.439837367201721,3.889499987669382,3.2956744444146717,2.637089611520664,1.9826670176899865,1.5948981682265468,1.0959045856871807,0.7300587203402569,0.3806180289575056,0.20727816073718344,0.08991951043561995,0.04611169358246839
0.0,35.0,35.0,0.0,120.0,0.0,-4.106665821301128,5.366347052049424,-6.529384288425149,-106.52575238612106,0.0,-44.96484360208605,2.9681457039983816,-5.137982179726011,0.24092823457147894,34.38865340974415,17.459227116127643,4.742456307102581,3.241577225484608,2.721449411834339,2.376120129879464,1.8960842055000735,1.49812864345561,1.0402073128646983,0.7407048259846518,0.47726358670415525,0.2867831863152108,0.17523114179994126,0.05641337106052262,0.0638581168559998,0.0045858490395463735,0.006001879418670883,7.1787499566240385,5.641871063524608,4.74795076344012,4.447862637415625,3.765777444560985,3.2032060567817564,2.675402329624041,2.0847082816475724,1.5073875284575713,1.091982914300973,0.6967053659488512,0.40884488204063874,0.1713294192814433,0.0630857320113477,0.0355025489871484
0.0,36.0,36.0,0.0,120.0,0.0,6.290551870481945,-20.68807589690382,-14.284525105067893,-106.97602336534945,0.0,-44.955967840683556,-1.0684043559043006,7.828064379919294,3.8262735462486646,34.38865340974415,17.459227116127643,4.634819991010355,3.2310124364566284,2.789714517931467,2.3977510720193367,1.8972436469823604,1.4783757328420988,1.0610166478239091,0.7523262364100411,0.47185210168788916,0.2803204383853735,0.15949096300520474,0.09023979290766243,0.021326524634424283,0.015683060397613725,-0.009424682553269576,7.103369384485486,5.521748625461186,4.948723782526042,4.50260114288382,3.725383846121079,3.318179615004909,2.699456436288811,2.095537985754838,1.5781846085417048,1.1261517456220178,0.6863678328463293,0.41546955821197573,0.20857939290414462,0.10089964930335815,0.0324877117721296
0.0,37.0,37.0,0.0,120.0,0.0,8.141205621693985,-4.179900490359756,-4.257650193376822,-106.90866791992715,0.0,-45.29797191064475,4.182334854267392,1.8137633255571206,0.4951127645479758,34.38865340974415,17.459227116127643,4.723301999682594,3.197393770446086,2.9306463808185006,2.3694416665523104,1.9162229470454635,1.4884602408221652,1.1187071735114313,0.7054751301310426,0.5225928318855202,0.3262595191852343,0.17461452140685912,0.09085175144540249,0.020534783281810243,0.013514696473008446,0.0007546154571735218,7.434032078573952,5.688997947863602,5.098547674613561,4.534852374462451,3.995969093979724,3.2817244053170906,2.720312095652895,2.1069153426163756,1.556441458973035,1.1177002444042898,0.7584353083998214,0.41898534161388745,0.2028129085217763,0.1025742089189467,0.04290857449018758
0.0,38.0,38.0,0.0,120.0,0.0,-1.2736264602061027,-1.1067525866496624,-13.051443468558803,-107.20110349054364,0.0,-44.558893029976915,-3.752524630230983,-7.924150729217536,3.7366967600842553,34.38865340974415,17.459227116127643,4.640632113915818,3.32683234785389,2.9051066973853623,2.3316704651254816,1.8901977327970356,1.4951003369903086,1.0624071114503055,0.7732167942550496,0.4998428598866806,0.30823032566099856,0.1834185249865193,0.08728653689367459,0.02812438534061163,0.001123719154812056,-0.0029059941847163757,7.186826527216104,5.658224304214729,5.139515684003091,4.522947327643045,3.997658073650274,3.378350845511716,2.643764268270818,2.03614181742938,1.6166948955298754,1.0816503039538465,0.7307795174763038,0.41011824449629797,0.20732979566758702,0.09529308241775196,0.024077687313828387
0.0,39.0,39.0,0.0,120.0,0.0,-8.386768026268705,6.391272122087177,2.8167167902252928,-107.04908558745875,0.0,-44.79015060815125,-2.867381287686936,-1.8150940997621472,1.6739681948586318,34.38865340974415,17.459227116127643,4.667704564269977,3.349545966432423,2.94023071673392,2.4344957637837874,1.9434377721429312,1.514449344640063,1.0934249148609743,0.7791558685695174,0.5170585725449486,0.31552922432677477,0.16556324027118136,0.0795534908362261,0.029650433300590272,0.01773230198367927,-0.003566299498905329,7.318213960189322,5.626970318559372,5.41066491066335,4.645643950688387,3.953101092704547,3.3892131367040172,2.787164656386783,2.1001835208026325,1.561904255712721,1.0976384286891474,0.7494332643007604,0.4125034364210226,0.2259514782151157,0.09588123082790063,0.047237007294398434
0.0,40.0,40.0,0.0,120.0,0.0,8.455179862952715,-14.586918051386345,11.604932640208059,-106.82513238160834,0.0,-45.02518867211107,-3.2923855139050087,-7.710612879971088,4.001240929865368,34.38865340974415,17.459227116127643,4.786717001506998,3.3447311089028497,2.8640927604872757,2.3880487036328897,1.93358310597749,1.5040822232517337,1.1292128391094332,0.7677001962148212,0.5094483922522484,0.3445262542933359,0.19042999633076035,0.10352718256892918,0.02241863974604627,-0.00027424686321561934,-0.008371116900788613,7.348146892050254,5.731876725161552,5.025189351543474,4.487542763159542,4.000029705707268,3.3533803195821696,2.6682737173341056,2.0301491396014746,1.493663635006333,1.120141041543098,0.7315169954000997,0.43077554691506553,0.2300608377883622,0.11045047842829836,0.04083222782314331
0.0,41.0,41.0,0.0,120.0,0.0,-5.08637497408283,-8.341571579838185,-8.08536613506709,-106.75709196936077,0.0,-45.390045758757864,-4.532906519826127,-3.3221748215991997,2.3205398706948035,34.38865340974415,17.459227116127643,4.8217335341401615,3.4050353851850352,2.9391301156493754,2.4801987477082372,1.9112218412273545,1.508799628826458,1.1325728800334822,0.7524448145626467,0.5189805366613907,0.28955060386479314,0.176986545778272,0.0993744656974543,0.0390327243914631,0.040750280927267624,-0.0002043648100430455,7.1569487927163715,5.5743580257256085,5.088783633124842,4.5175731893522615,4.039727411303482,3.3491615667339265,2.754070789101358,2.088397865621118,1.5126081336245794,1.1139265514005972,0.7150339409860367,0.4479769014772097,0.22959766546724944,0.10799349621965114,0.03920968696740033
0.0,42.0,42.0,0.0,120.0,0.0,-8.586624914424428,22.26055612566418,-9.912239019148593,-107.61076236739265,0.0,-45.061823405811296,-0.5399591127875014,-7.719205716840952,-1.8546508134164066,34.38865340974415,17.459227116127643,5.018763919978207,3.575644051438802,2.919367749263087,2.4387976561410785,2.01134514438709,1.4644733657047093,1.1009734455823277,0.7580402139706218,0.5245038636878303,0.31647353903670034,0.16996140216739822,0.08612401743359752,0.051167862984542546,-0.00153530692864671,0.0011794498061416595,7.216061028095274,5.690093007313051,5.357458394695663,4.4565959699132325,4.0089748556063975,3.4624707991574946,2.837717190461788,2.1401646119831406,1.5726356975578806,1.1233016976661383,0.7574495830192233,0.4547441002546479,0.23477367987420925,0.10407325848567618,0.05000434580190755
0.0,43.0,43.0,0.0,120.0,0.0,2.985983263200975,2.1739577882667938,-4.981342075613883,-107.0222842682141,0.0,-45.150052402699814,2.5180990373807854,-1.9719705503988205,-4.097035477549813,34.38865340974415,17.459227116127643,4.9472326962380615,3.52798753918731,2.9151709459093724,2.464898758165857,1.9464711428046748,1.5537803322333543,1.0884169043230796,0.7594273379173229,0.5004042159673905,0.3307036158649986,0.19284595061036428,0.09618546126243106,0.03336794251604488,0.030827159056929933,0.007445260664015668,7.099507170286149,5.804282846743894,5.316594038987755,4.764044603826319,3.7925379421516783,3.383370925628613,2.8335687477104936,2.1416475473432643,1.499554592010045,1.162353875155714,0.7442629133622236,0.4609782953118607,0.2567332794522825,0.12198647270122247,0.04902039965187677
0.0,44.0,44.0,0.0,120.0,0.0,-1.8643482325731409,21.866406094720674,-13.20930753739573,-106.5821716063285,0.0,-45.145817284345526,-3.301161754612468,-3.7160200388827906,2.900453931993157,34.38865340974415,17.459227116127643,4.916606148028011,3.5001014203570997,2.837788997183697,2.5200930789890523,1.999306451113349,1.597928988105544,1.1190916195283003,0.7843519950385568,0.5296752124443314,0.33827565732974,0.19466685164905498,0.09464837289675324,0.04811363492957176,0.020805819459852208,0.012126710294130691,7.200728147386502,5.899238106651435,5.218523469715157,4.544285849669649,4.0699332779157595,3.4220763819407383,2.711927950998082,2.124810085747664,1.558876589001328,1.1518136845774998,0.731128517702086,0.4382512197985592,0.25338300703925404,0.11693833702708918,0.07429312218331374
0.0,45.0,45.0,0.0,120.0,0.0,-4.622272627996669,0.09746128273186372,8.616074815717912,-107.00154213212011,0.0,-44.859240611542816,-0.6807085715103811,-0.02053413786727809,-4.205908642119972,34.38865340974415,17.459227116127643,4.77617512536487,3.57282967018465,2.949800819568824,2.498528592733033,2.10563070695293,1.5695164758694828,1.1599497948618502,0.757184887896084,0.539236229822763,0.3382998002418415,0.18942619878111722,0.0809738202182878,0.029231841561557052,0.009656019945380352,-0.009939095191409437,7.4246544237960945,5.814967889532118,5.209526939954926,4.692356315737953,3.976749519203689,3.4681127171632102,2.8222949551307117,2.173881451042596,1.5763779898611705,1.1771681532707345,0.7539852142223598,0.47161141069619417,0.27344165824790034,0.1016058894965508,0.035388558026243314
0.0,46.0,46.0,0.0,120.0,0.0,-9.25562130227637,-11.070577608793997,14.747291984036451,-106.66178236614277,0.0,-45.05760366837089,3.1281428637645408,-0.41305277320823386,-0.49255679737028846,34.38865340974415,17.459227116127643,4.91322782439903,3.4170956887947996,2.994544586422685,2.5640116465706817,2.0721194692720024,1.5387032490836856,1.1176910851808777,0.7735192964887614,0.5035830964501014,0.3312949074100166,0.16774939086677826,0.0921767563211607,0.033898081409135424,0.01824863743637424,0.018021856163537398,7.204599600591217,5.958305966123913,5.316764354422382,4.611790351481179,4.117749800399233,3.4388459655615846,2.671286929924189,2.186375283587401,1.5748597989465882,1.1430968244484578,0.8044119288505437,0.48597011473825746,0.2626533540730236,0.11139637873385816,0.040760506523704054
0.0,47.0,47.0,0.0,120.0,0.0,-9.244389770801577,0.9293992191509268,2.6584192045744786,-107.19451931064387,0.0,-45.14554165549761,-1.0049343236781372,1.7039268638675757,-3.397661918184751,34.38865340974415,17.459227116127643,4.94935732216835,3.659816121023673,3.0352523729556746,2.495134165418089,2.0668754041264954,1.5831248244952878,1.1668000431605126,0.8118890390207645,0.5301638695566637,0.31764871850824977,0.18595483718489192,0.10759730921986191,0.054942723479331046,0.0004347105233294332,0.01056723811604882,7.266586290802389,5.891009764206092,5.634669778378104,4.434521779999871,3.96208960107357,3.419211475769593,2.875233996252777,2.0939719147761133,1.5771433670790762,1.1890818606786948,0.7688280728902545,0.454483725463361,0.2754295900785688,0.11659478341357206,0.046286702823272394
0.0,48.0,48.0,0.0,120.0,0.0,-1.3959613386093714,12.720798849586515,-13.19568820554412,-107.3131402073874,0.0,-45.216716172087786,-1.9637386806228208,-9.942757471297455,-2.667015451664707,34.38865340974415,17.459227116127643,4.991245556714196,3.579126055588944,3.0731056383713065,2.684872957735436,2.1318769114968985,1.5469415563232292,1.1508190161844642,0.7995199323319221,0.5489504123075978,0.3184408005696904,0.20185348004840423,0.09496205456837402,0.05307773552379376,0.015581241224116662,0.018740124161976228,7.249477459832212,5.98142527171379,5.2972445482093935,4.61027903104517,4.1533387948037115,3.490332876524527,2.8434985692408725,2.209921739207389,1.6484875539487298,1.1734789506433791,0.7590535734571822,0.4614948934394564,0.2611681664942418,0.14029034780798055,0.043624817994867095
0.0,49.0,49.0,0.0,120.0,0.0,-2.078711454216289,-5.541748789489219,5.549809454056366,-106.85042317712302,0.0,-44.96232254094224,-4.969689423350669,0.46996376562465514,-3.995994329838223,34.38865340974415,17.459227116127643,4.9311702915361,3.5628987966942076,3.02113025511961,2.648663530380958,2.04813770101326,1.5993555046955181,1.1899447085042427,0.8015410562890912,0.5518555991382254,0.3432234203671518,0.1865684296940694,0.1011509032117965,0.05229917762690199,0.010244204724617893,0.01605117056980673,7.1679536093483796,5.9292971359755215,5.365977593410509,4.784578432876271,4.15341326585447,3.5743301826983354,2.904727954185927,2.125855640409334,1.6216744339301847,1.1574280888133743,0.7975959261018354,0.4602663946447993,0.2752147020710216,0.12233650143778343,0.04726457864401092
0.0,50.0,50.0,0.0,120.0,0.0,-6.5293753016410605,8.407485266433277,8.235460009733742,-106.80669518440153,0.0,-45.20418867986666,0.506574898436577,3.2411792548665357,4.776854864923923,34.38865340974415,17.459227116127643,5.127470265981869,3.539593896874517,3.111894557957828,2.636211254462902,2.11304468844402,1.6062054283200353,1.1818950700588065,0.8045659572491758,0.48360393089104203,0.3262589260549329,0.19127490730506197,0.11344922609228246,0.04440486695861161,0.004745956900339824,0.012675400114294529,7.239157545209653,5.987455025624726,5.282928358920902,4.701188347714215,4.026217286376292,3.5230917892213958,2.829253121555569,2.2592196590764293,1.685181461769482,1.1159802941125363,0.767833575889001,0.4701318636448509,0.2758714071212843,0.13374274901356017,0.045142604216929214
0.0,51.0,51.0,0.0,120.0,0.0,9.884761849834277,19.32321741907991,-7.124902459184367,-107.15218586188476,0.0,-45.19010454110092,-0.6719205265676969,-5.40885147415604,-1.1418537399562623,34.38865340974415,17.459227116127643,5.178358012609044,3.7105276848571815,3.1513751405769197,2.6902448311769613,2.1166888253614893,1.6250384239125686,1.1694115541451011,0.8066855893885994,0.5764749415197493,0.35090376031623494,0.19590160178831703,0.10308194810004162,0.030650293991143093,0.019922324018205085,0.022770075260558242,7.228901978543766,5.98464661821528,5.402973030778106,4.77519572739863,4.2569676460488735,3.602839588962613,2.9503534474635664,2.172272066947283,1.6583247947122486,1.199905971338399,0.7877773732281783,0.4985214456696679,0.24818725428003574,0.15671842156499163,0.027559092450424868
0.0,52.0,52.0,0.0,120.0,0.0,-2.2558017029138338,21.215649501841185,-4.5684712294936425,-106.75632965922595,0.0,-45.341551918855245,-1.4152725717459442,-2.0739453801221934,-1.274715615520626,34.38865340974415,17.459227116127643,4.996461096870201,3.7573467944065824,3.109347845046546,2.6308500715058702,2.1898317558328864,1.595838828606461,1.2023780804967306,0.870929283998755,0.5309104270479603,0.35984939357286755,0.19243215078994766,0.10316835524230442,0.04010249520474389,0.015065867987125333,0.0129637827452821,7.7196139866384765,6.0450248606462695,5.45964797127676,4.696459495673165,4.113136564621835,3.6127520802187583,2.9316447368179217,2.1918548663017567,1.6808631033640078,1.1143503452411,0.7979855491628886,0.49355276497799416,0.27163233763657013,0.13975200195639914,0.040520863536682446
0.0,53.0,53.0,0.0,120.0,0.0,-7.790097296552956,-21.840800210866036,-10.985943304658091,-107.32957455335074,0.0,-45.3848521866077,4.292438659969795,-9.03336568470429,3.852978618328285,34.38865340974415,17.459227116127643,5.164242247838224,3.692901190221058,3.1407440678628604,2.6339788994297915,2.1912712635080958,1.6697751073070823,1.1527949122674896,0.8396942110898673,0.5697888277396144,0.3491176132618152,0.20233799432473829,0.09567414568021596,0.04481156519567354,0.008027533664418166,0.005867998036744027,7.448771148592853,5.843539099182917,5.681542337784041,4.856411404919818,4.195226012501937,3.4547648081205504,2.8753798845111196,2.196227135210026,1.6522858773157811,1.1875403307140395,0.8349144751846591,0.48663081411142906,0.26776143143161574,0.10750248058793452,0.05579306469584218
0.0,54.0,54.0,0.0,120.0,0.0,1.1875272868876579,0.5333202970104765,5.225018378257371,-107.20171144828257,0.0,-45.39378582086928,-2.854456492921044,5.144728741086821,0.18609332511092092,34.38865340974415,17.459227116127643,5.045970131911233,3.7584072569234235,3.199125883830112,2.674960326813134,2.0732878386857645,1.6838551706383735,1.1863452365082028,0.8355682502808407,0.5533492275083265,0.33970351582369585,0.18903195756703198,0.10813744222379001,0.0520128797898304,0.025167685772085287,-0.013196999248099618,7.262599037595909,6.1800649259105604,5.476085041836446,4.7460923061493485,4.1607450792513365,3.610899480684202,2.868295388862853,2.3216458185532347,1.6828721889243068,1.152883587143774,0.7919715125180504,0.4975306457070251,0.2546278407017108,0.11766048488490242,0.031548300995395934
0.0,55.0,55.0,0.0,120.0,0.0,1.0846004725363727,24.53710465532849,-14.785985096601735,-107.00118279311452,0.0,-45.11313145605655,-0.17625209964188682,0.7947977905027841,2.95180243904621,34.38865340974415,17.459227116127643,5.042272234421238,3.714639292892022,3.19835893740793,2.6415812964770797,2.1163616503079328,1.6584202806926045,1.1919377936096274,0.8521935850806727,0.5648054014013569,0.34736681043318896,0.1939737627280614,0.11556772584567034,0.04399177228220512,0.02304324059629836,0.015017374891182812,7.1974670739130575,5.987158212575084,5.4981236256985015,4.743059083187357,4.253892797202705,3.4780935494765255,2.7916581328021763,2.2430743687383488,1.6095232231747714,1.2026734408472433,0.7817428040748129,0.4944856735653778,0.29355215614522995,0.1585729087273884,0.073957488072415
0.0,56.0,56.0,0.0,120.0,0.0,-3.9561200868593343,-0.40388887750841107,-8.327416522432367,-106.55628147080944,0.0,-45.09526029637493,2.7733174836730212,2.363669087305425,3.9272404196350656,34.38865340974415,17.459227116127643,5.305744248073926,3.850149450101444,3.19564730340136,2.7771888720917643,2.168027248626238,1.7275790438241834,1.18802286517969,0.8258953359940207,0.5387743354672859,0.32361853922505107,0.20881669353791424,0.10667316519247293,0.04185013532373667,-0.0012734137209468414,0.013117701561571351,7.301025309081567,6.266560444447634,5.377129882773423,5.031568224961037,4.310143963472214,3.554776199103322,2.9053780861686302,2.187371073713293,1.69174668301189,1.177721500394651,0.8485778786332745,0.5093501350795521,0.2852118003566287,0.16281573068913677,0.0443169703170469
0.0,57.0,57.0,0.0,120.0,0.0,8.491795063937065,-24.010916009549092,7.450094229561692,-107.15365397856775,0.0,-45.06652142067861,0.9177371341440334,3.9840202196200494,0.6857127766173097,34.38865340974415,17.459227116127643,5.031797785008099,3.7476127165117257,3.393029138359707,2.7658172501248455,2.298243146002679,1.727460905916398,1.2279784089652461,0.8650941565071242,0.5572052388339982,0.35342257248168757,0.2047550106400633,0.11827396073878434,0.06105738524988517,0.0233081937918218,-0.007480928459091745,7.3343991000456015,6.251791369794144,5.480653256608716,4.904988656407678,4.305139280997106,3.6606752780191103,2.891996378624066,2.1883857350027025,1.679009434460393,1.2254994528600283,0.8184591403830666,0.5110262982902349,0.2730448601676008,0.15080063194729748,0.057423889846004564
0.0,58.0,58.0,0.0,120.0,0.0,7.816980047289931,9.7498568987573,9.662334881004444,-106.87885615972684,0.0,-45.18734419133172,0.3693449766655656,-9.588641454140268,4.8917032576457125,34.38865340974415,17.459227116127643,5.327753159151585,3.8918196727016006,3.2922485284454956,2.704680144107108,2.2112159527324198,1.7271352444962986,1.2780474137525546,0.8213859875610929,0.5631869828129514,0.34384545851294096,0.1975846999814316,0.11801764343745617,0.04709568294975191,0.019037252989177078,0.018680887474715822,7.764326296588115,6.3102311529414035,5.467308917264423,4.968308306899375,4.219704007269044,3.568474195429229,2.960511813023757,2.2732885583507216,1.7401326462636975,1.246941766712248,0.8046896635594467,0.5071158757125361,0.3012970996985164,0.13866392706522293,0.07880306049878204
0.0,59.0,59.0,0.0,120.0,0.0,-0.026019202214463633,19.0454838712297,14.88544932448201,-106.83513170301052,0.0,-45.21249022008395,0.8297077352261771,-9.343433428417152,-4.125876115136884,34.38865340974415,17.459227116127643,5.224406410849698,4.027184920913054,3.3105787333769956,2.764368176201197,2.261469368240925,1.7086842116927043,1.1867526074551364,0.8500336524989179,0.5689753976563868,0.3671984729763436,0.2151975371193268,0.113935988100511,0.04900854703571738,0.021510563439824066,0.0002767367911449053,7.6444279588088895,6.288104226719893,5.461332841991367,5.237193854496343,4.507843569127575,3.665289854742455,2.856647174036235,2.1715742007900327,1.7156573174863319,1.2454339348577579,0.8015530581561521,0.5022189469494487,0.29267127869420434,0.16496717852926462,0.06798524660167748
0.0,60.0,60.0,0.0,120.0,0.0,5.327238992720584,-15.715944959229283,10.814826793862217,-107.29697671428426,0.0,-45.09266432805484,-3.1818954369104375,7.264586527801498,-0.25512910764657093,34.38865340974415,17.459227116127643,5.1108293959457765,3.868175744559499,3.3579693348088613,2.7352289638972294,2.2411758043691186,1.7089149804686676,1.2508103187226782,0.8555983321088688,0.5748393979005226,0.3385263026497849,0.21432611065482005,0.11341573759553103,0.06322322992416288,-0.006920769214640458,0.011868293103153715,7.607720514815507,6.29426077660803,5.738722683316593,5.049072796898129,4.429970757338629,3.6053770414442994,2.968787719676025,2.3549082050438854,1.6974559792460417,1.2122478410234299,0.7985502936863427,0.5163307103512463,0.29707748155846636,0.16391816595356404,0.04028671936236948
0.0,61.0,61.0,0.0,120.0,0.0,-6.110837407333687,12.076677893090633,-10.714167752620508,-107.09982402324376,0.0,-44.98594988547403,2.132441849866068,-9.637036620806265,1.0422201675375806,34.38865340974415,17.459227116127643,5.26214062676402,3.836474095964049,3.416030755788743,2.8795849870193932,2.316937576517556,1.8051546080801346,1.2649202853738883,0.884437605378974,0.5802078004617954,0.3666372502814957,0.21940595002260185,0.11652922747090066,0.05462455360114816,-0.005755195313880336,0.009760214675211909,7.636105302192042,6.291613868929814,5.610024836270255,5.166342060481409,4.479129506774769,3.490568868642576,2.9622518919490446,2.2395236034293626,1.6802756982938656,1.2316072822179265,0.8460863977772917,0.5121594313021419,0.2903989732125909,0.14712692537098687,0.06649151408375287
0.0,62.0,62.0,0.0,120.0,0.0,-1.5335913012508922,-20.337270305669254,12.621329883902238,-106.84332564978817,0.0,-45.006599086034825,3.218272650336218,-6.14692368016237,-0.09336830085338299,34.38865340974415,17.459227116127643,5.339275565903694,3.89168119228659,3.4130716168532693,2.8200652538276016,2.2830149142150864,1.8100381468773328,1.227711855970082,0.8801341498228246,0.5876079358138346,0.3618780125740362,0.20291526821661943,0.09447573303989061,0.035171160776192964,0.02919972337726713,0.014042951106543095,7.631004120512913,6.294260146291854,5.526672254761566,5.219428509433381,4.455244078981625,3.8288942558782297,2.8860353608264977,2.2152174371221824,1.6725536874069389,1.165971753224038,0.8747618656351644,0.49943907712236724,0.31456897709476495,0.14767249100143665,0.07327172668161039
0.0,63.0,63.0,0.0,120.0,0.0,2.3993954532791673,4.0098204580436985,1.7544709169925454,-106.89394069417074,0.0,-45.019051352475486,-3.0436431580218617,7.37425149383683,3.233231927839517,34.38865340974415,17.459227116127643,5.292212896762148,4.041917914078949,3.425709281666567,2.8894910589305915,2.402686641628873,1.7548339276810165,1.289613203751324,0.8885372790916171,0.5664487671458381,0.36661674597449195,0.21529243767122502,0.10010181807416751,0.04106184709711279,0.02416433346848513,-0.004059975570869135,7.57204231035416,6.443586654674827,5.77589613533103,5.010882971278576,4.372411947206649,3.7929829600293163,2.961196521038201,2.303197467386602,1.6836159273186546,1.2208021730466971,0.8385718491774241,0.5254737552289818,0.29994166065156513,0.13486622332474038,0.0678667897929516
0.0,64.0,64.0,0.0,120.0,0.0,3.843033686164885,15.630792131780161,-9.972764608541832,-106.77297118139316,0.0,-44.99131008355906,-0.24089020982001277,-6.803744363602351,-1.5674543431268875,34.38865340974415,17.459227116127643,5.2854275968461035,4.031197174850851,3.567055511889368,2.908715939280277,2.3752699254563607,1.7324370116977985,1.2616709311397745,0.8971955310645492,0.5886728205654476,0.34977637666846617,0.21628360521355694,0.11116651964610264,0.055071173050362195,0.03805192020557817,0.015023381934017265,7.660029320763274,6.299488685168425,5.744125460496533,5.063570207633509,4.425264302703434,3.764734460258813,3.003998682732546,2.3807819790515174,1.6741964808877023,1.209340876681477,0.838242400895643,0.5225222190965155,0.2979257235136853,0.15944089920140092,0.08192423975645423
0.0,65.0,65.0,0.0,120.0,0.0,0.06999490301570788,6.129474736608042,-12.745957701909784,-106.99230679687884,0.0,-45.42608674389709,-1.4352592058759657,-9.40656323276978,2.786774449966538,34.38865340974415,17.459227116127643,5.38650616260055,4.147106677207689,3.6216414632993983,2.9900993204396866,2.3128745023791057,1.8179042391573847,1.2992240283959455,0.8398461542963106,0.566740059844614,0.34082770304881665,0.21907024495809646,0.11392856414789969,0.05569965239612509,0.022899567345628865,0.020432171587696883,7.70873373142141,6.47043051936605,5.861357054544136,5.145149183926182,4.610456918276346,3.7906959055332945,3.138322611943754,2.43371979348529,1.6873945109439374,1.2184406450553946,0.8138575682764569,0.5207810304455618,0.30441373243503445,0.15939851334594599,0.07128454338050019
0.0,66.0,66.0,0.0,120.0,0.0,-7.718912241526004,-3.2482869791544147,-9.070840345715277,-107.21576512839809,0.0,-45.07719307879998,-1.1043902962775642,-5.73937156448626,0.45672634747095486,34.38865340974415,17.459227116127643,5.4080073997401135,4.070674277791557,3.601082538734472,2.943924861419814,2.415756868100763,1.822259448794402,1.2804498010271024,0.9013020062032798,0.5599382295946694,0.3630339481121112,0.19773395051159628,0.12406000995027124,0.05488275146588264,0.028313176866624865,-0.0007974841646302463,7.63870238594945,6.536236553990932,5.99670038681884,5.1151128483314245,4.453479902071404,3.764124196555071,3.0303984277588096,2.3396895454882123,1.7133261572568361,1.1851863552046022,0.818918028233208,0.5209934979354565,0.2940217347715366,0.15155763514037962,0.08190412524066358
0.0,67.0,67.0,0.0,120.0,0.0,-9.97741937503475,8.620934052676624,-1.8875083239173875,-106.50685977779877,0.0,-44.976872368149486,-3.6703374909012956,8.833193752470102,-2.4521729116283386,34.38865340974415,17.459227116127643,5.5197423403461086,4.250226095037429,3.6031937576709274,3.0130377881534924,2.3508226573549265,1.8786095218880305,1.290655996782995,0.8634940540676977,0.5685397031041661,0.35283065042655565,0.21459968478056538,0.11954825773132023,0.03813351284809014,0.029952406916098462,0.014045510385537498,7.724908247409459,6.499379617015081,5.961311762505013,5.33895508355654,4.668113956607255,3.67801049607142,3.0690588220451436,2.392752828307146,1.6644262747872263,1.2415391885300757,0.8629094613284326,0.5105826773187149,0.3110245735766664,0.16089225196443438,0.07219271397680409
0.0,68.0,68.0,0.0,120.0,0.0,-4.883335819485152,1.6279976838610892,10.797529844214651,-106.75986886518676,0.0,-44.92361759253269,1.682767148435713,7.174943480328476,-1.1396587584467008,34.38865340974415,17.459227116127643,5.402433435013482,4.314259507380755,3.6554999366312013,3.003634565540939,2.4013633799507605,1.7937385019987897,1.309635213880075,0.8968179846148352,0.5885663795336131,0.389192425930492,0.22396519128037098,0.11298246603021661,0.062307541296590024,0.027980057950920116,-0.0018364162048981007,7.491670845878844,6.507149669386356,5.8101248203202545,5.248469994638173,4.538468081145481,3.820810956362643,3.070898821252523,2.3850939868591907,1.8508704746019666,1.24002798991908,0.8272471621052634,0.5529286020761289,0.29555818749689167,0.16583279588507313,0.08628923477729453
0.0,69.0,69.0,0.0,120.0,0.0,6.361231756251364,20.496108101387364,0.5645049117237821,-106.86851372107333,0.0,-45.15095218063006,-3.4490494050056757,-0.40367292917909836,-3.076299712878514,34.38865340974415,17.459227116127643,5.461117053424645,4.165510015544816,3.537904969514835,3.0188810757398685,2.4224709787139393,1.793668753125175,1.3094355025047553,0.9466047005005479,0.6007902905316734,0.37688029229698694,0.2193689010892751,0.126931944567187,0.05491395182579682,0.017614969334962278,-0.00017287070053645208,7.511524466761349,6.347701086058515,5.677710846141702,5.350456184024434,4.680496090889218,3.8541833885144063,3.161560936983558,2.2995407898265388,1.7794139178882133,1.2644159376934816,0.8674022743406392,0.5388833382144077,0.3117986262679638,0.16532321032562783,0.0740752138383091
0.0,70.0,70.0,0.0,120.0,0.0,-7.554491231688651,-5.394066052540396,-5.808250853798979,-106.97474737773791,0.0,-45.33176457486326,1.028822457077002,-4.1380511931573105,-0.6539096685656096,34.38865340974415,17.459227116127643,5.7000330944896405,4.367834142774124,3.55043083669063,3.0528254995808064,2.4555222220209276,1.8679293343451777,1.3722895565095241,0.9113004613947804,0.6167957831208605,0.34886325791916184,0.23216455090220922,0.10848603498351791,0.07561174522202561,0.004099954947895931,0.021837593525488877,7.859197176430952,6.65522789743299,5.862169418877658,5.0650121473290834,4.7572138086687,3.8154145050874093,3.095478338220649,2.3871808117293045,1.7956997618480675,1.2780841757249446,0.8715152983333754,0.5260838570496678,0.3089701590316996,0.16574961319694978,0.08394035704476648
0.0,71.0,71.0,0.0,120.0,0.0,2.9872040772148285,16.847163787625384,9.460061624059673,-106.76394408765073,0.0,-44.754315711366885,-2.9168966337719784,1.9542423899264847,4.471321044301938,34.38865340974415,17.459227116127643,5.419335206578354,4.290015956616368,3.772917676948595,3.0424307412746985,2.396566504934105,1.9012203082536956,1.339610246389034,0.9356502904207045,0.5702051929726962,0.38366343634015715,0.2411711312530164,0.12275061602925733,0.062401287038054795,0.02128202913624514,0.011831664551841897,8.016269590360872,6.653271076539045,6.105840923669324,5.378522848317821,4.668972822250703,3.8825050735688986,3.043670751443413,2.3064275814219037,1.7798304782940342,1.241536363005035,0.8481198229008361,0.5253933304676456,0.30150492350985286,0.15199334316371774,0.08095300331534541
0.0,72.0,72.0,0.0,120.0,0.0,5.5881653237609274,-12.038290075189428,5.1633004331464925,-107.23365485982339,0.0,-44.93521306711757,-3.258812139050928,3.937984556460112,-2.377050210449161,34.38865340974415,17.459227116127643,5.450033004041384,4.296675353498789,3.708153543961907,3.0888595042973073,2.4171116528049184,1.9213207859635657,1.395819517419454,0.8977820547225546,0.5957639180199272,0.38134866296380215,0.21561391554809256,0.13218592137242804,0.0705344564454876,0.02952015588606196,-0.011584674148329562,7.9849426950500195,6.573972927373994,6.184290204420114,5.2639318975547535,4.713317365245301,3.959841425928002,3.1154382248301014,2.432487286079926,1.7880504410185785,1.2337700261242952,0.859116093107244,0.5273932962888744,0.3391283984801079,0.1894826436764891,0.07794766211848381
0.0,73.0,73.0,0.0,120.0,0.0,-4.555376439687846,5.368818387254354,14.837813039344368,-107.07853322777098,0.0,-45.143722900113545,-2.387364371285417,-4.867585554426814,0.9450020479929311,34.38865340974415,17.459227116127643,5.530842346957931,4.328328286894135,3.7444924329471,3.0754582027917783,2.587235799667779,1.888644565903452,1.3670984993445026,0.936289530478691,0.6157283752487822,0.3613396785907576,0.25146366354296795,0.10833803531652618,0.04746471860076415,0.021283587555777923,0.014135806201934248,7.67667055365232,6.840893836630764,6.117614620515065,5.4448437609169105,4.7543643932435184,3.7934640743861947,3.1938762784976737,2.463756368450297,1.7712612735525288,1.2836613153836993,0.8564926305587114,0.5353489624141428,0.3309225268551741,0.18075925414392718,0.09482046471196705
