Line_number,Fiducial,Easting,Northing,Height,Elevation,tx_pitch,tx_roll,tx_yaw,txrx_dx,txrx_dy,txrx_dz,rx_pitch,rx_roll,rx_yaw,PX,PZ,S0X_time_1.086e-05,S0X_time_3.256e-05,S0X_time_5.426e-05,S0X_time_8.680e-05,S0X_time_1.411e-04,S0X_time_2.279e-04,S0X_time_3.689e-04,S0X_time_5.860e-04,S0X_time_9.115e-04,S0X_time_1.411e-03,S0X_time_2.192e-03,S0X_time_3.418e-03,S0X_time_5.339e-03,S0X_time_8.301e-03,S0X_time_1.338e-02,S0Z_time_1.086e-05,S0Z_time_3.256e-05,S0Z_time_5.426e-05,S0Z_time_8.680e-05,S0Z_time_1.411e-04,S0Z_time_2.279e-04,S0Z_time_3.689e-04,S0Z_time_5.860e-04,S0Z_time_9.115e-04,S0Z_time_1.411e-03,S0Z_time_2.192e-03,S0Z_time_3.418e-03,S0Z_time_5.339e-03,S0Z_time_8.301e-03,S0Z_time_1.338e-02
0.0,0.0,0.0,0.0,120.0,0.0,-6.905853669885671,-3.1163287747474584,-4.919213113430633,-107.73063875591107,0.0,-45.36486366215264,-2.6784549417220336,-2.1712032365179983,-3.1871906795080243,34.38865340974415,17.459227116127643,5.3155372682194715,3.9057323676361757,3.3222015176666604,2.545520897857209,1.8245390354190498,1.0497789534949657,0.5062476742870464,0.21039168314907436,0.07528466325821825,0.035786185310686246,-0.012885695324170303,0.00932914940061381,0.010544192095129943,0.009026715025282777,0.015121533395969227,7.565468974325756,6.5901737297022684,5.3575949615471465,4.597141358636212,3.8274046049147756,2.6142499754735593,1.551903409389466,0.8058089183559867,0.3612126969498393,0.1500507646971206,0.06155203692552217,0.00643581417986029,-0.008126117762305507,-0.004949453954801704,-0.008979621469434549
0.0,1.0,1.0,0.0,120.0,0.0,-9.110079279866357,-0.16312467437055744,6.904827880457777,-107.61603056650019,0.0,-44.29579534703737,-1.0995360508654328,-9.984945982071187,3.02389539840161,34.38865340974415,17.459227116127643,4.912129461842554,3.6246780727575767,3.122648526513625,2.497834796856212,1.7990660610329843,1.1230959662411728,0.5734396410195809,0.2676712976632864,0.08279965022876956,0.03435892091259687,0.01499092582070147,0.018148565277515977,0.0042962330621362154,-0.020455515427065477,-0.0188743374622074,7.483325156537144,5.951913438140366,5.284143305720263,4.742614583306374,3.6226860132250565,2.6676131941817505,1.7994518457355761,0.974797003864645,0.46452404504783257,0.1966053732645649,0.1001959005508307,0.02708927756176333,-0.006978331359751245,0.022911591429282747,0.009263721940345433
0.0,2.0,2.0,0.0,120.0,0.0,2.0943273642200957,-8.204671474476115,8.795307989081213,-106.09860438241535,0.0,-45.86195461168276,1.1078268241393916,4.938940683918247,4.897660382656973,34.38865340974415,17.459227116127643,4.734543274882966,3.356711211640264,2.7838323200718147,2.3686237007892172,1.7962578042155497,1.1438161463433687,0.6289136935606549,0.3144533013704562,0.12297824233759634,0.043786250548860164,0.009806490661580087,0.011141265571806084,0.004603204959118591,0.017063185117939406,0.006901530486489898,7.3795268715345825,5.458151268770225,5.215855964336658,4.47455872001997,3.750579051488162,2.8130420679196573,1.8557453959816719,1.099986443680692,0.5295332853174822,0.25488889337016357,0.09592678477107783,0.0453878265271391,0.0047223288466982,0.023230184343558304,0.00881977161915588
0.0,3.0,3.0,0.0,120.0,0.0,-4.558861204745741,3.1549743389478344,14.354086434433174,-108.10036969419613,0.0,-45.808008893429076,-4.347396405096956,4.9371283539112945,1.9963665748380688,34.38865340974415,17.459227116127643,4.909985572156913,3.187276163610571,2.7546972975530255,2.282883538962737,1.7000692644767696,1.2000057351292386,0.6966458561663129,0.3445186198842645,0.1375793335373988,0.05793935047484226,0.011804590840728279,0.014817825171730267,0.01101502720675103,0.013671840275219976,-0.002339763284023163,7.08289914779704,5.504527759967638,4.9127870868195656,4.2908683114968875,3.5733803599557197,2.7823865406181088,1.976039391197854,1.136532939516988,0.6497460419887204,0.3073331210707999,0.1298120317683858,0.05164664067456242,0.01384330267359501,0.0008508597870098924,0.028248321268430458
0.0,4.0,4.0,0.0,120.0,0.0,7.449855052989125,-5.492488603150143,6.72858802897596,-106.957197780229,0.0,-46.483464172280065,-6.346125897322764,5.552515337931432,0.6804944883208393,34.38865340974415,17.459227116127643,4.630865605067897,2.924993228070398,2.641266914853841,2.0047970803349178,1.705126195478277,1.2217357394142085,0.7441728733595646,0.3908743526903613,0.16526575193079118,0.08049088064886677,0.021817221025317805,0.018303576611408155,-0.008705166851065057,0.01558698833006771,0.007516520333892661,7.098184540937688,5.291682234752126,4.842295700551827,4.106490149736112,3.633640646373526,2.786097380224603,1.9666662670474124,1.241313635785238,0.710218129816651,0.35095297625554456,0.15822085676460318,0.061125957700564906,0.02840603807695838,0.0011918653732591513,0.0070430365543421
0.0,5.0,5.0,0.0,120.0,0.0,-8.883535424160824,6.418601319797503,5.563045802617324,-107.22400028625945,0.0,-45.568220335198106,-1.4383792931612622,1.612234556611707,3.3695737888841197,34.38865340974415,17.459227116127643,4.494329203169153,2.8456668633821436,2.278584768558834,1.9275103999270298,1.579082481918542,1.137029198055611,0.7233723002620869,0.36021897786964474,0.20114911174258315,0.07295314545366777,0.03908637904006619,0.012778047460122562,0.025529007577041754,-0.006608663408642323,0.0029137037369562032,6.991859196254815,5.237806265952727,4.638146287112025,4.069880284327468,3.3960453104479913,2.8837583139183343,1.9518428120632711,1.2762732639929548,0.7729532139583654,0.38096509595296596,0.17107110550424157,0.07656846378913862,0.044718722844783516,0.011209680971459447,0.005762714380566388
0.0,6.0,6.0,0.0,120.0,0.0,8.751164827001446,-16.876459031590574,10.792788315535773,-105.62783244841759,0.0,-44.9359454111714,3.775039493081283,6.369128395074583,-1.666042155513936,34.38865340974415,17.459227116127643,4.606637596318499,2.6872614308106475,2.270230934735806,1.8753305567786311,1.4718619663419705,1.0611066405339498,0.6855762687945705,0.4199662313902666,0.20338245174600417,0.08218031383771797,0.03810955794477332,0.01846674477954799,-0.000307043113936048,-0.0016600330091982337,0.013689517745335165,6.968656267605289,5.068280213294477,4.308138618512582,3.8222169003235233,3.329228162996968,2.587009132577958,2.0296783523125126,1.3277958367253413,0.7789377495674713,0.3799780287119293,0.19881659363552925,0.08019843927325565,0.019441002689938466,-0.0033605278840364277,0.0007051187041847888
0.0,7.0,7.0,0.0,120.0,0.0,-0.4960534260473022,0.2839666779384409,-4.183187294110876,-106.73601576254329,0.0,-46.392675129209636,-3.232917411566404,6.555845799695685,1.0921238536323834,34.38865340974415,17.459227116127643,4.407177801441909,2.5752018471127776,2.0983200078715156,1.7591128766184212,1.42386037236098,1.0498601104175054,0.7137827818612377,0.42791987008619514,0.21223094222757363,0.10420280473822394,0.03166572077399912,0.006973392001206669,0.013876298666290247,-0.019221441471501368,-0.013777700389677077,6.9162110141159685,5.057391988130906,4.113160965866697,3.6890091053300798,3.1744015465081437,2.5611031031198586,1.907405856460822,1.3503939240105636,0.8251686830248287,0.4794368802926513,0.22865215953853651,0.11688318157521899,0.0357808100502941,-0.012707817324941497,-0.012926879406128149
0.0,8.0,8.0,0.0,120.0,0.0,8.492862973659278,2.6866362063306326,6.4441567420466015,-106.00914745165517,0.0,-45.495758579180304,-2.1063837978595545,8.921817048379456,3.5460568061074778,34.38865340974415,17.459227116127643,4.634035710827069,2.45778703795512,1.92300827190993,1.6771124976220917,1.3630165676453905,1.0223320219887235,0.7258011587938333,0.4007493526667085,0.21517751370622776,0.09501903535496589,0.04350197308353138,0.013267677307697413,0.002887708130592407,-0.010724343714223103,0.003491925387633849,6.7377877697904065,4.7341186457501205,3.98890076505813,3.587885581636322,3.06292762410087,2.492639139079951,1.879258459475504,1.373842765855791,0.8818039734351945,0.46802192091903283,0.24478349675879796,0.09709038707904112,0.03199712634589987,0.022416329286755323,0.004479912740256487
0.0,9.0,9.0,0.0,120.0,0.0,-1.5204747811853743,24.17246123514255,6.236808270745136,-107.61088183354191,0.0,-45.986765622119606,-4.205089925678981,-7.441495026383283,-1.8822424536186633,34.38865340974415,17.459227116127643,4.562229490428133,2.405474226602468,1.8452781966198675,1.5287118964108992,1.2276405250600149,0.9347786773851431,0.6774482049238222,0.4103486408129609,0.20948295801086642,0.10617562474153097,0.03547817560647385,0.011682538069216956,0.006994193372519974,0.010500530557873861,-0.003919275560003837,6.890104235608215,4.847671230469522,3.852271147585766,3.43159133140019,2.9251975889733055,2.368959931593925,1.9029749579794448,1.3474204832073504,0.9072262794499435,0.509266786409104,0.2560366182646581,0.10552984807503618,0.0367124485472009,0.021747739021279005,0.014339917991179129
0.0,10.0,10.0,0.0,120.0,0.0,7.521502089124411,16.983524667612087,1.4556783857249833,-106.38145348406884,0.0,-42.79226164097936,3.0079550003967297,1.0396385096349174,1.8016575151586327,34.38865340974415,17.459227116127643,4.446689805078415,2.33929350010915,1.80114252643185,1.4490271805115469,1.2137121805221542,0.9180995769961154,0.6513708438812773,0.40137255592626936,0.22584398753704885,0.11961924918415025,0.04675745710450089,0.04037662660970366,0.008584105483768095,-0.01562068629649501,-0.003986394694826674,6.888658807117544,4.695022211340124,3.7681548241250167,3.2420721541378965,2.8567841828787506,2.2680418646636316,1.8871733418621777,1.3589144723758344,0.8871175455284579,0.4993039746873553,0.25824067799767236,0.11803957776786222,0.06234719444424959,0.03173204764561798,-0.004307644684602029
0.0,11.0,11.0,0.0,120.0,0.0,3.5806368397904222,4.652723902191536,3.9917763789671454,-106.19088554093037,0.0,-44.131093164062264,3.4420587071192323,-5.619563836296731,3.8886212081770726,34.38865340974415,17.459227116127643,4.44227562602454,2.3127543043684136,1.8032524121125222,1.40526620058398,1.127610313710876,0.8967855711474042,0.6269640630437842,0.41295971327921804,0.2308322022926346,0.1180124002587859,0.031200555640996566,0.005772067350712125,-0.0007540678538157123,0.014542958071638907,-0.001879349669408076,6.745037451623357,4.686201159949341,3.731879278733963,3.2329682412656315,2.6510929498313134,2.2935314250618553,1.7495756097265134,1.3628199917529615,0.8934310551094776,0.5251679968403774,0.2732752446031685,0.13696513561057913,0.0429798737915921,-0.008690985345120125,0.01994930181315133
0.0,12.0,12.0,0.0,120.0,0.0,-0.535874121280111,-24.582625699537875,6.839239317643393,-107.09585642188247,0.0,-45.12883538124342,0.629369417006749,-1.9511129441027268,-1.2202235027260788,34.38865340974415,17.459227116127643,4.41701672713965,2.321877793622002,1.6938552271304055,1.2907145411843775,1.0473874528989384,0.7967762896870144,0.602912340288153,0.37902404927019767,0.24395289969158712,0.11766664883969608,0.056965666013055784,0.021551019389410522,0.021665776497224065,0.015236836929527223,0.007985067910497193,7.103325994269994,4.568253785815548,3.5686264445488978,3.0785384600883936,2.56756755061443,2.1445426316591125,1.7424753323775641,1.3053740537723502,0.8872871688984383,0.5810863125480878,0.32523080994816245,0.1435996472664776,0.042927965335813736,0.023247721338136296,0.00663121733334397
0.0,13.0,13.0,0.0,120.0,0.0,-1.0525240145950931,-0.37888208967872217,11.490082739535385,-109.47424177484658,0.0,-45.22594300407131,5.0876972578253135,8.05470003261123,2.6810242709311263,34.38865340974415,17.459227116127643,4.552755379981894,2.219399455372428,1.6171992192759483,1.260395335168227,1.0167143652781045,0.8071232123781246,0.5655046462632948,0.3970318425571979,0.21946197870360956,0.11699698265028466,0.06970132265701617,0.023077691249651814,0.019895640677283454,0.014115926206538452,0.021103801966262162,6.854002201477386,4.492800815805291,3.588774244671738,3.0868341782767836,2.5130217391492566,2.077323491019652,1.7716204931025648,1.2565834274358068,0.8987387395138364,0.5895631771483439,0.32194730069328253,0.15180021229590626,0.0628613012876629,0.027308356760484324,0.02645996394494243
0.0,14.0,14.0,0.0,120.0,0.0,-2.1166069337475584,-24.89607709991232,13.139299294761386,-108.46273211231217,0.0,-45.37845952151736,-7.037975143794162,4.3828931286886395,-3.555688394706018,34.38865340974415,17.459227116127643,4.556115290490601,2.284971177603063,1.5362658125942794,1.19038157106582,0.9247648829325663,0.737860189469684,0.5766830314439247,0.39972813720901323,0.22483358709722218,0.12971669513531262,0.039710786609858675,0.02044455811069386,0.007189753358067444,-0.013415999863951181,0.008207040962374923,6.769458534110801,4.518349397396885,3.348569809566476,2.8641406277967314,2.4329244627099214,1.9832567620293136,1.6631249962154784,1.245291757311912,0.9214331515915258,0.5980281312937753,0.3346333767291101,0.16713867558291,0.08462939236931308,0.011601709732565853,0.01041309560526033
0.0,15.0,15.0,0.0,120.0,0.0,-6.342226142171166,-3.9133168245409813,1.1677219753353043,-105.74281003576384,0.0,-45.194271836505564,3.124193510719215,-6.079913485159716,3.9167704632570572,34.38865340974415,17.459227116127643,4.501905671470495,2.1968982844615845,1.5122244061083723,1.1622110826407046,0.9253925437240798,0.7071792444663054,0.5059121737816458,0.36234386992047035,0.22718092269646684,0.11620742150794784,0.06330394664683806,0.028797959317812094,0.0025341643677204515,0.0018115373676030077,0.007175304381603096,6.970960418889056,4.412733069324115,3.5206612334039105,2.747538139308479,2.305673364082542,1.899229607245531,1.6286616357211452,1.286736614700217,0.9211905645617811,0.56508765036365,0.3692545707749282,0.18326750023736202,0.07220391124801183,0.03258725346087614,0.020467928181830713
0.0,16.0,16.0,0.0,120.0,0.0,5.3056913452575465,-8.768198231962337,5.387217398491149,-104.80329128042291,0.0,-45.46847284073789,-3.569860923464472,7.951918430903099,3.8901357599926225,34.38865340974415,17.459227116127643,4.49049495515223,2.2567111288095147,1.4891783494102844,1.0537496753454818,0.8917660360833681,0.642634144086079,0.4961151972365996,0.36709211978372047,0.25222731656203057,0.12112585623989554,0.05245412295808259,0.02339593147479683,0.023606102017151617,-0.018268702688520766,-0.006470278078103552,6.770104901126964,4.592143686047293,3.4321909727522852,2.7795804399002613,2.2800622486392785,1.9098958583567247,1.4952937748423745,1.1734706541107451,0.8856055752541312,0.5901568789222471,0.3386189189819828,0.16618971830701804,0.0790704824497631,0.04637142749408307,0.004151757028000181
0.0,17.0,17.0,0.0,120.0,0.0,7.5479175188208885,-21.669793750926193,0.6085543090617307,-107.64684771485156,0.0,-43.670763565114186,-2.868566176876837,4.60713003748147,3.986541293125338,34.38865340974415,17.459227116127643,4.590543174175294,2.1976566317047714,1.426649812573116,1.096538861794965,0.8085904438462186,0.6143799410287437,0.4584671620428764,0.34576221553477826,0.22499723423561832,0.10859990980900641,0.07558942072323194,0.004998322552254537,-0.00018017745719783873,0.027880106941397403,-0.010586106050316624,7.1182459920161385,4.402388099311648,3.412301275452638,2.653664700690533,2.2400289665115785,1.77040494544696,1.5236781694428245,1.132604500843307,0.8828906211368431,0.597131936931763,0.3586367781315951,0.17116989093624294,0.07814250731374561,0.025314026282173573,0.01442376718499759
0.0,18.0,18.0,0.0,120.0,0.0,-0.41446053093768853,2.938032079899866,5.666473259803823,-106.522172478442,0.0,-45.53302044911145,-1.57884462876715,2.1834677397905526,3.2175914172052007,34.38865340974415,17.459227116127643,4.4098729543948165,2.1442778542127217,1.4856973361420325,1.0247244152507824,0.7643615697863421,0.6099042798738714,0.4600274734161117,0.3237513866169187,0.21503995786308727,0.10871872097550922,0.09244778544762913,0.014987029014077377,0.0129326402046341,0.006504751176829096,-0.01232318331997571,6.832632332105545,4.243730199631563,3.3924051393213044,2.653927675346972,2.018143045242238,1.7707254082174695,1.4225216814455266,1.0689649200691238,0.8490030598482374,0.5817769101497338,0.3304959681299505,0.18432643057344764,0.08296975419402361,0.03325949008298819,0.031164292509653198
0.0,19.0,19.0,0.0,120.0,0.0,-1.3946415228816953,11.420848252023681,-5.0530190442304,-106.55129565527214,0.0,-44.09533038884133,-1.564814728470741,-8.292971391138309,-2.3242557548593954,34.38865340974415,17.459227116127643,4.5813227021220255,2.150436684254582,1.435915535990367,1.0455715997847486,0.7710917584794111,0.6008439031349694,0.4334957380465925,0.3242975358063954,0.2087738635653007,0.1339314709590364,0.0785650344797113,0.026640633327907788,0.016334801093015595,0.002413645891185743,-0.0009497307527717462,6.869446779397383,4.264783105505348,3.5025388246802307,2.5663454660196314,2.0781073138057473,1.7688845848762493,1.4086678152988412,1.1346053740359057,0.8458745390519933,0.58925812560006,0.3212587703265595,0.2084569896606301,0.0992818240453742,0.037551680902573256,0.02375136258130555
0.0,20.0,20.0,0.0,120.0,0.0,5.099572978927295,-22.09626671251034,-6.912147466032639,-106.11290944495187,0.0,-43.317874058945904,-1.7273299815290035,4.855478789732237,1.4864967205017425,34.38865340974415,17.459227116127643,4.361856384242723,2.0857100345706554,1.4423280124964262,0.989554052490293,0.7308650404911798,0.5578804360815204,0.4206046990534838,0.3224565302198089,0.21231325256304656,0.12189580791953633,0.0360922643338468,0.02464244778999561,0.0045191932522414685,0.014950420152927137,0.016402100411205205,7.047377907746436,4.379196443746567,3.227329930851067,2.5046116609483757,2.0193446484594384,1.5882107584254475,1.364584714421651,1.0841051951426093,0.8226315873824533,0.5611828093413084,0.36547979736524744,0.18556653614461077,0.08173770840649512,0.03904277631494117,-0.00801584659716932
0.0,21.0,21.0,0.0,120.0,0.0,-8.16986866517591,-24.883260003804903,-4.695342576217882,-107.53532656878471,0.0,-44.9350865775525,-4.666687983010559,-3.329820615528414,-0.2645609498762109,34.38865340974415,17.459227116127643,4.609732222125286,2.1416796267128593,1.3683806463301664,0.9595198916640663,0.6855782862826355,0.5504535968296446,0.39774502107015997,0.29424931629837403,0.20048674482650533,0.128826970593394,0.06865140237452105,0.051710253802220815,0.008263501935101811,0.017452343517367668,0.0068483296277497465,6.9255329579674205,4.400110542766247,3.298157594249012,2.4984068379956885,1.9436324601960089,1.5724200398857826,1.2853050353087538,1.0100109274495748,0.831740081979833,0.5760270021908557,0.3555247131018345,0.2216642578504061,0.07939794678848433,0.05051423479605897,0.0195182499582168
0.0,22.0,22.0,0.0,120.0,0.0,-2.962578637854567,18.054179538939664,-8.15163429755567,-106.18603930376311,0.0,-44.08981792496566,-2.847868662987098,-6.471234038025067,4.241007357486643,34.38865340974415,17.459227116127643,4.3804201747784814,2.17387954219802,1.3952311338264098,0.9724597249131696,0.6781499037489853,0.502666537565484,0.42552373454504694,0.26735902987615917,0.1902567794496408,0.11696526119770359,0.06304230932678297,0.039899514202427086,0.015084111066259011,0.011832379367609398,-0.0004617863752596012,6.7308820674938845,4.246232695532308,3.2697356930235877,2.5228076117235276,1.8849321441400906,1.5848302543664192,1.2164236020375696,0.9993049857182303,0.7861171166033998,0.5491996344397716,0.3590758695326742,0.19873145767762834,0.12417664023912373,0.03236578138479201,0.02665799704167636
0.0,23.0,23.0,0.0,120.0,0.0,7.210197118115094,1.0878009657907377,-4.387352012220216,-107.92020011095717,0.0,-45.616111365711006,3.5345198844038994,4.133344328187778,-0.025700829646689627,34.38865340974415,17.459227116127643,4.458747111224011,2.0863260262429666,1.422011997304575,0.9402153292540711,0.6512683649163619,0.5018702927152318,0.368356816883249,0.2506352709795963,0.18285923007241442,0.1300517811484082,0.06289083256624896,0.019716713659119273,-0.0046350330716307155,0.0162710777495073,0.0008956844440625132,6.900861968611045,4.355729501272767,3.18022894917947,2.4391400978943922,1.8619797563200964,1.498809576766307,1.2099496212547105,0.9713183989909525,0.7559463197193095,0.5254058828501457,0.35815865207071085,0.20365341742314128,0.08827176713104048,0.06453695271986379,0.013482308298825879
0.0,24.0,24.0,0.0,120.0,0.0,5.417333592693176,12.484959894155125,-5.369556730141284,-107.91111879629291,0.0,-44.467805672524406,3.9798821760346863,1.3784606876706071,3.3043358322923417,34.38865340974415,17.459227116127643,4.578626275133558,2.112538350661774,1.4254158831460497,0.8888363695674616,0.6355309769174599,0.48327636177544253,0.3403067400451893,0.25725195065785966,0.19150642376750635,0.1170798337630713,0.07840908756620306,0.024669852979372853,-0.0030581298375806903,0.008612384613880461,-0.0065243776108628885,6.642649744027573,4.323887265092579,3.213874467488862,2.410150171028744,1.876511811324104,1.425462480550397,1.171906421734527,0.9456140336181407,0.7334353446294388,0.5270469562833255,0.34420252967451354,0.20151290276172062,0.1112673251992386,0.04852583596325258,0.015535090076319086
0.0,25.0,25.0,0.0,120.0,0.0,9.412209544860406,-4.0946378895570845,10.39913009232204,-107.44034967246901,0.0,-44.862170404658755,-0.20347001645965923,4.421096980579364,4.934531310034405,34.38865340974415,17.459227116127643,4.4356192401583385,2.1478017979054735,1.4000730272288513,0.8927600867039654,0.6224046539415274,0.45319480840204857,0.33411368705066646,0.25754798373959004,0.1717136285741864,0.12614697180188125,0.06481547899749457,0.031164153992892938,0.013226543025129997,0.01660938589981939,-0.004557403835776791,6.9078481433633945,4.313089214840462,3.1924934732382924,2.4375842913260084,1.8532237827503018,1.4319335494672345,1.1318939198983213,0.87564284579599,0.6905263404724957,0.5374771245907537,0.3409531317452391,0.21368122384996593,0.09175908315090221,0.04701253328160123,0.02069233319137128
0.0,26.0,26.0,0.0,120.0,0.0,-7.73294410351,-9.67679996337248,4.273842271866528,-108.09605074908083,0.0,-45.79667474114201,2.831146060070218,-6.8936430183588,3.1366253044390255,34.38865340974415,17.459227116127643,4.431487669637737,2.2118121121466383,1.364338608934933,0.9086682487746325,0.61115750647659,0.4379928451183399,0.3165864843028758,0.2471483509704318,0.1507377831931014,0.12777852788457777,0.047859097997565464,0.02967138699163966,0.0053490346083447625,0.01717854868876683,0.010548410890519194,6.917523180929045,4.274659755838312,3.2274420916154223,2.299326795378661,1.7555546534575182,1.3569203957148088,1.0950889069948297,0.8629260024862541,0.6886424535052297,0.5231460945631117,0.3395207380778095,0.22637722839140356,0.1036666319717288,0.04971930220285211,0.02641585679590268
0.0,27.0,27.0,0.0,120.0,0.0,9.163289869920657,21.6494114411716,-13.299348713946985,-107.78203920075907,0.0,-45.39847848862446,4.485655611403487,-0.39173585926181076,0.24974358562397647,34.38865340974415,17.459227116127643,4.566434300358477,2.2281283158294825,1.4002164938350181,0.8927107969030935,0.5581381028311572,0.42669773243607223,0.2879805117710587,0.24130926124144902,0.17805863368488922,0.11162387636461986,0.08408262031907279,0.03532269213975871,0.01675569629309573,0.02256681491375892,-0.003536527047061209,7.13184400913257,4.521959923904713,3.3115063670122944,2.4150917252628337,1.707873108159497,1.3584783726912801,1.051763841017957,0.8723726796552181,0.664697652282515,0.5147345006016034,0.3579192751460607,0.23447701426528653,0.11136937738839127,0.03773558683917821,0.02766431625153168
0.0,28.0,28.0,0.0,120.0,0.0,1.8153389901318207,-22.24452005344309,3.5538279318395283,-106.68158623385476,0.0,-45.72230901375889,-6.289558292318095,-9.574160459715046,1.6823294387836354,34.38865340974415,17.459227116127643,4.544797405108824,2.0761987330553486,1.3533662722944029,0.9022836484708449,0.6206341380352295,0.4020346446655408,0.3032338559591543,0.21638997769073237,0.1772271792084071,0.09890080127437052,0.059269152556658086,0.03230134810221538,0.009609688372705556,-0.005542246092650744,-0.014719599202237492,6.924868820800984,4.2505582216805635,3.215077925988238,2.3225674429521446,1.7400456177340546,1.3453943431455822,1.062618746501103,0.8662319982886589,0.6533179006551418,0.5114512792056979,0.3409340340947826,0.21302164737876458,0.1138698795380578,0.0498896464973222,-0.01142896789521938
0.0,29.0,29.0,0.0,120.0,0.0,-7.667452322187676,19.25521002142186,10.144456381845306,-107.89553412580645,0.0,-44.81104591579441,0.019384496506341442,-0.03166626952833873,1.161368097626009,34.38865340974415,17.459227116127643,4.390955538157386,2.103062013890883,1.4189293000058372,0.8912665779665373,0.5729381158885799,0.3860609123852143,0.2707535363063376,0.19824807063500693,0.15878702454480795,0.08815041340677215,0.07129987870372148,0.04243275464027058,0.019907753541864453,-0.0063645937748802745,-0.0033384962970396895,6.957982585853157,4.291644270764017,3.2389437576897855,2.408089089928252,1.6674103608379043,1.3120333159949256,1.0259510796343796,0.8276576546004115,0.6265632418978089,0.4841122512929067,0.34474077225135114,0.2050793961957715,0.11865533743320672,0.050611540326500636,0.023207141770712456
0.0,30.0,30.0,0.0,120.0,0.0,-9.195945247803621,5.384995986980716,-14.223891073578264,-105.6692630932093,0.0,-45.30445260713577,-3.1162259836617476,-1.5751398238149008,1.4536632697066478,34.38865340974415,17.459227116127643,4.491003427365466,2.201635353472403,1.365440827780311,0.8938085877733645,0.5625639337536674,0.38210321554814736,0.2845563939209716,0.185320075768497,0.1288493084625112,0.10089165799508004,0.040795023286885335,0.058252393278322046,0.013342563408411189,0.0017708936501306533,0.00232777083080452,7.040194010741829,4.435775759994957,3.121722037838009,2.3824594161920216,1.681972742219717,1.2902907448460776,0.9772276237573015,0.7836032128900907,0.6268345410964317,0.4724281410837789,0.34593298800835903,0.18961593446827776,0.12302355477133367,0.0669145241533466,0.021840152441878875
0.0,31.0,31.0,0.0,120.0,0.0,-5.330388495445626,13.773137642726077,-0.8141884550827054,-104.42107415194339,0.0,-45.55990750577068,6.361188912673312,1.2825162091867153,-2.2272394181823763,34.38865340974415,17.459227116127643,4.64494327253171,2.1581582257024126,1.327554138531098,0.8818862999755469,0.5606203467290884,0.375554589153075,0.2733261707777604,0.17310822458627384,0.1666771182425854,0.09531874806496843,0.060947828735455345,0.040703455422015054,0.01562581208058505,-0.0036350308821568866,0.00452082600265832,6.6332555072350745,4.431505182891739,3.243914790670404,2.319008212879511,1.6794258887116962,1.2664979188113705,0.9577063695635636,0.7864215141908714,0.6047768095876721,0.4965120472790334,0.31901010498056676,0.2051702858868285,0.11434324787180497,0.04578144718744159,0.03933024422510645
0.0,32.0,32.0,0.0,120.0,0.0,7.6059921033323405,4.578934325397665,-1.498157351348679,-105.36313312233712,0.0,-44.71789901860025,-5.054711858178189,-3.8060114577162203,2.472935641891258,34.38865340974415,17.459227116127643,4.4064441285939955,2.226809714719292,1.3750838328305064,0.8718613715297062,0.5453549490477368,0.36969593853227395,0.26474974842840415,0.18278155997681775,0.14896233535241485,0.10119919863706378,0.07008936384224355,0.04001926145496712,0.03266063403096291,0.007602918772121259,-0.0066217889391640555,6.7049515518914555,4.357193775621966,3.1657426585552995,2.4853657630388812,1.669417557876998,1.1844139534863187,0.9420413771204602,0.7125258318288078,0.6290340097940672,0.4640369706959449,0.33055967942892095,0.23534523272398006,0.11773789846937556,0.03492803538741446,0.0014003381634237373
0.0,33.0,33.0,0.0,120.0,0.0,-7.83228140467751,24.927846102866553,14.698447508091153,-107.14707579731015,0.0,-46.09957506120408,3.9176709438928725,6.291064461918342,-3.619312579907774,34.38865340974415,17.459227116127643,4.6730757402898035,2.170482262761882,1.3244028143923827,0.8686883599853771,0.5375616564289748,0.3604341200195294,0.23742334173674112,0.1850186227459617,0.15356859663820419,0.09220474544429648,0.05609761148716157,0.05175670460336014,0.02374602808409957,0.010877368422837173,-0.00814920450253729,6.819998344667877,4.4181947359503235,3.1926643802342594,2.347266576605455,1.6496915400846024,1.1821211541685517,0.9248067658575452,0.7083619261211614,0.5586969928697484,0.4556206471274106,0.2878597353180339,0.1943011882647499,0.13651074643487426,0.07106173678144102,0.020890645591943608
0.0,34.0,34.0,0.0,120.0,0.0,-6.0797728868708,-5.887223051499195,9.782613850518857,-107.5990946155848,0.0,-46.18558240023788,-2.7073976814530196,-9.24346172288592,3.9515304980147192,34.38865340974415,17.459227116127643,4.4153375370509265,2.0440209922801813,1.375866965645501,0.8761672960782885,0.5073779113823489,0.32581744332704865,0.21231185513499595,0.18435289550851655,0.13368168481786244,0.11382554648854921,0.0694732247080724,0.029066038404083366,0.005797008847739779,0.02534954967162707,-0.0001791698873093179,6.833563857746773,4.272264333047578,3.1391625290119407,2.325613282755349,1.6439147874540938,1.19645660100254,0.9003306359621639,0.6814884964760796,0.5927095969469979,0.44243010515478626,0.3393217277650262,0.19101143923017272,0.1262572162127055,0.061712931348974515,0.03900756601405256
0.0,35.0,35.0,0.0,120.0,0.0,-4.106665821301128,5.366347052049424,-6.529384288425149,-105.10300954448421,0.0,-44.859374408344195,2.7766237110334617,-5.137982179726011,0.24092823457147894,34.38865340974415,17.459227116127643,4.455793496779182,2.1379235314292844,1.3450012981980124,0.8786212937528227,0.5213817680972723,0.3468513163856971,0.21537793969044183,0.1661178594465931,0.1103008105255017,0.0717592638392374,0.06507477529560485,0.010045996012826956,0.04766085739088942,3.9536469111922656e-05,0.0051531998187198886,6.920267509589634,4.379360268122645,3.0397707879085085,2.314981479023072,1.5709959383959755,1.1365002238786672,0.8903009495344189,0.7028250005514347,0.5316007807771569,0.4250674761306267,0.30329344536898073,0.2071744712707162,0.08671760474756902,0.03280026960783168,0.027650180103952846
0.0,36.0,36.0,0.0,120.0,0.0,6.290551870481945,-20.68807589690382,-14.284525105067893,-106.9040934613978,0.0,-44.823871362734224,1.4267114593460444,7.828064379919294,3.8262735462486646,34.38865340974415,17.459227116127643,4.3437554907934866,2.1160812393099797,1.3699377147787601,0.8787673953417136,0.5119889060763749,0.3273175670162057,0.21544336671372813,0.1648063409397875,0.09940901747403447,0.06072345870323727,0.046049116097797015,0.04134409262224293,0.004136154637724342,0.010755367491406006,-0.010371140629688143,6.837778470279172,4.267394532073069,3.1539117985679477,2.3296128055349827,1.536659988649714,1.1590650898430745,0.8756102382203439,0.6858211913906773,0.5477970614433991,0.43013222345680324,0.2845343252764514,0.204543442336077,0.11759802283822461,0.06803714467750652,0.023850246391303544
0.0,37.0,37.0,0.0,120.0,0.0,8.141205621693985,-4.179900490359756,-4.257650193376822,-106.6346716797086,0.0,-46.191887642578976,5.074460349882113,1.8137633255571206,0.4951127645479758,34.38865340974415,17.459227116127643,4.415409867690361,2.079022477224796,1.4320782049394216,0.8579553954498199,0.5100557175483272,0.32096078216345725,0.23428625918844628,0.1269818358519128,0.13197737407141785,0.09651805371789932,0.056889654617512275,0.03971303941942377,0.002296207528412232,0.00819712656164422,-0.0002947482483218267,7.145575742108727,4.37809132708256,3.2342829255262453,2.332614061127357,1.637611935588081,1.1244145301842143,0.8606711300114391,0.6698183915160982,0.5204125028255263,0.41122978474675226,0.32418605861439814,0.19934722622477272,0.10713173418906402,0.06733604406035784,0.03344320704263177
0.0,38.0,38.0,0.0,120.0,0.0,-1.2736264602061027,-1.1067525866496624,-13.051443468558803,-107.80441396217458,0.0,-43.23557211990766,-0.3688084364056472,-7.924150729217536,3.7366967600842553,34.38865340974415,17.459227116127643,4.326550901668114,2.1497200138948926,1.4076708491917849,0.8336372457665188,0.49142115298151545,0.31372132375844886,0.19648767877394885,0.1614365878020583,0.10823310592358136,0.07560076966511654,0.0617376824318853,0.033975862142031264,0.008821048885689606,-0.004591245066651407,-0.004062944955710095,6.897347151942483,4.335351892239029,3.244449166093135,2.3127896355268858,1.6228822269695384,1.1412631352610547,0.8109616064386748,0.6218294242987905,0.5317545231274066,0.37764461769268926,0.2938582097534754,0.18376914988237233,0.10652390400042282,0.057719161552644595,0.013781331443820101
0.0,39.0,39.0,0.0,120.0,0.0,-8.386768026268705,6.391272122087177,2.8167167902252928,-107.19634234983498,0.0,-44.16060243260502,-3.5174160378416617,-1.8150940997621472,1.6739681948586318,34.38865340974415,17.459227116127643,4.339907518699461,2.149393244902336,1.4144804933590116,0.8684026483618035,0.5033313106514041,0.3121419886833232,0.20260305457348682,0.15729466733092992,0.11533554613124132,0.07736517914905672,0.04109708395086297,0.024150946268497852,0.009288261769466025,0.01160657857854923,-0.004835493580113759,7.012395442976608,4.2923942864518,3.400393989934896,2.363368158093428,1.5895432686748936,1.1268209911956357,0.8426650721589991,0.6284460251550559,0.490776660382514,0.37369103321630803,0.29616868128504914,0.17797398768538095,0.1193316278845859,0.05587279435096115,0.03603855901349301
0.0,40.0,40.0,0.0,120.0,0.0,8.455179862952715,-14.586918051386345,11.604932640208059,-106.30052952643338,0.0,-45.1007546884443,-2.054635126108227,-7.710612879971088,4.001240929865368,34.38865340974415,17.459227116127643,4.438115699598862,2.1309596251491487,1.3647095000928362,0.840960480769482,0.4917522705816881,0.2990080843165508,0.2112138902609136,0.14264887848853428,0.10369816360666953,0.09843426997910165,0.0615711336442883,0.04575901030742721,0.0010122799530966637,-0.006811873336981559,-0.009756958876124867,7.029615933950062,4.353386164325636,3.1403713370503343,2.2684052079349803,1.595760221123966,1.0964940626311832,0.780759566615701,0.583397315353259,0.4451171275239616,0.3735637920858148,0.27367146702754036,0.18566097423557915,0.11830897394861058,0.06783090352990556,0.028735551015587404
0.0,41.0,41.0,0.0,120.0,0.0,-5.08637497408283,-8.341571579838185,-8.08536613506709,-106.0283678774431,0.0,-46.56018303503144,-3.8154189554822646,-3.3221748215991997,2.3205398706948035,34.38865340974415,17.459227116127643,4.457588878896949,2.154618020125208,1.3916016831162226,0.8708797363341028,0.47599367650642344,0.29242866126560996,0.20421922703881284,0.12601409451914158,0.10528244997792877,0.045639982044899635,0.04542598003037972,0.039557187949246155,0.01654246265360567,0.033781643775864484,-0.0017113038946480674,6.835139209398097,4.214463450206087,3.1647713465620284,2.2713201440424076,1.599421804353084,1.0789668617995696,0.7926786711646275,0.5886032239523167,0.43930522888870993,0.35819699092155627,0.25272537860040484,0.1924507347427352,0.11298225722199738,0.06290944884100003,0.026184224994634735
0.0,42.0,42.0,0.0,120.0,0.0,-8.586624914424428,22.26055612566418,-9.912239019148593,-109.44304946957064,0.0,-45.24729362324521,2.729612406570993,-7.719205716840952,-1.8546508134164066,34.38865340974415,17.459227116127643,4.626010035740284,2.248482519286476,1.3706467946008456,0.8459511599437691,0.505683667767704,0.26692201710494656,0.18074665892920927,0.12246812991616542,0.10398038199559155,0.06517014646060058,0.035563921678268925,0.024405325182873062,0.02760241609666763,-0.008922403777773072,-0.00045259213162172343,6.879650931901091,4.283016861542937,3.3169945805916092,2.22773588052743,1.5743658615615366,1.1042855372075702,0.8039290557544494,0.5914345630664234,0.45167858941893924,0.3516432164337817,0.27176328300951386,0.1906171747972713,0.11302273929988732,0.05652767555123851,0.03600776234778215
0.0,43.0,43.0,0.0,120.0,0.0,2.985983263200975,2.1739577882667938,-4.981342075613883,-107.08913707285635,0.0,-45.60020961079924,1.3834905869798353,-1.9719705503988205,-4.097035477549813,34.38865340974415,17.459227116127643,4.545864026735867,2.2018230294254315,1.3575983413708057,0.8486997587121697,0.4749863019641354,0.29434265805763177,0.16693988943879487,0.11656278482927768,0.0805544395994807,0.07362978868854565,0.054397683005551443,0.03235514293672522,0.008791485605456013,0.022998756979409358,0.005684131170429117,6.75637592669537,4.349587930654324,3.2751175050419463,2.372144626395955,1.4737625757367647,1.0619907539583828,0.7855535394506571,0.5759101773506965,0.40671090256462133,0.36103470565729223,0.2537269398698361,0.18847454348553472,0.12886525401069013,0.07168628757576731,0.03404646203277116
0.0,44.0,44.0,0.0,120.0,0.0,-1.8643482325731409,21.866406094720674,-13.20930753739573,-105.32868642531402,0.0,-45.58326913738209,-4.636826901812229,-3.7160200388827906,2.900453931993157,34.38865340974415,17.459227116127643,4.503249113133602,2.1680962957248857,1.3085980677923308,0.8630776512520164,0.4874567236894548,0.30404315973980156,0.17404191201146507,0.12509742012477215,0.09740377868657771,0.07636052185352044,0.053194179429324216,0.028882031924740044,0.0224669001065486,0.012542386953545391,0.010232809947569558,6.840081669068736,4.400946191733485,3.1981229377675366,2.248189446090369,1.5764645192223472,1.0621661757465897,0.7288817373377443,0.5544166242640246,0.4191945283180529,0.3445783432943242,0.23619187441737682,0.16277120476153484,0.12092680432324947,0.06416190489489446,0.05827386482999246
0.0,45.0,45.0,0.0,120.0,0.0,-4.622272627996669,0.09746128273186372,8.616074815717912,-107.00616852848044,0.0,-44.436962446171236,-3.7060655894826913,-0.02053413786727809,-4.205908642119972,34.38865340974415,17.459227116127643,4.3600446721187724,2.1978127618208187,1.3527439798952177,0.8466254006921416,0.5190293026837833,0.28591344681709,0.18603506800476224,0.10236221473145937,0.09954040721099014,0.07261124346583299,0.04536154919542812,0.013469808355809989,0.0025968651038613764,0.0009547663751561641,-0.011968681182959438,7.039437609662092,4.318018130405024,3.1766164123916556,2.3107757683976793,1.5278168848320153,1.0654012887717443,0.7506229171993137,0.5573073987385426,0.41400005528946204,0.3471520139823897,0.24263245335249609,0.18311126356562435,0.13494878152035086,0.046507632271973395,0.01842192726542697
0.0,46.0,46.0,0.0,120.0,0.0,-9.25562130227637,-11.070577608793997,14.747291984036451,-105.64712946457112,0.0,-45.23041467348355,-1.0405641323820323,-0.41305277320823386,-0.49255679737028846,34.38865340974415,17.459227116127643,4.470110919680483,2.0844316995354735,1.3634982344242423,0.8648189637495408,0.5004906557842236,0.2673576553094711,0.15917888554518647,0.10601927334561172,0.06811219766943137,0.06286243720736855,0.02199002699823464,0.022677362200142492,0.006232639555653934,0.009100839785137774,0.01585218824128921,6.817321007879988,4.404531917540495,3.2264338470359646,2.25814561719608,1.5744639767805035,1.0433490315631377,0.687158114289068,0.5474530306135961,0.40119905966113406,0.31945132822173755,0.267044667629351,0.18796995579188147,0.12018698140420186,0.05360654689280119,0.02274730464288808
0.0,47.0,47.0,0.0,120.0,0.0,-9.244389770801577,0.9293992191509268,2.6584192045744786,-107.7780772425755,0.0,-45.58216662199041,0.8583071207221087,1.7039268638675757,-3.397661918184751,34.38865340974415,17.459227116127643,4.487296275395667,2.2191457094332394,1.3720313073149484,0.8299315946776655,0.4922973452271706,0.27773913482136153,0.17529812201935552,0.12288466017065441,0.08317188411479066,0.04747532061699063,0.03669383615612549,0.036086136734681154,0.026215579720848026,-0.009152989585046983,0.008255233605216518,6.862089741403412,4.334446812011409,3.404114861481495,2.1578167059759554,1.5018687731921396,1.0254117793157345,0.7397595272692234,0.5015661830793127,0.3903997339658512,0.3330149953332472,0.2358518034711725,0.15599779521096624,0.12745411522647246,0.056172843461021554,0.027208368058581928
0.0,48.0,48.0,0.0,120.0,0.0,-1.3959613386093714,12.720798849586515,-13.19568820554412,-108.25256082954964,0.0,-45.86686468835114,-3.551651090680335,-9.942757471297455,-2.667015451664707,34.38865340974415,17.459227116127643,4.509056653157945,2.152921249791065,1.3789524643180733,0.8963305300352417,0.5088996757860232,0.25785465299354354,0.16133242587593072,0.10964780166350524,0.0924665704600159,0.04478102337599686,0.04926507570374529,0.021855580714538907,0.023356653149202926,0.005540859292933015,0.01628250495723837,6.831662928741218,4.3807570364762425,3.182239339837588,2.2335754560876198,1.5685504456985233,1.0386732072557083,0.7166294935084597,0.5287073062715383,0.40800311124913247,0.31553957340883615,0.22177697184999445,0.1553089266210721,0.10967498576645082,0.07690747831973724,0.02348459541782949
0.0,49.0,49.0,0.0,120.0,0.0,-2.078711454216289,-5.541748789489219,5.549809454056366,-106.40169270849208,0.0,-44.84929016376894,-5.247498919123524,0.46996376562465514,-3.995994329838223,34.38865340974415,17.459227116127643,4.438220336851381,2.126771689969103,1.3430313491483388,0.8742547646522162,0.4735948600026028,0.2714319207962831,0.17295924058247672,0.10513702746449945,0.09007967763893764,0.06298972348488395,0.032287898850436904,0.026245015204491115,0.021594840697159452,-0.00024232825176739858,0.01344558699159531,6.740312571811803,4.322097363018889,3.2076788573830433,2.307802504725035,1.5588785067436688,1.056392905662381,0.7236126610603857,0.48746969834945636,0.38599560905788516,0.29828744639621196,0.23878370077438418,0.1481842339357685,0.11821084793707033,0.056723190174777983,0.026033288097493376
0.0,50.0,50.0,0.0,120.0,0.0,-6.5293753016410605,8.407485266433277,8.235460009733742,-106.22678073760613,0.0,-45.816754719466644,-1.6790387195688505,3.2411792548665357,4.776854864923923,34.38865340974415,17.459227116127643,4.597613717235741,2.096499568709814,1.3747348344709238,0.8615651077933124,0.49014499155534674,0.26807972928016505,0.16309248662423456,0.10136608217905185,0.03546643737240707,0.0450801410649481,0.034386432088912816,0.036699891082129336,0.012752003946843482,-0.006186596432185968,0.009919445648424067,6.792258868493132,4.344114416158413,3.1415424458635215,2.2547016243063567,1.4993015828957337,1.0295003007253731,0.6883276296962693,0.5204525607230294,0.40048696113217647,0.2688882609985975,0.21256105752379606,0.1500508306806408,0.1144164556312775,0.06537479396567877,0.022823066754163006
0.0,51.0,51.0,0.0,120.0,0.0,9.884761849834277,19.32321741907991,-7.124902459184367,-107.60874344753907,0.0,-45.760418164403674,1.973186127790726,-5.40885147415604,-1.1418537399562623,34.38865340974415,17.459227116127643,4.625154920511209,2.1832829755438614,1.38187386547039,0.8743481339783495,0.48549043010892373,0.26928991010257325,0.15147592882405425,0.09720390860307303,0.09938337484604734,0.06327062975778194,0.036481720911128106,0.0248606421895818,-0.0019168871090884266,0.008535333654301683,0.01986103261954252,6.767214041466558,4.321508099313551,3.1973594931421445,2.27896666209474,1.580738028993769,1.046303640260015,0.714595701662597,0.4797606362855197,0.3792896089201892,0.3016775600687733,0.21804694491791785,0.16664956046321983,0.08464730910056695,0.08535376696096994,0.004187903628681249
0.0,52.0,52.0,0.0,120.0,0.0,-2.2558017029138338,21.215649501841185,-4.5684712294936425,-106.02531863690382,0.0,-46.366207675420966,-5.340121579528297,-2.0739453801221934,-1.274715615520626,34.38865340974415,17.459227116127643,4.444488999563151,2.1944841182288233,1.3509708978690953,0.8439372896676254,0.5045507226780718,0.2530694736545138,0.16056127882169993,0.12927504251842875,0.06180347675626205,0.0679274877378272,0.030977417300018118,0.023372391134466305,0.0065677796040712715,0.003233927578005784,0.009900350991644229,7.209893100063209,4.344505674587646,3.2147973363618365,2.228684627822214,1.5153973069257063,1.0404162435851534,0.6981005194466521,0.47518560065189963,0.37791027900482443,0.2514662868908317,0.2175389555835267,0.15700670131942546,0.10198026146506889,0.0662086201814764,0.01599769942266934
0.0,53.0,53.0,0.0,120.0,0.0,-7.790097296552956,-21.840800210866036,-10.985943304658091,-108.318298213403,0.0,-46.539408746430794,3.0931544466030747,-9.03336568470429,3.852978618328285,34.38865340974415,17.459227116127643,4.5750196449252165,2.139362900970759,1.3542090141665655,0.8373941990020105,0.4991313233082606,0.27450044757063014,0.13276066627100572,0.1059151441096268,0.08605428747451274,0.05568286101711168,0.03820848769183799,0.014466317278170996,0.010338567890828222,-0.004246600496555741,0.0026482825238064614,6.940101758332763,4.1789808966172926,3.329728982385642,2.2942605672484215,1.5383891313568268,0.9805814598811465,0.6709209218656248,0.46598898199872707,0.3569641422221915,0.27898575633923706,0.23379260687929884,0.14604382201811578,0.09430440884646582,0.032166458000354205,0.03009700529497267
0.0,54.0,54.0,0.0,120.0,0.0,1.1875272868876579,0.5333202970104765,5.225018378257371,-107.80684579313031,0.0,-46.57514328347713,-5.29403106170653,5.144728741086821,0.18609332511092092,34.38865340974415,17.459227116127643,4.451104345333692,2.1612848135176352,1.3696032414310446,0.8449911508357046,0.4537612884291594,0.27418846777819217,0.1423201719216094,0.09846320295174472,0.07003140146705047,0.04467185260343159,0.02354157233640155,0.02525441210667601,0.01660893322361968,0.012441273893152171,-0.016574047733413942,6.7498400253023,4.399434819922384,3.1916907285229965,2.2290734733142887,1.516239559388923,1.0226961208400158,0.6592502792655212,0.49616553933543095,0.35920018603097126,0.25438309694544553,0.20063959372929194,0.1491873637431205,0.07828156150040663,0.03963645227378837,0.004808701729346686
0.0,55.0,55.0,0.0,120.0,0.0,1.0846004725363727,24.53710465532849,-14.785985096601735,-107.0047311724581,0.0,-45.452525824226186,-2.000161419711719,0.7947977905027841,2.95180243904621,34.38865340974415,17.459227116127643,4.428472185004205,2.118865205345167,1.357817700104482,0.8248746939664495,0.46262151783123373,0.2598408926140391,0.13951768670862238,0.10304922721229107,0.07437269388516743,0.04842046361766173,0.026201250735077005,0.03112635551391952,0.007724625767528588,0.00987644044885158,0.011479354044033382,6.672288322319441,4.240906105572167,3.1882156202981857,2.2158243827929285,1.5432999418206066,0.9722606829663841,0.6274710803179092,0.46095506424209814,0.32208834299810174,0.27058806640420474,0.1880867063411066,0.14160110864389483,0.10979043259113742,0.07712981455038291,0.04592515228809106
0.0,56.0,56.0,0.0,120.0,0.0,-3.9561200868593343,-0.40388887750841107,-8.327416522432367,-105.22512588323772,0.0,-45.38104118549971,3.6286457534843666,2.363669087305425,3.9272404196350656,34.38865340974415,17.459227116127643,4.639501328648344,2.1807556659820304,1.3452087257465963,0.8670673954513204,0.4741746090414333,0.279272708431106,0.13266487231402796,0.08318795590243984,0.0516666175964197,0.02527084263983116,0.038263983280608704,0.02097897976076909,0.004718142308246605,-0.014865216401924213,0.00941883631268293,6.750684818951926,4.418108721445091,3.101252890591211,2.3414643936007984,1.556018849060405,0.9890858012600644,0.6524186291517268,0.4338523703347764,0.3443198781602575,0.2512215520668651,0.22296499489964608,0.14804648905197101,0.09829793721081546,0.07881242790816406,0.01525904681672681
0.0,57.0,57.0,0.0,120.0,0.0,8.491795063937065,-24.010916009549092,7.450094229561692,-107.61461591427098,0.0,-45.26608568271445,0.9696135236986251,3.9840202196200494,0.6857127766173097,34.38865340974415,17.459227116127643,4.379359403203477,2.1045948162869417,1.4220177884032785,0.8549556062797816,0.5112973304881853,0.27409592178252007,0.14509705918310914,0.10075940000265847,0.06116908933378188,0.048099880314579985,0.03252372605735394,0.031032990296332726,0.023000849743542294,0.00926716038147484,-0.011340670109636072,6.763400227199986,4.386112973367313,3.145278771329331,2.2690881530957534,1.5453657234168792,1.0150742122530356,0.6401818035779003,0.42520248655538906,0.3308704726722886,0.2665346623763587,0.19856725023063063,0.14439908075706923,0.08346243826736602,0.0646729275221867,0.027169071203337523
0.0,58.0,58.0,0.0,120.0,0.0,7.816980047289931,9.7498568987573,9.662334881004444,-106.51542463890733,0.0,-45.74937676532684,-0.5371967989694229,-9.588641454140268,4.8917032576457125,34.38865340974415,17.459227116127643,4.61569450755094,2.1702026239153884,1.365397156630058,0.8249334658030567,0.47712847122846536,0.26895312429300106,0.1618312597948805,0.07138786444640016,0.06172597218052091,0.03723233787650604,0.02391013831167205,0.029464769714046296,0.008252872802064326,0.004566986561997717,0.014656758339937992,7.140398463372115,4.405551416540573,3.1212809932658447,2.2868744695614085,1.504456007799567,0.9788443082639924,0.6520507310749368,0.44292445678122105,0.34514674412313223,0.26942732159689825,0.18443259468174247,0.13660353439581388,0.10530535525694475,0.050463893878947806,0.04730693752934448
0.0,59.0,59.0,0.0,120.0,0.0,-0.026019202214463633,19.0454838712297,14.88544932448201,-106.34052681204203,0.0,-45.849960880335814,-2.5851542741206894,-9.343433428417152,-4.125876115136884,34.38865340974415,17.459227116127643,4.504216757378617,2.2295915409506657,1.3618893272292445,0.8386818845528327,0.4877900428026902,0.25761606281808025,0.11754558993870735,0.08304287051985544,0.06218800282703841,0.05455554883948321,0.038710921984260134,0.024176782224531103,0.009339207800129304,0.006610920241497195,-0.003909919226266654,7.010269480162023,4.368370322858988,3.1016283472936963,2.4007882471793223,1.604261626287633,1.0020309736317763,0.6145293976842392,0.4031608602074442,0.32787128604643473,0.2617003966390994,0.17696074869162257,0.12821937639653402,0.09385823079033323,0.07368935404808234,0.03538734497496048
0.0,60.0,60.0,0.0,120.0,0.0,5.327238992720584,-15.715944959229283,10.814826793862217,-108.187906857137,0.0,-45.37065731221935,-4.848278397299071,7.264586527801498,-0.25512910764657093,34.38865340974415,17.459227116127643,4.384382971830153,2.1223889451841766,1.370985564819113,0.8204779183852631,0.47562396924295036,0.2528955277947265,0.14035293628342918,0.08172398675089576,0.0627452400273182,0.02751293416861958,0.036128080038226804,0.02242816658308474,0.022696431820580346,-0.022225237493849314,0.007516702079771877,6.95643350020101,4.350982299775881,3.2439283261705802,2.3002473427812387,1.566265523688837,0.9765418353559832,0.6392665207623326,0.4511706224336796,0.3132849262531812,0.23948881876326733,0.1697439549413281,0.13450318445168932,0.0942637134013957,0.07032157383252446,0.006673922385440626
0.0,61.0,61.0,0.0,120.0,0.0,-6.110837407333687,12.076677893090633,-10.714167752620508,-107.39929609297502,0.0,-44.9437995418961,3.6554091761514784,-9.637036620806265,1.0422201675375806,34.38865340974415,17.459227116127643,4.491705028402215,2.087618157137288,1.3844303702707257,0.8638479428586913,0.49419363856583093,0.2811298731543286,0.14168438349987947,0.09344044992834621,0.06298764961958138,0.04892561886445279,0.0391911042841577,0.024285587333194157,0.013348040624241966,-0.0214788373722813,0.0052441487155938035,6.961730640366798,4.3274735276468785,3.153839309228443,2.3423845218430874,1.5758533559603478,0.9345445821485575,0.6303053905113405,0.4082368359457178,0.29941752212057277,0.24185513622983112,0.1929639592679751,0.12694874458201932,0.08478246504846815,0.05170442371814939,0.03160237605873548
0.0,62.0,62.0,0.0,120.0,0.0,-1.5335913012508922,-20.337270305669254,12.621329883902238,-106.37330259915268,0.0,-45.026396344139286,3.376607463768653,-6.14692368016237,-0.09336830085338299,34.38865340974415,17.459227116127643,4.53417709748651,2.1012696564768367,1.3713215957894525,0.8348989162525846,0.4777641158996072,0.27791837976295614,0.12133763574528272,0.0867119804196329,0.06470925849556192,0.0423683806480354,0.021999458519618962,0.0014639086340433767,-0.006790280014963982,0.013037632578566173,0.009361706766401412,6.935978778073287,4.30762861929312,3.0901789464443747,2.3543642483480567,1.5583006266509647,1.0318002587895168,0.6021035531521,0.3934932342850877,0.2892823243269822,0.20533112547300333,0.2048495152581068,0.11306120703163725,0.1030688776320008,0.049964055663740445,0.03719971250557431
0.0,63.0,63.0,0.0,120.0,0.0,2.3993954532791673,4.0098204580436985,1.7544709169925454,-106.57576277668299,0.0,-45.07620540990192,-4.44221718769529,7.37425149383683,3.233231927839517,34.38865340974415,17.459227116127643,4.47040425583177,2.1666823086945053,1.364931692330983,0.8512335279320039,0.5097501783300512,0.2544557344823389,0.14294560702634407,0.08710625599784451,0.04624662889790249,0.04392382030686456,0.0320014247317036,0.005860175669705628,-0.0016703975140869853,0.007596512302685582,-0.00890482035574662,6.860984432168974,4.388124853324297,3.2141260323886565,2.245955264443496,1.5192067780489533,1.014134093224247,0.6166471979066034,0.4125883476546873,0.2861278693516594,0.22423066040484083,0.17819192088694416,0.12865910039174136,0.08664011491841198,0.03531658100962466,0.03067905664818992
0.0,64.0,64.0,0.0,120.0,0.0,3.843033686164885,15.630792131780161,-9.972764608541832,-106.09188472557261,0.0,-44.96524033423621,-2.0296581014779145,-6.803744363602351,-1.5674543431268875,34.38865340974415,17.459227116127643,4.440569676092748,2.143159566433617,1.4129364258898747,0.8498784218751007,0.49538067819331044,0.2423157286974661,0.12677910537868098,0.0876781000801899,0.05853662899166758,0.027215013911491913,0.031327941933181294,0.015623620425759198,0.011549643957912357,0.021069491131040063,0.010012121824924608,6.918704446716619,4.267868329758464,3.1794098926569725,2.25794612169704,1.5301358331459447,0.9990423814018953,0.6221960130434493,0.42849248772241755,0.275872358170428,0.2129541493126714,0.17306269961878534,0.1224098695644458,0.08160924914846526,0.05691914553039374,0.0435145581266307
0.0,65.0,65.0,0.0,120.0,0.0,0.06999490301570788,6.129474736608042,-12.745957701909784,-106.96922718751534,0.0,-46.704346975588365,-1.9711036418216796,-9.40656323276978,2.786774449966538,34.38865340974415,17.459227116127643,4.500747504395946,2.18823924927861,1.4236526235985836,0.8697860527856224,0.47034785322608186,0.2662767676781735,0.13804667289686742,0.0521645301923601,0.03972160220672189,0.017261485567928253,0.03237211262119589,0.017265978033879987,0.011463174599214351,0.0055300814565929154,0.015255675327658008,6.940094288143141,4.361991221862636,3.2278707563539832,2.2828565895244295,1.5890979940637155,1.0004868485128198,0.6529934866759592,0.43709514131942356,0.27384875338035536,0.2111652431190867,0.15386848283882523,0.11719907744004188,0.08424923520046122,0.054700066084143774,0.03179881327669616
0.0,66.0,66.0,0.0,120.0,0.0,-7.718912241526004,-3.2482869791544147,-9.070840345715277,-107.86306051359233,0.0,-45.3087723151999,-0.6655370864460459,-5.73937156448626,0.45672634747095486,34.38865340974415,17.459227116127643,4.493315290156034,2.1292302957164178,1.4027836550107682,0.8458739210003738,0.49639415552461374,0.2630584819852124,0.1259409653184815,0.08171983083730645,0.03166036596108324,0.03369007180522122,0.010808770705058915,0.026165758804111212,0.009955195681424252,0.010546362715563844,-0.006136612900691723,6.854153101406551,4.384110357711738,3.285723410047728,2.2569447772079347,1.5234593066273139,0.9862227655450622,0.6173278693574159,0.4029021106022532,0.27643101861862984,0.1904631127800341,0.15220574419568886,0.11357157696309754,0.07192780102206274,0.044977962492701765,0.041220080564799054
0.0,67.0,67.0,0.0,120.0,0.0,-9.97741937503475,8.620934052676624,-1.8875083239173875,-105.02743911119506,0.0,-44.90748947259793,-5.422299552820908,8.833193752470102,-2.4521729116283386,34.38865340974415,17.459227116127643,4.560027238265059,2.2071346368099993,1.3914669385427916,0.8611914371818231,0.4708423135682353,0.2769609190870367,0.12589802972632205,0.05721814360868449,0.03444687591848477,0.02274707951500359,0.025122612249019422,0.020727827357859437,-0.00739446741495931,0.011796921325329012,0.008541027781278038,6.908022233170146,4.336961036858818,3.248768675185144,2.3454163846725824,1.5923679185609454,0.9544029412574315,0.6220482338258272,0.4119040435661176,0.2530458118283262,0.21009438632548294,0.17344253709730334,0.10210097153635593,0.0840562353833452,0.051893103464438955,0.03044229339741336
0.0,68.0,68.0,0.0,120.0,0.0,-4.883335819485152,1.6279976838610892,10.797529844214651,-106.03947546074704,0.0,-44.6944703701308,0.668037252382276,7.174943480328476,-1.1396587584467008,34.38865340974415,17.459227116127643,4.436691040314884,2.2226032951479517,1.400753920993076,0.8498662981157473,0.4805615348360003,0.24455170364438017,0.12945304934825588,0.07135806079374248,0.04520921233523867,0.05109157278621734,0.03241519283152248,0.013304722578749692,0.016007142264933903,0.009444823883383743,-0.007502882830815157,6.676067916823588,4.319851784381519,3.1485913173901987,2.2922131923549807,1.5370842037935604,0.9907795836241629,0.6168855128031782,0.40346864853790837,0.3114887633087192,0.20388573570375612,0.14810490242071342,0.1301473983276108,0.0674136418652506,0.05458916365738838,0.04332451628782554
0.0,69.0,69.0,0.0,120.0,0.0,6.361231756251364,20.496108101387364,0.5645049117237821,-106.47405488429331,0.0,-45.60380872252024,-6.471191198685517,-0.40367292917909836,-3.076299712878514,34.38865340974415,17.459227116127643,4.4581802984588785,2.126177441808241,1.34071024932958,0.8468284235547768,0.4812427092033699,0.24005967928410632,0.12519765939440838,0.09423756523373401,0.0505069743363777,0.03842379283495727,0.026644766572383235,0.02602119152271207,0.008004238244914606,-0.0012865121966132848,-0.006002287890273125,6.6700712786663034,4.19172561303958,3.059557668894076,2.3251490059484463,1.5792158297953895,0.9945333047543226,0.6357280472663476,0.37303011077882464,0.280641467406187,0.20928171027049872,0.1671309372813337,0.11615005232592712,0.07896933082432159,0.052058536927442035,0.030078308116836715
0.0,70.0,70.0,0.0,120.0,0.0,-7.554491231688651,-5.394066052540396,-5.808250853798979,-106.89898951095168,0.0,-46.32705829945304,5.500180793378907,-4.1380511931573105,-0.6539096685656096,34.38865340974415,17.459227116127643,4.625377861314084,2.2134236796147277,1.333943428883333,0.8499215396106597,0.48542148319835926,0.25954483501725617,0.14643226483029367,0.07142899186685306,0.058416092322258105,0.0126204011972488,0.03718375438706028,0.007005396710773194,0.02797400356228071,-0.015158328286251318,0.015843868529568123,6.953822463961102,4.373051978488521,3.1431763902706322,2.1860899790042034,1.5976840968956278,0.9771009908561393,0.6126241764019007,0.39226253730245375,0.2802660575800553,0.20998397629090443,0.16519710856908898,0.103220044503703,0.07369462316552244,0.050467343628820605,0.03876722479764132
0.0,71.0,71.0,0.0,120.0,0.0,2.9872040772148285,16.847163787625384,9.460061624059673,-106.05577635060291,0.0,-44.01726284546754,-5.602330281399852,1.9542423899264847,4.471321044301938,34.38865340974415,17.459227116127643,4.369657625578074,2.1547022420627946,1.411109568798056,0.8383609848183163,0.462249563705532,0.26563597590966304,0.12912021762977194,0.0806014603086753,0.023042122066180032,0.03960120533962584,0.044185507789447825,0.020072743289822795,0.014215243504725212,0.0016453197464361465,0.005677764877875964,7.066779357408689,4.349009291708525,3.2577243897631702,2.312220098983682,1.55767448483893,0.9907388399063163,0.5936600274494004,0.3638814215142478,0.2690693633504577,0.18873297035743355,0.1474375065533297,0.09939795326439199,0.0644070278015227,0.03525694232671276,0.034701849544584454
0.0,72.0,72.0,0.0,120.0,0.0,5.5881653237609274,-12.038290075189428,5.1633004331464925,-107.93461943929358,0.0,-44.74085226847029,-0.20970168439275927,3.937984556460112,-2.377050210449161,34.38865340974415,17.459227116127643,4.3666558738247625,2.1398728903543,1.3729562711745518,0.8453538709204154,0.4627233696812594,0.267426425035203,0.14744068021239082,0.0567442841858883,0.03760678352600162,0.035433618539733605,0.018878743487974737,0.02842476941438856,0.021710926870810242,0.009518978201750286,-0.017896213507182377,7.01271424897339,4.274460676999767,3.282259107350627,2.2493578405780017,1.5645803201189996,1.007209761875668,0.6075873304388137,0.3939341937320411,0.2662427563960262,0.18031427426998944,0.14967750274273678,0.09765280447990903,0.09495736772385507,0.06940720089249429,0.030628720871292876
