Line_number,Fiducial,Easting,Northing,Height,Elevation,tx_pitch,tx_roll,tx_yaw,txrx_dx,txrx_dy,txrx_dz,rx_pitch,rx_roll,rx_yaw,PX,PZ,S0X_time_1.086e-05,S0X_time_3.256e-05,S0X_time_5.426e-05,S0X_time_8.680e-05,S0X_time_1.411e-04,S0X_time_2.279e-04,S0X_time_3.689e-04,S0X_time_5.860e-04,S0X_time_9.115e-04,S0X_time_1.411e-03,S0X_time_2.192e-03,S0X_time_3.418e-03,S0X_time_5.339e-03,S0X_time_8.301e-03,S0X_time_1.338e-02,S0Z_time_1.086e-05,S0Z_time_3.256e-05,S0Z_time_5.426e-05,S0Z_time_8.680e-05,S0Z_time_1.411e-04,S0Z_time_2.279e-04,S0Z_time_3.689e-04,S0Z_time_5.860e-04,S0Z_time_9.115e-04,S0Z_time_1.411e-03,S0Z_time_2.192e-03,S0Z_time_3.418e-03,S0Z_time_5.339e-03,S0Z_time_8.301e-03,S0Z_time_1.338e-02
0.0,0.0,0.0,0.0,120.0,0.0,0.9762700785464951,9.626579503888294,-6.671138811158043,-107.09616135578563,0.0,-44.975525963646845,-3.558412547154009,3.9915012044950267,4.979622513286735,34.27749209486002,17.526509587638845,4.499506011080268,2.687381640505675,2.19171932714974,1.7667330717073637,1.4501003036822326,0.9907028705589654,0.6346464782761149,0.40811227139770456,0.2407423383237528,0.11020611979001928,0.04384749874645338,0.040293745982869625,-0.010616753767056687,-0.008462439202879651,0.013212332665685373,6.911111563640767,4.876947526939125,4.297029088377718,3.7250017773484556,3.0617817049014473,2.575946921116458,1.9223171210034922,1.3159334688662885,0.8756897714570544,0.591405379362279,0.3285955172703158,0.1864540155516629,0.10784082112803645,0.07168291765909045,0.04477868280883287
0.0,1.0,1.0,0.0,120.0,0.0,4.30378732744839,11.262713990982029,2.6035303937450642,-107.1109590232888,0.0,-45.112041340670174,-1.408617415924817,9.359311332084541,-1.3781094106061067,34.27749209486002,17.526509587638845,4.541522458826466,2.696920368389138,2.137701695059039,1.8127402487279283,1.4053472883727356,1.0189513658294609,0.7207525987934456,0.4086746124696228,0.2330964900625777,0.13218985970910374,0.07876447339153314,0.035563704738100325,0.045161888024562336,0.004979662769746757,0.005150523859777999,6.9593712389353675,5.058978490189166,4.331390666960186,3.7612676423280837,3.135573072050231,2.5893473312156314,1.994985976707204,1.3555037554562588,0.9282534027016374,0.585036226392014,0.35916967265134797,0.1877245904400964,0.13474778597048453,0.041669109042702386,0.022961296115935156
0.0,2.0,2.0,0.0,120.0,0.0,2.055267521432878,0.06621909633511436,10.915668177696944,-106.73045067407143,0.0,-45.162334481932604,4.683281820190043,9.888015792953588,-0.2935105078609048,34.27749209486002,17.526509587638845,4.654790395144478,2.7090459689526893,2.2537113043938404,1.82608541067316,1.4582062400022429,1.077741132123007,0.751635096955334,0.4540405232430549,0.2649156438185863,0.1283762256726176,0.07887417445802675,0.03427594512752362,0.030075634413693327,0.02918052392688722,-0.0012647661623613822,6.867038095472573,4.845032254856834,4.293786293765444,3.7676906726311348,3.26280339160102,2.6247474571830685,1.9839355828208929,1.454179490938338,0.9366181972132763,0.6150435492474228,0.35759172262522454,0.21440192786893175,0.12741392198783913,0.054662246878928275,0.03292178399613692
0.0,3.0,3.0,0.0,120.0,0.0,0.8976636599379368,22.804181736161198,-11.474044321139008,-107.63979616658602,0.0,-45.00585577625536,-3.091578687146533,-0.9635663466048072,-1.2175482507653825,34.27749209486002,17.526509587638845,4.588104081693112,2.6613445966284304,2.241337476265158,1.8737943569535203,1.4976410213182378,1.1020546478902693,0.753477091560761,0.44984258004701383,0.2653049395595143,0.15103783136894988,0.08200917732412336,0.028541110312397783,0.015999788699953617,0.008929703546137783,0.004642910818948839,7.001167795213089,4.763906418592604,4.3198369607260325,3.838210825579764,3.2068509351331542,2.771772350238926,2.059802255175957,1.5209535991873773,0.9785584249834072,0.618753549054286,0.38182031385748444,0.19325663632166232,0.11770503673476419,0.06106681393237133,0.040236973247528354
0.0,4.0,4.0,0.0,120.0,0.0,-1.5269040132219054,7.199509961481873,0.5213732146234253,-106.70465534967794,0.0,-44.730201317971876,4.172100858865978,-8.582604436315833,4.795269293354586,34.27749209486002,17.526509587638845,4.6396391386497156,2.695446327509788,2.1936647635609026,1.9450264219524875,1.4788823203363746,1.105738010945028,0.7567977209206425,0.5050677007539495,0.2777472677768138,0.14385180666559463,0.07738085161728347,0.032785488900434576,0.007706614869486971,0.015217132479135724,0.014633603214951055,7.065636187842739,5.035830590407933,4.3770125624517435,3.702067628720482,3.4135715863527394,2.7370336595899567,2.12721187304975,1.5539689240574457,1.0681026242956768,0.6675937626078865,0.4004716484846947,0.2148058860534668,0.11963222493151476,0.051920173596574186,0.02102880125487884
0.0,5.0,5.0,0.0,120.0,0.0,2.917882261333123,-3.807247572091015,-11.0379568096454,-107.1579759395013,0.0,-45.501053928874725,0.5437166562004702,-4.144119371189623,-3.2534161460499424,34.27749209486002,17.526509587638845,4.496036142291324,2.723257186611335,2.3076790223255386,2.017287559181456,1.527458090357628,1.1191776782207359,0.8260180861939872,0.5036161892246321,0.2899203069899472,0.1636048095581288,0.06557975056078337,0.039544182046759004,0.01519232990738094,0.007955891423130038,0.006868375359766827,6.940767788028645,4.9754839907908535,4.38435848038702,3.8912088302933268,3.256204402331999,2.673993298014717,2.140268249474973,1.5126690881902207,1.0719477406592692,0.7024693726969442,0.4186043322335786,0.2176828780012529,0.11328402904448244,0.06744251614179345,0.02543837474173538
0.0,6.0,6.0,0.0,120.0,0.0,-1.2482557747461502,5.319660706396217,6.505790435777811,-106.95901785688686,0.0,-44.90578086978728,-0.7708309649182955,-6.952905886245391,-1.720119990919203,34.27749209486002,17.526509587638845,4.5529152001366135,2.7790221254600276,2.2268624277459566,1.8894740772444578,1.5098400311586417,1.1453302926131674,0.804709343256034,0.537349992164069,0.3126725045200538,0.15879995545771275,0.08148279698976447,0.020007785901438372,0.008529483069326904,0.031764083185911514,0.0015413374800822598,7.036071054273066,4.982120846151294,4.407824039959564,3.9288957139025835,3.2719792433859523,2.7820094362533547,2.2515339924358337,1.5722545023876702,1.0894632231767798,0.7047811738708862,0.42941890839411256,0.24570769153621128,0.14248567941350754,0.07133653240251077,0.030102378913176457
0.0,7.0,7.0,0.0,120.0,0.0,7.835460015641594,-24.040340084533323,-3.118208915781187,-106.9759196610197,0.0,-45.13642799350444,3.8100638994094043,-1.650272504079764,1.803486660150016,34.27749209486002,17.526509587638845,4.702369282208401,2.7990464050004467,2.217131135180002,2.0199052230466137,1.607886145322174,1.1842932568370548,0.8481028327290949,0.5649128780954594,0.32266863613688695,0.18617112190210652,0.10122206380269438,0.0290891476296199,0.010795367054987862,0.017951045434914725,0.007952023033405775,7.065870107621127,4.990455639417682,4.369356107925134,3.7373349051403153,3.2878947260227758,2.811826511447564,2.2510167954237925,1.6533321193842376,1.1321107210989232,0.7292788928746335,0.4440912690539784,0.24874050619699534,0.14839437067386266,0.069213421915051,0.01457678258436964
0.0,8.0,8.0,0.0,120.0,0.0,9.273255210020587,-9.921259166272534,1.9626393557552682,-106.7643829701949,0.0,-45.47114646124486,-0.6034280974204331,-7.37421343053488,-4.367923816613693,34.27749209486002,17.526509587638845,4.472231090677901,2.859457897633014,2.2468036880478715,1.962732343656681,1.5528297438584135,1.198408112490234,0.8541325086325611,0.5793838508441013,0.33469903734859063,0.18491174507708164,0.07484817034862859,0.04508218485773768,0.02458946395634018,0.010410842295596783,0.018794915071927664,6.94808744491401,5.049393063391784,4.559768116649592,3.7898050476864404,3.352709746360012,2.913771395411919,2.285790805178283,1.6913608184437507,1.186923983853674,0.7636702771283361,0.4800241283639558,0.2611082702331132,0.13901063328541804,0.07134785352658844,0.03461395327580444
0.0,9.0,9.0,0.0,120.0,0.0,-2.3311696234844455,8.008676874634254,-9.50160491357764,-107.06689868655884,0.0,-45.48642577079099,2.2291553425442276,2.0823560804176395,1.0724937401154104,34.27749209486002,17.526509587638845,4.4869754722030155,2.831630034133217,2.3110302283683426,2.019047948963766,1.570980314555677,1.2269036564364093,0.8767400192344913,0.5641989725349986,0.36228297113094676,0.2160922791270638,0.09669777381843095,0.04121420702014912,0.015219547922105715,-0.01375123334543832,0.0008085860435292748,6.978664294531289,5.141725393057631,4.517095824042536,3.8970144420576167,3.3819192800335216,2.9165729448351136,2.2601642329017997,1.6787727607889198,1.2302277373929287,0.7997773666997617,0.4712865701592789,0.25744619471093555,0.11678217927693293,0.07835108050349608,0.022910091035794306
0.0,10.0,10.0,0.0,120.0,0.0,5.834500761653292,-10.496119639477797,-10.654567219698682,-107.16950644539111,0.0,-45.22819587353382,-1.2340970146944377,-2.3438388168429185,-0.2235349712358392,34.27749209486002,17.526509587638845,4.416527651454815,2.8930157507674408,2.3634405550715285,1.9119805862697057,1.5439749239079705,1.250654712078803,0.8662139637154117,0.6089950491957822,0.3683642420420518,0.20704554924623067,0.10578606415855904,0.048864987423743136,0.030224280940815203,0.003058479051334664,0.003931479849309805,7.051955133574688,5.107975136775415,4.342514867670479,3.9079677582783665,3.435063174189516,2.845316706852852,2.375099510178086,1.7096985025076228,1.2152262943128807,0.8161818908743087,0.4905776045221367,0.2716625218758295,0.13599795909788231,0.07707205328783309,0.04598553769351043
0.0,11.0,11.0,0.0,120.0,0.0,0.5778983950580887,5.900771449942077,-0.3583115805313639,-106.67553855233723,0.0,-44.945122611051744,4.368561520794826,7.907717685764201,-2.160000232378989,34.27749209486002,17.526509587638845,4.647392411448606,2.7724533481499316,2.431495715798489,1.9124849798890542,1.5424395149394454,1.2638518186882348,0.9013351006810131,0.5908108765313383,0.3554307763390585,0.2360980575329349,0.10659548505727659,0.05481530976745082,0.02460008041176061,0.013571780877683595,0.009241595211172057,7.052873889424134,5.028654651817166,4.442096136877956,3.826274199748712,3.379476502977765,2.901779456187198,2.3616209963916637,1.7705303311573606,1.2347693150430594,0.796118008337972,0.4576109267537965,0.296739819543479,0.14239123403665763,0.07047259526182384,0.03639844610084304
0.0,12.0,12.0,0.0,120.0,0.0,1.3608912218786458,-3.5615649527116915,-4.331617864501332,-107.5910434542853,0.0,-44.901734266504974,1.6855071048011878,9.355893435970039,-2.61586719075942,34.27749209486002,17.526509587638845,4.477118104259641,2.8120972685494356,2.4613809362560017,2.006347460873849,1.6195288323717671,1.2041235664596432,0.9553565798879177,0.5872772646517995,0.406696396124679,0.18886210117764163,0.12574761474882593,0.06931271283237012,0.0123329692120677,0.013751988660156797,0.00942829920552889,6.840884567884659,4.935115010931918,4.367973613488646,4.027390146323995,3.4440043586050875,2.8680880850103887,2.3767929395495306,1.7896805931404938,1.2459302448370002,0.8164601652102315,0.5218482872606938,0.28353305734907697,0.1549988513252921,0.09601742011646444,0.04151844119516547
0.0,13.0,13.0,0.0,120.0,0.0,8.51193276585322,-18.226296788877487,13.212958357584391,-106.99491645457368,0.0,-45.23474539316945,1.7714850033887832,0.9376980333884433,0.14512743298756714,34.27749209486002,17.526509587638845,4.532381879707575,2.8570286471832977,2.3319633649377183,2.066057935280098,1.599118522914608,1.262794423030443,0.9235668416503462,0.6240751922817103,0.3622703571849974,0.20371891893642552,0.10807712194943893,0.05636889943956913,0.021077617800542615,-0.0017535709441625982,-0.01222103505297417,6.902301489656873,5.052023864043539,4.552795380978948,3.975626444838776,3.5084347412945913,2.8810619050317685,2.334898404559271,1.7779627367244877,1.2661358290418694,0.8723999807387544,0.5146383775480782,0.2920393518407349,0.15740045681184991,0.06485952698442582,0.03287805551752346
0.0,14.0,14.0,0.0,120.0,0.0,-8.579278836042262,-10.085883702198462,7.959757614208957,-107.33698135565729,0.0,-44.74574475214669,-1.7041493827929226,-4.503528602648068,-1.3207241946295865,34.27749209486002,17.526509587638845,4.551442010853566,2.8406746549812656,2.3914248095396062,1.9794897073685123,1.6219788170640077,1.3026217125157653,0.9252859336112794,0.6503089354103008,0.40288464263776075,0.23753129124050856,0.10825626807934373,0.05590798546950538,0.02506818806056783,0.0025338742383248522,-0.0060830391151258725,6.754242640217562,5.271198851091501,4.436689917512166,4.129664887320982,3.449250078273945,2.879360300351351,2.393053222875602,1.7855934032833103,1.3242026010144294,0.8701587097849844,0.5480221603982056,0.2944215090945842,0.1726355485515866,0.08768699266565476,0.026921793022285458
0.0,15.0,15.0,0.0,120.0,0.0,-8.257414005969185,3.498245535063244,7.459908595516421,-107.19039334706414,0.0,-44.64425412587097,2.2985116600178936,1.844608375236735,-0.43480108737344647,34.27749209486002,17.526509587638845,4.869185351869886,2.910981494925467,2.5238596936194853,2.094364584854831,1.6342662930032834,1.2636772396010905,0.9253070046258849,0.6079669140154096,0.3963229902132305,0.2372214566066226,0.1390949605617065,0.04779139583238067,0.03453906173579177,-0.004470269979865089,-0.0032595643938763304,6.902753199987082,5.172829319140073,4.586695375936002,4.117289984286393,3.553133587361785,2.959622105572052,2.3962841220274913,1.8873011495015128,1.3115579416897634,0.9103545748674781,0.5243491868704099,0.32051742859156584,0.16138581359981902,0.08421763307076541,0.0503506926864396
0.0,16.0,16.0,0.0,120.0,0.0,-9.595632051193485,4.543638062408661,12.111592192378005,-106.49718582963422,0.0,-44.90097835376086,1.2544447288631966,7.935223164488196,-1.6252261823576006,34.27749209486002,17.526509587638845,4.643833824696944,2.947720394417198,2.500025134754774,2.0575498558607475,1.6931262695212603,1.2748725966928922,0.941770975569224,0.638315426966219,0.42839034412513416,0.2452306571241855,0.11902434881641644,0.060475288514468276,0.03725692638641544,0.009799074551221112,-0.007308101451044525,6.989645446848125,4.946644962587526,4.635115482666699,4.022841594377067,3.481370311913946,3.011781142885455,2.323598964182474,1.9171335186509895,1.3293435116136911,0.8985321351603278,0.5819221469922115,0.33244163680364947,0.20094222652088062,0.08390596382717427,0.03790936583546804
0.0,17.0,17.0,0.0,120.0,0.0,6.65239691095876,3.716262442478939,-12.497326936739444,-107.01114885661397,0.0,-45.147850666952024,-2.8072884155873954,-1.8653330832850337,4.7049369359597755,34.27749209486002,17.526509587638845,4.496074679004733,2.892223471409093,2.406687970910172,2.036149698021087,1.6022074549261285,1.339826317139952,0.917927027429289,0.6059168656597084,0.40376377816102915,0.23818834015233864,0.11514663469174972,0.07333668292539211,0.024600935613545687,0.010891691789606346,0.01069845512101064,7.0158819447560505,5.271640877572806,4.481649835617395,4.031036016721723,3.5788679567299284,2.819374674073536,2.3356115181350643,1.8757801539659202,1.3450344330184767,0.9452101054853814,0.5905166647681048,0.3150693367410296,0.1808677368367062,0.1024861197447316,0.04190364020143407
0.0,18.0,18.0,0.0,120.0,0.0,5.563135018997009,7.660040992856679,1.5657740976721968,-106.95123257571215,0.0,-44.71889520387241,-3.0418187591750327,1.0415655338394174,-3.66560568254396,34.27749209486002,17.526509587638845,4.548817077252077,2.9811770339523496,2.491546605328968,2.0930047252801565,1.7004772891804307,1.216432949270978,0.9761002632753772,0.6931901622514401,0.43349059252256683,0.2535177224662224,0.14044589590856296,0.06652076066357615,0.0345637247052656,0.010972492157547337,-0.004985942641598804,6.840007496009466,5.083777425023284,4.476726999277934,4.006693896144998,3.674339721210102,3.032539895136709,2.3848570957884805,1.8542968913546325,1.37726160946555,0.9246372459761905,0.5899021001210373,0.3489745672834516,0.17992874673455578,0.09462224964995584,0.051327960259405045
0.0,19.0,19.0,0.0,120.0,0.0,7.400242964936382,7.605163500084444,2.5342820686730647,-107.4453907139264,0.0,-44.81115107608417,3.1603657018811107,-4.566944647877083,-4.031960468216258,34.27749209486002,17.526509587638845,4.620972482000118,2.9628164221188933,2.4604760217705195,2.083004612972156,1.675187761454087,1.2952868010720853,0.9672104784806718,0.6778685619679191,0.4354869358956474,0.26248774042274825,0.1270201508003121,0.050646343926760005,0.03276171536400016,0.01920922197052254,0.004502382171112131,7.174736478844345,5.301499083402391,4.874124581913954,4.097345350891372,3.4922638575223584,2.955274730425079,2.399605319876058,1.9006450497950043,1.3227726593728317,0.9818346705519415,0.5958397437515635,0.34281773387376285,0.1716838534890828,0.09157902097644176,0.04221288272581231
0.0,20.0,20.0,0.0,120.0,0.0,9.572366844655281,-3.4290782283013037,13.858091356416871,-107.18226116469867,0.0,-44.78314814716127,4.577298650735877,-0.8911170109994604,-1.5660827120908394,34.27749209486002,17.526509587638845,4.64150365108908,2.98350704170533,2.4629826929735765,2.059942198616347,1.718161827566366,1.3220836048079094,0.9744561768109705,0.6926154928403573,0.424347674305993,0.25030168969731353,0.153931509223507,0.0493176994943199,0.013821434666698728,0.021063932498696314,0.006784394312779786,7.005805334554467,5.21549218963178,4.647601291796183,4.125520741989052,3.6794594615144978,2.9899180323903862,2.4313621243060504,1.9644968981700694,1.4011347124364013,1.0153314186006506,0.6086485269539691,0.3718935079397426,0.1689907069453156,0.09688236926839351,0.024766674377837746
0.0,21.0,21.0,0.0,120.0,0.0,5.983171284334471,19.82732979255315,-6.235574196223535,-106.9508606498178,0.0,-45.16411591874288,-0.5164159904430761,-1.965729292408028,0.9102690087049128,34.27749209486002,17.526509587638845,4.738974048657862,2.907015722565739,2.524912751466461,2.101402912135609,1.6685646929629339,1.281266751166423,0.9650135092155268,0.7104785066617898,0.4402366772465376,0.27729778874005867,0.14167165972763462,0.07844749620287571,0.008766506730914059,0.007416628660834714,0.015067810762512054,6.973627315466786,5.235015936664786,4.624771731670202,4.248901547602585,3.6196926570780845,3.0309777761795575,2.483244445999497,1.927815944093828,1.4186438455769539,1.0122483949714547,0.6195633453291399,0.3643974940280723,0.1854508735917364,0.0990293634152406,0.062212792127084755
0.0,22.0,22.0,0.0,120.0,0.0,-0.7704127549413631,-6.621906497605174,-7.7751366025365956,-106.91131057672169,0.0,-45.708638626318674,1.145071056880628,-5.03173069834058,1.5917647185002828,34.27749209486002,17.526509587638845,4.606205979281274,2.929323060209314,2.5793157781080107,2.122193300659553,1.7258006987285783,1.335748090972829,0.9848905878123368,0.7000887214939967,0.4373039152697821,0.25724849810516576,0.14649908789531219,0.051585575162509396,0.014868700152302641,0.03383574420212463,0.012990106346504018,7.000874866205101,5.394534780804153,4.587747382200107,4.145437119899351,3.6606435434894555,3.097393164789754,2.488085023377607,1.8132059268764404,1.393533791744765,0.9993934545753307,0.6242757214601368,0.4022288959658144,0.20867432679115336,0.10596406696697586,0.032035292410393275
0.0,23.0,23.0,0.0,120.0,0.0,5.610583525729108,-3.2067537367186603,-11.991181732035066,-106.84577836140168,0.0,-44.470802244629084,3.6785274620162673,0.11732767650616793,-1.0274325283195793,34.27749209486002,17.526509587638845,4.6706634905400515,3.031536556479582,2.6040422773109557,2.1830044530739072,1.7721309672701835,1.3190290614337583,1.0218467314476793,0.6652580116964821,0.44642833604247256,0.2797114561449214,0.1467534784913244,0.060325152105942956,0.022089371393907074,-0.004985985834602483,0.010529040629800958,7.185548284824362,5.27236502990127,4.668994474022119,4.06707236178889,3.6992741102235502,3.1938338514949054,2.3820656396864215,1.882016101852059,1.4126369366757838,0.986142355218053,0.643605500698599,0.3965285556782968,0.21383724662159478,0.10778922050043702,0.03751090779044935
0.0,24.0,24.0,0.0,120.0,0.0,-7.634511482621336,19.596167750783607,-14.507111112255775,-106.99784302527061,0.0,-45.40271960086248,-0.30325236529071525,-3.792383480403771,4.992779939221711,34.27749209486002,17.526509587638845,4.575951193339466,2.9859765143900416,2.6442612398797283,2.156430532865424,1.7301481242716703,1.34973709999938,1.01492793353716,0.6713248663070222,0.4795205918625928,0.2801660274680507,0.14888937446463488,0.07884916374223387,0.03491877259551582,0.009205060751240189,0.001653165045510144,6.8922007458538666,5.37294795830015,4.677447979369075,4.13015130058856,3.6616017354152124,3.153483111037576,2.482016048888584,1.9097599047515759,1.4559244104120326,1.0541619602082284,0.6235105738848353,0.3862886743903173,0.20815127460059638,0.1173525204952536,0.058208288161473914
0.0,25.0,25.0,0.0,120.0,0.0,2.798420426550477,15.309699452304287,12.885879503765715,-106.86824894788633,0.0,-45.008942017965055,4.5121967089913,-2.5393027223850506,-1.481070038069574,34.27749209486002,17.526509587638845,4.671803320516357,2.949284455898835,2.6235520878238106,2.1370728506959678,1.7238490096954495,1.3982910110296671,0.9813587316316976,0.725178154484234,0.46790461501082237,0.28598321908172786,0.15792531147460145,0.05649436733968606,0.012864378402753115,0.01600283666319241,0.011199713849020286,7.032629485182262,5.235144440673996,4.751297068595382,4.224376431134224,3.595656602987653,3.1483119435103863,2.4069905247144283,1.9674279357031987,1.4645768968480748,1.0422875375891332,0.6396868372387365,0.3888535126913482,0.2361924422527812,0.11369020211377087,0.04891884725603189
0.0,26.0,26.0,0.0,120.0,0.0,-7.132934251819072,10.194429177018314,5.097496397727301,-106.88655452184108,0.0,-44.40481366219507,0.3354541135058664,0.49940884508528427,2.214066679599524,34.27749209486002,17.526509587638845,4.748661840178699,3.0784326106850917,2.7156946250409937,2.2347911424203803,1.7681105101705687,1.3810438137357632,0.9997662077117078,0.7264547096866747,0.44615158764056395,0.26487695725753263,0.1743374542552038,0.10207303117126702,0.039527964393696116,0.015197032540052948,0.012354581450047322,6.936499188473789,5.362004895877316,4.774791375861619,4.305241093935988,3.568000506818587,3.0670505227030826,2.550193463248127,1.925100905419427,1.4300851618952684,1.0756939117483197,0.6660925851120592,0.38563032665298613,0.19289959142581622,0.11662430300911748,0.0567735913165931
0.0,27.0,27.0,0.0,120.0,0.0,8.893378340991678,-19.988655634384944,8.554587360694132,-107.45743510275113,0.0,-44.91735581093141,3.179554711373261,5.011900458579749,1.3758269453079288,34.27749209486002,17.526509587638845,4.677803866310368,3.023081421074331,2.616125699321673,2.167912702691342,1.748528555573215,1.3797534950697137,0.990776110656034,0.7135583476557337,0.47978693924253024,0.2780147638339665,0.14329442644767987,0.09687816107367965,0.02419179123654168,0.0067030608776975946,0.007388926151491048,7.119391226542813,5.336726269726074,4.837306022371787,4.237173583581261,3.6290294825495883,3.2037429099358956,2.6464129245869334,2.0307666033994867,1.4740159099667922,1.07950571448982,0.6795467910240568,0.39306045998263467,0.22322597101062405,0.10913418027038388,0.03836364521174436
0.0,28.0,28.0,0.0,120.0,0.0,0.43696643500143395,20.974130687233675,-6.548096827381528,-106.99074856952247,0.0,-44.762688381610445,3.9553147043251173,-3.3298506841744935,3.1305386324746074,34.27749209486002,17.526509587638845,4.629626169692426,3.1628513743780298,2.536397557103201,2.2496748110276035,1.7350261654346484,1.328355825047535,0.9786942900130954,0.7495912675345763,0.47148154241472845,0.29310271643496344,0.17901363878260765,0.0912285826454333,0.019848932923254865,0.024626176825755103,0.007190987650044962,6.993820564533665,5.388097978084068,4.938906150947471,4.215426174139547,3.749697481436638,3.1273379956348317,2.4358684590948747,1.9372318324873021,1.4835555974142278,1.074979986945401,0.6985626092568649,0.41398826706057634,0.2112884389698892,0.13340865282804107,0.05312933671742921
0.0,29.0,29.0,0.0,120.0,0.0,-1.7067612001895291,10.712064977455569,2.592304985589802,-106.80802439806682,0.0,-45.37559914234542,3.316502006050657,8.483175332415271,4.7622566345382005,34.27749209486002,17.526509587638845,4.628347633853093,3.1204189240178044,2.7035112423738106,2.2383917436039344,1.8429312275110519,1.4351461649539567,1.0377535377463947,0.7022749872953087,0.47991971432112984,0.2955996178804647,0.1866867975102077,0.06312283634133481,0.035131276110324725,0.008321585011655246,0.009056665131066425,6.704898754190256,5.528093252859274,4.838311752377247,4.152219485070115,3.7100765791879384,3.18147701358988,2.457430473929256,1.9788929110596787,1.4513230284466043,1.0383127066087372,0.6883545867136031,0.41386124577799316,0.21925165213491632,0.11763428263876163,0.06103714870570455
0.0,30.0,30.0,0.0,120.0,0.0,-4.70888775790746,24.942350328393324,-13.081342016370566,-106.85253004481638,0.0,-45.44441673868343,-3.152894757261893,7.246370936718048,3.897936564455403,34.27749209486002,17.526509587638845,4.7070486098724,3.244090077193911,2.753813188855371,2.2343527650852835,1.7977920087322403,1.3605686333854872,1.0318982293033399,0.715764647782215,0.49293133566061614,0.27838072912963735,0.16348242000885993,0.09473119380125344,0.029107339661256747,0.006648195412091022,-0.011256670073271632,7.428758600015711,5.346932957393624,4.7321029724109955,4.263199389238569,3.6965476074379904,3.1399991883540235,2.5947922326882966,1.9749494055576962,1.4627631926110716,1.0238492332583886,0.6950859621554627,0.41736542018362743,0.2476283947381486,0.11759868110343766,0.05143579389274151
0.0,31.0,31.0,0.0,120.0,0.0,5.484673788684333,-17.527584767100315,-0.43117212196131227,-107.0909647024927,0.0,-45.133175697994886,1.1244966294267116,-9.026194080489429,2.645619743577086,34.27749209486002,17.526509587638845,4.6431222625858535,3.1532146103127245,2.6689236368743856,2.253382647980436,1.7982932528782731,1.4374164098093143,1.0381250027211872,0.7231670461419364,0.4587794921689037,0.3070391178222962,0.1748321325615102,0.07524943756742343,0.04970338477681186,0.00010515837324510946,0.005230763645459247,7.027418596457884,5.3061488816061955,4.9006005089098625,4.503936409931293,3.778665008468578,3.1422566137272425,2.586460795368447,2.0001637190969093,1.500198640428519,1.055314588653921,0.7269631521325371,0.428571752766321,0.22576196780337393,0.11730329990212882,0.0450001604006379
0.0,32.0,32.0,0.0,120.0,0.0,-0.876993355669029,18.406302868410712,14.324854192333405,-107.20140662688485,0.0,-44.727312566391376,-0.8985611052339662,-4.927149514863545,1.982484778182906,34.27749209486002,17.526509587638845,4.695519796822376,3.152266522142244,2.6496232396605772,2.323973775467634,1.8370608151922152,1.447730918153435,1.0321657432675324,0.7301515380662055,0.4769800212838117,0.31260537631145024,0.16815101936136417,0.07794399093385518,0.020236394351850387,0.01930455702700201,-0.0025106119985007763,7.0721887385105875,5.41870281972385,4.998991956226222,4.42347880344035,3.826059793623209,3.147127574536879,2.5990027403730744,2.075726622594598,1.47931476436222,1.0762861592790864,0.6773632288782503,0.4472081767134314,0.2308815087312911,0.1297741250726903,0.034635448460662285
0.0,33.0,33.0,0.0,120.0,0.0,1.3686789773729693,-16.875353266181257,11.295157359497725,-107.27957798108041,0.0,-45.08656236191183,-3.9389007303451145,-1.0772897468159606,-1.6450183032410037,34.27749209486002,17.526509587638845,4.936925183391361,3.1917568990744347,2.7626613172451364,2.3112408458298415,1.851642969598196,1.492742047703397,1.015319952265581,0.7412411134625421,0.5045266761595378,0.30538325089633633,0.17174062223984332,0.08616854436330156,0.025783737983103506,0.016946001900881386,0.011637579554613517,7.093070054306923,5.465329381011295,4.879173468875363,4.371924570723179,3.9070756374831817,3.0662987921114966,2.588024002143531,1.9989531690749192,1.55990792395286,1.0796306618581033,0.7405162655686134,0.40164472019609115,0.2449649528038803,0.1258905365800125,0.07148221487501491
0.0,34.0,34.0,0.0,120.0,0.0,-9.624203991272896,5.77797821419221,-4.855231444894631,-107.03276350288536,0.0,-45.19865908026787,-0.9266056612442205,-7.907442225150518,-3.523144217932926,34.27749209486002,17.526509587638845,4.617538648397006,3.2264072858443904,2.7558053894518872,2.297307663169361,1.922702807237113,1.4398051660887423,1.1107813637784676,0.7598094630185517,0.508194919925628,0.31545795866607523,0.1623440040638,0.084177627089257,0.04726513292342257,0.024651769646229563,0.020890742639074637,7.026031608944073,5.4228749829804705,5.036625058380699,4.345959238245068,3.8962984653846253,3.295602072438771,2.621737372316773,2.006094237545107,1.5206524767842733,1.098741916322435,0.7191729653343879,0.4686415851627176,0.23026531570813566,0.11281293133583978,0.0451425245951496
0.0,35.0,35.0,0.0,120.0,0.0,2.352709941517542,-18.809000857527924,13.847104636244957,-106.71673003011007,0.0,-44.950508177513754,-1.9926788960876385,-3.030480219330059,-4.373639969401903,34.27749209486002,17.526509587638845,4.730010776039299,3.114266896290609,2.7365641789100392,2.306671160459338,1.8916191064728178,1.4734741831962532,1.0384160091141605,0.7613967394227659,0.5241255993556186,0.30776301744423634,0.19587680718685688,0.09281236911698769,0.06431444681226317,0.030062824044211588,-0.011916668202839983,7.104798797363913,5.65900078266681,4.977482261596363,4.43637599922599,3.946129379900046,3.1858185220484967,2.6100478986181685,2.0432327239444064,1.514837828481721,1.0893488945893623,0.7387093126357634,0.4478156658010745,0.235788009192397,0.11356765619502408,0.048254697179260946
0.0,36.0,36.0,0.0,120.0,0.0,2.2419144544484286,17.40041146611172,-8.048951205863865,-107.4879510253704,0.0,-44.72951619538068,3.2772366224924463,4.801950512353649,-2.5809829579851518,34.27749209486002,17.526509587638845,4.798828612667984,3.2699664368759684,2.745130050464389,2.3264130130241467,1.8417758278297816,1.4836374104219843,1.0744040357870672,0.7251356029415491,0.5001358792129222,0.33024699032717486,0.16987161810907936,0.10705958413170166,0.038460205163634756,0.019868652032868177,0.007287634328252704,7.312100533444531,5.582763869731603,4.883176620818513,4.343489288720287,3.7463209760090233,3.1348489393760146,2.623306433192242,1.997484282637991,1.5293829125039702,1.0778800688492844,0.7152383143159042,0.4390084845137996,0.2578825240371416,0.139394293214332,0.0625786405180388
0.0,37.0,37.0,0.0,120.0,0.0,2.3386799374951384,15.365947936250535,13.479564672470442,-107.16497293243238,0.0,-45.36123504976834,-4.661213795631051,3.6102896228565164,-0.6771851881870141,34.27749209486002,17.526509587638845,4.715071130076791,3.346267770575661,2.8527066396019976,2.386291182490719,1.89181977428399,1.5031320992889585,1.0926760952323964,0.6943239849097171,0.5124265612209469,0.28979892557203374,0.18846534274332055,0.09122383821776639,0.05664621304258145,0.016828136341387447,-0.003870166475076627,7.101367069276039,5.707938740871907,5.024589589400774,4.473016644157155,3.9434954739293144,3.277166255829794,2.632308006505862,2.104654086031917,1.5893226667541183,1.1157527094606958,0.7291476943718653,0.47211873879293303,0.26702970653206626,0.1388289078457799,0.04520915003543514
0.0,38.0,38.0,0.0,120.0,0.0,8.874961570292484,3.4550369307296656,13.241331141194959,-107.2849506138567,0.0,-45.30263574853083,4.587040815674275,2.4476885713200964,0.21996273629982444,34.27749209486002,17.526509587638845,4.837373839707144,3.2757287463733764,2.8247705681595505,2.402332528221867,1.9339196294882701,1.4757044439305036,1.120656118340034,0.7255809105358082,0.5166321059343749,0.29257392168587054,0.186740737413455,0.08389978700084777,0.0537354712598882,0.019301408232319416,0.009283275239930609,6.987398485994359,5.539113367253907,5.0670636123183685,4.558460941842399,4.135350272686656,3.293627184936754,2.6973262744157753,1.988695941170772,1.5006152732364888,1.0967401869347122,0.716787747905629,0.47617349409889287,0.2500899241746054,0.14851739354061516,0.0773225585053226
0.0,39.0,39.0,0.0,120.0,0.0,3.636405982069668,-4.640835138700016,8.97607762057175,-106.80376061968987,0.0,-45.19716731362735,-1.4434367903131884,4.210568054446913,2.730835540548716,34.27749209486002,17.526509587638845,4.841049729735132,3.3831701410857664,2.8517514197863165,2.4350209924917348,1.9635362194466468,1.497269700107697,1.108861761946856,0.7952122513892317,0.5192481116902804,0.32321417538462566,0.1852247224423052,0.08359280657978588,0.03250785131248222,0.02237151041418113,-0.00913518518396354,7.034397207123004,5.782642470489086,5.265667600732861,4.375661248832833,4.052406952154606,3.2803253740986884,2.6556425876347434,2.0588730574525136,1.5863001052829766,1.0703174380298144,0.7522841941963139,0.44452032503756966,0.2653863340824633,0.15226486489070723,0.06109174052120052
0.0,40.0,40.0,0.0,120.0,0.0,-2.80984198852428,-21.541650227243096,3.913438106003735,-107.13857740664282,0.0,-44.72634040632198,-1.6423506064515576,-5.901526260805965,4.58740923056593,34.27749209486002,17.526509587638845,4.887074911755895,3.4005612840187336,2.829406376796455,2.501755207150962,2.027775525384018,1.5343903520437046,1.1052989090876144,0.7580000536208613,0.5015290068324696,0.3433900083411447,0.20230149482135967,0.0957526612860818,0.026832919586888142,-0.013506318842257458,-0.005716737261429887,7.1370068820579515,5.821575251197335,5.02800919013193,4.59648545700856,4.046628923745971,3.318891039602701,2.660718464890199,2.0160865195299857,1.5167772886862299,1.12571899704615,0.7442580766088016,0.4640375179583104,0.2604936642579694,0.14373088994991312,0.05296091248500532
0.0,41.0,41.0,0.0,120.0,0.0,-1.259360924013171,9.871438657228182,11.228638998748409,-107.11765941453869,0.0,-44.94129461851281,-4.984510749104029,-3.166037702705358,-3.82679519615189,34.27749209486002,17.526509587638845,4.831771747345074,3.52696741786599,2.850589668483889,2.430439387283511,1.9482531224758872,1.536714005928803,1.136207597838508,0.7618237603864798,0.5073423321914412,0.31913773458290234,0.19310959135470648,0.0889728013087652,0.04136093435865422,-0.007885298774312079,-0.00900311792029537,7.151520825714423,5.789833594624343,5.149969203068674,4.471539075567387,3.850181968625377,3.337947630475715,2.58999591610572,2.1270800769837668,1.5648907593608525,1.0794849524576198,0.7339264709519826,0.45521886139067,0.25413300754556234,0.12010255307108661,0.052834087672541684
0.0,42.0,42.0,0.0,120.0,0.0,3.9526239185452976,-2.3228658660965564,-6.2093914647660995,-107.05423739248417,0.0,-44.466961647357394,-3.3146068192280107,3.5248496455492564,-3.9299585980620844,34.27749209486002,17.526509587638845,4.812015731127611,3.3711371620396084,2.9867422183352166,2.468275376881182,1.9458552807582021,1.5219319524746282,1.0957735384602758,0.7701996440027707,0.5303379532129514,0.3280082118104439,0.2157312203862151,0.10300462395268267,0.03582819899120168,0.02898377023550948,0.01938061566573766,7.337674229168702,5.5868929272163745,5.12924025292567,4.700467636010127,3.846415538469336,3.308300811443018,2.6142402763284496,2.0493794134784658,1.5350169939716203,1.156059033933548,0.7517443374867332,0.45668146518136304,0.2535276678153122,0.14110973406933247,0.06370747952248276
0.0,43.0,43.0,0.0,120.0,0.0,-8.795490567414603,11.102779973517393,10.468306659387547,-106.88865168727631,0.0,-44.76588856854222,-0.9056643431127982,7.5846952606265425,0.8969472301355079,34.27749209486002,17.526509587638845,5.026854107667551,3.479870443279303,2.855817639863631,2.449518204124004,2.0461116958786314,1.5231694296351905,1.1689823709208143,0.7593301783309576,0.5285117383571066,0.3151479030334589,0.18334046076827792,0.11243674301878682,0.045523638515146896,0.029360910397363542,0.012555456023039,7.3016396288748915,5.635757544483568,5.14665562637364,4.658122346242715,3.9331376897862724,3.469336306786304,2.6621151338429647,2.0855375428682037,1.5411775248388366,1.0746609858085603,0.7942630382225224,0.4698686379647377,0.2636110825514739,0.13881158761752976,0.08112902580112545
0.0,44.0,44.0,0.0,120.0,0.0,3.335334308913353,18.31911629643146,3.5363007575257157,-107.0980972495374,0.0,-45.00877379421742,4.375422951654717,0.873561076561904,2.4539807394729296,34.27749209486002,17.526509587638845,4.814607087995639,3.517551999050243,2.9383257312501114,2.4697251597369454,2.0400808396505656,1.5872122408394997,1.1194711820647665,0.7703084940977535,0.5043374406305526,0.3429110211169985,0.18386223438667,0.07908359807586131,0.06384648001678671,0.00462395736210406,0.016204129077736072,7.232611331667033,5.797518829144337,5.134023848337551,4.676014665285996,3.8862499625938334,3.414809337664391,2.8039580086532014,2.1460545744400434,1.5130731924162149,1.1083230118414014,0.7601573795927807,0.4834672778267655,0.27051801102361045,0.13701945021540854,0.07249908383404009
0.0,45.0,45.0,0.0,120.0,0.0,3.412757392363188,23.776075250144288,-14.602894267233015,-107.76153576369998,0.0,-44.68373054047781,-3.447364614852722,-4.346006981089268,3.481503803469849,34.27749209486002,17.526509587638845,5.041670998824463,3.4784468541512616,3.03077170494219,2.386038571680548,1.9916303787479221,1.5546875283208634,1.127463704155484,0.7964482818145184,0.5410932640026371,0.3368083138875818,0.1845664819811267,0.08382961640561615,0.054637889277845735,-0.0004279193444993064,0.014888208328489912,7.192499208543184,5.653596998000026,5.250916081100774,4.664916861919207,4.038887240756195,3.385126682787367,2.753331832346243,2.1568811775007823,1.6038648115443874,1.1634357288849415,0.7664756949287741,0.5035840972372603,0.28164699618235967,0.13807873786967576,0.053870139896655386
0.0,46.0,46.0,0.0,120.0,0.0,-5.792348778523182,17.790167119630553,-4.5829944620334135,-106.86417202715312,0.0,-44.947125746817036,4.795762586363575,-9.395294839880348,4.358320802167885,34.27749209486002,17.526509587638845,4.963399082802001,3.4271889912302336,2.9495795400507956,2.5509336218209344,2.0204149859221174,1.5451223655810016,1.1465253041959877,0.7960971053084486,0.5249616933463106,0.3268531517699113,0.20368126352652538,0.10648284146099704,0.046248759140682556,0.049292336137772744,0.009752906151003857,7.398263115799606,5.751434401461861,5.1027309344709435,4.613945798913009,4.040157997369289,3.3730870057381472,2.817355196822589,2.120015433912288,1.6088464296216425,1.1407190319696767,0.7624485086874658,0.48301577703487675,0.29865949992353147,0.13704837094311464,0.07623919059829745
0.0,47.0,47.0,0.0,120.0,0.0,-7.421474046902934,-24.4142957907499,-10.555774171555049,-106.89023926058199,0.0,-45.17623033812686,3.5674244949317018,4.206736579484268,4.83426242260642,34.27749209486002,17.526509587638845,4.857733153817639,3.513205388859048,3.0324747568207884,2.5749766611677125,2.1249179863459364,1.585884143144303,1.1331909905837028,0.8122229578294279,0.5253395595660406,0.33676400606785284,0.19312655129376546,0.08072130326877036,0.05525762507867414,0.028011971958222928,0.018294785666158643,7.510460441675193,5.703550481283593,5.327475120012831,4.7513563109501655,4.048020586022089,3.451586330115047,2.78322061520896,2.0804509344651922,1.6077214730027327,1.1225934904246835,0.76156914663597,0.4587231678869892,0.2731516132792323,0.14532709317553907,0.07459545611230611
0.0,48.0,48.0,0.0,120.0,0.0,-3.691432981516323,-7.0010967760818055,14.454881694547595,-107.0548852570828,0.0,-44.83000628893872,-0.37715862697543545,-9.842317929831193,-1.0019830777547414,34.27749209486002,17.526509587638845,4.9781361287405215,3.460806562105953,3.109158777398233,2.571182818030742,2.0978350770351617,1.6316311159564025,1.1994380400700329,0.8429735721004961,0.5327754750801545,0.33945455707369315,0.1826295448031663,0.11661918492854559,0.03632462355252415,0.0008968099124441742,0.017323155340005066,7.187747648020036,5.96284170135483,5.342503161384925,4.580899447126404,3.8778026755340673,3.3642378026783337,2.76874908445311,2.089177321405131,1.583257348974198,1.112799349579981,0.7806659612988726,0.48961128323128944,0.27533993380760163,0.1658694120287618,0.086405255072339
0.0,49.0,49.0,0.0,120.0,0.0,-2.725784581147548,11.4995281212029,-0.6488907888003581,-107.27100915516797,0.0,-45.17408166346527,-1.4837116871194598,-2.54641860358009,-1.1966481647242686,34.27749209486002,17.526509587638845,5.0533402449853675,3.4677659503016507,3.009913006433726,2.6188897250058014,2.065012819808493,1.5935082942135799,1.193652650069897,0.8191889301306083,0.5574465115880313,0.3313199684422406,0.2135226647343871,0.09860679556079599,0.06779660972705769,0.023146497860626475,-0.0019484450339411798,7.041198867425038,5.862868504304134,5.298101451047484,4.842819855441726,4.114691615577402,3.4272813458634093,2.8417824789277857,2.1425165070005368,1.5919890835816364,1.1692753544284917,0.7710564302110483,0.5009371249077227,0.2760848925337391,0.14819541255402602,0.07170011181741923
0.0,50.0,50.0,0.0,120.0,0.0,1.4039354083575937,-16.418516136927973,-0.07825903504011933,-106.91205497232966,0.0,-45.07259927520097,-2.664908251124802,0.6107442912556351,-3.521913233027276,34.27749209486002,17.526509587638845,4.9777442985794975,3.6248480877312153,3.1544066665682724,2.639229755519704,2.128949737793678,1.599749128031327,1.2003014983212397,0.8272576373658048,0.555523914617656,0.3290561534768444,0.19585697637694455,0.11326790198951538,0.044050914315633724,0.019636110944388815,0.030155467667975094,7.581246530050724,6.074067482702318,5.453380372100817,4.6866596225609145,4.187695903324283,3.4492758820673335,2.7331444318454103,2.1389629155187633,1.6218968639030087,1.1444392495406037,0.7729297857125796,0.5056258752920315,0.28774059800255497,0.15511589156746877,0.0720695293819025
0.0,51.0,51.0,0.0,120.0,0.0,-1.2279697307535926,1.0518303102064657,4.184175491961707,-106.9051911166161,0.0,-44.668054326010505,1.1272366701570093,8.44222923534386,1.849344386835594,34.27749209486002,17.526509587638845,4.966680388319205,3.5517170794905915,3.1467876201140603,2.610062025035657,2.035270297622225,1.6195735583170734,1.1569777694491599,0.8327982175712498,0.5508604497421545,0.34706115110636304,0.1909580863597603,0.11519379899713666,0.0552718597344121,0.01782260232634208,0.002984073015692228,7.443221379637521,5.897868388739551,5.41220349801629,4.909583503725857,4.326445420045872,3.609421929595307,2.8581189182684,2.10336002466154,1.6004409354312596,1.1484967183633656,0.8188280020371724,0.4855865259242166,0.2929542759150676,0.155015159547699,0.06078840174019616
0.0,52.0,52.0,0.0,120.0,0.0,9.767476761184525,-22.283100583037317,-3.942461816111475,-107.11750822067522,0.0,-45.02532037155434,-4.656360349552472,-8.210109099341999,1.5676195844083711,34.27749209486002,17.526509587638845,5.094294499284605,3.7103589766018774,3.0709624288253567,2.7243547217704553,2.047256402084073,1.624244261063481,1.2193616887222136,0.799813806617147,0.5511070294355345,0.3248056794431855,0.1989665101922355,0.08040282966851553,0.04239361276408932,0.0051026747997093,0.0037044207433524923,7.268426556061299,5.901978621284134,5.4933657823426545,4.74779925266904,4.2407072733099715,3.6247545355615274,2.827592715640405,2.141639765693266,1.5872783286352237,1.1483585898386297,0.8033352244719996,0.5010333507114679,0.302081461196316,0.1644152154594833,0.07404477080681263
0.0,53.0,53.0,0.0,120.0,0.0,-7.959103785039439,-15.000173755179997,-10.892991849432033,-107.05418286764387,0.0,-45.2007853468354,-4.627120198329611,-1.881153560634326,3.620625958512072,34.27749209486002,17.526509587638845,5.124733276037205,3.847897646573739,3.2674406937558835,2.6619037205690175,2.1999767644397052,1.6771380457386378,1.231811629553516,0.8422915448584367,0.533053591973679,0.3221486413138891,0.20810090460309755,0.13036093842715754,0.043662039774479126,0.020946439524902834,-0.0034432725414028365,7.520841993212107,5.733275651150897,5.186706104634353,4.895768570340723,4.201478436803573,3.4919815275414483,2.815357603043092,2.2140075712085876,1.6224366025318504,1.1423127221572786,0.774320009940828,0.5145924462870458,0.2852609170125678,0.14019251929444632,0.07440290577783663
0.0,54.0,54.0,0.0,120.0,0.0,-5.822464878103306,-24.0739102769693,9.663531995827366,-107.23253912563108,0.0,-45.116084422858876,-0.9241229057189301,-9.513736005796844,-4.027420052123594,34.27749209486002,17.526509587638845,5.1497363229183035,3.837473798225236,3.2151622095308956,2.6629339774772123,2.1933988206661317,1.6941363564890206,1.2085086445826874,0.8328697693773977,0.5556342949543223,0.3445690542807768,0.20520451105718457,0.09692302205130286,0.03982798300891022,0.013785894727562649,0.015938026061531045,7.403788447511417,6.166979962637377,5.441316848547657,4.771712079060997,4.327741800116949,3.5423874487522253,2.9205529501104532,2.22632438891959,1.719334827733944,1.1692728994300825,0.8129635420959134,0.5169806921892461,0.28678058196798173,0.15599657263793096,0.05710430103175779
0.0,55.0,55.0,0.0,120.0,0.0,-6.773809642300074,14.68488516787103,-9.304562642917261,-107.04464727302184,0.0,-44.74455235360283,-4.400676627457841,-3.1477803131681936,-0.0222309217465817,34.27749209486002,17.526509587638845,4.960562540759448,3.7753276488306926,3.2781723959079914,2.7559001018076446,2.203930024706374,1.7111161149482128,1.2017445311269466,0.8332924740925559,0.566258492795052,0.3530047107681215,0.2006102793617781,0.1249777073354939,0.03866794656313193,0.017706987687785784,0.0054414981292897485,7.505376940670308,6.070382362415095,5.35053334539539,4.960337562954403,4.345061598459639,3.614685101934991,2.89550237767353,2.123114741953206,1.61811984087295,1.191768419586964,0.7970057448028979,0.5136095034104765,0.27945283691373657,0.15866687700253226,0.05871772660847917
0.0,56.0,56.0,0.0,120.0,0.0,3.0621665093079677,-13.803765596980993,0.33956947639368096,-107.38760733627086,0.0,-45.13813516835418,-2.362981831327451,2.4446211767958985,0.8108192967206307,34.27749209486002,17.526509587638845,4.9408653334792545,3.817462085127536,3.30734351682894,2.7554845761494544,2.203647966344719,1.6367381364373716,1.252990206134974,0.8430314489952331,0.5888567768475133,0.3615440803624078,0.17974118406395811,0.11904310813777072,0.03792192027378108,0.015212184928593015,0.005939927880163657,7.389892939209433,6.148469328344783,5.404518153101774,4.820717977710171,4.325426744963244,3.57813104101962,2.883060505572132,2.1177086360924124,1.6497830510050486,1.159811440402463,0.782692521786563,0.5219196348585498,0.28344522409449496,0.14769635018089533,0.0717413105746342
0.0,57.0,57.0,0.0,120.0,0.0,-4.934167949204358,-7.732415965154864,-8.270489130757822,-106.89567029474205,0.0,-45.09671771171266,-2.7105290786506226,-4.418641035428033,-2.584429599600816,34.27749209486002,17.526509587638845,5.213491469405842,3.7558382875210805,3.3596169997900756,2.845088492236864,2.181470946463085,1.6959682037307249,1.2127731359014595,0.8145280099117634,0.5654019374172372,0.3604515337996667,0.22965694920204624,0.10038776909310762,0.06986513822772743,0.039615822574184265,0.011210501335967186,7.513559795606562,6.237253285041846,5.766622728642007,5.008520082843734,4.290474716661258,3.533868294812229,2.9043650355389654,2.2749972426882596,1.6710756819010693,1.166789168763076,0.8053012980386153,0.5079223148080239,0.30278747091026137,0.1421954141354826,0.08270993936102258
0.0,58.0,58.0,0.0,120.0,0.0,-0.6737845428738751,21.404064673279542,-12.06466546517898,-107.23609212270608,0.0,-45.127573184908414,-2.408192372807383,-5.805001006887299,-3.309745938708387,34.27749209486002,17.526509587638845,5.253179782166488,3.8887039884927663,3.3033194567350583,2.6823099723673605,2.2379750911732312,1.7555216170058556,1.2187060183160627,0.8133078806330454,0.5388188739524452,0.35651745306461174,0.21065658561887507,0.1218716943366615,0.05426302728861703,0.00723020322597763,-0.00033132221540557727,7.566774415425698,6.177393905779067,5.648015773838282,5.0303965527118395,4.300058947265948,3.6022385459258373,3.0098433233512982,2.256738949907387,1.6644542170711,1.203537511620951,0.8106347574999958,0.4787813555997679,0.3094860583204392,0.18499312047385674,0.0680526460579675
0.0,59.0,59.0,0.0,120.0,0.0,-5.111488159967945,10.220720096176642,10.8657455226505,-106.94047421304192,0.0,-44.95401862641492,-3.7818979794233734,-7.6859353334581275,3.5958083641962144,34.27749209486002,17.526509587638845,5.3686162554854855,3.864076695531653,3.3497847620279684,2.8683377407449586,2.2224610065898016,1.7748425831636971,1.217182073172094,0.8413801252169503,0.5571037417247372,0.36292266154342284,0.20291190511699703,0.09436267597343621,0.05282811872029729,0.015709690549602,0.017573283487538713,7.414302524810705,6.199403999881301,5.558445388373742,5.05669610433643,4.324238825748268,3.6570425793426242,2.7597543079260203,2.2518659560403775,1.6902170334566387,1.1903550195983643,0.8221551138589357,0.525333860467694,0.319632973054484,0.16575303184446946,0.055666617767864836
0.0,60.0,60.0,0.0,120.0,0.0,-6.820608327089605,-23.408053523434607,14.187584670693909,-107.35149072906697,0.0,-45.0963724400939,-4.636503823737823,1.5428048804068357,-4.414650777644412,34.27749209486002,17.526509587638845,5.00074374640615,3.788087703899297,3.3540514526544354,2.8201512580970927,2.2862196113205338,1.7191870642750438,1.2386379465569104,0.8762471306542834,0.5803823436031463,0.35224674911501325,0.20755199718777895,0.1174665269322077,0.061551196097530826,0.011828277505757448,0.0010424951091391483,7.302700930030688,6.158167130481513,5.725330106077327,5.094689560779349,4.266245555457133,3.689267803070685,2.9327529108492554,2.234187934260998,1.6321669436000854,1.1951551607532191,0.8250273435760659,0.4825233797296296,0.2991700941812435,0.19262836517982465,0.08634629397167769
0.0,61.0,61.0,0.0,120.0,0.0,-7.792497176713898,-16.765292175104364,13.825039741890006,-107.14751441146738,0.0,-45.40045901224313,-3.3116899668113846,3.90540011809372,-0.2937909608192708,34.27749209486002,17.526509587638845,5.295818438444157,3.88704775978119,3.3370599620191053,2.84685484661427,2.3664286887897013,1.771995273092234,1.243244406313743,0.8945568934862107,0.5681518089280023,0.38037943847803507,0.20204733576508366,0.10159658617115835,0.05815248811674273,0.03649437283174916,0.021322458571442014,7.533920538891099,6.128641917915577,5.605264426018056,4.860068964001078,4.304862348649895,3.6565575841545557,2.9648903017510135,2.2512252419731063,1.686776456514393,1.1934202281983208,0.8290882176739088,0.5039038027403101,0.31676080092404296,0.19031243142903004,0.08475156329571676
0.0,62.0,62.0,0.0,120.0,0.0,3.1265917893054684,6.073920074988177,12.196664976635368,-107.02762235126647,0.0,-45.22179523546126,1.2864064685465308,3.4391428119164473,-3.8416599869911474,34.27749209486002,17.526509587638845,5.239386229697267,3.934120944383634,3.4946064881041217,2.808365861318125,2.2629884789137606,1.7243245499949222,1.2403065410297838,0.8535020968364686,0.5888831268543769,0.3740848532166193,0.20138882346125295,0.11633467623580789,0.06528356099503432,0.026607859229887277,-0.001425473048732256,7.310813145611192,6.411781517833616,5.7492764237141465,5.151800291603327,4.310077120825267,3.7059103279352117,2.9934916308776476,2.291825580296963,1.6688295622067402,1.2352681016810207,0.7862357862401325,0.5340336184620434,0.3214526114743932,0.18682726867994628,0.07601527339937085
0.0,63.0,63.0,0.0,120.0,0.0,-7.236340973027724,3.8614294302083785,8.221419980959162,-107.4151749529673,0.0,-45.23319726037661,4.694267952793042,8.977220414410148,-0.42941238668632664,34.27749209486002,17.526509587638845,5.216536368448435,4.073304667330344,3.3897716728269573,2.8999610175988035,2.3109655058032885,1.7467758537862712,1.2937587163097934,0.8514945338058457,0.5888605272950125,0.34779413597773007,0.18967107277226253,0.11388967041115486,0.06188912135795605,0.032314893427585034,0.019038586518549026,7.199919356409091,6.188607727113416,5.734733356684527,5.276191817859612,4.501713350679276,3.8497065407779516,2.9380039514951313,2.300061894236633,1.6627176692156245,1.2015669759897156,0.8046115199360698,0.5116391252782982,0.3037201167538447,0.1691815810439275,0.08093723349521127
0.0,64.0,64.0,0.0,120.0,0.0,-6.06835276639893,-13.10535893127457,-5.005645439140743,-106.97121303171497,0.0,-44.68917015388621,5.092385087832575,-9.945935722129946,4.7996232634230935,34.27749209486002,17.526509587638845,5.410875890822636,4.052617163212875,3.4422690169633325,2.8894553603751145,2.3293488545399885,1.7766573410295798,1.307338628058882,0.9044607772576883,0.603223338890571,0.35182045235477954,0.21751237227500936,0.098710299173286,0.06158697191539271,0.03835456854216991,0.008043803687058907,7.744057394807454,6.203114195930819,5.649939822187255,5.132852989054069,4.546782427975756,3.6944208959079683,2.956440248222668,2.250273553992922,1.716329602872022,1.2501994275080934,0.8359489923218248,0.5340647749524922,0.3075725027522971,0.16350103377561773,0.08921417849436025
0.0,65.0,65.0,0.0,120.0,0.0,-2.6254965867807183,21.71069989623969,-12.566958300360097,-107.09478689071997,0.0,-44.79683148947274,-1.0442422054576315,2.94393307788072,-0.7629364654452715,34.27749209486002,17.526509587638845,5.37850766044767,4.059499210523937,3.5583122839327688,2.932150313601746,2.3216188496803074,1.8412056675184019,1.3045363940594645,0.8696668566689161,0.5673560610651989,0.36570216865619226,0.24130368950753864,0.11097863933467932,0.053768217169648955,0.04364721254116739,0.009214616635243178,7.38493937831658,6.179215530521801,5.92574802031807,5.243760200149533,4.5530178390568,3.7404911463890897,2.953981889199522,2.2970876901863564,1.7207607889916994,1.19831131868179,0.8357584142651479,0.5053977624303243,0.30731272105102797,0.16886790584062708,0.0740311414725296
0.0,66.0,66.0,0.0,120.0,0.0,6.419864596958703,5.698297798294799,-2.7827648575857804,-107.43558904945232,0.0,-44.853185155150044,-3.5578783257096704,2.007844741952791,3.571249175045674,34.27749209486002,17.526509587638845,5.17228084029962,4.1439336872267605,3.469304381126897,3.047864607000484,2.3639660990824996,1.7993662860231516,1.3137299978366719,0.9196086301254113,0.5795729609109775,0.3799842340740841,0.23126195119510312,0.1277052762096199,0.0767559375330807,0.04121405292798526,0.02736639431939678,7.877049884059028,6.440325266837054,5.7637633707824065,4.965266226047757,4.382003768824847,3.7298475930469355,2.9893863408591805,2.3103698077263473,1.686365268947541,1.1820439611632083,0.8244316879720296,0.5237488105796569,0.30244986406767943,0.16346157354230492,0.07180561314541978
0.0,67.0,67.0,0.0,120.0,0.0,-8.057974484138775,1.7816401512479167,-8.032975734871718,-107.32581068852808,0.0,-45.12633957931611,1.3958197605687206,1.7747921994057627,-3.826844358168061,34.27749209486002,17.526509587638845,5.400157031212748,4.068631141348093,3.6428235463978953,3.006366960105945,2.3512941429540635,1.8226707900133998,1.2860826239653842,0.9243827327287102,0.6149168292601351,0.3850144183509791,0.20053081591705363,0.1155700393105096,0.05371210016463994,0.03303862503153534,-0.001475978297342589,7.553922136112543,6.3931521426902895,5.862927481498116,5.3030069070775125,4.495907393413829,3.834057264999781,3.0780159799189133,2.3177638300885994,1.68422248105002,1.1977586940157536,0.8415630804909552,0.520952936463927,0.291909312236039,0.18071723682272167,0.08485961381926017
0.0,68.0,68.0,0.0,120.0,0.0,6.758898149976076,4.495498817728549,-11.02537095726051,-106.84871997897946,0.0,-45.20394788549849,-0.7426456927551149,9.255406396804847,-2.287479232381359,34.27749209486002,17.526509587638845,5.320784188033869,4.2734449977296265,3.642079977492368,3.024427237347468,2.3546698414758738,1.7927489789092137,1.3201958340152609,0.8715062633509723,0.6020715119212127,0.350476921761192,0.21750061865853354,0.1137831305624207,0.06688908492466716,0.016021417129020672,0.013338907337518895,7.4696465992361585,6.583577383510778,5.862619504871925,5.310553087442648,4.428804118477019,3.841035612184822,3.060972607098528,2.3558946598561663,1.748016453264591,1.2286185322486183,0.8572935523687116,0.5276026302609811,0.30591238152730316,0.17365839189259463,0.07297711468096206
0.0,69.0,69.0,0.0,120.0,0.0,-8.078031842120739,11.506101475838484,-13.397184546395241,-106.77611100361217,0.0,-45.12687940041434,4.605610181931313,-9.662566532599206,-0.9620725933266545,34.27749209486002,17.526509587638845,5.457066562786439,4.193276416984145,3.583203583934206,3.0527348316949268,2.534365729741434,1.8829014545518774,1.3694173318691132,0.9031084286734784,0.5889416690582455,0.366363339131855,0.2268647576736937,0.09250819164652369,0.04709030986075509,0.02817813017436181,0.007731562075840897,8.016516957882825,6.572368671034593,5.829124993957106,5.118681951235486,4.542729659629504,3.721461068024979,3.0858125120987325,2.356635982078655,1.7553351675806754,1.2950022600805626,0.8163929361208654,0.528661163797124,0.30094218743981904,0.1743642009712662,0.10311003758279688
0.0,70.0,70.0,0.0,120.0,0.0,9.529189300267916,-9.402750226019908,6.767830926317362,-107.03297715994499,0.0,-45.26297002563791,-4.433948392462409,3.929648614029002,-1.0018785999066928,34.27749209486002,17.526509587638845,5.6055441277399405,4.233233517493813,3.6594183091352885,2.989632615391756,2.43620420374036,1.877815707870906,1.3502901323743512,0.8864895744615031,0.6074527158914901,0.3771638065401406,0.21270661179025863,0.1182224981855169,0.04221527085147982,0.010207398317936416,0.011952936960790231,7.636728228355715,6.546373904678112,6.039730804663528,5.2964559023598925,4.338023555168842,3.830194510629304,3.0415871350478647,2.347984069832234,1.7837887401150234,1.1994392475556428,0.8423103141942426,0.557882830284179,0.30983492589878603,0.18194589793536867,0.09646069006127965
0.0,71.0,71.0,0.0,120.0,0.0,-0.6269759670459685,-5.088946889195405,-14.657176241249068,-106.89880954698987,0.0,-44.37569990210325,2.4939971686012026,6.27357299403727,1.7138347867015309,34.27749209486002,17.526509587638845,5.600299644700987,4.219035293770805,3.6183990732012976,3.136931009210266,2.5054813374379776,1.8573671519178103,1.3219867795649716,0.8975175830849786,0.6330718655964895,0.3742300751000784,0.24723664891036531,0.12518166898988345,0.0647107844371389,0.030922494661461384,0.02197601025681568,7.61873597239483,6.867723813233949,5.959588532448198,5.2682666349211535,4.651304011211764,3.947038182875503,3.0233640632989305,2.397635602191172,1.731242534492089,1.23317373032893,0.8299873544585857,0.5468544560283749,0.30466558981054964,0.1795117300353939,0.08187718289360675
0.0,72.0,72.0,0.0,120.0,0.0,9.535221763806742,-14.507812551243893,8.117422455083286,-106.94403910917177,0.0,-45.56133041209286,-2.374175802158093,0.19614393243168315,-1.5528187262449231,34.27749209486002,17.526509587638845,5.516560498177599,4.20814505739748,3.611615373245524,3.0119626844755274,2.5407940195748253,1.89287875250491,1.3706939400863851,0.9569642335598745,0.5883183456564907,0.36406574638598077,0.2223212014865822,0.0977895936297893,0.053270172823651894,0.016974208592443647,0.014392478470107275,7.732203491677133,6.883766320607145,6.1171109373947585,5.280725427595185,4.611617193509575,3.85446419141237,3.310314568742563,2.3067074440828734,1.7724361199280123,1.1941291025626604,0.8423983356418119,0.5664554673312593,0.31501392297512265,0.19136894525555784,0.08569355997184266
0.0,73.0,73.0,0.0,120.0,0.0,2.0969103949009202,-15.690349705983191,-10.591600637988748,-106.91759425446807,0.0,-44.85899786623155,-2.695000883598762,-3.320702608063817,2.1376686841001638,34.27749209486002,17.526509587638845,5.600467404458682,4.3277140596909485,3.688368192123527,3.101071832750619,2.4460146491307704,1.9769822580071374,1.3637073597859288,0.9434763541506589,0.5974225395803997,0.39419405349437237,0.21676388566148586,0.11858746015783583,0.039144580689724616,0.03233766061919637,0.0314992689382087,7.692567624513107,6.5908687325990005,5.898553800004096,5.4162625789625665,4.678897071945283,3.957503729805405,3.151864692705678,2.351462577367083,1.780453679029342,1.246936321567917,0.8228538466242244,0.5360202374192337,0.37151128315448917,0.2068038921354076,0.08867223246369425
