Line_number,Fiducial,Easting,Northing,Height,Elevation,tx_pitch,tx_roll,tx_yaw,txrx_dx,txrx_dy,txrx_dz,rx_pitch,rx_roll,rx_yaw,PX,PZ,S0X_time_1.086e-05,S0X_time_3.256e-05,S0X_time_5.426e-05,S0X_time_8.680e-05,S0X_time_1.411e-04,S0X_time_2.279e-04,S0X_time_3.689e-04,S0X_time_5.860e-04,S0X_time_9.115e-04,S0X_time_1.411e-03,S0X_time_2.192e-03,S0X_time_3.418e-03,S0X_time_5.339e-03,S0X_time_8.301e-03,S0X_time_1.338e-02,S0Z_time_1.086e-05,S0Z_time_3.256e-05,S0Z_time_5.426e-05,S0Z_time_8.680e-05,S0Z_time_1.411e-04,S0Z_time_2.279e-04,S0Z_time_3.689e-04,S0Z_time_5.860e-04,S0Z_time_9.115e-04,S0Z_time_1.411e-03,S0Z_time_2.192e-03,S0Z_time_3.418e-03,S0Z_time_5.339e-03,S0Z_time_8.301e-03,S0Z_time_1.338e-02
0.0,0.0,0.0,0.0,120.0,0.0,-0.8787458182095644,0.7752499445854433,0.9768428659952137,-107.03548770547997,0.0,-45.01150451496339,0.15563000348921546,-0.8878801238584935,0.6503646457522634,34.28551186217887,17.546392865702316,4.858974977170533,2.647581578847221,2.144082929762034,2.0061782071785785,1.5920801155004982,1.0248343564987423,1.1528624311137594,0.9616034652508033,0.8692324637060426,0.8000667143064155,0.7509913713766424,0.34976863657946344,0.21976447059496254,0.22866326286289712,0.2498643817366607,6.557384562636946,4.540025761614364,3.975835508513745,3.38589986060234,3.1939102339568732,2.846250903886231,2.589205176651531,2.518234592011917,2.0672841558520196,1.7707763693995715,1.7178607578768454,1.2958874752003524,1.1324550588110456,0.8175124527607458,0.39103156097880143
0.0,1.0,1.0,0.0,120.0,0.0,-0.5416309841118632,0.7496899894348361,0.2653551169128603,-107.09447377019634,0.0,-45.011378819435066,0.41931222706121746,-0.2021514849054955,0.8594471047676364,34.28551186217887,17.546392865702316,4.500885502888272,2.6795148390922607,2.080407407954864,1.8803223484957565,1.72189208499502,1.581459846772297,1.3033273897298514,0.8692759808477485,0.9013927719267356,0.6136992702274627,0.5170204589830286,0.3778895175003258,0.3269473146724121,0.2700649767003954,0.504230589644678,6.536061342080258,4.697111887549836,3.8767373128947527,3.5010135327377836,2.995766796091861,2.739683965518202,2.41356802632422,2.3207271517508796,1.942320862324568,1.746205234220668,1.5385367483641943,1.2938618988133956,1.0422758578582538,0.7116673867908679,0.4107455065838552
0.0,2.0,2.0,0.0,120.0,0.0,-4.327337250087382e-06,-0.08857736096206081,-0.4427940688509122,-106.8792268542085,0.0,-45.02211219879949,-0.2803766522058463,-0.29715721611979684,0.046307451507526354,34.28551186217887,17.546392865702316,4.014963758293498,2.415599197992422,1.9881651615898186,1.6418850047902884,1.330898394520682,1.3544073680034439,1.0604018116245122,0.9432349089193881,0.6957587879715108,0.986978758791515,0.5191505447316245,0.029256249567181647,0.1860157427444858,-0.007866112927384067,-0.10258114572648072,6.577049718672195,4.790010533406013,3.77376587741529,3.3848576797819137,2.9248047332064075,2.4550482071157003,2.523172557545046,2.07783774238084,2.0195548740629445,1.8368319023654007,1.4497766037154503,1.1080521264381629,0.7019568992990097,0.7918929423192717,0.7141716542427721
0.0,3.0,3.0,0.0,120.0,0.0,0.16886566142732273,0.5792002796500884,0.9718044063529192,-106.96984862287363,0.0,-44.99350430588841,-0.10093964868009254,0.4676799618784213,0.49548369923082713,34.28551186217887,17.546392865702316,4.373046244385337,2.6831616422243467,2.053401454001471,1.663732236952897,1.741691759160026,1.266157033929931,1.0647483559982596,0.9435088709215436,0.8140166976313654,0.38313798939885474,0.5095865775080792,0.716281974341601,0.4441292236564209,0.1153176397020613,0.1672900346799943,6.688198408854028,4.588858366124171,4.2015564332381,3.481657843593564,3.019662083178894,2.519518365066361,2.173367498200241,2.2010901815097053,1.8363736033907079,1.5726819903005278,1.4621343158694593,1.1070704410475203,0.9924271617526876,0.7301207129066307,0.4471192992313307
0.0,4.0,4.0,0.0,120.0,0.0,-0.04372408098521263,-0.2792846715041504,-0.4416666382064769,-107.08223644056153,0.0,-45.028061283087396,0.7835644608769257,-0.8735903575661681,0.03892807554856703,34.28551186217887,17.546392865702316,4.5175944476165055,2.3410104707870936,2.221453433177536,1.6911460399937817,1.4531945991092217,1.427604062087445,1.027591460111312,0.7632770131261952,0.9268575031264938,0.6247686422967913,0.7227976793485105,0.2681105107802695,0.24098275144990916,0.03390624632260991,-0.09916238562994828,6.569869205917666,4.508438338168423,3.8802416620393716,3.4828574782157737,2.88485140894206,2.588527315908832,2.230799660545019,2.2141404031059193,1.7287901367797864,1.45703852262101,1.3054795022478676,1.1389446224163737,0.8142619499370716,0.6348137567787646,0.37359475653153196
0.0,5.0,5.0,0.0,120.0,0.0,-0.272214451356094,0.7211975872661847,0.4393032237963992,-107.12272594141648,0.0,-44.92779585095529,-0.3220488743229089,-0.2418911075521779,0.07890022762291116,34.28551186217887,17.546392865702316,4.310138463780032,2.693552428825895,2.3205944522137227,1.8688041464493237,1.6320432914725649,1.1743948241072453,1.1021179857315329,0.911861589218111,0.714399784826598,0.1760067382604532,0.4595765755553697,0.539503027819279,0.14016748223355857,0.5093484878009615,0.2665065949795786,6.748056004532681,4.800201252557283,3.7615966601135535,3.594681289889176,3.0282529854003726,2.695602768738852,2.3329813862623836,1.9168622288594228,1.6544195927130856,1.4373831775813672,1.326870400156416,0.9984268799759093,0.7778187974879255,0.6083097877315382,0.5053692403300643
0.0,6.0,6.0,0.0,120.0,0.0,0.6069949427446424,0.8128899284467421,-0.47333437093808506,-106.96668323850977,0.0,-44.91434999111061,-0.6112932682122904,-0.31513295437070665,0.9030019288140723,34.28551186217887,17.546392865702316,4.3260208470869,2.8416947143128195,2.033531389928753,2.0588796758541474,1.2810251838088447,1.1400634055217795,0.9782735037513904,0.637314570584227,0.5567392886142934,0.616996792641176,0.3843441386179149,0.2634697560161028,0.19534125145054593,0.21891547439514614,-0.02533023796792018,6.7795351959433185,4.419669518554305,4.021867525236432,3.503966248344043,2.979968662342122,2.422977107626091,2.258966207430951,1.7561651448935243,1.7448924374334314,1.4712850266625563,1.214881433135437,0.9295311010744145,0.7714277157598121,0.42864708254323647,0.518394414382773
0.0,7.0,7.0,0.0,120.0,0.0,0.38953122542777896,0.07659984993577984,0.5486128958530418,-107.00683270106121,0.0,-45.12014913205165,-0.04375049403068769,0.29364304986869283,0.47671396728419557,34.28551186217887,17.546392865702316,4.515537872122046,2.7595981943740386,1.9744867694187327,1.718969195057349,1.5782029436201523,1.210083437745777,1.131926633737455,0.8514360241735472,0.714574215347001,0.5717662034304755,0.6887379917642931,0.26265740124956427,0.1443758282609195,0.18206901966760503,0.10855261918126717,6.562037724374565,4.75348024213549,4.088104833659589,3.4932606729489906,3.2584261547762687,2.504176981497717,2.2263487907016404,1.7899902424574932,1.5906876958921325,1.3989381167704842,1.399321324722031,1.0245361839641014,0.8288251896714639,0.49296647135095384,0.47020451229674
0.0,8.0,8.0,0.0,120.0,0.0,0.8908403017184647,-0.04761554788995692,0.28796824877151117,-107.01769896371589,0.0,-45.08055379491837,0.2553169188894365,0.7758415420865632,0.13355561369498536,34.28551186217887,17.546392865702316,4.295693392158324,2.556648490230592,2.292941530134126,1.7573018064992427,1.752564843441665,1.395285523457992,0.952802630819702,0.7633792043683477,0.5965246949853851,0.5795082466846995,0.5057429519111518,0.28623626118866,0.04368995873278228,0.21697182186863326,0.14132075822033643,6.523179348647952,4.674874943468157,3.9855532898706443,3.638047385077292,3.0721020271656654,2.583832610745386,2.218155854805169,2.0467717367360865,1.5996475943181234,1.4430492387830471,1.2858842961829968,0.972737794844931,0.8687171606160948,0.7208406366699789,0.43830878177059185
0.0,9.0,9.0,0.0,120.0,0.0,-0.9445288673811609,0.06539814919602738,0.145413725155511,-106.91039100966191,0.0,-45.06367397084246,-0.6179795052451501,-0.7140204197446776,-0.21452947113572018,34.28551186217887,17.546392865702316,5.055024960602539,2.375426819913531,2.0882156854662384,1.6475563361165482,1.6984930975780221,1.2159913850401456,0.774995865573096,0.8682377530990648,0.5523420057020265,0.9587327052219566,0.3175653440234093,0.5047726033810038,0.06067231861786598,0.2588980561256458,0.029307157605178435,6.460288415627787,4.477199735859945,4.07144185387151,3.705765684079795,3.0823207537519783,2.430005071162175,2.2714441537362524,1.8400427849853505,1.62821892430979,1.3868057271258454,1.3843024278173017,0.9668224967627325,0.6875023387115703,0.6868650578441525,0.22754843358588367
0.0,10.0,10.0,0.0,120.0,0.0,0.4881588992462158,-0.5237555639123019,-0.08221025147256955,-107.03553857752185,0.0,-44.958648979323314,-0.7484287011236334,0.6325075027996472,-0.6713447227711775,34.28551186217887,17.546392865702316,4.566123361665516,2.646368241586482,2.4822641005541666,1.8829137502944011,1.3692184751030667,1.1947207947693324,0.6671331734176851,1.0328460506953143,0.5406669869638224,0.5992311736711742,0.27826811603293156,0.37856411961104963,0.21069555447388688,0.4919255724054069,-0.15058299152918525,6.580974935133573,4.675013042478658,3.9963376757707407,3.614872701865573,3.190338432710735,2.511660099568444,2.121877861178966,1.8143890439369832,1.5670638991120251,1.2552515326370557,0.8827879068656894,0.878486326542411,0.928682630719003,0.4852394583722123,0.31858678904947524
0.0,11.0,11.0,0.0,120.0,0.0,-0.8772482628588609,-0.8162826386834643,-0.5143134803080591,-107.05311540393832,0.0,-45.0557524081822,-0.4548202190902707,0.21944680550253248,-0.7685392508491657,34.28551186217887,17.546392865702316,4.556932553269467,2.7354588613485906,2.13958029462226,1.8877742485701419,1.4877620424483273,1.2416802533265379,0.96960350655677,0.503027362849261,0.6820933683615056,0.42138243088388566,0.26023493505590967,0.47064905421465375,0.21121275271307632,0.09113268868781707,0.054089249069021496,6.708277028969999,4.777986194126134,4.232278525344224,3.4609334152002034,3.2431692338821425,2.5916055595156298,2.1745853926846923,1.8828508935769899,1.6109159354247446,1.1372387339558478,1.170786346728709,0.9161924973342026,0.8106082723870321,0.41056166646582515,0.3131634618070558
0.0,12.0,12.0,0.0,120.0,0.0,-0.41804112477887645,-0.22616001684565257,0.2188544769424483,-106.95472209395182,0.0,-44.9655069130046,0.8965177285301867,-0.9415146119720474,-0.40066770892675607,34.28551186217887,17.546392865702316,4.574571345536884,2.584934916209766,2.2125469057900977,2.162351494215855,1.9304864793441845,1.1488122363780675,1.0563483469141717,0.7094489110288211,0.7065943892676203,0.5342767223832533,0.14063373295491433,0.500869014178386,0.058938799804027026,-0.0770287911644778,0.30235119874249344,6.615853619166513,4.877430114344727,4.245595644793099,3.5798437338447138,2.9831397090770704,2.7952085500712625,2.1891755656418828,1.8711965078095383,1.4317763132870933,1.3506282440967452,1.203869721587123,0.8413984984725738,0.6696441690417699,0.5472531323673302,0.38877727651318694
0.0,13.0,13.0,0.0,120.0,0.0,0.834203935333687,0.5681492518289428,0.7486950982345693,-106.96213135325148,0.0,-44.91429187698432,0.4064953814919423,0.5337773583324872,0.38560869039464896,34.28551186217887,17.546392865702316,4.014901168845469,2.5932136541646473,2.3529431543112653,1.9761674145797659,1.5896301994727051,1.137041986425062,0.5291815423419131,0.6905666571132972,0.5638537565229681,0.2672106636043327,0.4024093340872077,0.31057649878514965,0.10558996037553983,0.12053321252159466,0.23678665442228902,6.705051494620856,4.703736722638753,4.3853965649771105,3.8336721776086216,3.088985485497734,2.562114782275186,2.0621638385897043,1.7721123117304098,1.486858110452139,1.2568416606306736,1.07981912802936,0.719670608824487,0.622426229048419,0.3495320160000137,0.4576506486932085
0.0,14.0,14.0,0.0,120.0,0.0,0.5507105928526308,0.3635035370034585,-0.9373891718982521,-107.08064115505579,0.0,-44.9518196600435,-0.5911275805754274,0.07537606606785174,-0.6168947624685808,34.28551186217887,17.546392865702316,4.7371197257357816,2.9912042330613757,2.2463189715664926,1.9997829679561234,1.6262606952860499,1.4691778513044031,0.5513971318661113,0.790734982715432,0.45353495940300914,0.34877609215619376,0.437021908631955,0.33009809660737865,0.044433991799028655,0.22665228316983158,0.15910526458888005,6.882750604823662,4.861883228090567,4.327482619724346,3.577570195499238,3.1509754241709427,2.5553417412606954,2.127087802551977,1.8712093084382475,1.234162930685461,1.1428792693174257,0.980444899243625,0.7673522374597435,0.781649058979168,0.6110563842200641,0.46349654445205085
0.0,15.0,15.0,0.0,120.0,0.0,0.32403832499445717,0.6817454469266615,0.4653394776572206,-106.95066043084583,0.0,-45.06530114086496,0.24786102302226068,0.5998576491602494,-0.7370757268185877,34.28551186217887,17.546392865702316,4.488154724839795,2.7864202828917395,2.4340663334092776,1.9813174621997207,1.4232191761796713,1.3416169876526316,0.5189560731443046,0.84234124528795,0.8020448720980088,0.4582611639501085,0.4670198677996077,0.24049783990080997,0.004646378873408824,0.3643089786771446,-0.06517461234990417,6.964045100156222,4.819521595811925,4.276125231724174,3.7635397855353,3.2654979315416375,2.6151546746401073,2.109158699611313,1.8171173916431211,1.2424960661257811,1.0810552841681176,0.8751907112017552,0.780935468173297,0.6419073206326723,0.4762158725205542,0.3888145958861636
0.0,16.0,16.0,0.0,120.0,0.0,-0.20060705679465896,-0.09706347042668528,0.7598450703205397,-106.87744289098035,0.0,-45.07499402895462,0.3698888634739996,-0.1822639342611072,-0.8444852460537202,34.28551186217887,17.546392865702316,4.740486155034546,2.972741654160521,2.325112931069044,2.013205419797131,1.4274045059031717,1.4540304055635893,0.9266077771619907,0.22308825713646196,0.42918046944405597,0.225504303380877,0.47448611970765614,0.13303206485089514,0.05978606744885363,0.03960488645704549,-0.21898166524984414,6.528555546708659,4.944871018166853,4.2088314040916694,3.9147176811903472,3.1374937978354156,2.7005662117923204,2.119779103383378,1.585487057037106,1.3758952086214862,1.0600575535042998,0.9332922501431123,0.8087816191506929,0.536589977859449,0.7056795892395082,0.3004105637621747
0.0,17.0,17.0,0.0,120.0,0.0,-0.9003449024142147,-0.751456039307943,0.23377556050629833,-107.020971238059,0.0,-45.16675383428537,0.0750056919830611,0.3310055875761031,0.6924987600803196,34.28551186217887,17.546392865702316,4.716126530113582,2.828652500788695,2.391480874571005,2.0196772359569155,1.4687488499201613,1.2211926768370565,0.9035069250561921,0.6766142826546271,0.4141797983006621,0.36581904760276424,0.07011554442903706,0.17675936647935128,0.06748317994444505,0.12963034739815654,0.14523687213202666,6.72063397906405,5.109468487069667,4.175618505442539,3.943423130124226,3.322281139807479,2.714578022291721,1.9781889909668333,1.740428286494956,1.3131584475321225,1.120791915064295,0.7775293546684183,0.6935627904787481,0.5910270339993268,0.593713446162125,0.30613091205085574
0.0,18.0,18.0,0.0,120.0,0.0,-0.4794943904877076,0.045250466284876945,-0.4831387351832426,-107.03797576158361,0.0,-44.96937424530998,0.5268808204292069,-0.6023915892289229,-0.5176203564790582,34.28551186217887,17.546392865702316,4.199696967826914,2.914425993081478,2.668181534175588,1.9503537267608593,1.4766381395605102,1.296604135502506,0.6563991482899405,0.6714343665917208,0.4462119635775095,0.31625676816104076,0.2459164238451016,0.101720634099866,0.07474061144154977,-0.01019485691581433,0.12381875734497047,6.739970424612371,4.881133534172089,4.409361649216579,3.893009668353219,3.479504957716098,2.826750582817425,2.177916483655624,1.596794726619158,1.3619220359600894,0.9679778288562118,0.948126725530612,0.6984188954552363,0.695657954921783,0.3576647314541659,0.331269575111594
0.0,19.0,19.0,0.0,120.0,0.0,-0.03826236530149485,-0.9210199804304737,-0.29704988111603603,-107.04545261756486,0.0,-45.078439935956055,-1.061026896461832,-0.6163108505040225,-0.5982990718280936,34.28551186217887,17.546392865702316,4.619296918479458,2.7641604867642546,2.6680802878675625,2.53494993295625,1.810356777886078,1.105643033451097,0.7184887228603792,0.5912372689722559,0.43852802174742406,0.2716771399080486,0.04130569102591172,0.2994809448699377,0.07328635672196236,0.16598944357450915,0.49781298034220733,6.515243861542776,4.954046826089558,4.385356623798752,3.8688757311298207,3.3117308356510367,2.7794316053679147,2.081249554880097,1.701682934012081,1.2796942867624541,0.9597057612495838,0.8341617410958383,0.5384402331782743,0.3314325629294451,0.46239056864707506,0.28403014675483734
0.0,20.0,20.0,0.0,120.0,0.0,-0.15444321421133345,-0.13826316385780135,0.49760964181058376,-106.94678695805173,0.0,-44.99735035219949,-0.6379768337061058,-0.3194751837487697,-0.21829226421485637,34.28551186217887,17.546392865702316,4.62787633324153,3.0406593855447412,2.681020918740681,2.16419691416044,1.76080382187217,1.2581135649479098,1.15441953383954,0.5008191583735773,0.39089245951039964,0.11221181504518132,0.32449703080609377,0.109871842216019,0.2200527516446897,0.15913799244167676,0.4246611386939987,6.64391866389544,5.000514866344529,4.39129693612219,4.041837813513002,3.3148520622346376,2.6445581020268403,2.0452128114114827,1.7120870919044786,1.4438062447074782,1.032895821182516,0.9208281023655839,0.6834463480491487,0.48597687233746506,0.5440194042341459,0.12105558942969913
0.0,21.0,21.0,0.0,120.0,0.0,-0.08373497799399954,-0.5971662780994218,-0.2663552712046029,-106.94447396373845,0.0,-44.98557573833348,0.9294363305598351,0.03888101265542954,0.2589724009714549,34.28551186217887,17.546392865702316,4.492811670093828,2.950794431362898,2.2716267145874647,2.110551664099184,1.8209424178469127,1.241552503320528,0.867440948836739,0.5773367915340042,0.342365007599692,0.3154544756282383,0.18314370431759142,0.15931934587381344,0.597395651830471,-0.034838674041983805,0.1101826859718133,6.785015234295528,5.24189168012938,4.325187721701234,3.916468913401015,3.2913307088881663,2.8223754960288483,2.326029969111364,1.6432186817651375,1.2974033519354828,1.111618136008603,0.829106985141324,0.6781351955824793,0.46721884174313016,0.5588069400550206,0.2733411501209048
0.0,22.0,22.0,0.0,120.0,0.0,-0.9393781413438778,0.6884958337322649,-0.9838536878121669,-107.06945770696323,0.0,-45.08186090044127,-0.04098017371626958,0.43305358115865444,0.17251951446960567,34.28551186217887,17.546392865702316,4.550105433767367,2.883395742281963,2.647878308099389,2.283275099406676,1.6321407900613571,1.2824271300910484,1.0205278860757518,0.6845346299438687,0.5916893607186364,0.5196613307158933,0.13716798336009636,0.1499938996397491,0.13265658959249074,0.01776050001574686,-0.3182668203067702,6.683327325570408,4.947483263371605,4.487888273794573,3.994190847143585,3.4214314583298178,2.8454006200129656,2.1506899067985694,1.5820101273797689,1.392863049860245,0.8828224469940198,0.9943257900319054,0.6833649086083747,0.5360452854204222,0.44652845470594027,0.26297949615700256
0.0,23.0,23.0,0.0,120.0,0.0,0.2661482104585702,-0.7421481882642991,-0.7889634107155257,-106.92888472718428,0.0,-44.9410379539903,-0.8692357751182759,0.33360964554465533,0.8473156137600903,34.28551186217887,17.546392865702316,4.75461096929415,2.934072265040719,2.3338781646818134,2.168651023959843,2.1698796650829206,1.092977923334829,0.8982355607842666,0.8863049675822936,0.36722095147003103,0.5588648337903028,0.42824863995530793,0.18538107320207123,0.1068107069849787,0.2609520632289854,-0.06760859816196253,6.8863432254976145,5.224723276225683,4.6251470457547565,4.081300367476816,3.310034087619991,2.9069533491562405,2.2508916157820646,1.6307041531148962,1.3028468321902804,0.8770224408914737,0.7813449388344682,0.6298812847247732,0.5613979467659698,0.4974636735407696,0.1712990161558919
0.0,24.0,24.0,0.0,120.0,0.0,-0.09806883616637396,-0.05072515457669713,-0.429319259764412,-106.92027817003684,0.0,-45.06474791661731,-0.33979642400526555,0.6426891263367034,0.3639442607630945,34.28551186217887,17.546392865702316,4.364434684258843,2.597060351030269,2.6621816441474397,1.979402310545536,1.591615186166899,1.2946418218438644,0.9450306572165903,0.7763456524116688,0.07552794186916156,0.28389329330728696,0.020901182128951173,0.4689031399239181,0.2237168724186399,0.15629123799172412,0.4380375640981303,6.787967040184144,5.193574307024993,4.354103544035977,4.020844864115986,3.6766883228436265,2.9088621387472204,2.1991939328164425,1.6486932611316252,1.1674945424613863,1.0441186528826776,0.8636201136166737,0.6382290937396463,0.4260106599705422,0.41310265171273935,0.22865444597567136
0.0,25.0,25.0,0.0,120.0,0.0,-0.9664225649208675,-0.22972462481156652,-0.21366039362123002,-106.98158753676454,0.0,-45.03713474756118,-1.0276241576264749,-0.14720616843384104,0.12394310019518939,34.28551186217887,17.546392865702316,4.870578383193803,2.92265419033967,2.364336616429029,2.022125649832814,1.7765294376613183,1.0937510369443617,1.0711846164941214,0.6128494729999756,0.46514311032500766,0.2912276927471169,0.6197376257224507,0.141870958341565,0.27343296908730214,0.5151363861126148,0.13544500065269335,7.044526914314609,5.129023056201925,4.6321072544073285,3.961208428332263,3.342536491501131,2.7784263846717874,2.2882507023022387,1.781949135466281,1.2130593398660516,0.8670092231702096,0.5982612427071131,0.8074713562180909,0.49753056150158886,0.1878977591085223,0.28287343123256614
0.0,26.0,26.0,0.0,120.0,0.0,0.8784266838397707,0.6907701893987679,-0.2713505538564387,-107.13660497040382,0.0,-45.073892231776554,0.05281773395433487,0.8250585088916695,0.4231963344498644,34.28551186217887,17.546392865702316,4.611280662648755,2.762607178723101,2.760719525887426,2.0552957443723106,1.7281448052766946,1.2732147856378182,0.9692221735721761,0.8426698157770409,0.5562755764230574,0.23172021427222028,0.49518026624040545,0.4317766162070765,-0.12881193599335367,-0.10247736372756953,-0.044933648544943194,7.017860385239613,5.123526805694409,4.507560469359503,4.047399963809259,3.4597223584938908,2.882120209014167,2.200267030800747,1.6882820420100422,1.2970875161630542,1.1193010575438072,0.8789922158203206,0.6836297966561421,0.5092216915290481,0.13673302332305612,0.437170608218133
0.0,27.0,27.0,0.0,120.0,0.0,-0.6045991537946425,0.12324940613628255,0.6128554422844701,-106.95047640918781,0.0,-44.99693502213812,0.9598422201098887,-0.7816645517995493,0.32744697618023944,34.28551186217887,17.546392865702316,4.870352923558493,2.97174040093648,2.446924567850961,2.1899423492842236,1.742744822256609,1.2110652873932592,1.2326139987341587,0.5541329711029837,0.4948244948331396,0.09820904242736431,0.1736579951203465,0.34775708748272427,0.12683966165535335,-0.01444704963546449,-0.27686433489181345,6.802196996068386,5.1304498016149305,4.680334500746464,4.220874903877464,3.377747160857274,3.0008347982097825,2.2267656972751397,1.888851991435112,1.2852256511180176,1.0380907508866282,0.8925608659594827,0.43200308040727753,0.4785222045820243,0.5062926726772238,0.34090270693556435
0.0,28.0,28.0,0.0,120.0,0.0,-0.6608208108180431,-0.05009071100881202,-0.5568345276550106,-107.10156508892698,0.0,-45.04154022951937,0.1467250131731005,-0.6255933823911863,0.5349566384559239,34.28551186217887,17.546392865702316,5.085089390876167,2.969028644961148,2.787066795431315,2.3045227631058203,1.7578572151471596,1.1647421697964835,1.0159663927917073,1.012209362697059,0.6698343169897704,0.38906467461229294,0.1279196291725459,-0.08661064329279725,0.08140428288634266,-0.07265133070458375,-0.004588617263957713,6.9920429157303055,5.337701779383033,4.747472629934594,4.162380378762155,3.473942358341128,2.983604142388883,2.1672975046032183,1.8964312397766916,1.2273348500693895,1.1075663017922928,0.682141099470342,0.7802440247275935,0.4307104275135551,0.3449891969538279,0.333305623203607
0.0,29.0,29.0,0.0,120.0,0.0,0.5101880904115639,0.1923880858665057,-0.17937336873342402,-106.95376058013449,0.0,-44.85812132547157,0.2100276486959871,0.36743515057989695,0.1448526256966156,34.28551186217887,17.546392865702316,4.41126200005588,3.124120857306462,2.420961138567105,2.314423542240641,1.8531025883930319,1.396339650167633,1.202657245301096,0.7033885468968083,0.07155783254173392,0.17181643201517807,0.04337602075740907,0.26645769852125656,0.07723690853777403,-0.029458942991064635,-0.08501335555706932,6.828111336868836,5.272802768138268,4.753219594917436,4.133275606337943,3.506406780821109,2.9624302016583677,2.2352555381983956,1.7564871564222162,1.4736004165676582,1.0811413305456452,0.938301757758094,0.4986455283348638,0.6803856445397385,0.3015743666227449,0.20034490395684978
0.0,30.0,30.0,0.0,120.0,0.0,-0.3026736908841232,-0.5357177765478138,0.6284537882374592,-106.93660818077174,0.0,-45.0402246287495,-0.4212192930929851,-0.49245463987565263,0.6145815901097664,34.28551186217887,17.546392865702316,4.741911523304583,3.196810394353266,2.6629877915991553,2.194107685588418,2.1495623996706725,1.1531394946476157,0.7981598687681764,0.7204568381706261,0.4383554005973155,0.3096045877104153,0.6062041549365745,0.43636953393001365,0.2195702620463289,-0.05311170363195658,0.09724215310916019,6.669551582788526,5.154310713843703,4.765444625373132,4.052737939011666,3.5114576513973876,3.001513394484518,2.078489681406151,1.8341406827789866,1.3740239569867114,1.0330777206720194,0.8799687903447904,0.5084717254753581,0.41632084632437205,0.2685949392077449,0.19757559671229252
0.0,31.0,31.0,0.0,120.0,0.0,0.2230967609355088,0.0427670818221082,0.586874561068724,-106.94011199373254,0.0,-44.9883516361281,-0.5453497908761457,-0.6708189075931588,0.8001146098706884,34.28551186217887,17.546392865702316,4.5540740204792725,2.991825732194325,2.2847518172190706,2.0171295460677574,1.935162028341987,1.3172363408919872,0.9127875350831067,0.6119619130885554,0.5119050793747817,0.06961194107754262,0.35968913349494697,-0.2146378282915988,0.2808585178300164,0.14984428087550644,-0.3025222330266339,6.907298486199277,5.324626154551867,4.575868078601615,4.174164141704777,3.4386645490915626,3.088008504066596,2.4599962884763396,1.8244721079485255,1.10835793951876,0.9744723171340486,0.7022804260437735,0.4849640373583486,0.2937579577626961,0.25607031323806856,0.2036165097537197
0.0,32.0,32.0,0.0,120.0,0.0,-0.9880677183620579,-0.29992492349705757,-0.5895493875327136,-107.16346068286,0.0,-45.0175196724138,-0.03849063141099545,0.7729874898657143,0.39295365882913313,34.28551186217887,17.546392865702316,4.685983361257068,3.272278765966712,2.784429830732517,2.280867452373517,1.619666393630822,1.424680534854289,1.1238487643849568,0.8143150676579104,0.6264692363597509,-0.10358462500311078,-0.049984685956701774,0.07279051821029064,0.2374456840084988,0.21924560752595246,-0.05768740432801683,7.165774913548076,5.092240296453647,4.700894173988718,4.283114242331577,3.573800247907721,2.9210727781775345,2.5274210080389863,1.825632518302712,1.378869042410845,1.0928407537603955,0.6396381577877738,0.556081142218761,0.37947612895406524,0.2166879603175605,0.3382602483971639
0.0,33.0,33.0,0.0,120.0,0.0,-0.13713221280701582,-0.7821641300119337,-0.2718539754702156,-107.04550817673459,0.0,-44.94458383737938,0.8482940326253647,-0.8631983070356775,-0.28476028391623576,34.28551186217887,17.546392865702316,4.823696218172708,3.2245494616093446,2.70434808756656,2.519172550019163,1.353331088815511,1.3484454212897157,0.7582835918552637,0.7409645399073851,0.6750474427834899,0.1508772573254642,0.4606065454387183,0.2010497000801676,0.23415049421934492,0.21092392780107308,0.11683988112454519,6.8090365243683735,5.2503138996236025,4.761576286905846,4.1819506869576495,3.706622034755069,2.8032334333813655,2.4563981240133583,1.8413815888672505,1.343595889709482,0.9731648621402801,0.5066505314567598,0.5928129165344407,0.41140138526101644,0.5385609303985732,0.3017603389811931
0.0,34.0,34.0,0.0,120.0,0.0,-0.9503319767275042,0.5829971946270867,-0.6873737009142329,-106.95359384580063,0.0,-44.999755686205106,-0.9925939687867195,0.9829422148714242,-0.4400435287942839,34.28551186217887,17.546392865702316,4.77227856408404,2.9896423064328808,2.5456291148099512,2.107516805653257,2.18245879507319,1.2631118231213454,0.7540352518936557,0.8653490256266053,0.6166089974192305,0.28084019855421255,0.3570536938387612,0.1816906924103164,-0.12274091805156884,0.43251875165017106,-0.3336311871712117,6.896038975522634,5.530195893582517,5.0145126347751665,4.158365150808379,3.6691771522508785,2.955520608624661,2.5879414240781258,1.8909555801119486,1.3413688548579317,1.0359994631475529,0.5627529054207274,0.4076201004188006,0.42541653568685,0.4270699994034991,0.21023099627549868
0.0,35.0,35.0,0.0,120.0,0.0,-0.580876296031253,-0.2784091542778746,-0.8198000235952589,-107.00513399750727,0.0,-45.091360707710024,0.173524718538278,0.7251786227402139,0.2743713304238131,34.28551186217887,17.546392865702316,4.810069350364481,3.0231732302486862,3.058586470279515,2.45330671878667,2.090865594117968,1.7216673871834711,0.9893477888669823,0.6465954579587508,0.11344693936289874,0.22167084745953805,0.3085985757819464,0.3184566236077212,0.14167968568586606,0.04787634006654033,0.21615188034953445,7.002989022743968,5.3169735482659615,4.80496680012615,4.31598358888323,3.575747388570742,2.7917296392473183,2.5305148224884926,1.7800627532681432,1.469853297576391,1.0486020707004713,0.6895329139702518,0.6817216464674836,0.4544632985329062,0.27277125122813634,0.372799920053183
0.0,36.0,36.0,0.0,120.0,0.0,-0.6105651722975367,-0.44217757893829535,0.10838637248941163,-107.09530636706027,0.0,-44.98757025421692,-0.1256771121190574,0.7365154947046055,0.26285827654892424,34.28551186217887,17.546392865702316,4.543240659825053,2.7649319459128674,2.6864372452257963,2.490138631572808,1.943071688046127,1.3845518878441938,1.1629710291666138,0.5778234730853179,0.2636980562140168,0.20204523141799785,0.063748354656224,-0.04797412390645256,0.06332566302205886,0.2811967217625395,-0.009753635234186972,6.853523653366115,5.355253649803841,4.824337916198954,4.373567786619278,3.7997413365720845,3.281125056542881,2.41366739846176,1.938422435150182,1.3737049638539778,0.8964597570538774,0.6990300556187224,0.3080095808194994,0.3507679614747904,0.2901760499412138,0.19802620820803873
0.0,37.0,37.0,0.0,120.0,0.0,0.9418535184539629,-0.9988607651664587,-0.3610155152901702,-107.02738619071779,0.0,-44.97250156757191,0.1620729456305816,0.2574261250915495,-0.9521788722967417,34.28551186217887,17.546392865702316,4.624945004783538,3.3534307696969967,2.6764402466527484,2.177657099772578,1.8766717127361194,1.3833310013599178,1.210363878518915,0.7993734988295781,0.6667636453210762,0.1514216247392953,0.09716707202031562,0.09903913825676199,0.15442633995546023,0.3432918537095747,-0.3702292393015382,6.862581650071769,5.527119153271163,4.902341719741722,4.134694162121206,3.5993555926726284,2.9963512382363207,2.4325132725376983,1.8528945050368029,1.45864936961072,1.1306512669466786,0.7229683175737276,0.5036259957970974,0.33785316952961114,0.22856504960213103,0.20378764888965506
0.0,38.0,38.0,0.0,120.0,0.0,-0.39517382703017945,-0.9239910240370754,0.027378433052297924,-107.00033697867937,0.0,-45.079945956616584,0.677268581736131,-0.5502886403301119,0.4942187792555921,34.28551186217887,17.546392865702316,4.710477416463286,3.516743977626089,3.071151155010835,2.1539265782535333,1.5193814815445168,1.2922261703171243,0.7028472058341235,0.8819799017921588,0.6177245484870859,0.4382683058129466,0.32000505160585113,0.23969993620353452,0.31260868074273884,0.09286061664819314,0.11086299671228358,6.969291275633576,5.559874954673816,4.63482162385104,4.446881680944439,3.846137902431628,3.3253511397227005,2.3630884913332872,1.9323747646421368,1.3910500868721074,0.8561024895187089,0.8099583483944317,0.5383515325730672,0.4406360570357403,0.1213919814850985,0.11576112306731945
0.0,39.0,39.0,0.0,120.0,0.0,0.6785027718519636,-0.4963110574429417,0.17581979715614016,-107.1070053038774,0.0,-45.065174609115516,0.0024555968760249375,0.5961831094544385,-0.5562510263444991,34.28551186217887,17.546392865702316,4.6954234317209185,3.22148000467582,2.4237984518482625,2.2268409167880403,1.8780624661270922,1.3970811280925328,1.1143893202179818,0.6687077518290475,0.24469631687787102,0.28512111256463285,0.2511348839556554,0.054425282967458036,0.11091047784929876,0.5674181571338892,0.32143346002662443,6.969300622458173,5.3847135818044976,4.950041799010874,4.376051761323616,3.7586158522250575,3.2422613315791557,2.5263277343147434,1.9851582606260108,1.4325762938695672,1.256492375604003,0.5464037671957988,0.631876851528318,0.15160429385924434,0.36328518715613134,0.11256252690697156
0.0,40.0,40.0,0.0,120.0,0.0,-0.15848683700947697,-0.3409394214821664,0.21238453521852074,-106.89340085609457,0.0,-45.040975444204975,-0.665312587969234,-0.8923988696513869,-0.8910196757191273,34.28551186217887,17.546392865702316,4.847761024285931,3.68419453210492,2.914514751512834,2.5550345106310104,2.1471857626114463,1.4741015850653334,0.9385744436322778,0.7618076126282408,0.5592517255352056,0.3688869342548925,0.45410091217471904,-0.004986268416908482,0.25081888653863216,-0.16218615422718352,0.402088647827741,7.05569465693212,5.400626687377309,4.9316306632316245,4.336480601555546,3.5325237144370405,3.0543447877268806,2.6330864962652134,1.8173922376667913,1.4922044140277373,1.0800056618943912,0.7800063014385735,0.5101390271842513,0.2752938581947511,0.1806089876777799,0.20645409808086174
0.0,41.0,41.0,0.0,120.0,0.0,0.7242586607755146,0.3982552360561964,0.8815304133876778,-106.94930063357735,0.0,-44.98392786196871,-0.18754560398923428,0.16423068989569,-0.6936015848751778,34.28551186217887,17.546392865702316,5.079718798545208,3.519523282808261,2.6707975935686408,2.1562251225039675,1.9286430952138462,1.5631877828391971,1.2072637246117024,0.7126719368543131,0.4665730127350104,0.06786071023928356,0.47887321672142813,0.10101462759867451,0.26796742275985297,0.024161489241570806,0.12732638767680574,7.068617539030371,5.65140623336522,4.924741971727645,4.466199675570913,3.807113945172585,3.1660562655890927,2.6624816928639343,1.9949183638378878,1.3238227598742793,0.9995206282614967,0.6600045252636145,0.4959640401932492,0.2532502168531082,0.35778325164492325,0.21677245755825128
0.0,42.0,42.0,0.0,120.0,0.0,0.32557445884150593,-0.2630878753340027,-0.530701560599379,-106.99066494297794,0.0,-45.022300579534246,-0.6927318589928165,-0.12168072972359667,0.3135617769474528,34.28551186217887,17.546392865702316,4.617021820794485,3.280211991384907,3.338336869333455,2.8028864825616684,2.011927591289702,1.6880782168086614,1.3348635209748907,0.5032069109489846,0.6073110551763606,0.26889062890047377,0.19268259310854383,0.05415320638234994,-0.1588906394387964,0.06153852954060986,-0.2595128735226586,6.984234714013315,5.725434512221969,5.110101410675714,4.412442746856149,4.004601991402159,3.1534079215442863,2.475025587763808,2.1884426011211637,1.511507463028278,1.0792529995726858,0.7768142315575283,0.5314799378116477,0.2852353156279841,0.2038522993113116,0.2277566707712601
0.0,43.0,43.0,0.0,120.0,0.0,-0.9858151509919888,0.5930497758281561,0.7961705864599229,-107.04596598009442,0.0,-45.14076542865362,-0.9246180825061162,0.5008136639595255,0.04610937619751887,34.28551186217887,17.546392865702316,4.954092290533029,3.584778262459701,2.8878022562091563,2.788989671221879,1.7290784756460795,1.8589963683201256,1.3441553156569266,0.8093213067406096,0.5464472088316747,0.2641015215805215,0.04411570857446237,0.03812441251361337,0.14754189037039625,0.4400800576836856,0.189362014285046,6.898401370300172,5.503256591179542,5.156878781998235,4.50135342150811,3.7697807580343095,3.1363602145648484,2.4623639143925233,2.1489974582256117,1.4504884785059344,1.0213165355104947,0.6645540788550609,0.4243267965506584,0.21003486811406077,0.28926332776178737,0.310149644691771
0.0,44.0,44.0,0.0,120.0,0.0,-0.7767995497222364,0.17433242908068847,-0.8973826763337724,-107.01956040795832,0.0,-45.04751721905048,-0.21240878929368873,-0.952463735607799,0.6938754832597747,34.28551186217887,17.546392865702316,4.807356033139127,3.5044170595672135,3.145229529974968,2.6208882287144903,1.84090008669194,1.4667731828073511,1.1301291193770913,1.0543757791973798,0.7132381292182285,0.2888291850498229,-0.14075554248051503,0.10313817890162746,-0.07011620971294925,0.21072926983721885,-0.11540843485375793,7.00971124391483,5.657449133316079,5.068479458814252,4.427431482225974,4.06769488559558,3.1450841374516894,2.2878720263320504,1.8193823963843032,1.4846260366315398,1.021253949784607,0.5453870900005169,0.3076155510573908,0.34212478590877066,0.38585367206371773,0.22958622054117217
0.0,45.0,45.0,0.0,120.0,0.0,-0.9373099862931475,-0.2988658938322071,-0.9392343217752319,-107.04083851339658,0.0,-44.9290527542492,0.31411299909866064,-0.22642899250652082,-0.7874945000180191,34.28551186217887,17.546392865702316,4.728987106879396,3.546570709328142,2.799813341791014,2.0673618380994796,2.056779737232202,1.578975375292266,1.276914410319156,0.8924716117358978,0.49503669545958623,0.4424708225722518,0.04147980094472464,-0.1299308089832678,-0.23513647449597558,-0.06828135874491265,0.13958149596855365,7.216044065958161,5.579707626420673,5.158383742016623,4.621587084802572,4.022489365761945,3.316384182319408,2.5172780491418765,1.990895868944402,1.372681300466037,0.9202048175706216,0.834166857514824,0.5348942453392763,0.33968177325001614,0.1693097475020081,0.1387935057857557
0.0,46.0,46.0,0.0,120.0,0.0,-0.8191098907992607,-0.6852051024860517,-0.7824638605073357,-107.0619516085622,0.0,-44.96045743060834,-0.4781412547879247,-0.0458111969450119,0.659033281116882,34.28551186217887,17.546392865702316,4.901974653950757,3.6591526929389424,3.0946797449173395,2.507253782546909,2.1692965135604303,1.4300872129868694,1.4443567468244929,0.8699591242378764,0.09922376103516772,0.21006326519107965,0.12649722815465397,0.4089531528766311,0.06616166916087557,0.0505172759288078,0.2035028468426539,7.273520411948398,5.469017339685251,5.2061714023257775,4.434032265503861,3.9407354567201196,3.2617132234699406,2.722826361203805,2.3047475447138925,1.3306491588435478,1.0866025505157864,0.8171909094018295,0.45592342190325097,0.27596107409199727,0.4060715954395404,0.15184587638660185
0.0,47.0,47.0,0.0,120.0,0.0,-0.5593718603117608,-0.9972611813188277,0.287378294169057,-106.99068960120634,0.0,-44.95913355087629,0.8505661398544467,-0.6952815490448891,0.30183579993976517,34.28551186217887,17.546392865702316,4.850585426538171,3.5306315386937364,2.909251774484372,2.646336189693603,1.8229053705583649,1.4304168650765798,1.0568167710194265,0.9042206224361653,0.6234436018805907,0.5621972622001623,0.1325937611585591,0.17480345841001665,0.2901514459719255,0.06069755326292098,0.17699621741985697,7.008267011499062,5.838660359485112,5.194654155539569,4.554838797423417,3.851769117701322,3.314536145710421,2.7017814684453088,2.0510861524291037,1.4829522218835418,1.1461406587426972,0.8027666387618596,0.39470256580282953,0.31351279822050443,0.2086367164709549,0.1931259910688588
0.0,48.0,48.0,0.0,120.0,0.0,0.5711653756283495,-0.2337714496686738,0.060587034916810945,-106.93104227494405,0.0,-45.003504281126055,0.49180213086195357,-0.17055962643310307,-0.5701409121997709,34.28551186217887,17.546392865702316,4.9343107658450895,3.6720857404619807,2.8311952422067987,2.6032550476900473,2.5859452371467815,1.2259402074572139,1.1111020221542276,0.5708056657734972,0.542763131844898,0.4816604553930985,0.24074133687732638,0.3611201165880117,0.1682279850388839,0.2736199360212789,0.05557277550677166,7.045217979339943,5.812213555718552,5.215432276142193,4.656864305535516,4.091743220363685,3.2608242504458445,2.675146965269421,1.9639108893368533,1.5847998491387458,0.9895419450212316,0.7364808172029987,0.3617360711930995,0.3245760933613748,0.2723195311882127,0.2736934308000478
0.0,49.0,49.0,0.0,120.0,0.0,0.46736126170019254,-0.18655938614508738,-0.6757536337858225,-107.01187804991133,0.0,-44.864187755013816,0.33478829695278883,0.8209553721226466,0.47381123134411274,34.28551186217887,17.546392865702316,5.051302264364981,3.6957654639234323,3.014068273908226,2.560708405443606,1.9816484234764895,1.6321059656353378,1.2410126329623266,0.8832309376404985,0.5945194836875478,0.5422432673018857,0.14646773482438594,0.40506153339411266,0.11223554441458874,-0.07985422155674046,0.08868276579439598,7.176885618293218,5.79728598767094,5.334679352827075,4.594372847853522,3.9173718582573724,3.3784194778829755,2.6124077139485204,2.0636309947605715,1.5859317886228586,0.9300019691776729,0.794265172600325,0.5128110029243288,0.3452356232535722,0.10813025483731903,0.07854030699990078
0.0,50.0,50.0,0.0,120.0,0.0,-0.5105728876537661,-0.27221751283184603,-0.7041901051574693,-107.02576649254148,0.0,-45.00429567355869,0.4976723293582769,-0.06273155160995603,0.4826665758417774,34.28551186217887,17.546392865702316,4.835788997558011,3.506641101439219,3.0897630722428793,2.829055596239634,2.1778759270546098,1.5195934200491843,1.046625580149263,1.0322974263477862,0.5894137877807153,0.4973741230744919,0.04439874700511656,0.1536975188870529,-0.05376487864950173,0.020056887253388528,-0.07601938495056182,7.186025510236655,5.809084288832753,5.100173310211894,4.558616252996732,4.094564949395251,3.3908857734618834,2.612433465232631,2.010750400513807,1.5637140717563478,1.1876509798025459,0.7874362835047912,0.4498126941141397,0.32883105409617885,0.1423950593199675,0.20816293192905172
0.0,51.0,51.0,0.0,120.0,0.0,-0.21915411689325737,0.6048080894275025,0.05885861684661675,-106.98883623757338,0.0,-45.014457456259066,-0.8940192342533625,-0.4964476447666668,-0.783996831035235,34.28551186217887,17.546392865702316,5.090253013368647,3.586672291423893,3.009133006570218,2.6202854637926998,2.205367749336134,1.6835702491879945,1.4171495133407335,0.7590634840470454,0.5452385448431655,0.46776286005565,0.16025683558307605,0.24530800364698033,0.16388278526005876,0.15233858889265725,-0.08132912246698404,7.422978547636265,5.6918702261220835,5.268828795671244,4.822139709064428,3.9468509520834063,3.5219436282921586,2.617048025035336,1.9283164247861366,1.6522191306374845,1.0235141178943112,0.6282431169133799,0.5959040377772848,0.20026558340161382,0.18247476812507143,0.1811943254877407
0.0,52.0,52.0,0.0,120.0,0.0,0.7189758703164988,-0.8088894387327801,0.9180117975285285,-106.95114492793894,0.0,-45.029521636318364,0.5431826768361009,0.06467012206335232,-0.46710637795798116,34.28551186217887,17.546392865702316,4.900127319890129,3.5665230818771025,3.424347707695862,2.982630283315739,2.3505274023710268,1.4986204552880384,1.164135187419394,0.8088562485726486,0.5345999678112933,0.34265348507224475,0.21791250410296692,0.14856496622046844,0.23988518428135444,0.2441777359515686,0.38626568405377043,7.050369949156064,5.962885714441075,5.141611005650792,4.638672035355916,4.264639719238162,3.400467430745149,2.6747718248142878,2.0715601025820467,1.5941161683061034,1.1474378991215946,0.6173185904415591,0.49363061264293545,0.2394612034735562,0.18643172642582656,0.10123587312376742
0.0,53.0,53.0,0.0,120.0,0.0,-0.8553576814784281,-0.7701955516411239,-0.6345399881251284,-107.03279002516035,0.0,-45.024917990660725,0.8429385677255985,-0.8783151308322443,0.2777298078536645,34.28551186217887,17.546392865702316,5.345935767367096,3.6124088544964224,2.9067351830231276,2.694153039223563,2.2591836739941207,1.8667042969449337,1.139927807976242,0.7443921878867125,0.6904249155964002,0.12173371868501265,0.33918905261845866,0.16879060275488206,0.1577165430501792,0.14392994704826262,-0.1265519593460598,7.289740045609363,5.793216932553445,5.4712908767336295,4.706708193559341,4.255407182945448,3.4680562787637013,2.640742521231064,1.997594171978922,1.46001589458436,1.0350717930682554,0.7586362260343805,0.2816313302543465,0.22400236873295648,0.1931371289688465,0.29679292752737685
0.0,54.0,54.0,0.0,120.0,0.0,0.12963151739047496,-0.533073382862713,-0.48174097954980466,-107.08631854361926,0.0,-44.951107461900136,-0.9570207619995151,-0.4114629144726514,-0.23885067396833737,34.28551186217887,17.546392865702316,5.018713165664828,3.680944893411953,2.864414050016151,2.656946110552423,1.9489495084240434,1.785319446087256,1.5728563716735469,0.9159000041811132,0.33914508408731336,0.4395391820739582,0.04033653772655102,0.052961940589132214,0.08862446086582262,0.25713100396173305,0.04639890665763978,7.360142621684809,5.9662170699590575,5.449794269586682,4.788515725558772,4.278945694935135,3.3063775692394706,2.681618692701409,2.001832132099092,1.4890493579932902,0.997790687984974,0.7690862139705943,0.40882772661968203,0.30781408067357524,0.17265468875507956,0.0923365010893822
0.0,55.0,55.0,0.0,120.0,0.0,-0.7699438735483186,0.02746540684537524,-0.7588334152973777,-106.94090773852874,0.0,-45.130250003702855,0.2774261323422582,0.5672734833806767,0.5304898920496022,34.28551186217887,17.546392865702316,5.112180945575859,3.4904473605766806,2.996394802177323,2.3876295972791697,2.0370500376492267,1.644148939312706,1.4022024123043348,0.671072848192072,0.8108902356098313,0.3072170965183311,0.26546505841634105,0.13699961898021568,0.16270346162482885,0.35653397674711373,0.2716188566104565,7.185207601013693,5.940956337608189,5.458916842866583,4.708635198421161,4.212244038835655,3.4703680406699378,2.673356260750435,2.158318119381791,1.6585180429543702,1.0075057123563933,0.8746496069184115,0.48998564148516127,0.29772976427187847,0.25299833152645856,-0.07405947897870707
0.0,56.0,56.0,0.0,120.0,0.0,0.9881094529294863,0.4518028011833011,0.1892036873430485,-107.08510569249661,0.0,-45.074076134209136,0.4262189756652241,0.2838285004925052,0.07208488161525106,34.28551186217887,17.546392865702316,5.268889411337761,3.8197482681678845,3.1411249391667626,2.780258258843514,2.256068249193552,1.4793510191176904,1.2213471483639096,0.5437383507698451,0.8548969938094286,0.31340816492437773,0.13869677533098412,-0.13439755617699595,0.0005461782799944803,0.0242586750306014,0.07438138347473183,7.134713414738231,5.979346949800739,5.526569949582596,4.893441241531844,4.2105745154195775,3.569804115279707,2.7509747112638054,2.05718883740434,1.5205332478782987,1.1694417939764625,0.8127101433434734,0.4694706487883516,0.2189430803363716,0.19931600064769014,0.2373841732252922
0.0,57.0,57.0,0.0,120.0,0.0,-0.11670769524699032,0.8073274812037796,0.8535385797185342,-106.96656327303417,0.0,-44.91245139715748,-0.5131298743665694,-0.9520302968245795,0.7139941496615356,34.28551186217887,17.546392865702316,5.28113490297213,3.6044025347397572,3.296954575318678,2.7110839601795726,2.1262810413762425,1.2041602509357743,1.0349551373932722,1.0739727993510746,0.5294956055145027,0.3575369746583326,0.17563993895124624,0.17713798232149508,0.17101543237679476,0.1379665795524803,0.22971841213099073,7.409508184630432,6.257712888348861,5.646223753349176,4.8870706902093906,4.086143499471651,3.3964332602758835,2.705885334496035,2.1667578917418258,1.4616806308042833,1.107755075752981,0.8467796677401269,0.526190712500334,0.28787093076291087,0.20747992440986862,0.053329269834564444
0.0,58.0,58.0,0.0,120.0,0.0,0.8305425699085776,-0.46581032949954015,-0.523969717205697,-107.00599745608798,0.0,-45.04848522097066,0.575214817390236,0.13975199741036182,-0.7779479691841735,34.28551186217887,17.546392865702316,5.237958343678953,3.8759563022870522,3.005938854937857,2.800062053361685,2.2600643435140113,1.6584594706491533,1.076592055500071,0.7873474969642653,0.45024013802759866,0.11150515997330684,0.4077830436067025,0.3653968966719956,0.024229011879987196,0.12710851391268438,-0.24019997254938677,7.283550724391713,6.081298632224204,5.396683149774117,5.110883179430534,4.310723858795314,3.5530954756643838,2.64316325623866,2.080296273955448,1.570051649335022,1.0922545318749468,0.6497809289540388,0.43817995610299076,0.288811805376488,0.044452923247443044,0.19337077839803116
0.0,59.0,59.0,0.0,120.0,0.0,-0.6940345753496511,-0.7444012966342648,-0.0551574736373317,-107.05602543022451,0.0,-45.070473850884284,0.3377350606836649,-0.565319839113116,0.46749354492480033,34.28551186217887,17.546392865702316,5.143472405624291,3.8175680552139637,3.157445091843744,2.7829453061530214,2.213636775853201,1.499595422288981,1.3303761544202362,0.630369634957813,0.7718236621837025,0.2434668665576349,0.061681800686570476,-0.24350311393495055,-0.08229747333565182,0.34985165232961374,0.14100978073036463,7.347297736584629,6.124079962403911,5.6069141665879885,4.910375725651948,4.364652542958287,3.5057628117967696,2.7285785681001604,2.1858815153249105,1.5874403139843276,0.9749997857457808,0.7810873185962756,0.45737483867550077,0.42212001728526377,0.1397357495583666,0.13542432108512456
0.0,60.0,60.0,0.0,120.0,0.0,0.9806123466953782,0.018428999113135225,0.8152291171227191,-106.91330116026413,0.0,-45.01045302576418,-0.5143950719868098,0.9514996316571547,-0.07072005986206475,34.28551186217887,17.546392865702316,4.990276136817868,3.994981043196475,3.322524866459417,2.809440581863023,2.1742507743265334,1.5652415507724946,1.2991078383554562,0.8073979723585348,0.5851127608376714,0.3528730010001218,0.2784825178227026,0.12174796645287346,0.02899483673630386,-0.187229722627041,0.009592521357011486,7.613194756035591,6.223549148949899,5.503273716612768,4.982577295038501,4.4029641104893384,3.583310293672881,2.882913679808941,2.114841414494223,1.7163583185225568,1.19834807164078,0.6821778974223207,0.41726884183373647,0.2240243582386786,0.33006943001700123,0.015342500951111865
0.0,61.0,61.0,0.0,120.0,0.0,-0.881392132604446,-0.4008151792214143,0.4165662811494202,-106.937662933658,0.0,-45.04676866006737,0.819463175582427,0.5673739913869067,0.03878191164927247,34.28551186217887,17.546392865702316,4.988136268856192,3.705194738827524,3.0188187337332755,2.447328218461582,1.981289935959512,1.702576128965529,1.7177493164424709,0.6986146827203628,0.6370161048143327,0.4410854921225139,0.09669618359427808,0.042856432976633566,0.028712487733637902,0.07154616890849194,0.086607287006144,7.2240354659588855,6.322850085876214,5.857507296859973,4.970781442084642,4.365073237067053,3.6409403103747375,2.821803861083168,2.28255921454591,1.6834916337250905,1.2712841441766987,0.7669255894822175,0.7476489941729859,0.3083825876160076,0.18501655444046486,0.14651963026799256
0.0,62.0,62.0,0.0,120.0,0.0,-0.8821553553005672,0.9689840777089092,0.05657332692901429,-106.96397077266317,0.0,-44.98169557942131,-0.48620108877424456,-0.7441838015445907,-0.43190887575565085,34.28551186217887,17.546392865702316,5.253731054170184,3.9784565618817536,3.4012725002962925,2.8106840014389167,2.096087599879427,1.7790901618666028,1.172084416964661,0.8084280686825498,0.342056159797015,0.36627322995347206,0.27482857675037664,-0.01199191833754025,0.08909123083160386,-0.020685055668033366,-0.0046391932520141385,7.389073518731214,6.143963734233297,5.480387154941975,5.054347953868955,4.184632919130037,3.619468476921786,2.9736178147439354,2.132719338997555,1.753038990409235,1.0905585674931038,0.7271719896138749,0.4682449282996262,0.33134677359312387,0.22935612296423358,0.2255749594117702
0.0,63.0,63.0,0.0,120.0,0.0,0.646474271915976,-0.9203149752634396,0.27861353608998174,-106.97249994759464,0.0,-45.07477073967945,0.2879823528743996,-0.22890864463801064,-0.4618736926347762,34.28551186217887,17.546392865702316,5.2072020590295045,4.360372556827275,3.3588252621178487,2.499366294414859,2.3487136525742325,1.7887243251269414,1.8536176789252823,0.7756228396716053,0.7270360584574311,0.4194348898248791,-0.011368825336119909,0.04584773437373349,-0.11464635453719263,0.17700263963210866,-0.4308591099455396,7.374155162087554,6.175218367145339,5.501648507197182,5.045420900162861,4.314449644352406,3.7831031998984197,2.78538152447511,2.264836255475111,1.589709762969513,1.058219641525281,0.7755065828870277,0.46582306747780633,0.4479870239503565,0.08913771323601206,0.18063361318754118
0.0,64.0,64.0,0.0,120.0,0.0,0.5531844830508543,-0.6182099377721852,0.46167914046864156,-106.9702831184699,0.0,-44.9063061762068,-0.003910513430210684,-0.02006073699065891,-0.6203923692232343,34.28551186217887,17.546392865702316,5.485307834182517,4.221848710448445,3.710631977972341,2.8369999494547464,2.1843924708328286,1.918240133442326,1.175010797339698,0.5728938974942884,0.8805575414066923,0.2585311546479855,0.4390172001201933,0.024716917144139233,0.2241617902469028,-0.03485434062243909,0.23862586836741528,7.649957071154348,6.5986410270562965,5.751599851143116,4.902535081682286,4.176465509415405,3.741868669466513,2.9562973400799226,2.1959834816111896,1.8016949100707642,0.9869542893395465,0.7340427771334389,0.4537723203851611,0.25613640511799485,0.20862562242469254,0.19265165834731962
0.0,65.0,65.0,0.0,120.0,0.0,-0.5041264219211712,0.5071175055273323,0.4569569041687329,-107.0614735834859,0.0,-45.08193313792404,0.4099395273065492,-0.6352565724155501,-0.2533086348824516,34.28551186217887,17.546392865702316,5.448075556017943,4.208198869308702,3.4645805571926784,2.7319289993844076,2.4503824072932123,1.9415351789506223,1.216838655997044,0.6371129812573075,0.6808401879188952,0.40544277584473437,0.20237960081542644,0.25673862365814926,0.3698884538141735,-0.13550476980541937,0.5746913381371136,7.532678268153186,6.539227279010063,5.688541124468387,5.091811328282242,4.411880329172929,3.5018251218416956,2.984454147730196,2.176716002996119,1.7060876428966691,1.202519225601035,0.8216785980751116,0.3796405668480213,0.26220990297438673,0.16109078543363808,0.21805192000486137
0.0,66.0,66.0,0.0,120.0,0.0,-0.5063081589856251,-0.22724485144031337,-0.030045783305066243,-107.03512460698954,0.0,-45.00524666156531,-0.8173467290754618,0.4085677069276463,-0.5220243100150062,34.28551186217887,17.546392865702316,5.393807234834325,3.9001928001591297,3.5024996521713083,2.741453189616894,2.5824914908550545,1.6368124738847774,1.2367665547298494,0.7662749526300459,0.7560381023971687,0.2055583695136653,0.19838116473388043,0.29008457203762017,0.2978695313497647,0.08470127296931804,0.08298434344633387,7.6442736773397115,6.3319429743033195,5.744440948977125,5.207375192456121,4.306695056493512,3.758870534414705,3.26507053823335,2.2441826373545046,1.5934480596625287,1.1691907090206874,0.7586570789082232,0.5575650759147548,0.20921978729489285,0.13646199207194365,0.13898961574482968
0.0,67.0,67.0,0.0,120.0,0.0,-0.05468983994770049,0.12447631898489897,-0.4370480123939191,-107.10256270121434,0.0,-44.99651119899235,0.9328157608491553,0.6827575205376284,-0.620543847402715,34.28551186217887,17.546392865702316,5.456282906589224,4.15972495767035,3.1688311633201454,3.1549909885337564,2.728643323576611,1.8937029728767212,1.0671528860573976,0.8618307536597194,0.3410365582524574,0.2909893746966623,0.23616771402562065,0.34813644586831405,-0.1239048192653569,-0.011770936091981765,0.4963539973655349,7.685558945414816,6.55406164545305,5.90814844246336,5.164127299513676,4.423295252359794,3.611356991713404,2.9278943834792193,2.244278548317643,1.6620910890862466,1.274389384842625,0.4985371903683698,0.37995332488275163,0.29665199358672406,0.21860259556723424,0.09708715593268624
0.0,68.0,68.0,0.0,120.0,0.0,0.8872050783604002,0.6309036208695726,-0.5876508142053687,-106.98173232893485,0.0,-44.984600501477246,-0.6041280878830455,-0.991070809220872,0.9235918252119826,34.28551186217887,17.546392865702316,5.286483038673671,4.3523655573818845,3.638489090018308,3.028035577874214,2.3086129953806,1.97998198231029,0.7558701682749258,0.9420944475573624,0.7231708546287938,0.48844253707758767,0.08002449924482836,-0.1278505235024191,-0.028163164180088032,0.04884802445945113,-0.13091098749249894,7.716101857571351,6.4122868599903,5.858397529672606,5.046320585315014,4.44936024970104,3.615028789837152,3.1438751912917984,2.344970790057064,1.6364753879513052,1.1533405852237903,0.9505656610237811,0.5483293725421043,0.2648311454859288,0.10058100233315517,-0.08464649372036381
0.0,69.0,69.0,0.0,120.0,0.0,0.25177305059497646,0.3337264081975635,0.83722775533928,-106.91043094430825,0.0,-45.003787910130384,-0.6499929179168561,-0.7335532237302513,-0.10517143503468218,34.28551186217887,17.546392865702316,5.577789614034534,4.107568158275357,3.9730249984072032,3.14155590970347,2.361770437477231,1.8347529180110786,1.3036572567750058,0.7420756787864466,0.537775406359302,0.5628616289055692,0.11624461884484065,-0.14887016589283214,-0.1813875129972336,0.025259437811522602,0.013833365861517104,7.638430172507179,6.3137662309940685,5.881366072835158,5.21544021770325,4.6212846906967915,3.816254404482663,2.8825644249998508,2.169868493980209,1.8439277071959208,1.189961515588425,0.765532522436434,0.435685796781234,0.26047960334498516,0.19410258403866612,0.24859656150571155
0.0,70.0,70.0,0.0,120.0,0.0,0.6650593148449,0.2071020404820787,-0.8835066073449545,-107.0239819563414,0.0,-45.00036120933686,0.1271697491060667,-0.4330743216912898,0.3562446652262439,34.28551186217887,17.546392865702316,5.836974183164166,4.16110633349001,4.066695376286812,2.9325021176163086,2.6092781943263645,1.8180114126506322,1.4915222389507938,0.9313768877191048,0.6317695625561887,0.4266900798611145,0.5572665491414659,0.22001199267467414,0.12077494284396223,0.11105393775865505,-0.032012585595903094,7.839019180973281,6.562530229744088,5.858476464096853,5.101657393269417,4.448848730710422,3.866627695080786,2.9852573687316415,2.3480337340233675,1.6622187339580405,1.0293322305495896,0.7711481232365415,0.34398673559962584,0.3555891697644575,0.4067024256827616,0.15655882579721084
0.0,71.0,71.0,0.0,120.0,0.0,0.7342068432875362,0.36364727714977785,-0.32585371915994554,-106.98515671297992,0.0,-45.00437514785938,-0.3725659718871337,0.9682204553095659,-0.25170368298464174,34.28551186217887,17.546392865702316,5.807641047632122,4.3229138613997335,3.40564864447342,3.1760552654721246,2.3180320044793965,1.5824103638942273,1.392554349527614,0.9450987045056766,0.39952390026834983,0.3588366637336268,-0.04504570736896704,0.5091005351139645,0.07638786890057285,-0.06785876881641884,0.011932883205778321,7.825700102851713,6.626184732318558,5.79510822253086,5.344086597545145,4.5533691393171365,3.9753946903428794,3.0263986111366683,2.281136268763728,1.6595843914125246,1.1107152865304852,0.6574386263870658,0.37979697519642375,0.34458053260927707,0.14952538378523755,-0.02998546662624177
0.0,72.0,72.0,0.0,120.0,0.0,-0.7311012147333302,-0.871510686120176,0.38010027552461434,-107.03329719791193,0.0,-44.9183947801269,-0.08171840620378978,-0.19094424299966883,0.13958748761277473,34.28551186217887,17.546392865702316,5.335203640236933,4.331034322019929,4.000921406556426,3.376465241054681,2.2374801070894765,1.8147044548176936,1.2285419817927368,0.8676854638085215,0.6944848435778862,0.32681832992204674,0.22652017290348042,-0.12304958133658721,-0.0358491495108961,0.19507836774530674,0.09153245331084793,7.958654291625488,6.520531344770522,5.920867345819578,5.40994818867818,4.454309134648802,3.686692331886046,2.9259520396175276,2.4530535826708335,1.6337428274997114,1.225957344731124,0.9035780283375392,0.34365527366269427,0.3297828311326494,0.20239635473013598,0.20482089356774624
0.0,73.0,73.0,0.0,120.0,0.0,0.1576170623443618,-0.8044014665642516,0.20013805460744916,-107.0294487401777,0.0,-45.007837422225734,-1.0040698705468476,-0.6594960740474938,-0.0015957819327347966,34.28551186217887,17.546392865702316,5.905161878467323,3.932116048416602,3.7945325728163524,2.809663803509496,3.0267303788870668,1.7792779825696967,1.144727397695903,0.6200761871570822,0.5981064744015842,0.14473942209675325,0.3242064984575186,0.09247549384993198,0.110633016771407,-0.1325920331114135,0.13627861331984634,7.844872089409864,6.70675287107589,5.77684751857463,5.331481793160367,4.5578580581914245,3.9465415276333977,2.9581268658145046,2.3435822797382198,1.6594111330150287,1.279072709416185,0.8067027809123224,0.3328226569632219,0.4330154029417017,0.377488227418581,0.16997697862459954
