Line_number,Fiducial,Easting,Northing,Height,Elevation,tx_pitch,tx_roll,tx_yaw,txrx_dx,txrx_dy,txrx_dz,rx_pitch,rx_roll,rx_yaw,PX,PZ,S0X_time_1.086e-05,S0X_time_3.256e-05,S0X_time_5.426e-05,S0X_time_8.680e-05,S0X_time_1.411e-04,S0X_time_2.279e-04,S0X_time_3.689e-04,S0X_time_5.860e-04,S0X_time_9.115e-04,S0X_time_1.411e-03,S0X_time_2.192e-03,S0X_time_3.418e-03,S0X_time_5.339e-03,S0X_time_8.301e-03,S0X_time_1.338e-02,S0Z_time_1.086e-05,S0Z_time_3.256e-05,S0Z_time_5.426e-05,S0Z_time_8.680e-05,S0Z_time_1.411e-04,S0Z_time_2.279e-04,S0Z_time_3.689e-04,S0Z_time_5.860e-04,S0Z_time_9.115e-04,S0Z_time_1.411e-03,S0Z_time_2.192e-03,S0Z_time_3.418e-03,S0Z_time_5.339e-03,S0Z_time_8.301e-03,S0Z_time_1.338e-02
0.0,0.0,0.0,0.0,120.0,0.0,0.0976270078546495,0.38506318015553176,-0.4447425874105362,-107.0,0.0,-45.0,-0.7422788690673596,0.3991501204495027,0.9959245026573469,34.27502789733331,17.548303877028573,4.555436537742499,2.6623650990198393,2.1787987969631786,1.7950966153058032,1.3919018839974575,1.0001851866795706,0.6533617815423138,0.393383329679103,0.22346532546023118,0.11921562217481424,0.0596704329177973,0.028259570402149183,0.012772779442782906,0.0055557397421570915,0.0020843001173600642,6.924159420964535,4.906143227476805,4.269219823458677,3.738669697737431,3.146454898515974,2.511411557635121,1.8712426270891394,1.3105261575688312,0.875010651298667,0.5542262047633019,0.33233203522674803,0.1896246604121184,0.10360649496996817,0.054731057946581035,0.026486311950759872
0.0,1.0,1.0,0.0,120.0,0.0,0.43037873274483895,0.45050855963928105,0.17356869291633759,-107.0,0.0,-45.0,-0.2146486469058113,0.9359311332084541,-0.2756218821212213,34.27502789733331,17.548303877028573,4.5583927839588325,2.6750447886471034,2.1960256551566553,1.8208409380687032,1.4280006605358526,1.0402842348021288,0.688569666240502,0.41853281887938454,0.23876137654358165,0.1272886294153814,0.06342179317385334,0.02983126616490768,0.01338101744188657,0.005777941692416624,0.0021538080514668457,6.926456833649267,4.920053512146027,4.290096042688796,3.772279979688856,3.1988106406938273,2.577671512630212,1.9391451315039314,1.3681723241508672,0.9170954351707843,0.5811678755730545,0.34766066184193617,0.19752583213837052,0.1073710832866635,0.05642398580858616,0.027162954296784947
0.0,2.0,2.0,0.0,120.0,0.0,0.20552675214328775,0.002648763853404512,0.7277112118464628,-107.0,0.0,-45.0,0.9128114455918976,0.9888015792953588,-0.05870210157218092,34.27502789733331,17.548303877028573,4.561478510654688,2.6877188879871237,2.211350076151978,1.8413980179516962,1.4572513610604252,1.0747502129744124,0.7206248196516678,0.44256030406779423,0.2539252908118397,0.13550686273707982,0.0673044133640498,0.031470753507960345,0.014016464677975984,0.006009594322193305,0.002226188767931579,6.928860844402846,4.933983201024026,4.308868233096814,3.7992028023996154,3.2408706527911577,2.6338068078043038,1.9998276399800736,1.4220645003858832,0.9578578162108801,0.6079648336043313,0.36318427184467394,0.20561070371579715,0.11124033087630733,0.058165083572863895,0.027858125685386814
0.0,3.0,3.0,0.0,120.0,0.0,0.08976636599379373,0.9121672694464478,-0.7649362880759338,-107.0,0.0,-45.0,-0.6257382164983105,-0.09635663466048072,-0.24350965015307646,34.27502789733331,17.548303877028573,4.56469907850879,2.7005622836605268,2.225861808814586,1.8586419571940447,1.4811626293849844,1.1042619295944573,0.7495901111613701,0.4653049619594116,0.26881799263229667,0.1438043088625879,0.07129744397776724,0.03317350908004525,0.014678512331632617,0.00625069891125732,0.0023014682265848087,6.931376244069538,4.948099644832542,4.326763953228581,3.8219369471667863,3.275085184186232,2.681317377213382,2.05380079396057,1.472118183015864,0.9970600820981721,0.6344436321581186,0.3788221019222047,0.21385178608025873,0.11520693415453351,0.059952800304416576,0.028571594980595343
0.0,4.0,4.0,0.0,120.0,0.0,-0.15269040132219058,0.2879803984592748,0.03475821430822834,-107.0,0.0,-45.0,0.807967909856474,-0.8582604436315833,0.9590538586709172,34.27502789733331,17.548303877028573,4.5680598392345875,2.713629787012724,2.2401125115831957,1.873881979151983,1.501024436665569,1.1294996464078806,0.7756131474228758,0.48667283842990944,0.2833263257340241,0.15211925610990862,0.07537925376161128,0.034934333071430075,0.015366330998508917,0.006501206802780054,0.002379664337206134,6.934007833047946,4.962453928175198,4.344387393970384,3.8421782710189687,3.3034639122976563,2.7215761878511753,2.1016414929982017,1.518362317707998,1.0345349819223797,0.6604550949304733,0.39449696838194936,0.22222075829244353,0.11926289869841024,0.06178533124574154,0.029303065312305237
0.0,5.0,5.0,0.0,120.0,0.0,0.29178822613331223,-0.15228990288364064,-0.7358637873096934,-107.0,0.0,-45.0,0.0876119001546527,-0.4144119371189623,-0.6506832292099884,34.27502789733331,17.548303877028573,4.571566273443845,2.7269379910417446,2.2543603020049616,1.887986469417097,1.5179068327106457,1.1511160163197063,0.7988926405793272,0.5066225685983838,0.29736183253905824,0.16039567831728302,0.07952809560569127,0.03674749168840007,0.016078886535517027,0.006761019296612376,0.002460786179684814,6.936760551346335,4.977061246700089,4.36201362152265,3.861023923906586,3.327619265333918,2.755820032840352,2.143947224482618,1.5609051614516334,1.07017506976826,0.6858745190061055,0.4101367309686914,0.23068906757012236,0.1233996757031999,0.06366063725561127,0.030052175444581594
0.0,6.0,6.0,0.0,120.0,0.0,-0.12482557747461498,0.2127864282558487,0.4337193623851874,-107.0,0.0,-45.0,-0.08617715670846837,-0.6952905886245391,-0.34402399818384066,34.27502789733331,17.548303877028573,4.575224031940001,2.74049291906966,2.2687169235312967,1.9015026541803912,1.532667815660108,1.1697195443998971,0.8196558603479811,0.5251528294098827,0.31085842017496806,0.16858399520535372,0.08372266275290599,0.038606861986464035,0.016814959875998334,0.007029988348579343,0.0025448335066053642,6.939639527937387,4.991927171125344,4.379758356527068,3.8791501839185383,3.348808933595745,2.7851489935534492,2.181309816543683,1.5999081553393946,1.103922064816748,0.7106006360321699,0.4256752720311055,0.23922845659058667,0.12760829982317076,0.06557646732578588,0.030818502187695777
0.0,7.0,7.0,0.0,120.0,0.0,0.7835460015641595,-0.961613603381333,-0.2078805943854125,-107.0,0.0,-45.0,0.7640828204597792,-0.1650272504079764,0.3606973320300031,34.27502789733331,17.548303877028573,4.579038951045343,2.7542980783634223,2.2832272519184253,1.9147588654638985,1.5459712210786645,1.1858638487298385,0.8381438086362539,0.5422919944528642,0.32376953612800247,0.17664134714801571,0.08794252810928117,0.04050607150192911,0.017573169732957094,0.00730791804317976,0.0026317964650917707,6.942650044144109,5.007054906639713,4.397666426614922,3.896954638821498,3.367983553468289,2.81052761785516,2.214300924929029,1.6355666796978243,1.1357570975592486,0.734553812106956,0.4410530614442381,0.2478114077993521,0.13187952352462168,0.06753038341499094,0.03160156277767317
0.0,8.0,8.0,0.0,120.0,0.0,0.9273255210020586,-0.39685036665090134,0.13084262371701794,-107.0,0.0,-45.0,-0.08279207646282827,-0.7374213430534879,-0.8735847633227387,34.27502789733331,17.548303877028573,4.5830170568665105,2.768356424834211,2.297908253587345,1.9279431215435892,1.5583127164755632,1.20004055826105,0.8546012905446106,0.5580899676551877,0.336065253582362,0.18453151783831595,0.09216847089356527,0.042438627263352104,0.018351997110168692,0.007594566775497963,0.0027216555235299576,6.9457975862128185,5.022447156904057,4.415753982016629,3.914660594735952,3.385838652489004,2.832787232008788,2.243463838436151,1.6680963370577906,1.165692217824026,0.7576738514440066,0.45621738661108774,0.2564115023801469,0.13620394410852246,0.06951978681601967,0.032400819133862495
0.0,9.0,9.0,0.0,120.0,0.0,-0.2331169623484446,0.3203470749853701,-0.6334403275718428,-107.0,0.0,-45.0,0.44833527322308653,0.208235608041764,0.214498748023082,34.27502789733331,17.548303877028573,4.5871645672013805,2.7826707486933917,2.3127663501032467,1.9411584252803884,1.5700499372981447,1.212675613286106,0.8692698790564442,0.5726119250609694,0.34772950301841915,0.19222461965039284,0.09638270177690765,0.044398030748519925,0.019149810613250183,0.007889650054239802,0.002814381538808646,6.9490878275655295,5.038106423649419,4.434026641769376,3.9323880174083454,3.402867135134343,2.852630421154631,2.26930838563905,1.6977234015695648,1.1937632636466609,0.7799176602077438,0.4711223250822509,0.2650036971423628,0.1405721205921798,0.07154194531020704,0.033215681662093564
0.0,10.0,10.0,0.0,120.0,0.0,0.5834500761653292,-0.41984478557911187,-0.7103044813132455,-107.0,0.0,-45.0,-0.20194935659379598,-0.2343838816842918,-0.04470699424716784,34.27502789733331,17.548303877028573,4.591487894060298,2.7972437464441784,2.3278044253094214,1.9544589206115077,1.5814326734642894,1.224129027353446,0.8823825890697676,0.5859335882502263,0.35875757659673047,0.19969663277064864,0.10056900119404062,0.04637787698839353,0.01996489168115816,0.008192843822862856,0.002909935951047696,6.952526629213274,5.054035083204409,4.4524866002161545,3.950198656368275,3.4194077205394335,2.8706386604308407,2.2923072802736275,1.7246782466659345,1.2200240318971385,0.801256940115125,0.48572852923999316,0.27356452616382665,0.14497467861303998,0.07359402042788704,0.03404551361656083
0.0,11.0,11.0,0.0,120.0,0.0,0.05778983950580896,0.23603085799768309,-0.02388743870209087,-107.0,0.0,-45.0,0.8080887858019155,0.79077176857642,-0.4320000464757978,34.27502789733331,17.548303877028573,4.595993646974274,2.812078051226908,2.343024344248473,1.9678720731809538,1.5926301207138338,1.2346978092653509,0.8941597033359262,0.598137640676461,0.3691539598670546,0.2069288662007899,0.1047127866139759,0.048371937271971775,0.020795459019584354,0.008503788187757563,0.0030082710785345264,6.9561200408549855,5.07023542445352,4.471135087190484,3.9681230781673844,3.435686415080842,2.88728303737988,2.3128933491707784,1.7491907648518346,1.244541617525648,0.8216760150124593,0.5000028819298428,0.28207223596921766,0.14940240236558425,0.0756730942234393,0.034889635696578915
0.0,12.0,12.0,0.0,120.0,0.0,0.13608912218786462,-0.14246259810846773,-0.28877452430008876,-107.0,0.0,-45.0,0.3800500403824547,0.9355893435970037,-0.523173438151884,34.27502789733331,17.548303877028573,4.600688636530583,2.827176255511397,2.358427733051859,1.9814115140583557,1.6037536192798527,1.2446213473642924,0.9048055662555564,0.6093109487452866,0.37893049771081444,0.2139073894688399,0.10880112398712542,0.050374225824910794,0.02163969168536821,0.008822091439566249,0.003109330493651534,6.959874301981607,5.086709673106106,4.489973095319846,3.986175987189003,3.4518498339201944,2.9029372596919005,2.331457627855774,1.7714870421695392,1.2673927514999435,0.8411698476667953,0.5139180705747824,0.29050686382766594,0.15384631327491405,0.07777619506960669,0.035747330791898825
0.0,13.0,13.0,0.0,120.0,0.0,0.8511932765853221,-0.7290518715550995,0.8808638905056261,-107.0,0.0,-45.0,0.3992441085010334,0.09376980333884433,0.029025486597513472,34.27502789733331,17.548303877028573,4.605579877758803,2.8425409245940707,2.374016173430754,1.995084079978394,1.6148744765764562,1.2540883619461498,0.9145063192637831,0.6195423320745819,0.3881048705115822,0.22062246889785536,0.11282269700158451,0.052379051479240095,0.022495750426537845,0.009147334256053467,0.0032130494647669666,6.9637958426410105,5.103460002366646,4.509001552336615,4.004364452286651,3.467990574738844,2.917891803530155,2.348348475398223,1.7917867934972016,1.2886609549346981,0.8597422733387088,0.5274521165554273,0.29885026877817256,0.15829773563879326,0.0799003220746376,0.036617848801838514
0.0,14.0,14.0,0.0,120.0,0.0,-0.8579278836042261,-0.40343534808793846,0.5306505076139305,-107.0,0.0,-45.0,-0.3445591968857622,-0.4503528602648068,-0.26414483892591734,34.27502789733331,17.548303877028573,4.6106745932413995,2.8581746016262994,2.3897912377761443,2.0088934665955285,1.6260372317795226,1.2632445485641741,0.9234285712934736,0.6289207148070858,0.3966993387020554,0.2270680309237383,0.11676774574633897,0.05438105576687773,0.023361797017179418,0.009479073982238495,0.0033193554519716046,6.967891283793854,5.120488533505503,4.528221353464826,4.0226920871829,3.484165666662595,2.9323680825484058,2.3638718140452193,1.8103012722903744,1.3084343315198605,0.8774044565692525,0.5405878872584438,0.30708612449931744,0.16274834984909475,0.08204246782306135,0.037500411463160875
0.0,15.0,15.0,0.0,120.0,0.0,-0.8257414005969186,0.13992982140252974,0.4973272397010946,-107.0,0.0,-45.0,0.5135572854737784,0.1844608375236736,-0.0869602174746893,34.27502789733331,17.548303877028573,4.61598021593518,2.8740798076479757,2.4057544963589264,2.0228420178339426,1.6372690987128222,1.2722001907802107,0.9317189536575836,0.6375335634985958,0.4047397067687527,0.2332411662791325,0.12062798430278537,0.05637523909184517,0.02423601143904765,0.009816848895108138,0.0034281686464513097,6.972167437293792,5.137797331419957,4.547633373000199,4.041161052424347,3.5004094471848437,2.9465317533427484,2.3782924745752667,1.827231520947951,1.3268038382723384,0.8941735642320746,0.5533126105280388,0.3151998823153884,0.16719023406025346,0.08419963923270664,0.03839421712981211
0.0,16.0,16.0,0.0,120.0,0.0,-0.9595632051193486,0.18174552249634646,0.8074394794918669,-107.0,0.0,-45.0,0.2721221108942826,0.7935223164488197,-0.32504523647152017,34.27502789733331,17.548303877028573,4.621504391721497,2.8902590398038877,2.4219075254754494,2.0369315477391416,1.6485864277976912,1.281037232869301,0.9395044519452554,0.6454655686798385,0.41225445904292135,0.23914168214824558,0.12439650490122953,0.058356976701364756,0.025116606854831847,0.010160182374412258,0.0035394025444177766,6.97663130555032,5.155388398916979,4.567238477080231,4.059772951640613,3.5167422220889057,2.9605045811803605,2.3918365072497974,1.8427669230270163,1.3438619015764959,0.9100716389275302,0.5656174052839912,0.32317871161818396,0.17161589533362057,0.08636887640308642,0.039298445454655606
0.0,17.0,17.0,0.0,120.0,0.0,0.665239691095876,0.1486504976991576,-0.8331551291159629,-107.0,0.0,-45.0,-0.5199594532405809,-0.18653330832850346,0.9409873871919552,34.27502789733331,17.548303877028573,4.627254981707532,2.9067147695521998,2.438251917323642,2.0511636904027912,1.6599989707221943,1.2898155112564247,0.946893365107329,0.6527975565671884,0.41927402630645205,0.24477170425335482,0.1280676746698316,0.060322026125216914,0.026001842393732783,0.010508586916029152,0.003652964547067821,6.981290080926338,5.173263671535531,4.587037536089102,4.078529201573882,3.533175890165095,2.9743745805212387,2.404694237605868,1.8570840649496607,1.3597012765063894,0.9251246510417029,0.5774968375480206,0.331011423902017,0.17601829137474753,0.08854726940060574,0.04021226192964025
0.0,18.0,18.0,0.0,120.0,0.0,0.556313501899701,0.30640163971426726,0.10438493984481312,-107.0,0.0,-45.0,-0.6789223550294872,0.1041565533839417,-0.733121136508792,34.27502789733331,17.548303877028573,4.633240064289448,2.923449441530254,2.4547892885490854,2.065540035493275,1.671512600043582,1.2985780156060895,0.9539767227035801,0.6596056291046035,0.42583015156553683,0.2501353270815766,0.13163702966035942,0.06226652762735183,0.02689003382990145,0.010861567938652391,0.003768756578219517,6.986151144896063,5.191425013409802,4.607031433606554,4.097431169873778,3.549717475844547,2.988204374408223,2.417023813255086,1.8703459267436189,1.3744140778948783,0.9393617047118504,0.5889485077166461,0.33868838555280195,0.1803908440118099,0.09073197298301443,0.041134822246912096
0.0,19.0,19.0,0.0,120.0,0.0,0.7400242964936383,0.30420654000337777,0.16895213791153774,-107.0,0.0,-45.0,0.5927829490346634,-0.45669446478770825,-0.8063920936432516,34.27502789733331,17.548303877028573,4.63946793696882,2.940465473125819,2.471521286058948,2.0800621746314336,1.6831309863000072,1.3073551752969017,0.9608299937539981,0.6659605306026538,0.4319553329780533,0.2552383079920174,0.1351011697103544,0.06418699905059927,0.027779562279155172,0.011218627347265933,0.0038866757114942845,6.991222066960452,5.209874214063719,4.627221071236784,4.116480219809385,3.56637127491672,3.002037873812817,2.4289549941876474,1.8827014129505857,1.38809093808076,0.9528143721824341,0.5999726723241527,0.3462014235662681,0.18472744554964515,0.09292021930953105,0.04206527644970789
0.0,20.0,20.0,0.0,120.0,0.0,0.957236684465528,-0.1371631291320521,0.923872757094458,-107.0,0.0,-45.0,0.918333206070445,-0.08911170109994604,-0.3132165424181679,34.27502789733331,17.548303877028573,4.6459471178994,2.9577652545856044,2.4884495903089934,2.094731714955812,1.694856597826546,1.3161682463787374,0.9675149387490525,0.6719272332652114,0.4376823303176068,0.2600877996200568,0.13845765674670446,0.06608032626196025,0.028668881070042753,0.011579266827767283,0.004006614799378152,6.9965106033025,5.228612985871932,4.647607370272977,4.135677722430889,3.583140113781516,3.015905469187597,2.440592971496693,1.8942852175901967,1.4008202668343537,0.9655161322117346,0.6105719015240942,0.35354372752996915,0.18902245908536963,0.09510932871577205,0.04300277284844576
0.0,21.0,21.0,0.0,120.0,0.0,0.5983171284334472,0.793093191702126,-0.4157049464149023,-107.0,0.0,-45.0,-0.0837223454799143,-0.19657292924080272,0.1820538017409825,34.27502789733331,17.548303877028573,4.652686347137685,2.975351149483668,2.5055759169111282,2.109550282770918,1.7066912761183064,1.3250319162541326,0.974081483290974,0.6775647260389033,0.4430437277431738,0.2646921146170398,0.1417049183188774,0.06794375023953951,0.02955652096303752,0.011942990856235238,0.004128463097278201,7.002024695163508,5.247642961971338,4.668191271557956,4.15502505964712,3.600026061918134,3.0298279662010135,2.452022045059137,1.9052179987927296,1.412687603177131,0.9775018908032832,0.6207507719391969,0.3607097504977623,0.19327071379726862,0.09729671865603683,0.04394646168407004
0.0,22.0,22.0,0.0,120.0,0.0,-0.07704127549413631,-0.26487625990420693,-0.5183424401691064,-107.0,0.0,-45.0,0.18196833064736984,-0.503173069834058,0.3183529437000565,34.27502789733331,17.548303877028573,4.659694587573457,2.9932254954338995,2.522902017399617,2.1245195252396636,1.718636554542116,1.3339562583164672,0.9805695217524637,0.682925984124291,0.4480715498556327,0.2690605170849882,0.14484215745682086,0.06977485169083734,0.03044109389846478,0.01230930941411187,0.004252106876651414,7.00777246692449,5.266965694506491,4.688973734646485,4.174523625762694,3.6170308190432343,3.043819501664533,2.463309039530616,1.9156068238387622,1.4237750572490437,0.9888075660357564,0.6305155933133504,0.3676951108038863,0.1974674961277698,0.09947991093181174,0.04489549852690154
0.0,23.0,23.0,0.0,120.0,0.0,0.5610583525729109,-0.12827014946874638,-0.7994121154690044,-107.0,0.0,-45.0,0.7154452883871092,0.011732767650616704,-0.2054865056639159,34.27502789733331,17.548303877028573,4.666981025518752,3.0113906049943604,2.5404296797349692,2.139641112140661,1.7306938274958896,1.342948166004301,0.9870105881094815,0.688058091488037,0.45279693029478474,0.2732030358331351,0.147869269375556,0.07157153395754018,0.03132129545201678,0.012677740407166595,0.004377430022261037,7.013762223876001,5.286582653173545,4.709955736942344,4.194174829045654,3.6341559159598207,3.0578896578200285,2.4745063834192025,1.9255458357224058,1.4341608441869769,0.999469722616249,0.6398741665102801,0.3744964963872284,0.20160853768183376,0.10165653733617583,0.04584904740471604
0.0,24.0,24.0,0.0,120.0,0.0,-0.7634511482621336,0.7838467100313442,-0.9671407408170516,-107.0,0.0,-45.0,-0.08555309329228589,-0.37923834804037715,0.9985559878443422,34.27502789733331,17.548303877028573,4.674555070932973,3.0298487667543332,2.558160728852793,2.154916737764269,1.7428644358351812,1.3520123827828154,0.9934293562349581,0.6930024862177598,0.45724983289386656,0.27713029556700525,0.1507867650962125,0.07333200484251327,0.03219590616895441,0.013047811791772473,0.0045043146094826255,7.020002449655269,5.3064952240748635,4.731138273115545,4.2139800931584785,3.651402813096955,3.0720449640955274,2.4856548143563293,1.9351170881518693,1.4439189124932907,1.0095252455410955,0.6488355698199897,0.3811115728030114,0.20569000056111514,0.10382434385030426,0.04680628365824483
0.0,25.0,25.0,0.0,120.0,0.0,0.27984204265504764,0.6123879780921715,0.8590586335843811,-107.0,0.0,-45.0,0.9037489536654724,-0.25393027223850506,-0.2962140076139148,34.27502789733331,17.548303877028573,4.682426357258842,3.04860224661649,2.5760970273698436,2.1703481226363164,1.755149707491715,1.3611522269680536,0.9998449522693521,0.6977952983959812,0.46145882514357717,0.28085336313987386,0.15359570171970974,0.07505475788761687,0.033063791936637825,0.013419063416847269,0.004632641458322467,7.026501803324078,5.3267047089164015,4.75252235486994,4.233940858090384,3.6687729455382745,3.0862899425826384,2.4967857035796457,1.94439149634331,1.4531186678480343,1.0190110455968768,0.6574099702314175,0.3875388957696632,0.20970846075714847,0.10598119353133668,0.047766396525879766
0.0,26.0,26.0,0.0,120.0,0.0,-0.7132934251819072,0.40777716708073264,0.3398330931818201,-107.0,0.0,-45.0,0.15150232408974484,0.049940884508528516,0.4428133359199049,34.27502789733331,17.548303877028573,4.690604740841421,3.0676532892938417,2.5942404764497264,2.1859370148573327,1.7675509753761125,1.370370091729131,1.0062720770001257,0.7024677518734027,0.4654509028616494,0.28438360692426545,0.1562976188669583,0.07673855353374572,0.03392390354170573,0.013791048593813596,0.00476229066143298,7.033269116057429,5.3472123245829595,4.7741090110145326,4.254058580437939,3.686267741685896,3.100627821502823,2.507923014160206,1.9534298548816214,1.4618247907843511,1.02796379218614,0.6656084562727931,0.3937778288187827,0.2136608901370085,0.10812506823087722,0.04872859146212566
0.0,27.0,27.0,0.0,120.0,0.0,0.8893378340991678,-0.7995462253753978,0.5703058240462755,-107.0,0.0,-45.0,0.6415342414026299,0.501190045857975,0.2751653890615857,34.27502789733331,17.548303877028573,4.69910029990115,3.087004120040222,2.61259301678446,2.2016851910113506,1.7800695845335874,1.379667783211362,1.0127219468684798,0.7070466043326696,0.46925136386698696,0.28773256812443854,0.15889448067546721,0.07838240050573125,0.03477527554443061,0.014163335410046166,0.0048931420838712655,7.040313387411625,5.368019203121555,4.795899287753079,4.274334733087498,3.7038886299196023,3.1150610123730793,2.519084921583783,1.9622838800939235,1.4700971438641361,1.036419671047294,0.6734428891648001,0.39982846637691954,0.21754463747444555,0.11025406928083371,0.04969209219639263
0.0,28.0,28.0,0.0,120.0,0.0,0.04369664350014335,0.8389652274893471,-0.43653978849210184,-107.0,0.0,-45.0,0.8176874368254767,-0.33298506841744935,0.6261077264949213,34.27502789733331,17.548303877028573,4.707923333031815,3.1066569466292964,2.631156629639241,2.21759445670843,1.7927068946828737,1.3890467446142545,1.019203068974763,0.7115546038099677,0.4728837273691816,0.29091184341970405,0.16138862269921617,0.07998553768391965,0.03561702458935008,0.014535507803617365,0.005025075832798461,7.047643781139883,5.389126392155884,4.817894249109635,4.2947708044607245,3.721637040385442,3.129591422550699,2.5302851332671494,1.9709972417249018,1.4779907614603016,1.0444141658747468,0.6809257693235033,0.4056915624042186,0.2213574089085956,0.11236641727836319,0.05065614254034696
0.0,29.0,29.0,0.0,120.0,0.0,-0.17067612001895283,0.42848259909822284,0.17282033237265337,-107.0,0.0,-45.0,0.6310476375371377,0.8483175332415271,0.95245132690764,34.27502789733331,17.548303877028573,4.71708435719458,3.1266139615922595,2.64993333791615,2.2336666468685653,1.8054642810555812,1.3985082016099293,1.0257218690836705,0.716010943924215,0.4763696948629942,0.2939329787049818,0.16378270307736043,0.08154741665163885,0.036448347258635466,0.01490716641857002,0.005157972695652832,7.0552696205231396,5.410534855747247,4.840094977426803,4.315368297506365,3.7395144051669815,3.1442206554965386,2.5415339468787317,1.9796065563579097,1.4855559132565548,1.0519818637099068,0.6880701156380625,0.41136846454512593,0.2250972481507855,0.11446045109486809,0.05162000795325126
0.0,30.0,30.0,0.0,120.0,0.0,-0.47088877579074606,0.997694013135733,-0.8720894677580378,-107.0,0.0,-45.0,-0.6811710731020881,0.7246370936718047,0.7795873128910804,34.27502789733331,17.548303877028573,4.726594105179194,3.14687734472014,2.6689252072061427,2.249903625853729,1.818343134782007,1.4080532546429434,1.0322831929307799,0.72043170409963,0.47972914764534513,0.29680737390151,0.1660796573985303,0.08306768504405616,0.03726851756299683,0.015277929260708267,0.005291714545703808,7.063200383182315,5.4322454757110155,4.8625025738946395,4.336128728594435,3.7575221581371303,3.158950136082501,2.5528390872637994,1.9881423223688077,1.4928382312318988,1.059156284373017,0.6948893553833371,0.41686105360929043,0.22876251670645903,0.11653462622566832,0.052582976875790916
0.0,31.0,31.0,0.0,120.0,0.0,0.5484673788684333,-0.7011033906840125,-0.028744808130754196,-107.0,0.0,-45.0,0.2577968781234008,-0.9026194080489429,0.5291239487154171,34.27502789733331,17.548303877028573,4.736463522502927,3.1674492658329503,2.6881343468111574,2.266307287532629,1.8313448632624807,1.4176829361253411,1.0388907008074995,0.7248302648113091,0.4829801756763112,0.2995461988798735,0.1682826567738159,0.08454617076962134,0.03807688415414032,0.01564743217389437,0.0054261847142306145,7.071445695336937,5.454259053392603,4.885118159085411,4.35705362642416,3.775661734886335,3.1737811869652846,2.5642063594807016,1.99662978282674,1.4998788892095787,1.0659697342564112,0.7013972230688359,0.4221716880958787,0.23235187433259621,0.11858751258753067,0.053544361843761636
0.0,32.0,32.0,0.0,120.0,0.0,-0.0876993355669029,0.7362521147364285,0.9549902794888936,-107.0,0.0,-45.0,-0.20313148276064585,-0.49271495148635447,0.39649695563658116,34.27502789733331,17.548303877028573,4.746703763717341,3.1883318878149454,2.7075629107275434,2.2828795553355827,1.844470890614874,1.427398244950729,1.0455471740344244,0.7292176911843219,0.4861391323739523,0.30216032050535147,0.17039506872836127,0.08598286713079951,0.0388728673328311,0.016015329156381656,0.005561268328941556,7.080015325473649,5.476576311902675,4.907942873480988,4.378144531013355,3.793934572762661,3.1887150737669203,2.5756401518420637,2.0050897084426995,1.5067148239515895,1.0724531846117331,0.7076076669415755,0.4273031534006556,0.23586425991005966,0.1206177918613058,0.054503500393785785
0.0,33.0,33.0,0.0,120.0,0.0,0.13686789773729702,-0.6750141306472504,0.7530104906331816,-107.0,0.0,-45.0,-0.8745740959533086,-0.10772897468159615,-0.32900366064820075,34.27502789733331,17.548303877028573,4.7573261880926125,3.2095273699127023,2.72721309858789,2.299622382332855,1.8577226581666,1.4372001667068588,1.0522547499764006,0.7336030810602567,0.4892207100314455,0.3046602407164981,0.1724204206177513,0.08737791883603309,0.03965595591728886,0.016381292535790966,0.00569685261862731,7.088919177387396,5.499197898807967,4.930977877986213,4.3994029928020675,3.812342110954124,3.2037530308850535,2.587143818606938,2.0135390973271483,1.5133789871659615,1.0786361741336168,0.7135347622293008,0.4322586152998722,0.2392988728739485,0.12262425446673415,0.055459755773930475
0.0,34.0,34.0,0.0,120.0,0.0,-0.9624203991272897,0.23111912856768835,-0.32368209632630873,-107.0,0.0,-45.0,-0.1519354962203161,-0.7907442225150518,-0.7046288435865853,34.27502789733331,17.548303877028573,4.768342354649395,3.2310378712905137,2.7470871565617085,2.316537751352183,1.871101624937611,1.4470896851107968,1.0590151000397001,0.7379938758947889,0.4922380308281431,0.30705604541130804,0.17436236536307753,0.08873160886934453,0.04042570402789693,0.016745013020174466,0.005832827184413912,7.098167282558096,5.522124389270859,4.9542243544248095,4.420830571880135,3.8308857905434652,3.2188962756274964,2.598719967571583,2.021991791964181,1.5199006185477546,1.0845467352474185,0.7191926305198522,0.4370415772853553,0.24265515531258908,0.12460579624658175,0.056412517472656555
0.0,35.0,35.0,0.0,120.0,0.0,0.23527099415175412,-0.752360034301117,0.923140309082997,-107.0,0.0,-45.0,-0.4826318662211846,-0.30304802193300584,-0.8747279938803805,34.27502789733331,17.548303877028573,4.77976401650905,3.2528655548355307,2.767187378216883,2.333627675139852,1.8846092680754836,1.4570677882214988,1.065829562853156,0.7423961345894776,0.49520274882523374,0.3093573637656027,0.1762246493729723,0.09004434616685687,0.04118172783591846,0.01710619964126577,0.005969084238356092,7.107769791826258,5.545356289627943,4.9776835060153335,4.442428837334412,3.849567054496691,3.234146015552058,2.610370673579974,2.0304590165190888,1.5263055309805174,1.0902113431080342,0.7245953649171049,0.4416558413270392,0.24593277481663126,0.12656141492774614,0.05736120157996274
0.0,36.0,36.0,0.0,120.0,0.0,0.22419144544484282,0.6960164586444688,-0.536596747057591,-107.0,0.0,-45.0,0.6980766168570216,0.480195051235365,-0.5161965915970304,34.27502789733331,17.548303877028573,4.791603114534184,3.2750125912028523,2.7875161053441895,2.3508941965633716,1.898247083225409,1.467135471657713,1.0726992427190885,0.7468147716399354,0.4981251588446455,0.3115733374628728,0.1780110825796467,0.09131665403968114,0.04192370231615244,0.01746457960462296,0.006105518810435182,7.1177369663319485,5.568894041394456,5.001356557824291,4.46419936670471,3.868387347577992,3.2495034520204586,2.622097635113072,2.0389498394825116,1.5326164001798201,1.0956548859504984,0.7297569607948008,0.4461054716585609,0.24913160813377794,0.1284902064182756,0.058305250994813825
0.0,37.0,37.0,0.0,120.0,0.0,0.23386799374951384,0.6146379174500214,0.8986376448313629,-107.0,0.0,-45.0,-0.9333907469066076,0.36102896228565173,-0.13543703763740278,34.27502789733331,17.548303877028573,4.80387177023325,3.2974811630887375,2.8080757287471845,2.3683393888511617,1.912016584835467,1.4772937401766564,1.0796250815115773,0.7512537618636013,0.5010143086858474,0.31371259918651,0.17972551055859307,0.09254915927878474,0.042651358036159104,0.017819898059972764,0.006242028925324602,7.128079167683138,5.592738025678259,5.025244757193157,4.486143745535617,3.887348116204848,3.264969781760594,2.6339022877178238,2.0474715678488944,1.5388530522775428,1.1009006551274023,0.7346912520919373,0.4503947612134534,0.2522517256615141,0.13039136099117335,0.05924413549301118
0.0,38.0,38.0,0.0,120.0,0.0,0.8874961570292483,0.13820147722918663,0.8827554094129972,-107.0,0.0,-45.0,0.9179654437269471,0.2447688571320097,0.04399254725996493,34.27502789733331,17.548303877028573,4.816582277904785,3.3202734697177245,2.8288686889994703,2.385965355864025,1.9259193064081752,1.4875436084092415,1.0866079105384856,0.7557163145215506,0.5038781117044635,0.31578325962134535,0.18137178872912785,0.09374258187834399,0.0433644780079708,0.018171917803748886,0.0063785157505287194,7.13880684732108,5.616888567983397,5.049349374135333,4.508263567011702,3.9064508082673814,3.280546197464277,2.6457858851339244,2.0560300796619266,1.545032744055813,1.1059703529358151,0.7394118531648701,0.45452820038039327,0.2552933767901169,0.1322641593988157,0.06017735166951901
0.0,39.0,39.0,0.0,120.0,0.0,0.3636405982069668,-0.18563340554800067,0.5984051747047834,-107.0,0.0,-45.0,-0.28926230305614076,0.42105680544469126,0.5461671081097432,34.27502789733331,17.548303877028573,4.829747095999321,3.3433917315271833,2.849897477171191,2.403774232393773,1.9399568007138153,1.49788610119931,1.0936484874781933,0.7602050199364665,0.5067234573325187,0.31779290213553535,0.18295375864715796,0.09489772531841552,0.04406289462205529,0.018520418924559152,0.006514883717671507,7.14993053505279,5.6413459433797275,5.073671701698936,4.530560431665463,3.925696872938068,3.296233887978697,2.6577495565573352,2.064630101961211,1.5511704316917834,1.1108841161816663,0.7439321062408876,0.4585104477913338,0.25825697609096027,0.13410796895538418,0.06110442276890197
0.0,40.0,40.0,0.0,120.0,0.0,-0.280984198852428,-0.8616660090897239,0.26089587373358225,-107.0,0.0,-45.0,-0.2865862191949142,-0.5901526260805965,0.917481846113186,34.27502789733331,17.548303877028573,4.843378837679717,3.36683819503043,2.8711646355265517,2.4217681844853405,1.9541306399812763,1.50832225378391,1.100747522340452,0.7647219717946708,0.5095563176426213,0.31974858426682984,0.18447522640469816,0.09601546735435985,0.044746486677842874,0.018865198401203574,0.00665104061884211,7.161460826723528,5.666110382011259,5.098213056291389,4.553035947149307,3.945087760494587,3.312034038372957,2.6697943465056166,2.0732754410438456,1.557279024933035,1.115660553349908,0.7482650345150369,0.4623463029034504,0.2611430903308195,0.13592223961926697,0.0620248984170663
0.0,41.0,41.0,0.0,120.0,0.0,-0.1259360924013171,0.3948575462891273,0.748575933249894,-107.0,0.0,-45.0,-0.9673429946325842,-0.31660377027053577,-0.765359039230378,34.27502789733331,17.548303877028573,4.857490259524835,3.3906151374224525,2.8926727584982532,2.4399494109580258,1.9684424173336532,1.518853111038134,1.1079056957074445,0.7692688681600621,0.5123818485729211,0.3216568451063805,0.1859399431478048,0.09709675126785254,0.045415176520408655,0.019206069661837806,0.00678689768491131,7.173408385270437,5.691182113124999,5.122974831764989,4.5756917815541245,3.9646249231821593,3.3279477913125213,2.681921261739897,2.081969164840026,1.5633696264013035,1.120316792879236,0.7524233009562421,0.4660406801764583,0.26395242628052784,0.1377065001037639,0.06293835466731108
0.0,42.0,42.0,0.0,120.0,0.0,0.3952623918545297,-0.09291463464386229,-0.4139594309844066,-107.0,0.0,-45.0,-0.6295353495276321,0.35248496455492573,-0.7859917196124169,34.27502789733331,17.548303877028573,4.872094251971135,3.4147248722492343,2.9144244927169125,2.4583201418322416,1.9828937450761503,1.529479729077076,1.1151236705921748,0.7738470945223632,0.515204484669971,0.32352371773008803,0.18735158770129234,0.09814257754514172,0.0460689272884402,0.019542862111880683,0.006922369629307089,7.18578390406252,5.716561311025952,5.147958415086774,4.598529579311979,3.984309813663665,3.343976307916458,2.69413125899608,2.0907137676453478,1.5694517481529022,1.1248685417213853,0.7564191726131636,0.46959858471374555,0.2666858192816054,0.13946035403409643,0.06384439294234465
0.0,43.0,43.0,0.0,120.0,0.0,-0.8795490567414603,0.44411119894069584,0.6978871106258364,-107.0,0.0,-45.0,-0.19748099839278255,0.7584695260626542,0.1793894460271015,34.27502789733331,17.548303877028573,4.887203828794611,3.4391697553773226,2.936422537483843,2.476882637430558,1.9974862532768884,1.5402031763939525,1.1224021004674765,0.7784577912732644,0.5180280268360392,0.32535474577875356,0.18871375128949075,0.09915399595302744,0.04670774027574987,0.019875420637536147,0.007057374676837821,7.19859807507916,5.74224805602372,5.173165122491902,4.621550897312654,4.004143883555878,3.360120814088368,2.706425233947127,2.09951130274106,1.5755335102703654,1.1293301511299056,0.7602644904905573,0.4730250892398278,0.26934422252263035,0.14118347617365287,0.06474263906496741
0.0,44.0,44.0,0.0,120.0,0.0,0.33353343089133536,0.7327646518572584,0.23575338383504763,-107.0,0.0,-45.0,0.8585828346054278,0.0873561076561904,0.4907961478945859,34.27502789733331,17.548303877028573,4.9028321074107275,3.4639521944594573,2.958669649785195,2.4956391884712805,2.012221595467284,1.5510245309027124,1.1297416355282244,0.7831019077527998,0.5208557228837755,0.32715500332411374,0.19002992432675392,0.10013209799001607,0.047331652406038933,0.020203605091077624,0.00719183459338749,7.211861619506336,5.7682424681381175,5.198596363762548,4.644757367856043,4.024128587839962,3.3763824805912512,2.7188040898530996,2.108363461328297,1.581621828593525,1.1337146864065766,0.7639706450620832,0.47632531231403014,0.2719286969725242,0.14287560874039565,0.06563274396726165
0.0,45.0,45.0,0.0,120.0,0.0,0.3412757392363188,0.9510430100057716,-0.973526284482201,-107.0,0.0,-45.0,-0.8007701395574573,-0.43460069810892676,0.6963007606939697,34.27502789733331,17.548303877028573,4.918992306614936,3.489074639532311,2.9811686350202047,2.514592125821802,2.027101442803383,1.5619448823846114,1.137142925764129,0.7877802458603355,0.5236903404894051,0.3289291173499208,0.19130348520188123,0.10107800970350093,0.04794073381743968,0.02052728976308277,0.0073256746842977625,7.225585245287553,5.794544637923743,5.224253577697812,4.668150635311453,4.044265379988929,3.39276247548652,2.7312687166519134,2.1172716610175635,1.587722575972862,1.138034002009503,0.7675485567868113,0.479504397774678,0.27444040192723274,0.1445365578143892,0.06651438252887824
0.0,46.0,46.0,0.0,120.0,0.0,-0.5792348778523182,0.711606684785222,-0.30553296413556086,-107.0,0.0,-45.0,0.890603066958159,-0.9395294839880348,0.8716641604335771,34.27502789733331,17.548303877028573,4.935697723494252,3.514539602364384,3.0039223557086827,2.5337438111429154,2.042127488264048,1.5729653317613697,1.1446066233130445,0.7924934945992373,0.5265342328560869,0.33068129209106456,0.19253769099677323,0.10199288486219349,0.04853508555302236,0.020846362846477444,0.007458823778808642,7.239779635051006,5.821154655775349,5.250138225607186,4.691732348649112,4.0645557153926495,3.409261963942576,2.743819994095877,2.1262371086927323,1.5938407282981477,1.1422988184316325,0.7710086616829488,0.48256749535327315,0.2768805861137023,0.14616618985418253,0.06738725298492948
0.0,47.0,47.0,0.0,120.0,0.0,-0.7421474046902934,-0.9765718316299961,-0.7037182781036699,-107.0,0.0,-45.0,0.7389770610932644,0.4206736579484267,0.966852484521284,34.27502789733331,17.548303877028573,4.9529617203101735,3.540349658226297,3.026933730091121,2.5530966398268773,2.057301445903021,1.58408699152519,1.152133383837983,0.7972422572878493,0.5293893973175878,0.33241533461137096,0.1937356700488736,0.1028778984803986,0.049114837351985456,0.02116072589648924,0.007591214206166955,7.2544554259671425,5.8480726128550975,5.276251792986104,4.715504163520277,4.085001050616217,3.4258821086040196,2.7564587938008236,2.1352608497317496,1.5999804938622044,1.1465187999615931,0.7743609016105043,0.4855197424509768,0.27925057930285996,0.14776442832783854,0.06825107626419488
0.0,48.0,48.0,0.0,120.0,0.0,-0.36914329815163227,-0.2800438710432722,0.9636587796365064,-107.0,0.0,-45.0,-0.09167520618489644,-0.9842317929831192,-0.20039661555094823,34.27502789733331,17.548303877028573,4.970797708773745,3.5665074508261396,3.050205732432238,2.572653041767936,2.0726250510032798,1.5953109859620602,1.159723867380331,0.8020270728434306,0.5322575272405649,0.3341346810696531,0.1949004162535336,0.10373424069385159,0.049680145535736756,0.021470293290114652,0.007722781760933344,7.269623189995517,5.875298607225187,5.302595789693767,4.7394677426101,4.105602843475425,3.4426240698602983,2.7691859805028485,2.1443438063188176,1.6061454271629894,1.1507026321627503,0.7776147189431855,0.48836624707436316,0.28155178438484507,0.1493312504639815,0.0691055953134809
0.0,49.0,49.0,0.0,120.0,0.0,-0.2725784581147548,0.45998112484811604,-0.043259385920023874,-107.0,0.0,-45.0,-0.34659823646347987,-0.25464186035800895,-0.23932963294485377,34.27502789733331,17.548303877028573,4.989219133307375,3.593015697593291,3.073741393581376,2.592415481847743,2.0881000603693525,1.6066384513425085,1.1673787388762373,0.8068484323019117,0.5351400576699992,0.33584242319459534,0.19603478499162352,0.10456311098872774,0.050231190982895094,0.02177499168816387,0.007853465659153902,7.285293413468287,5.902832750613486,5.329171749894367,4.763624755794358,4.126362553247756,3.4594890061031967,2.7820024128483802,2.1534868070365794,1.6123385283744218,1.1548580980821315,0.7807790552830308,0.4911120719338047,0.2837856698634019,0.15086668412627352,0.06995057440763845
0.0,50.0,50.0,0.0,120.0,0.0,0.14039354083575928,-0.656740645477119,-0.005217269002674607,-107.0,0.0,-45.0,-0.5345117414418863,0.0610744291255636,-0.7043826466054552,34.27502789733331,17.548303877028573,5.008239453613301,3.6198771948525876,3.097543801537328,2.612386460437964,2.103728252634331,1.6180705361086738,1.1750986684686129,0.8117067915411839,0.5380382052064095,0.33754133456199353,0.19714149055868846,0.10536571278660176,0.05076817718737668,0.022074759502498143,0.007983208486761952,7.30147647587973,5.930675175071649,5.355981231970373,4.787976880325261,4.147281640913754,3.476478073986917,2.794908943918253,2.1626906095513028,1.618562329759523,1.1589921523750213,0.7838623538515288,0.49376221971079304,0.2859537627305171,0.15237080481300075,0.07078579844952852
0.0,51.0,51.0,0.0,120.0,0.0,-0.1227969730753593,0.042073212408258565,0.2789450327974472,-107.0,0.0,-45.0,0.2289294129537487,0.8442229235343861,0.3698688773671188,34.27502789733331,17.548303877028573,5.027872126605867,3.6470948228567095,3.1216161020221675,2.632568513920007,2.119511428580537,1.6296084010588194,1.182884331702477,0.8166025810039969,0.540953002625093,0.33923389633715034,0.19822310496566808,0.10614324838835953,0.05129132839402195,0.02236954637059964,0.008111956141364169,7.318182627941008,5.9588260394715675,5.383025818413816,4.81252580104393,4.168361569424986,3.4935924286923195,2.807906421610126,2.1719559178735026,1.6248189703017266,1.1631109926933554,0.7868725651796987,0.49632161950030323,0.28805764168695414,0.15384373278178876,0.07161107226462804
0.0,52.0,52.0,0.0,120.0,0.0,0.9767476761184524,-0.8913240233214927,-0.26283078774076496,-107.0,0.0,-45.0,-0.9338508170489888,-0.8210109099341998,0.31352391688167414,34.27502789733331,17.548303877028573,5.04813058777629,3.674671550645773,3.1459614990684854,2.6529642152216772,2.135451411472845,1.6412532195307974,1.1907364096585729,0.8215362130689433,0.5438853287508367,0.3409223222096903,0.19928205797766885,0.10689691427962897,0.05180088780673595,0.02265931263923321,0.008239657768448365,7.335421968972865,5.987285535786528,5.410307115701655,4.837273210617209,4.189603803995194,3.5108332241973392,2.820995688954246,2.181283395393721,1.6311102597998863,1.1672201278346024,0.7898171557155877,0.49879511443168084,0.2900989306790018,0.1552856302981964,0.0724262198943731
0.0,53.0,53.0,0.0,120.0,0.0,-0.7959103785039439,-0.6000069502071999,-0.7261994566288021,-107.0,0.0,-45.0,-0.9687878711063436,-0.18811535606343255,0.7241251917024145,34.27502789733331,17.548303877028573,5.0690282320704805,3.702610440704971,3.17058325562424,2.6735761743706217,2.1515500474038416,1.6530061775861418,1.198655589058382,0.8265080875930655,0.5468359340906034,0.3426085823072517,0.2003206382562174,0.10762789679924134,0.052297115864704286,0.022944028858585836,0.008366265692956738,7.353204423722329,6.016053895104877,5.437826754161729,4.862220809796451,4.211009812411646,3.528201613555416,2.834177584405826,2.1906736746559248,1.6374377336178927,1.1713244422818312,0.7927031189707654,0.5011874504670839,0.29207929272646355,0.15669669900573416,0.07323108389183314
0.0,54.0,54.0,0.0,120.0,0.0,-0.5822464878103306,-0.9629564110787721,0.644235466388491,-107.0,0.0,-45.0,-0.14240855500352434,-0.9513736005796845,-0.8054840104247187,34.27502789733331,17.548303877028573,5.09057839437311,3.7309146533934077,3.195484694179114,2.6944070390644757,2.1678092056501375,1.6648684741962663,1.2066425623594248,0.8315185960449544,0.5498054627052071,0.3442944259276125,0.20134099547157835,0.10833736817077255,0.052780288582876915,0.023223675287907464,0.008491735347062067,7.3715397187044704,6.045131393326404,5.465586387835424,4.8873703076961155,4.232581065364176,3.545698749183308,2.8474529421366324,2.200127364633607,1.6438026992080452,1.175428256883848,0.7955369888361677,0.5035032663708425,0.2940004240212209,0.15807717741384048,0.07402552462281142
0.0,55.0,55.0,0.0,120.0,0.0,-0.6773809642300075,0.5873954067148413,-0.6203041761944841,-107.0,0.0,-45.0,-0.8638518520505596,-0.31477803131681936,-0.004446184349316429,34.27502789733331,17.548303877028573,5.112794329689531,3.75958745112671,3.2206691974426533,2.715459495308907,2.1842307791035522,1.6768413214392062,1.214698027811708,0.8365681245807416,0.5527944707654052,0.34598140297776314,0.202345143254474,0.10902648289549677,0.05325069595360393,0.023498241413420537,0.008616025195532662,7.390437358502393,6.074518357292238,5.493587695539711,4.912723423636049,4.254319038141791,3.5633257827117246,2.8608225916358867,2.2096450565587387,1.6502062752885118,1.179535385564271,0.7983248547057913,0.5057470848370608,0.2958640482800549,0.15942733849946844,0.07480941959174896
0.0,56.0,56.0,0.0,120.0,0.0,0.30621665093079686,-0.5521506238792397,0.02263796509291205,-107.0,0.0,-45.0,-0.4961180235078142,0.2444621176795898,0.16216385934412614,34.27502789733331,17.548303877028573,5.135689191413084,3.788632202878919,3.2461402119188834,2.7367362737076726,2.2008166918866907,1.6889259456055845,1.2228226851293411,0.8416570585382982,0.555803441443054,0.3476708842523057,0.20333496282148075,0.10969637450949443,0.0537086404064636,0.023767725478396753,0.008739096727018385,7.409906637179821,6.1042152595097825,5.521832515546473,4.9382820616944185,4.276225363465191,3.5810838149394786,2.8742872790397853,2.2192273782825094,1.6566494073075828,1.1836491921023427,0.8010723774435476,0.5079233048138806,0.2976719113496449,0.16074748740200948,0.07558266464212567
0.0,57.0,57.0,0.0,120.0,0.0,-0.4934167949204358,-0.3092966386061946,-0.5513659420505215,-107.0,0.0,-45.0,-0.5576781693078323,-0.44186410354280325,-0.5168859199201632,34.27502789733331,17.548303877028573,5.159276016385539,3.818052385730964,3.271901239633898,2.7582401327449135,2.2175688779036515,1.7011235848811697,1.2310172489089157,0.8467857772560504,0.558832800441512,0.3493640794703347,0.20431220735919695,0.11034815266679211,0.054154435326758454,0.024032134028623198,0.008860914165395946,7.42995650632879,6.134222451962701,5.550322439285171,4.964047786169928,4.2983013727270105,3.598974048025475,2.8878479052437838,2.228874845396648,1.6631329482376598,1.187772626103377,0.8037848090682101,0.5100361947003389,0.2994257759999958,0.16203795928499606,0.07634516762345306
0.0,58.0,58.0,0.0,120.0,0.0,-0.06737845428738742,0.8561625869311817,-0.8043110310119319,-107.0,0.0,-45.0,-0.49361761255429615,-0.5805001006887298,-0.6619491877416774,34.27502789733331,17.548303877028573,5.183567700201303,3.847851590486768,3.2979558480424016,2.779973876825685,2.2344893029327864,1.7134354918268313,1.2392824355617311,0.8519546620221287,0.5618829246500199,0.3510620551513376,0.20527850664695416,0.11098290060522471,0.05458840362682591,0.024291481467414937,0.008981444598528898,7.4505956578815775,6.164540439019383,5.579059214641335,4.990022343049315,4.320548552085081,3.616997634857509,2.9015052902655447,2.238588014015037,1.669657628973742,1.1919082800482077,0.8064670094764407,0.5120898869765099,0.30112741700852036,0.16329911720149842,0.07709685336127821
0.0,59.0,59.0,0.0,120.0,0.0,-0.5111488159967945,0.40882880384706555,0.7243830348433666,-107.0,0.0,-45.0,-0.7378895375694845,-0.7685935333458127,0.7191616728392429,34.27502789733331,17.548303877028573,5.2085769790874155,3.8780335238368377,3.3243076676990215,2.801940351125183,2.2515799578676616,1.725862932912104,1.2476189677684992,0.8571640946740474,0.5649541520778811,0.352765750265142,0.20623537221932015,0.11160167292163997,0.05501087637373091,0.024545789626042692,0.0091006578273515,7.4718324647280925,6.195169792122531,5.608044612679665,5.016207488316046,4.342968392452108,3.6351557292787713,2.9152602514510164,2.248367432605335,1.6762240948835352,1.196058425878564,0.8091234662971998,0.5140883736356765,0.30277861642198717,0.16453135011459066,0.07783766116174498
0.0,60.0,60.0,0.0,120.0,0.0,-0.6820608327089606,-0.9363221409373843,0.9458389780462606,-107.0,0.0,-45.0,-0.9759275542046915,0.15428048804068362,-0.8829301555288824,34.27502789733331,17.548303877028573,5.234316410715941,3.9086020110553803,3.3509603930681533,2.8241424422593933,2.2688428591308725,1.738407188732263,1.2560275746010394,0.862414458196475,0.5680467894351507,0.35447599072627495,0.20718420277170202,0.11220549367641902,0.05542219147078499,0.024795087346420087,0.00921852628419362,7.493674957186779,6.226111152780853,5.6372804275919215,5.042604988307449,4.365562389891148,3.653449486434879,2.9291136038199856,2.2582136431391566,1.6828329216316316,1.2002250519996818,0.8117583144707342,0.5160355026673993,0.3043811590480035,0.16573507098911577,0.07856754418895948
0.0,61.0,61.0,0.0,120.0,0.0,-0.7792497176713897,-0.6706116870041745,0.9216693161260003,-107.0,0.0,-45.0,-0.7690314057225038,0.39054001180937203,-0.05875819216385425,34.27502789733331,17.548303877028573,5.260798355638112,3.9395609983930897,3.377917783368209,2.8465830789731945,2.2862800490963906,1.751069554231391,1.2645089916468188,0.8677061371456282,0.5711611183793773,0.356193502577612,0.20812628976200495,0.11279535480799491,0.055822692393228714,0.025039410076375643,0.00933502495112687,7.516130800134995,6.2573652350355875,5.666768476668946,5.069216620079227,4.388332046016759,3.6718800631277917,2.9430661604128274,2.2681271819548114,1.6894846281933495,1.204409896766225,0.8143753559636272,0.5179349754830245,0.3059368281643806,0.16691071496476512,0.07928646885940838
0.0,62.0,62.0,0.0,120.0,0.0,0.31265917893054684,0.24295680299952704,0.8131109984423579,-107.0,0.0,-45.0,0.23696051902549575,0.3439142811916447,-0.7683319973982294,34.27502789733331,17.548303877028573,5.288034959531748,3.9709145551755785,3.405183663450064,2.8692652328462254,2.303893596520192,1.7638513389313162,1.2730639611353962,0.8730395179514077,0.5742974006391846,0.3579189239252098,0.20906282313037577,0.11337221484283877,0.05621272697819639,0.02527879947717048,0.009450131278639688,7.539207271017199,6.288932827401735,5.696510600297302,5.096044171776044,4.411278868400747,3.6904486181753007,2.9571187326364465,2.278108580419804,1.6961796875126611,1.2086144786565818,0.8169780794283268,0.519790345229705,0.3074474014464493,0.16805873760515547,0.07999441425400627
0.0,63.0,63.0,0.0,120.0,0.0,-0.7236340973027724,0.15445717720833518,0.5480946653972776,-107.0,0.0,-45.0,0.9485124256361006,0.8977220414410148,-0.08588247733726528,34.27502789733331,17.548303877028573,5.316038136461329,4.0026668756229595,3.4327619247090078,2.8921919190168466,2.3216855969789334,1.776753867166156,1.2816932320661072,0.8784149891348573,0.5774558821972859,0.35965281569424074,0.20999489706786698,0.11393699788517501,0.05659264626930683,0.025513303042885915,0.009563825104903743,7.562911238959468,6.320814794292651,5.726508661980008,5.123089443006923,4.434404370981184,3.70915631277456,2.971272130607785,2.288158365456274,1.7029185351954423,1.2128401233524253,0.8195696796403685,0.5216050159357819,0.30891464711308264,0.1691796132178723,0.08069137154811624
0.0,64.0,64.0,0.0,120.0,0.0,-0.606835276639893,-0.5242143572509828,-0.33370969594271616,-107.0,0.0,-45.0,0.9806900031217878,-0.9945935722129946,0.9599246526846186,34.27502789733331,17.548303877028573,5.344819553355777,4.034822280411443,3.460656526029443,2.915366196924594,2.339658173316489,1.7897784783222284,1.2903975603365296,0.883832941468207,0.5806367966900129,0.36139567128119676,0.21092351577343887,0.1144905928697206,0.056962803416288815,0.025742973731287803,0.009676088575847765,7.5872491452266715,6.353012076945458,5.756764548380216,5.150354245224406,4.457710074473815,3.728004310868452,2.9855271634939613,2.298277059974394,1.7097015765729169,1.2170879879464802,0.8221530765704076,0.5233822424280444,0.31034032029250913,0.17027383324081916,0.08137734345972365
0.0,65.0,65.0,0.0,120.0,0.0,-0.2625496586780718,0.8684279958495875,-0.8377972200240065,-107.0,0.0,-45.0,-0.18189180925387682,0.29439330778807205,-0.1525872930890544,34.27502789733331,17.548303877028573,5.374390615912021,4.06738521800264,3.4888714947614683,2.9387911710713586,2.3578134760981446,1.8029265270830221,1.299177708871444,0.88929376809695,0.5838403681576387,0.3631479251804023,0.21184959914697873,0.11503385306001325,0.05732355263009605,0.025967869605773554,0.009786906066220768,7.612226985263349,6.385525693873236,5.7872801693860545,5.177840402106251,4.481197506784782,3.7469937795132795,2.9998846398481747,2.308465183245297,1.7165291924199195,1.2213590825023164,0.8247309339707061,0.5251251309598727,0.3117261596089898,0.17134190469057875,0.08205234371576799
0.0,66.0,66.0,0.0,120.0,0.0,0.6419864596958702,0.22793191193179196,-0.18551765717238533,-107.0,0.0,-45.0,-0.6740911479067893,0.20078447419527912,0.7142498350091346,34.27502789733331,17.548303877028573,5.404762456132343,4.100360265770624,3.517410927728639,2.9624699918015542,2.376153684072314,1.8161993836789216,1.308034447752122,0.8947978646376327,0.5870668132595489,0.364909960663801,0.21277398837384173,0.11556759577439465,0.05767524819393807,0.026188053488009188,0.009896264101795695,7.637850292560657,6.418356740877843,5.818057458194427,5.2055497499386,4.5048682034239445,3.766125889246576,3.0143453679408574,2.318723251234989,1.723401743568687,1.2256542891869582,0.827305677376916,0.5268366404885065,0.31307388399122765,0.17238434866890412,0.08271639653651534
0.0,67.0,67.0,0.0,120.0,0.0,-0.8057974484138775,0.07126560604991661,-0.5355317156581145,-107.0,0.0,-45.0,0.2775235147330586,0.17747921994057636,-0.7653688716336122,34.27502789733331,17.548303877028573,5.43594592194065,4.133752131233451,3.5462789925596834,2.986405856397634,2.3946810048736555,1.8295984341565865,1.3169685540826452,0.9003456293343729,0.590316343054643,0.3666821165900671,0.21369745136232765,0.11609260232231841,0.05801824353031943,0.026403592620970816,0.010004151286066127,7.664124125493335,6.451506392872234,5.849098374821586,5.233484142882847,4.528723714045753,3.785401818984776,3.0289101528282485,2.3290517755562834,1.7303195759179935,1.229974378748251,0.8298795115308302,0.5285195845314798,0.3143851897015907,0.17340169892598967,0.08336953623295709
0.0,68.0,68.0,0.0,120.0,0.0,0.6758898149976078,0.17981995270914197,-0.735024730484034,-107.0,0.0,-45.0,-0.019389306902525716,0.9255406396804848,-0.45749584647627173,34.27502789733331,17.548303877028573,5.467951571011413,4.167565658935811,3.5754799394177144,3.0106020203387254,2.413397679769951,1.8431250818541216,1.3259808048951023,0.9059374650761067,0.5935891645562047,0.3684646933529016,0.21462068797141318,0.11660961815410195,0.05835289031755214,0.026614558343795645,0.010110558306898366,7.6910530800647825,6.484975966929224,5.88040500268263,5.261645583409915,4.552765768819089,3.8048228792647616,3.0435797084695237,2.3394512269256875,1.7372830585915597,1.234320013425314,0.8324544393072221,0.5301766333368917,0.3156617475501389,0.17439450052928326,0.08401180931911342
0.0,69.0,69.0,0.0,120.0,0.0,-0.8078031842120739,0.46024405903353927,-0.8931456364263495,-107.0,0.0,-45.0,0.9788195545688629,-0.9662566532599206,-0.192414518665331,34.27502789733331,17.548303877028573,5.500789609948591,4.201805799331628,3.605018102848174,3.0350617922518546,2.4323059463521277,1.8567807523705562,1.3350719985883093,0.9115737733136955,0.596885481497316,0.37025795837891384,0.215544335194414,0.11711935308430985,0.058679537694044756,0.026821025768437996,0.01021547753240436,7.718641206410519,6.518766764948456,5.911979286124837,5.290035780907445,4.576995751892283,3.824390122325809,3.0583549394002665,2.3499221520242584,1.7442924746315045,1.2386917981757357,0.8350322701969617,0.5318103174395638,0.3169052004919979,0.1753633083477821,0.08464326593672035
0.0,70.0,70.0,0.0,120.0,0.0,0.9529189300267915,-0.3761100090407963,0.45118872842115754,-107.0,0.0,-45.0,-0.8693915856964396,0.3929648614029002,-0.20037571998133852,34.27502789733331,17.548303877028573,5.534470031553998,4.236477669015779,3.6348978423823883,3.059788487633182,2.45140812186226,1.8705668734870209,1.3442429368279267,0.9172549601153256,0.6002054955215392,0.372062150616162,0.2164689718687172,0.11762248182665445,0.0589985314705486,0.027023073477869874,0.01031890341388955,7.746892077318706,6.552880145576457,5.9438232086622325,5.318656647131072,4.601415236703823,3.844104734976641,3.073236655241288,2.3604650569127807,1.751348135501941,1.243090253687543,0.8376146427628408,0.5334230302207498,0.3181171611965702,0.17630868594031554,0.08526396737231567
0.0,71.0,71.0,0.0,120.0,0.0,-0.06269759670459685,-0.20355787556781624,-0.9771450827499379,-107.0,0.0,-45.0,0.5664688766276262,0.6273572994037269,0.34276695734030627,34.27502789733331,17.548303877028573,5.5690024841936525,4.271586503412035,3.665123618823002,3.0847854973519886,2.4707065335548344,1.8844848969336707,1.353494427478953,0.9229814345636396,0.6035494068179832,0.3738774846369419,0.21739512333986935,0.11811964455736045,0.05931021343228886,0.02722078322531002,0.010420832115229916,7.775808756096786,6.587317579183514,5.975938820590442,5.347510086708693,4.626025803994291,3.863967910574476,3.0882256675321917,2.371080445361167,1.7584503453528244,1.2475158391575332,0.8402030363913656,0.53501703175673,0.31929921000068434,0.1772312042499121,0.08587398319129136
0.0,72.0,72.0,0.0,120.0,0.0,0.9535221763806743,-0.5803125020497557,0.5411614970055525,-107.0,0.0,-45.0,-0.42320300533701216,0.01961439324316827,-0.31056374524898467,34.27502789733331,17.548303877028573,5.604396313075665,4.307137671518255,3.695699969000523,3.1100562629633925,2.4902035399624496,1.8985362915114523,1.3628272863604753,0.9287536086413859,0.6069174146711446,0.37570415419503894,0.21832326582878805,0.11861144762923968,0.05961492068792628,0.027414239644578967,0.010521261513433088,7.805393798304976,6.622080606675653,6.008328196050774,5.376598019267435,4.650829044599804,3.8839808481081994,3.103322789395114,2.381768819539958,1.765599402123822,1.2519689610412381,0.8427987846703544,0.536594452733301,0.3204528930341768,0.17813144040133666,0.0864733907155118
0.0,73.0,73.0,0.0,120.0,0.0,0.20969103949009193,-0.6276139882393277,-0.7061067091992499,-107.0,0.0,-45.0,-0.517162759846852,-0.3320702608063817,0.4275337368200327,34.27502789733331,17.548303877028573,5.640660564268807,4.3431366766039305,3.726631506962669,3.1356042776024915,2.509901531437914,1.9127225433572677,1.3722423373795543,0.934571897300155,0.6103097178965886,0.3775423353112482,0.21925383055557982,0.11909846438947727,0.059912985073950396,0.027603529969316015,0.010620191130480282,7.83564925429104,6.657170837732832,6.040993433193481,5.4059223798555855,4.675826559827072,3.904144752550145,3.118528835823746,2.3925306802844792,1.7727955985252026,1.2564499806263725,0.8454030879438265,0.5381572986059465,0.32157972055587847,0.17900997654114506,0.0870622746214887
0.0,74.0,74.0,0.0,120.0,0.0,0.47852715879660335,0.8887447799678672,-0.8409558348264885,-107.0,0.0,-45.0,0.3250091430653519,0.5816803264548098,0.278373798450785,34.27502789733331,17.548303877028573,5.677803991529016,4.379589156969749,3.757922925205128,3.1614330869017926,2.5298029307036125,1.927045156211943,1.381740412665409,0.9404367185298985,0.61372651518254,0.37939218894759685,0.22018720761521005,0.11958123608663337,0.060204732613394416,0.02778874376095078,0.010717622066508498,7.866576674953139,6.692589949001476,6.07393665436498,5.4354851193680345,4.7010199618163675,3.9244608352053088,3.1338446239655755,2.4033665273539286,1.7800392228287722,1.2609592205894462,0.8480170250490153,0.539707453958656,0.3226811654950543,0.17986739871930443,0.08764072655238708
0.0,75.0,75.0,0.0,120.0,0.0,-0.9216244154913587,0.4791015900985751,-0.8207939315227892,-107.0,0.0,-45.0,-0.5078736300180711,-0.8055141487351507,-0.20167770949045383,34.27502789733331,17.548303877028573,5.71583506595158,4.416500886790066,3.7895789959522768,3.1875462899336875,2.5499101934064794,1.9415056516916314,1.3913223527036933,0.9463484934291484,0.6171680053576745,0.3812538633182645,0.22112374960625764,0.12006027285227935,0.060490483027843385,0.027969972645364907,0.010813556934276922,7.898177120762728,6.728339682283446,6.107160006323775,5.465288204974085,4.7264108738912105,3.9449303140582357,3.1492709733972672,2.4142768596849886,1.787330559509785,1.2654969706569272,0.8506415642525107,0.5412466870165329,0.3237586621927601,0.1807042958117252,0.08820884474317436
