Line_number,Fiducial,Easting,Northing,Height,Elevation,tx_pitch,tx_roll,tx_yaw,txrx_dx,txrx_dy,txrx_dz,rx_pitch,rx_roll,rx_yaw,PX,PZ,S0X_time_1.086e-05,S0X_time_3.256e-05,S0X_time_5.426e-05,S0X_time_8.680e-05,S0X_time_1.411e-04,S0X_time_2.279e-04,S0X_time_3.689e-04,S0X_time_5.860e-04,S0X_time_9.115e-04,S0X_time_1.411e-03,S0X_time_2.192e-03,S0X_time_3.418e-03,S0X_time_5.339e-03,S0X_time_8.301e-03,S0X_time_1.338e-02,S0Z_time_1.086e-05,S0Z_time_3.256e-05,S0Z_time_5.426e-05,S0Z_time_8.680e-05,S0Z_time_1.411e-04,S0Z_time_2.279e-04,S0Z_time_3.689e-04,S0Z_time_5.860e-04,S0Z_time_9.115e-04,S0Z_time_1.411e-03,S0Z_time_2.192e-03,S0Z_time_3.418e-03,S0Z_time_5.339e-03,S0Z_time_8.301e-03,S0Z_time_1.338e-02
0.0,0.0,0.0,0.0,120.0,0.0,-0.8787458182095644,0.7752499445854433,0.9768428659952137,-107.0,0.0,-45.0,0.051399429786213036,-0.8878801238584935,0.6503646457522634,34.28551186217887,17.546392865702316,4.439204947580692,2.5483336385848454,2.0834730363636558,1.7790635542612026,1.5479830435624757,1.3760159123249978,1.2229997513825441,1.0748683323880792,0.9287484195115782,0.7800315690845278,0.629834914699946,0.48458040895575943,0.3525848187453863,0.2420964069597289,0.15052551862362534,6.4908567363996035,4.473575621056619,3.8564166282048395,3.4239757833387823,3.0776892811942504,2.8119813602617714,2.5732181316095097,2.337943178628564,2.098806069857629,1.84559183774865,1.5767641333188733,1.3001459028318267,1.0290177694327212,0.7807126210581493,0.5508712549527288
0.0,1.0,1.0,0.0,120.0,0.0,-0.5416309841118632,0.7496899894348361,0.2653551169128603,-107.0,0.0,-45.0,0.4231145065885509,-0.2021514849054955,0.8594471047676364,34.28551186217887,17.546392865702316,4.446367327634603,2.564208527406558,2.093629491226959,1.7677258371460953,1.5080927676559501,1.3189507206734292,1.1626639193486412,1.0187081191241059,0.8795186286279587,0.7389879320929735,0.5974987059371861,0.46071025841874924,0.3362114177203854,0.231687135640239,0.1446903022563127,6.506159331443982,4.499538659216602,3.87819056327503,3.420024686749245,3.0325717731014366,2.7359882042161767,2.485817229963046,2.251693153163779,2.0190638996793577,1.7751403547573759,1.5173829449487952,1.2526719214009212,0.9932469208822113,0.7553628627361998,0.5346207381149635
0.0,2.0,2.0,0.0,120.0,0.0,-4.327337250087382e-06,-0.08857736096206081,-0.4427940688509122,-107.0,0.0,-45.0,-0.3295827815786265,-0.29715721611979684,0.046307451507526354,34.28551186217887,17.546392865702316,4.4534769903965765,2.5806138925368134,2.1079030543387183,1.7670582247193627,1.4817260179704737,1.2723436385317632,1.1091543067581133,0.9674613451428985,0.8341233293314682,0.7009147394048767,0.567356141119394,0.43835225339388617,0.3207970244042188,0.2218341942346669,0.1391327081251617,6.521117862969623,4.525749155334487,3.9041729301716654,3.4290494502086344,3.006007429769038,2.675307473883457,2.4082215070617257,2.1721829268733424,1.944573022092708,1.7088971280410281,1.4612951118865387,1.207652342288011,0.9591899806120805,0.731126118861473,0.5190084816280606
0.0,3.0,3.0,0.0,120.0,0.0,0.16886566142732273,0.5792002796500884,0.9718044063529192,-107.0,0.0,-45.0,-0.08160615489143574,0.4676799618784213,0.49548369923082713,34.28551186217887,17.546392865702316,4.460547834707876,2.5972236047805133,2.124129621461666,1.7733444887346188,1.466451534183647,1.235695166066607,1.0623461560823966,0.9208369401535668,0.792259760881811,0.6655705050221401,0.5392354531641425,0.41739537996975873,0.3062767743905596,0.2125034855976461,0.13383772045789968,6.535756399868752,4.551908701105212,3.9319813175154246,3.4462990806554035,2.994437569965215,2.6293193882980543,2.3406473458404244,2.099281302462312,1.8750517936488078,1.6465969874882562,1.4082916515815798,1.1649379606005144,0.9267495721827371,0.7079444521127344,0.5040048841584969
0.0,4.0,4.0,0.0,120.0,0.0,-0.04372408098521263,-0.2792846715041504,-0.4416666382064769,-107.0,0.0,-45.0,0.8809793126944092,-0.8735903575661681,0.03892807554856703,34.28551186217887,17.546392865702316,4.467593793918431,2.613946995640541,2.1412231782172584,1.783925376730062,1.4598043544657149,1.208139516924292,1.0220906173032749,0.8786177344993489,0.7536689279721598,0.6327397241614677,0.5129809180866919,0.39773796774163633,0.292590709211361,0.20366319933313887,0.12879119182970764,6.550098525410024,4.577944164016283,3.9604538872632506,3.468458883421231,2.9943376671450572,2.5967354109495053,2.2831545263759665,2.032948386285895,1.8102745917450112,1.58800367130666,1.3581813126000748,1.124390657515752,0.8958348050519608,0.6857633617093432,0.48958186997726943
0.0,5.0,5.0,0.0,120.0,0.0,-0.272214451356094,0.7211975872661847,0.4393032237963992,-107.0,0.0,-45.0,-0.290105040010169,-0.2418911075521779,0.07890022762291116,34.28551186217887,17.546392865702316,4.474628603588166,2.6307679098564796,2.15868378647502,1.7970354381300615,1.459583567139074,1.1885655729278457,0.9881477373023202,0.840637260957508,0.7181326926037213,0.6022305039286011,0.48845130656010155,0.3792868444163632,0.2796833894752113,0.19528365809895543,0.12397979521899927,6.564167146689505,4.603851317424699,3.989072809167959,3.493375881367529,3.0026267010571424,2.57585155617905,2.235547283727329,1.9731871259013267,1.7500705233652478,1.5329086374522876,1.3107892628075073,1.0858825215069605,0.8663608144635986,0.6645315721781088,0.47571281030247553
0.0,6.0,6.0,0.0,120.0,0.0,0.6069949427446424,0.8128899284467421,-0.47333437093808506,-107.0,0.0,-45.0,-0.654028645485242,-0.31513295437070665,0.9030019288140723,34.28551186217887,17.546392865702316,4.481665755661092,2.6476904342429286,2.176302169223676,1.8115706163834762,1.4639782448549705,1.175761265377653,0.9601626474002407,0.8067518673177685,0.6854696743061064,0.573872619274146,0.46551852916441033,0.36195657330610226,0.2675035363375891,0.18733717213326057,0.11939097758754376,6.57798447306486,4.629643775600314,4.017631152288199,3.519730556704759,3.0168165566101806,2.564807879508658,2.197359402571669,1.919988229146859,1.6943170980793625,1.481130323039245,1.2659559777943694,1.0492950652469224,0.8382483345668479,0.6442008337895616,0.4623724476426015
0.0,7.0,7.0,0.0,120.0,0.0,0.38953122542777896,0.07659984993577984,0.5486128958530418,-107.0,0.0,-45.0,-0.05581188596404396,0.29364304986869283,0.47671396728419557,34.28551186217887,17.546392865702316,4.48871850225843,2.664723111541232,2.1940011599545293,1.826876255254648,1.47158250577944,1.1685319318450549,0.9376769488074483,0.7768155827132177,0.6555291857235912,0.5475158591154212,0.44406644650200877,0.34566876964033705,0.2560036999605064,0.17979790214925426,0.11501291532719277,6.591572044871482,4.655338651189795,4.046059535006121,3.5467561037036366,3.0350076187454746,2.561784987007745,2.16789953821116,1.8732848641329412,1.6429280344324142,1.432513398886906,1.2235363057337267,1.014518533859314,0.8114233024618263,0.6247257344698995,0.44953682346240403
0.0,8.0,8.0,0.0,120.0,0.0,0.8908403017184647,-0.04761554788995692,0.28796824877151117,-107.0,0.0,-45.0,0.3051832375831762,0.7758415420865632,0.13355561369498536,34.28551186217887,17.546392865702316,4.495799880104985,2.681875110416568,2.2117583975230697,1.8425837349853884,1.481353341029303,1.1657782639319638,0.9201593414238378,0.750662794927319,0.6281835439340111,0.5230284253013014,0.4239898281008258,0.33035148856398205,0.24513995377899922,0.1726417306297243,0.11083447173445035,6.604950779233259,4.680953205688982,4.074343926878123,3.5740303304843897,3.0558119326655366,2.5651253518034363,2.1463239930078917,1.8329261557793608,1.5958371154213804,1.3869273607391113,1.1833987011780993,0.9814512927232345,0.7858164924737635,0.6060635229287917,0.4371832092478139
0.0,9.0,9.0,0.0,120.0,0.0,-0.9445288673811609,0.06539814919602738,0.145413725155511,-107.0,0.0,-45.0,-0.7469714803830083,-0.7140204197446776,-0.21452947113572018,34.28551186217887,17.546392865702316,4.502922738654149,2.6991554864246305,2.2295719907500255,1.8584965310712336,1.4925461033155092,1.1665376956109184,0.9070415335304102,0.7281000906616409,0.6033198635691456,0.5002951514902251,0.40519344520799916,0.3159386759786455,0.23487161368890908,0.16584614136565232,0.10684515656708271,6.618141016053127,4.7065042162620765,4.102490145567295,3.6013345581306235,3.078252767979799,2.573392783783887,2.131711798875516,1.7986701794997617,1.5529813848158844,1.3442639572402566,1.1454245922047608,0.9499992822027826,0.7613631806686403,0.5881739424440644,0.4252900409825858
0.0,10.0,10.0,0.0,120.0,0.0,0.4881588992462158,-0.5237555639123019,-0.08221025147256955,-107.0,0.0,-45.0,-0.7557971626547788,0.6325075027996472,-0.6713447227711775,34.28551186217887,17.546392865702316,4.510099765798789,2.7165730568397475,2.2474467146580754,1.8745163939872294,1.5046472747980038,1.1699988813050466,0.89775080027521,0.7089058898605861,0.5808325546089143,0.479215425250301,0.3875912704697857,0.30236967452029034,0.22516098114231772,0.15939010690987507,0.10303508770329999,6.6311625594106625,4.732007854840707,4.130510018475334,3.6285642575366603,3.1016660883547913,2.585389171386534,2.123128328463442,1.7701920224924304,1.5142867098885855,1.3044333663561487,1.1095077944001976,0.9200755317263181,0.7380028388003831,0.571019074613296,0.4138368570595875
0.0,11.0,11.0,0.0,120.0,0.0,-0.8772482628588609,-0.8162826386834643,-0.5143134803080591,-107.0,0.0,-45.0,-0.3926102181211999,0.21944680550253248,-0.7685392508491657,34.28551186217887,17.546392865702316,4.517343510793065,2.734136356606409,2.265389075814487,1.890598395015542,1.5173142162361972,1.1754987451278087,0.8917353723578677,0.6928353379950035,0.5606173985676889,0.4597008472985795,0.3711057448587384,0.2895887791819564,0.2159731086877322,0.15325398355895006,0.0993949549015635,6.644034714860144,4.757479639200023,4.158416620052437,3.6556756913167083,3.12561539283755,2.600145085993908,2.1196725794104196,1.7471008832494577,1.4796575452730079,1.2673594432839248,1.0755538551464863,0.8915997295829929,0.7156788555616495,0.5545631925759726,0.40280423959799455
0.0,12.0,12.0,0.0,120.0,0.0,-0.41804112477887645,-0.22616001684565257,0.2188544769424483,-107.0,0.0,-45.0,0.8152982027966673,-0.9415146119720474,-0.40066770892675607,34.28551186217887,17.546392865702316,4.524666405377839,2.7518536093816204,2.2834058030113673,1.9067250476779003,1.5303257028393797,1.1825094994937468,0.8884819507791961,0.6796279142628011,0.5425675760633282,0.4416727730086315,0.35566707008001747,0.2775448382789457,0.20727558610939917,0.14741941352089585,0.0959159856207808,6.65677632400442,4.782934408806091,4.1862228896146485,3.6826557524057164,3.1498235816389712,2.6168963180096525,2.1205084814565422,1.7289608289048086,1.4489714173095947,1.2329746002908173,1.043479224786368,0.8644978433334408,0.6943382823249956,0.5387726235395938,0.39217375901748114
0.0,13.0,13.0,0.0,120.0,0.0,0.834203935333687,0.5681492518289428,0.7486950982345693,-107.0,0.0,-45.0,0.34920770198592543,0.5337773583324872,0.38560869039464896,34.28551186217887,17.546392865702316,4.532080783828788,2.7697327164864105,2.3015034862056556,1.9228921945158985,1.5435437537691172,1.1906208209536555,0.8875262173167943,0.6690157785919011,0.5265715904719116,0.4250599235662864,0.34121249486489696,0.26619089502690174,0.1990383452301457,0.14186923399371124,0.09258991281535368,6.6694057971830105,4.8083863257023065,4.213941328345207,3.7095058084371657,3.1741214231678714,2.6350543550838306,2.124882874185644,1.715311378362185,1.4220776703818745,1.2012149083979267,1.0132101997246943,0.8387017799823783,0.6739316007702125,0.5236156206487673,0.3819279216043733
0.0,14.0,14.0,0.0,120.0,0.0,0.5507105928526308,0.3635035370034585,-0.9373891718982521,-107.0,0.0,-45.0,-0.5561316872397799,0.07537606606785174,-0.6168947624685808,34.28551186217887,17.546392865702316,4.539598902163155,2.787781261996866,2.3196885261943394,1.9391017204795782,1.5568855896383842,1.1995205848806252,0.8884577756568576,0.6607315774235202,0.5125127658698054,0.4097962362280943,0.32768558089105043,0.2554838637102263,0.1912334816110222,0.1365873929057488,0.08940894458656064,6.681941144547204,4.833848893699508,4.241583966111391,3.736233516999518,3.198410317946154,2.6541757894829816,2.1321333707813843,1.7056856647337024,1.3987994963718446,1.1720158903285163,0.984681643427525,0.8141490690287085,0.6544125104435453,0.5090622442052619,0.37205011975860836
0.0,15.0,15.0,0.0,120.0,0.0,0.32403832499445717,0.6817454469266615,0.4653394776572206,-107.0,0.0,-45.0,0.20697512124383732,0.5998576491602494,-0.7370757268185877,34.28551186217887,17.546392865702316,4.547232956485599,2.806006526991142,2.3379671379612605,1.9553580049445582,1.5703038773865863,1.2089762511634838,0.8909209896525206,0.6545150287663984,0.5002698886162965,0.39581907058451543,0.31503545172021286,0.24538423336030393,0.18383509164245876,0.1315588710400354,0.08636573556208434,6.694400005560397,4.859334986041817,4.269162366885372,3.7628489242606915,3.2226364421162077,2.673933552504496,2.141689065212788,1.699625171876327,1.378938129033019,1.1453092871916768,0.9578355430871164,0.7907825486740393,0.6357377347933086,0.49508425203443573,0.3625245846479629
0.0,16.0,16.0,0.0,120.0,0.0,-0.20060705679465896,-0.09706347042668528,0.7598450703205397,-107.0,0.0,-45.0,0.32047966762382396,-0.1822639342611072,-0.8444852460537202,34.28551186217887,17.546392865702316,4.55499510040573,2.8244155067371928,2.356345351828228,1.971666305629592,1.5837733271999588,1.2188180729217357,0.894612991619634,0.6501180358767848,0.4897185658299063,0.3830678256799623,0.30321604120702084,0.23585579175529897,0.17681912372679345,0.1267696102031664,0.08345335988776269,6.7067996769342475,4.884856874460009,4.296687630641532,3.789362733275631,3.246773432565446,2.6940914792163215,2.153066494807653,1.6966908594248469,1.3622781870635408,1.121020895563256,0.9326194905911864,0.7685500371462923,0.6178668442522132,0.481654998529516,0.3533363410868125
0.0,17.0,17.0,0.0,120.0,0.0,-0.9003449024142147,-0.751456039307943,0.23377556050629833,-107.0,0.0,-45.0,0.046109359815689865,0.3310055875761031,0.6924987600803196,34.28551186217887,17.546392865702316,4.562897461483061,2.843014927388083,2.3748290110343815,1.9880320805295348,1.5972819118064747,1.2289246720991363,0.899279879631444,0.6473083436748535,0.4807329404234884,0.3714829682369525,0.29218536437863574,0.22686536352295422,0.17016324233835564,0.12220644703809863,0.0806652857394568,6.719157139020575,4.910426256294288,4.324170395052082,3.8157856022810215,3.270811182998787,2.7144827992859115,2.1658627004869855,1.6964709534346694,1.3485933651570758,1.0990694253360347,0.9089851845376987,0.7474039765444163,0.6007620945165175,0.4687493417005819,0.3444711645561928
0.0,18.0,18.0,0.0,120.0,0.0,-0.4794943904877076,0.045250466284876945,-0.4831387351832426,-107.0,0.0,-45.0,0.5187649210746574,-0.6023915892289229,-0.5176203564790582,34.28551186217887,17.546392865702316,4.570952156678143,2.8618112610149504,2.3934237716051063,2.0044607337901157,1.6108253042908256,1.2392111129507715,0.9047118812006564,0.645871891669379,0.47318749193479154,0.36100543299212484,0.2819048342671094,0.2183825578709706,0.16384670373296434,0.11785705204172305,0.07799535128739078,6.731489080679215,4.9360542789161315,4.351620843018956,3.8421278959102874,3.294748833098865,2.734992581229353,2.179746734621474,1.6985858907911398,1.3376519123858754,1.0793662346366046,0.8868870400316331,0.727301044014485,0.5843882775529279,0.4563435574588993,0.33591554035565196
0.0,19.0,19.0,0.0,120.0,0.0,-0.03826236530149485,-0.9210199804304737,-0.29704988111603603,-107.0,0.0,-45.0,-0.9505220226816862,-0.6163108505040225,-0.5982990718280936,34.28551186217887,17.546392865702316,4.579171306805972,2.8808107389987048,2.4121351070591945,2.020957536727962,1.6244034703767678,1.2496193498007122,0.9107380557842247,0.645614074200396,0.46695874033871915,0.35157633351603806,0.27233864431507043,0.21037952351284142,0.1578502420231291,0.11370987334003277,0.07543774206291949,6.7438119226472955,4.96175156183282,4.379048717269346,3.8683996168692967,3.3185905273600285,2.755543825753426,2.1944505739703053,1.7026909615920416,1.3292215520998754,1.0618157525502596,0.8662809720482766,0.7082017325005172,0.5687125823373568,0.44441526037054024,0.32765662491192254
0.0,20.0,20.0,0.0,120.0,0.0,-0.15444321421133345,-0.13826316385780135,0.49760964181058376,-107.0,0.0,-45.0,-0.617765545792093,-0.3194751837487697,-0.21829226421485637,34.28551186217887,17.546392865702316,4.587567050003475,2.900019364201604,2.4309683174099064,2.0375276126528554,1.6380186510249168,1.2601107852724613,0.917220943080485,0.6463601275279108,0.4619267439312603,0.3431369133372646,0.2634532297866183,0.2028307102660534,0.15215596429986517,0.10975408479134112,0.07298696968610927,6.756141839447779,4.987528217134802,4.40646334011006,3.8946103999300163,3.342342938597176,2.776086736031916,2.209760093571711,1.7084771664282343,1.3230736664087541,1.04631639203966,0.8471233930801962,0.6900699093439887,0.5537044621049562,0.43294333017654113,0.3196822092674354
0.0,21.0,21.0,0.0,120.0,0.0,-0.08373497799399954,-0.5971662780994218,-0.2663552712046029,-107.0,0.0,-45.0,0.9327434888502386,0.03888101265542954,0.2589724009714549,34.28551186217887,17.546392865702316,4.596151554231738,2.919442922342693,2.4499285407380436,2.0541759405298112,1.6516742110369844,1.2706606149211297,0.9240514336443032,0.647954847318111,0.4579763382449436,0.335628668772129,0.25521681482512776,0.19571263828501353,0.1467472535071917,0.10597953802087907,0.07063785191268489,6.768494779882293,5.013393868839358,4.433873635699049,3.9207695226501054,3.3660138766588714,2.796590634721263,2.225506529714893,1.7156707411685659,1.318986688486726,1.0327617713698418,0.8293704417045582,0.6728723648992067,0.5393355050508907,0.42190784345671645,0.31198068474601937
0.0,22.0,22.0,0.0,120.0,0.0,-0.9393781413438778,0.6884958337322649,-0.9838536878121669,-107.0,0.0,-45.0,-0.004519996486335831,0.43305358115865444,0.17251951446960567,34.28551186217887,17.546392865702316,4.604937028832375,2.9390869928741186,2.4690207656969183,2.0709073619708804,1.6653740082775872,1.2812536264888272,0.9311440371434082,0.6502618138505132,0.4549981016246569,0.32899358263448475,0.24759904560420623,0.1890036768277839,0.14160867787430026,0.10237671802807764,0.06838549395388446,6.78088648615157,5.039357671488482,4.461288152732623,3.946885918279786,3.389611540799285,2.81703800873618,2.2415586901247746,1.7240317270657963,1.3167487237179145,1.021042091283756,0.8129774386690126,0.6565783649713394,0.5255793059331154,0.41129000988086456,0.30454101075753337
0.0,23.0,23.0,0.0,120.0,0.0,0.2661482104585702,-0.7421481882642991,-0.7889634107155257,-107.0,0.0,-45.0,-0.8469704032129417,0.33360964554465533,0.8473156137600903,34.28551186217887,17.546392865702316,4.613935735150763,2.9589569595272525,2.4882498438514897,2.087726587674742,1.6791220644990321,1.2918811458593042,0.9384326464780358,0.6531622736841768,0.4528890575837403,0.32317441874080305,0.24057070507775505,0.18268383485165515,0.136725905873415,0.09893670204357775,0.06622527101562646,6.7933325116417915,5.0654283281976324,4.4887150863109015,3.972968187905665,3.413144139436548,2.837420213390003,2.2578160444349367,1.7333518920984081,1.3161594656609523,1.0110455486971068,0.7978985523927697,0.6411592205777132,0.5124113367843505,0.40107211253190694,0.29735268466899517
0.0,24.0,24.0,0.0,120.0,0.0,-0.09806883616637396,-0.05072515457669713,-0.429319259764412,-107.0,0.0,-45.0,-0.3836406195640105,0.6426891263367034,0.3639442607630945,34.28551186217887,17.546392865702316,4.623159996233981,2.979058020610309,2.507620501298947,2.104638203201028,1.692922403978996,1.3025388618509528,0.945866838761386,0.6565537993601668,0.4515531379524103,0.31811503853553585,0.2341035013815455,0.17673456567940685,0.13208562587598158,0.09565112134316672,0.06415281199666603,6.805848237412327,5.091614108253729,4.516162298464396,3.999024612222137,3.4366197108555254,2.8577344363587236,2.274202738191631,1.7434522459428063,1.3170314945223087,1.002659700307328,0.7840866464620747,0.6265878868007189,0.499808815805527,0.3912374518041441,0.29040571364321666
0.0,25.0,25.0,0.0,120.0,0.0,-0.9664225649208675,-0.22972462481156652,-0.21366039362123002,-107.0,0.0,-45.0,-0.9964552276531866,-0.14720616843384104,0.12394310019518939,34.28551186217887,17.546392865702316,4.632622205610184,2.9993951990932572,2.5271373493993985,2.1216466746913536,1.7067789813122047,1.313225307747198,0.953408713281408,0.6603488244555287,0.45090143739955096,0.31376071180392145,0.22816991991424712,0.17113858760504783,0.12767546989885567,0.09251212575017762,0.06216398428043753,6.818448887418685,5.117922864313021,4.54363733727356,4.0250631636748935,3.4600460484762263,2.877981595082116,2.2906625115253574,1.7541803371669193,1.3191910523382173,0.9957727181661229,0.7714932770772935,0.6128385999083024,0.48775057435987457,0.3817702923868042,0.28369058832884364
0.0,26.0,26.0,0.0,120.0,0.0,0.8784266838397707,0.6907701893987679,-0.2713505538564387,-107.0,0.0,-45.0,0.1588284837712286,0.8250585088916695,0.4231963344498644,34.28551186217887,17.546392865702316,4.642334835156598,3.01997335249806,2.5468048946534823,2.138756354946417,1.7206956539783764,1.323940822308853,0.961030238965246,0.6644731302715919,0.4508522917775105,0.31005840256317846,0.22274312831061457,0.16587972174691606,0.12348394104131209,0.08951235057785857,0.060254879552578494,6.831149542499441,5.144362049231051,4.571147454725323,4.051091519302582,3.483430677259938,2.8981649102273295,2.3071544632284007,1.7654074766006949,1.3224783864651282,0.990274502638195,0.7600688074622785,0.5998865589698292,0.4762169227178603,0.37265581285258964,0.2771982582770545
0.0,27.0,27.0,0.0,120.0,0.0,-0.6045991537946425,0.12324940613628255,0.6128554422844701,-107.0,0.0,-45.0,0.9989565001991363,-0.7816645517995493,0.32744697618023944,34.28551186217887,17.546392865702316,4.652310442062152,3.0407971826093614,2.566627547846299,2.15597148994707,1.7346761757970524,1.3346868532663219,0.9687110668068473,0.6688643424868024,0.451331211824214,0.3069570185605379,0.21779692362821054,0.16094274782156454,0.11950034439472146,0.0866448857811501,0.058421800575563655,6.8439651531450805,5.17093873255086,4.598699623507642,4.077117074195856,3.506780853101123,2.918288958300448,2.3236495772864276,1.7770259941794324,1.326747745513997,0.9860576360985692,0.7497626079027091,0.5877076552831842,0.4651895157581851,0.36388005739271995,0.2709201089576665
0.0,28.0,28.0,0.0,120.0,0.0,-0.6608208108180431,-0.05009071100881202,-0.5568345276550106,-107.0,0.0,-45.0,0.18019899504214254,-0.6255933823911863,0.5349566384559239,34.28551186217887,17.546392865702316,4.662561674886719,3.0618712450226955,2.58660963258696,2.1732962256999793,1.7487241991211597,1.3454655003230078,0.9764367537513642,0.6734704809350325,0.452270701356465,0.304407618394828,0.21330571181442282,0.15631327789075863,0.11571472134885898,0.08390324710491683,0.05666124885298284,6.856910551051605,5.197659616672183,4.62630055291929,4.103146955279873,3.5301035712797533,2.9383590567337627,2.340127917716028,1.7889466066252266,1.3318671022819748,0.9830181737006486,0.7405233133703046,0.57627825031854,0.45465122018519893,0.3554298892803473,0.2648479402486283
0.0,29.0,29.0,0.0,120.0,0.0,0.5101880904115639,0.1923880858665057,-0.17937336873342402,-107.0,0.0,-45.0,0.22014585762888972,0.36743515057989695,0.1448526256966156,34.28551186217887,17.546392865702316,4.673101278713328,3.083199958549283,2.6067553933502605,2.1907346152111065,1.7628432800387346,1.3562792222083546,0.9841973415200735,0.6782485929818955,0.45360998602424574,0.3023635743209475,0.2092445106500209,0.1519776475843429,0.11211778731814481,0.08128134903441056,0.05496991311832251,6.870000459446313,5.2245310527201285,4.653956704019092,4.129188035079817,3.5534055776537237,2.9583808748462244,2.356576395328191,1.8010959490486245,1.33771766818038,0.9810562763786481,0.7322991148288152,0.5655750007269909,0.4445859849828645,0.34729294570360203,0.25897394627577786
0.0,30.0,30.0,0.0,120.0,0.0,-0.3026736908841232,-0.5357177765478138,0.6284537882374592,-107.0,0.0,-45.0,-0.3445467745438422,-0.49245463987565263,0.6145815901097664,34.28551186217887,17.546392865702316,4.683942099384364,3.1047876144967694,2.627069003095593,2.2082906253973213,1.7770368841644744,1.3671306537576042,0.9919862349987956,0.6831634904951636,0.45529467545071384,0.3007806915662835,0.20558896867669849,0.14792282385621494,0.1087008729692024,0.07877347937376958,0.053344658586101074,6.883249502161416,5.251559056126762,4.681674304085346,4.1552469451769705,3.576693380081207,2.9783601949654566,2.372987013878595,1.8134143040375827,1.3441932540216186,0.9800766968093477,0.7250380647176322,0.5555747273172039,0.4349787168150062,0.3394575936838452,0.25329069648345964
0.0,31.0,31.0,0.0,120.0,0.0,0.2230967609355088,0.0427670818221082,0.586874561068724,-107.0,0.0,-45.0,-0.5259349087943803,-0.6708189075931588,0.8001146098706884,34.28551186217887,17.546392865702316,4.695097086809,3.1266383858438993,2.6475545705101977,2.225968143792181,1.7913083921871753,1.3780224951972289,0.9997993286295723,0.6881866019059719,0.45727637841699675,0.2996172867663486,0.20231539396007,0.14413632800157253,0.10545586905319891,0.07637427529965696,0.051782516906608,6.89667221142428,5.278749321934516,4.709459360415167,4.1813300891463365,3.5999732593077716,2.9983027711251085,2.3893555106837967,1.8258535463456804,1.351199523226612,0.9799891321754842,0.7186883813678431,0.5462543237644566,0.4258151619363477,0.3319128868787527,0.2477911178204441
0.0,32.0,32.0,0.0,120.0,0.0,-0.9880677183620579,-0.29992492349705757,-0.5895493875327136,-107.0,0.0,-45.0,0.01631314408023865,0.7729874898657143,0.39295365882913313,34.28551186217887,17.546392865702316,4.706579297327036,3.1487563363246864,2.6682161469035512,2.243770984955469,1.805661105014398,1.3889574477303395,1.007634334592843,0.693294944119508,0.4595122877892693,0.29883422916840824,0.19940078781559986,0.14060617244861384,0.1023751749396498,0.07407870075886623,0.05028067676903828,6.910283034331438,5.3061072398273135,4.737317673468041,4.207443654849598,3.6232512792436635,3.0182142496135995,2.4056803164253404,1.8383753093057964,1.3586531756859053,0.9807084589516526,0.7131987409738455,0.5375907001348061,0.4170817959387685,0.32464852315563,0.2424684779298288
0.0,33.0,33.0,0.0,120.0,0.0,-0.13713221280701582,-0.7821641300119337,-0.2718539754702156,-107.0,0.0,-45.0,0.7995723339547809,-0.8631983070356775,-0.28476028391623576,34.28551186217887,17.546392865702316,4.718401895113676,3.171145429434949,2.689057732767023,2.261702896542082,1.8200982485874122,1.3999381780638422,1.015490272593549,0.6984702138512089,0.46196474917646396,0.2983949487699229,0.19682287977257318,0.13732080972557556,0.09945165092076853,0.0718820251000904,0.0488364751013588,6.924096337975577,5.33363790889444,4.7652548493461095,4.23359362602441,3.646533296755453,3.038100127648625,2.421961769256024,1.8509493700696573,1.3664810936446463,0.9821548651394667,0.7085185490926241,0.529560756011286,0.4087657223600611,0.31765480290198056,0.23731636923643204
0.0,34.0,34.0,0.0,120.0,0.0,-0.9503319767275042,0.5829971946270867,-0.6873737009142329,-107.0,0.0,-45.0,-0.9804977917705981,0.9829422148714242,-0.4400435287942839,34.28551186217887,17.546392865702316,4.730578152609579,3.193809537371173,2.7100832840066995,2.279767565019102,1.8346229784770125,1.4109673005079288,1.0233670871703335,0.7036979941335755,0.4646008248599106,0.2982654157210886,0.19456016104049226,0.13426909197771525,0.09667857431442436,0.06977980285009885,0.04744738881879835,6.93812641319931,5.361346152132925,4.79327631160238,4.259785793158606,3.6698249710967072,3.057965734791014,2.4382015285845786,1.8635522442480987,1.3746194750101284,0.9842538948405262,0.7045981864273563,0.5221413780188241,0.40085458086181414,0.3109225881118838,0.2323286938309622
0.0,35.0,35.0,0.0,120.0,0.0,-0.580876296031253,-0.2784091542778746,-0.8198000235952589,-107.0,0.0,-45.0,0.13930168448369495,0.7251786227402139,0.2743713304238131,34.28551186217887,17.546392865702316,4.743121449960993,3.216752449908929,2.7312967178550855,2.2979686210405257,1.8492383843402025,1.4220473693797722,1.0312653642406917,0.7089670690593162,0.46739186234413344,0.2984140952532445,0.19259191456557545,0.1314402394502752,0.09404959934611938,0.0677678545626001,0.046111027076328255,6.952387476955548,5.389236530696367,4.821387312373127,4.28602576366834,3.6931317730463578,3.07781622737553,2.4544021434892818,1.876165976082566,1.383012974307783,0.9869364190840235,0.7013892258862379,0.5153094567813904,0.39333646536519096,0.3044432623447351,0.22749964905725117
0.0,36.0,36.0,0.0,120.0,0.0,-0.6105651722975367,-0.44217757893829535,0.10838637248941163,-107.0,0.0,-45.0,-0.14297785745936298,0.7365154947046055,0.26285827654892424,34.28551186217887,17.546392865702316,4.756045273455386,3.23997788322536,2.752701918467865,2.3163096445002953,1.8639474942752103,1.4331808771878558,1.0391861238446727,0.7142688381041634,0.4703130749282416,0.29881188218744814,0.19089824042894515,0.12882381644447113,0.09155872074143698,0.06584224868354938,0.04482512398395245,6.966893673261441,5.417313357900778,4.849592942839239,4.3123189714169685,3.7164589937694483,3.0976565899929005,2.4705667392809825,1.8887771075301154,1.3916138670460638,0.9901385456343356,0.6988446196384015,0.509041918737564,0.38619985223854525,0.29820869169528025,0.22282371371704265
0.0,37.0,37.0,0.0,120.0,0.0,0.9418535184539629,-0.9988607651664587,-0.3610155152901702,-107.0,0.0,-45.0,0.24235861198798103,0.2574261250915495,-0.9521788722967417,34.28551186217887,17.546392865702316,4.769363212939227,3.2634894886677013,2.774302742213544,2.3347941692885392,1.8787532790794854,1.4443702558667475,1.0471306706435353,0.7195968204237918,0.47334313997654104,0.29943201879180814,0.18946007585804484,0.1264097133778154,0.08920024091423709,0.06399928438928275,0.043587531747046285,6.9816590727404035,5.445580713000646,4.877898143030929,4.338670685620721,3.7398117533821025,3.117491640487976,2.4866987931652456,1.901375808243526,1.4003812494129693,0.9938014792331439,0.6969188561826881,0.5033157687284578,0.37943353837170823,0.2922111869402842,0.2182956348162514
0.0,38.0,38.0,0.0,120.0,0.0,-0.39517382703017945,-0.9239910240370754,0.027378433052297924,-107.0,0.0,-45.0,0.6799160524160301,-0.5502886403301119,0.4942187792555921,34.28551186217887,17.546392865702316,4.783088958206546,3.2872908614674325,2.7961030226659536,2.3534256877764888,1.8936586563965225,1.4556178794743948,1.0551004876376595,0.7249462391752035,0.47646381906283164,0.30024999943270697,0.18825920951834663,0.12418813372370231,0.08696874059528042,0.06223547536359974,0.042396214197322826,6.996697670754604,5.4740424547506485,4.906307710999575,4.365086019191083,3.763195009190487,3.1373260364692452,2.502801976225632,1.913955148064054,1.4092802819492738,0.9978713424665593,0.6955680883732699,0.49810813980599233,0.37302658875603606,0.28644346703845697,0.21391041478684314
0.0,39.0,39.0,0.0,120.0,0.0,0.6785027718519636,-0.4963110574429417,0.17581979715614016,-107.0,0.0,-45.0,-0.1019121747467635,0.5961831094544385,-0.5562510263444991,34.28551186217887,17.546392865702316,4.797236294349483,3.311385549397313,2.8181065753116754,2.372207655053929,1.9086664947305194,1.4669260674708664,1.0630971618153633,0.7303136760238832,0.4796596028635615,0.30124346512928696,0.1872782900442371,0.12214958475689058,0.08485905271260652,0.06054753448690579,0.04124924068329447,7.012023384137955,5.502702234769651,4.9348263113883295,4.391569936564917,3.7866135635765095,3.157164282258671,2.51888004412867,1.9265104940475317,1.418281483069031,1.0022989662400965,0.6947502339788236,0.4933963472522197,0.3669682930196323,0.28089862415841943,0.2096632991292571
0.0,40.0,40.0,0.0,120.0,0.0,-0.15848683700947697,-0.3409394214821664,0.21238453521852074,-107.0,0.0,-45.0,-0.5646344367585887,-0.8923988696513869,-0.8910196757191273,34.28551186217887,17.546392865702316,4.81181909606543,3.3357770613664446,2.840317201986241,2.3911434929407833,1.923779617309007,1.4782970881207214,1.0711223330879187,0.7356967864346764,0.4829173825689417,0.30239209078760465,0.18650082897588438,0.12028487118275465,0.0828662393096675,0.05893235941499127,0.040144780292262316,7.02765004654671,5.531563510723519,4.963458483439405,4.418127261072516,3.8100720715143614,3.1770107357597532,2.5349367631429454,1.9390390149857513,1.427360075976747,1.0070396577171359,0.694425050752991,0.4891579443244018,0.3612481302426963,0.2755700903965896,0.20554976443121134
0.0,41.0,41.0,0.0,120.0,0.0,0.7242586607755146,0.3982552360561964,0.8815304133876778,-107.0,0.0,-45.0,-0.24678602613767842,0.16423068989569,-0.6936015848751778,34.28551186217887,17.546392865702316,4.826851320919187,3.360468875946296,2.8627386950544405,2.4102365937920704,1.9390008057787607,1.4897331618042786,1.0791776599798242,0.7410940669987734,0.4862261486558831,0.3036774675691991,0.18591119841095097,0.11858509087275629,0.08098557126992018,0.05738701902738788,0.03908109637889881,7.043591402450963,5.560629559341897,4.99220864848018,4.444762681892149,3.8335750477157755,3.196869615029092,2.550975861398781,1.9515392776767477,1.4364953906182052,1.0120529525399917,0.6945541882187005,0.48537077772767956,0.35585574129545283,0.27045160632573834,0.20156550672921877
0.0,42.0,42.0,0.0,120.0,0.0,0.32557445884150593,-0.2630878753340027,-0.530701560599379,-107.0,0.0,-45.0,-0.6988972566983129,-0.12168072972359667,0.3135617769474528,34.28551186217887,17.546392865702316,4.842347001562882,3.385464449818522,2.8853748413510996,2.429490324113374,1.9543328037271508,1.5012364641554221,1.0872647972055323,0.7465046668339308,0.48957671710884165,0.30508298254286925,0.1854946237713735,0.11704163206233689,0.07921251060692686,0.05590874072588643,0.0380565413783401,7.059861099795589,5.589903489281143,5.021081116932585,4.471480760637296,3.8571268734152286,3.2167450044974815,2.567000997923033,1.9640109206888643,1.4456703207562063,1.0173023572065567,0.6951012184634916,0.48201304125601074,0.3507809078959549,0.2655371914881338,0.1977064301891736
0.0,43.0,43.0,0.0,120.0,0.0,-0.9858151509919888,0.5930497758281561,0.7961705864599229,-107.0,0.0,-45.0,-0.8302015715783222,0.5008136639595255,0.04610937619751887,34.28551186217887,17.546392865702316,4.85832023692111,3.4107672261332302,2.9082294258993127,2.4489080280022684,1.9697783200275094,1.5128091290101846,1.0953853815511179,0.7519282359418806,0.49296148256972133,0.30659369748034987,0.1852371721390441,0.11564617148801436,0.07754269507612842,0.05449489856309807,0.03706955188432977,7.0764726813635805,5.619388253841329,5.050080094890971,4.498285937619975,3.880731802816686,3.236640860862214,2.5830157439931694,1.9764543929384184,1.4548708350434165,1.0227550866169903,0.6960316482448541,0.4790633264272565,0.3460135375713433,0.26082111691692483,0.19396863609114975
0.0,44.0,44.0,0.0,120.0,0.0,-0.7767995497222364,0.17433242908068847,-0.8973826763337724,-107.0,0.0,-45.0,-0.248247301193673,-0.952463735607799,0.6938754832597747,34.28551186217887,17.546392865702316,4.874785182353783,3.436380642764052,2.931306235423397,2.4684930304297032,1.9853400320124328,1.5244532511795938,1.1035410234617467,0.757364804264345,0.49637419743051303,0.3081962283872062,0.18512573664008491,0.11439067304664961,0.07597192486741204,0.053143002179357565,0.03611864397537804,7.0934395748784045,5.649086663539627,5.079209690312545,4.525182537830063,3.9043939692303136,3.2565610187000478,2.5990235728798856,1.988870745973554,1.4640855400327812,1.0283818010274608,0.6973129146425381,0.4765006692684557,0.3415436537182,0.25629787973785695,0.19034841211148254
0.0,45.0,45.0,0.0,120.0,0.0,-0.9373099862931475,-0.2988658938322071,-0.9392343217752319,-107.0,0.0,-45.0,0.25139709922293707,-0.22642899250652082,-0.7874945000180191,34.28551186217887,17.546392865702316,4.891756038814765,3.4623081404442657,2.9546090616738425,2.488248640374224,2.0010205884828927,1.5361708890698533,1.1117333024751783,0.7628146860103475,0.499809775536228,0.30987862710993685,0.1851480173635729,0.11326738665159637,0.07449615114527851,0.05185068652407343,0.035202408774039,7.110775081885567,5.679001398536283,5.108473918862717,4.552174776666962,3.928117390931414,3.276509195854614,2.6150278551887296,2.0012614703657206,1.4733052923842371,1.034156345946597,0.6989143663911829,0.474304592684167,0.3373613899896991,0.25196217987234265,0.186842221901576
0.0,46.0,46.0,0.0,120.0,0.0,-0.8191098907992607,-0.6852051024860517,-0.7824638605073357,-107.0,0.0,-45.0,-0.4743293278248992,-0.0458111969450119,0.659033281116882,34.28551186217887,17.546392865702316,4.909247041030474,3.4885531707660595,2.9781417045811724,2.5081781538208836,2.0168226125634923,1.5479640671727326,1.1199637651901404,0.7682784046076369,0.5032641189247524,0.31163026612909694,0.18529249929304753,0.11226884703826114,0.07311146621477724,0.050615702335184205,0.034319508226311565,7.128492365457074,5.7091350209023535,5.137876709454434,4.579266765455794,3.9519059767742486,3.296488998644848,2.6310318578522986,2.0136283680159552,1.4825228570580873,1.0400554978786372,0.7008072328977581,0.4724551440680162,0.33345698828397996,0.2478088988334432,0.18344669496805313
0.0,47.0,47.0,0.0,120.0,0.0,-0.5593718603117608,-0.9972611813188277,0.287378294169057,-107.0,0.0,-45.0,0.8313683189383887,-0.6952815490448891,0.30183579993976517,34.28551186217887,17.546392865702316,4.927272444729375,3.5151192040230894,3.0019079752551425,2.5282848566358322,2.0327487044154657,1.5598347784452113,1.1282339248600082,0.7737566343448544,0.5067339658786724,0.31344172743623366,0.1855484277123508,0.11138787233656439,0.07181409510545708,0.049435907347896456,0.033468671089819525,7.146604436766474,5.739489986711601,5.167421909517266,4.606462516775951,3.9757635315920563,3.31650392693047,2.6470387454355735,2.0259734534610963,1.4917326079964994,1.0460587182511163,0.702964582805898,0.4709329280000614,0.32982079966500244,0.24383308057958042,0.1801586168626827
0.0,48.0,48.0,0.0,120.0,0.0,0.5711653756283495,-0.2337714496686738,0.060587034916810945,-107.0,0.0,-45.0,0.3779025989060034,-0.17055962643310307,-0.5701409121997709,34.28551186217887,17.546392865702316,4.945846512960796,3.542009736874907,3.0259116988450567,2.5485720273267005,2.048801443819373,1.5717849865925237,1.1365452619919136,0.7792501554105408,0.510216758486704,0.3153046961994356,0.185905781524563,0.11061756228112073,0.07060038838136543,0.04830925820153566,0.03264868912081235,7.165124140587072,5.770068657932087,5.197113290027966,4.633765949625566,3.9996937614112977,3.3365573790599847,2.6630515828539156,2.0382988784043414,1.50093026765314,1.0521479173597235,0.7053612738214039,0.4697191340157597,0.32644328760994895,0.24002991436735333,0.17697491969305718
0.0,49.0,49.0,0.0,120.0,0.0,0.46736126170019254,-0.18655938614508738,-0.6757536337858225,-107.0,0.0,-45.0,0.37262690620379857,0.8209553721226466,0.47381123134411274,34.28551186217887,17.546392865702316,4.96498350154972,3.5692282998105394,3.050156717276102,2.569042939698107,2.0649833926391232,1.5838166282645978,1.1448992255372656,0.7847598195980862,0.5137105278950067,0.31721185974829463,0.18635524489631924,0.1099512959730856,0.0694668160019948,0.047233803011317375,0.031858413451208795,7.18406413977144,5.800873314086967,5.226954550330277,4.661180894440999,4.023700278504244,3.3566526567175163,2.6790733389104338,2.0506068746933397,1.5101126817081088,1.058307229714963,0.7079738953656609,0.46879555954178326,0.3233150330428488,0.23639471952499921,0.17389267296641775
0.0,50.0,50.0,0.0,120.0,0.0,-0.5105728876537661,-0.27221751283184603,-0.7041901051574693,-107.0,0.0,-45.0,0.38342137051327585,-0.06273155160995603,0.4826665758417774,34.28551186217887,17.546392865702316,4.984697643743316,3.596778464387721,3.074646891875754,2.5897008654107823,2.0812970971781177,1.5959316151724567,1.1532972344037244,0.7902865244337539,0.5172137954586429,0.3191568122537682,0.18688817761115334,0.10938272914199602,0.06840996207621329,0.04620767457017913,0.031096751147849683,7.20343689877733,5.831906163648397,5.2569493227676825,4.6887110979862285,4.047786606299377,3.3767929696776138,2.6951068902714965,2.0628997118313053,1.5192776253748073,1.0645228017812904,0.7107807054795022,0.46814462817498204,0.32042674067975496,0.23292293205196107,0.17090907477945136
0.0,51.0,51.0,0.0,120.0,0.0,-0.21915411689325737,0.6048080894275025,0.05885861684661675,-107.0,0.0,-45.0,-0.996631003543115,-0.4964476447666668,-0.783996831035235,34.28551186217887,17.546392865702316,5.00500313411475,3.6246638502240596,3.0993861059033403,2.6105490764520978,2.0977450904374026,1.6081318361290384,1.16174067911756,0.7958311939021963,0.5207254880692412,0.3211339653413857,0.18749658448583983,0.10890579088281857,0.0674265203682384,0.04522908414460292,0.030362661946909744,7.2232546663131245,5.863169355124247,5.287101177149121,4.716360228123265,4.071956184164769,3.396981440472097,2.7111550256428036,2.0751796658418584,1.5284236378449239,1.0707825927561172,0.7137615632618941,0.46774940353843125,0.3177692462746696,0.22961009293764423,0.16802144336643898
0.0,52.0,52.0,0.0,120.0,0.0,0.7189758703164988,-0.8088894387327801,0.9180117975285285,-107.0,0.0,-45.0,0.6260135068318018,0.06467012206335232,-0.46710637795798116,34.28551186217887,17.546392865702316,5.025914111118625,3.6528881321478073,3.1243782676591834,2.631590847048067,2.1143298944711426,1.6204191589665744,1.1702309235409782,0.8013947642959699,0.5242448660266378,0.3231384647570319,0.18817308417371445,0.10851467986418871,0.06651329043111337,0.04429631582757439,0.029655155156107723,7.243529457320656,5.894664988979007,5.317413624884077,4.744131878005635,4.096212372275905,3.417221108937176,2.7272204499995008,2.0874489969301164,1.53754988160605,1.0770761887403408,0.7168978579962891,0.4675935989873516,0.3153335244158186,0.22645183808347785,0.1652272090184627
0.0,53.0,53.0,0.0,120.0,0.0,-0.8553576814784281,-0.7701955516411239,-0.6345399881251284,-107.0,0.0,-45.0,0.8352172558867603,-0.8783151308322443,0.2777298078536645,34.28551186217887,17.546392865702316,5.0474446371843,3.681455048026046,3.1496273153632393,2.6528294542795554,2.1310540231348347,1.6327954322506288,1.1787693065999822,0.8069781740090769,0.5277714619317094,0.325166113102251,0.1889108776491127,0.10820386001943683,0.06566717425868789,0.0434077214115276,0.028973286716930332,7.264273034544415,5.926395132092394,5.347890122578652,4.772029568994268,4.120558456878255,3.437514936589421,2.7433057887837125,2.0997099338996206,1.5466560235893154,1.0833946304007689,0.7201724359934528,0.4676615834612631,0.31311069657798835,0.2234438897067558,0.16252390638522993
0.0,54.0,54.0,0.0,120.0,0.0,0.12963151739047496,-0.533073382862713,-0.48174097954980466,-107.0,0.0,-45.0,-0.9612040325278233,-0.4114629144726514,-0.23885067396833737,34.28551186217887,17.546392865702316,5.0696086917247944,3.710368398271844,3.175137208895589,2.6742681877950187,2.1479199811776524,1.6452624879072764,1.1873571437880772,0.8125823563532093,0.5313050292000254,0.32721329856852294,0.1897037166382555,0.10796805574346885,0.06488517336161305,0.04256171574423271,0.02831615644184324,7.285496887017509,5.958361809185896,5.378534078831059,4.800056762377781,4.1449976515995735,3.4578658115195093,2.7594135920975162,2.111964663643229,1.555742135365296,1.089730254010129,0.7235695260641131,0.46793838379076885,0.311092039187833,0.2205820491018,0.1599091671368466
0.0,55.0,55.0,0.0,120.0,0.0,-0.7699438735483186,0.02746540684537524,-0.7588334152973777,-107.0,0.0,-45.0,0.19658798077047512,0.5672734833806767,0.5304898920496022,34.28551186217887,17.546392865702316,5.0924201383047,3.7396320564533356,3.200911942008735,2.695910345269003,2.164930272646715,1.657822141111226,1.1959957288702041,0.8182082346090428,0.5348454989521144,0.3292769295155123,0.19054587223693506,0.1078022466259221,0.06416438618627082,0.04175677253107403,0.02768290537306815,7.307212237410027,5.990567102003704,5.409348954557029,4.82821695584569,4.169533108568484,3.4782764798088746,2.775546375032852,2.1242153120021015,1.5648086132266048,1.0960765449180847,0.7270746645202285,0.46840968376042735,0.3092689915033389,0.2178621906360873,0.15738071380696209
0.0,56.0,56.0,0.0,120.0,0.0,0.9881094529294863,0.4518028011833011,0.1892036873430485,-107.0,0.0,-45.0,0.3531515402549572,0.2838285004925052,0.07208488161525106,34.28551186217887,17.546392865702316,5.115892717990457,3.769249978110098,3.226955543351545,2.7177592338895797,2.182087393529064,1.6704761949315798,1.2046863353490536,0.8238567188923409,0.5383929439523137,0.33135437477164603,0.1914321039022959,0.1077016617631015,0.06350200580632687,0.04099142054802571,0.027072713308777623,7.329429959282021,6.023012979631452,5.440338023456928,4.856513444919111,4.1941679134289584,3.4987497275575175,2.7917065323553456,2.1364639709181352,1.5738561006370573,1.1024280060172154,0.7306746199769365,0.46906182028191146,0.3076331631575955,0.21528025684714555,0.15493635142839382
0.0,57.0,57.0,0.0,120.0,0.0,-0.11670769524699032,0.8073274812037796,0.8535385797185342,-107.0,0.0,-45.0,-0.6075148381013173,-0.9520302968245795,0.7139941496615356,34.28551186217887,17.546392865702316,5.140040026161042,3.7992262025298364,3.253272077426476,2.7398181746044306,2.1993938383646787,1.6832264402324704,1.2134302180038343,0.8295287041167014,0.5419475488788792,0.33344340928242183,0.19235762903807788,0.10766177368019779,0.06289531783022931,0.04026424023078961,0.026484796466305693,7.352160593226016,6.05570140829561,5.471504519862129,4.884949471613215,4.218905093929669,3.519288280349984,2.8078963949705056,2.148712678573509,1.5828854361886004,1.1087800357337538,0.7343573192751564,0.469881776901041,0.306176341234417,0.21283225453881072,0.15257396247531801
0.0,58.0,58.0,0.0,120.0,0.0,0.8305425699085776,-0.46581032949954015,-0.523969717205697,-107.0,0.0,-45.0,0.6764225259985817,0.13975199741036182,-0.7779479691841735,34.28551186217887,17.546392865702316,5.1648754923762095,3.829564856170239,3.2798656460734144,2.762090504630642,2.216852103617818,1.6960746568321372,1.2222286142207617,0.8352250689531767,0.5455095857873467,0.3355421649221154,0.19331809330506605,0.107678291912898,0.062341698474444145,0.03957386060690666,0.025918405278707625,7.375414338133719,6.088634392384059,5.502851689859216,4.913528276322282,4.243747625714185,3.5398947725566,2.824118251045137,2.1609634132361597,1.5918976085684187,1.115128818202426,0.7381117745745165,0.47085717497731294,0.3048904967925744,0.21051425174981825,0.1502915014771493
0.0,59.0,59.0,0.0,120.0,0.0,-0.6940345753496511,-0.7444012966342648,-0.0551574736373317,-107.0,0.0,-45.0,0.25166282857817657,-0.565319839113116,0.46749354492480033,34.28551186217887,17.546392865702316,5.1904123636104496,3.860270158115252,3.306740391037664,2.784579578781657,2.234464687820358,1.709022615524373,1.2310827453206723,0.840946675458041,0.5490793939837281,0.33764908616601913,0.19430954179026635,0.107747156292123,0.06183861276176336,0.03891895653927451,0.02537282232367711,7.399201018999868,6.121813948685068,5.5343827480590795,4.942253054798794,4.268698434671176,3.5605717851287637,2.8403743325694384,2.173218100099201,1.6008937170054756,1.1214712249474676,0.7419280120575544,0.47197626281056854,0.30376779077374677,0.2083223754857521,0.1480869893156229
0.0,60.0,60.0,0.0,120.0,0.0,0.9806123466953782,0.018428999113135225,0.8152291171227191,-107.0,0.0,-45.0,-0.5498898533409915,0.9514996316571547,-0.07072005986206475,34.28551186217887,17.546392865702316,5.216663686329282,3.89134642403164,3.3339004960380496,2.8072887713810486,2.25223409322444,1.7220720795347781,1.2399938178314953,0.8466943691470203,0.5526573636619958,0.33976289028480255,0.1953283911522918,0.10786452997386953,0.061383612811621587,0.03829824625119538,0.024847360378127698,7.423530066824657,6.155242112806082,5.566100880957823,4.971126961912044,4.293760400707315,3.581321849315906,2.8566668188709285,2.185478612941686,1.6098749406618857,1.127804726413155,0.7457970027485746,0.4732279029594469,0.302800579249073,0.20625281011540036,0.1459585082520961
0.0,61.0,61.0,0.0,120.0,0.0,-0.881392132604446,-0.4008151792214143,0.4165662811494202,-107.0,0.0,-45.0,0.9343802334351066,0.5673739913869067,0.03878191164927247,34.28551186217887,17.546392865702316,5.243642289126815,3.922798069761526,3.3613501888096837,2.830221478132585,2.270162827405155,1.735224805921912,1.2489630247092243,0.8524689793858082,0.5562439226788791,0.34188253174851724,0.19637140282986654,0.10802679225789795,0.060974336195136036,0.03771048910492736,0.024341360593464718,7.448410499036966,6.188920944926688,5.59800925018083,5.000153115276289,4.318936361390835,3.6021474502511834,2.872997840014966,2.197746776267326,1.618842514153918,1.134127312937938,0.7497105956996808,0.4746015580002254,0.3019814179801348,0.20430179633509365,0.14390419732702867
0.0,62.0,62.0,0.0,120.0,0.0,-0.8821553553005672,0.9689840777089092,0.05657332692901429,-107.0,0.0,-45.0,-0.5682687506519597,-0.7441838015445907,-0.43190887575565085,34.28551186217887,17.546392865702316,5.2713607661186295,3.9546296145631534,3.3890937431231762,2.8533811179492203,2.2882534048152228,1.7484825469252812,1.257991546510504,0.8582713199896808,0.5598395259428637,0.3440071705183932,0.19743565738309848,0.10823053123721436,0.06060850433302442,0.03715448360757568,0.023854190786439567,7.473850900654023,6.222852534882046,5.630110995606711,5.029334598744303,4.344229115460948,3.6230510304016734,2.889369480088647,2.2100243677364415,1.6277977081632387,1.1404374244472244,0.7536614537800609,0.4760872749538281,0.30130306628422143,0.20246563061310774,0.14192224812082657
0.0,63.0,63.0,0.0,120.0,0.0,0.646474271915976,-0.9203149752634396,0.27861353608998174,-107.0,0.0,-45.0,0.3571756138663831,-0.22890864463801064,-0.4618736926347762,34.28551186217887,17.546392865702316,5.299831461291901,3.9868456840174185,3.417135480781591,2.8767711347433513,2.3065083482933804,1.761847051262149,1.2670805525192277,0.8641021899542112,0.5634446469696058,0.3461361439089585,0.19851853001917877,0.10847253631875295,0.06028392091907132,0.03662906562007025,0.023385243840460788,7.499859406403557,6.257039006582379,5.662409238367374,5.058674465762619,4.369641426198699,3.6440349928794324,2.9057837803642963,2.2223131207562044,1.6367418142491343,1.1467338881486615,0.7576429922487782,0.4776756685928007,0.3007584902057054,0.20074066503380505,0.14001090086366955
0.0,64.0,64.0,0.0,120.0,0.0,0.5531844830508543,-0.6182099377721852,0.46167914046864156,-107.0,0.0,-45.0,-0.05222044228015332,-0.02006073699065891,-0.6203923692232343,34.28551186217887,17.546392865702316,5.32906645402044,4.019451012622935,3.445479773595864,2.9003949991806826,2.3249301905281023,1.7753200653750272,1.276231201829083,0.8699623742610884,0.5670597712225542,0.348268941711407,0.1996176673377191,0.10874979065385688,0.059998470355628004,0.03613310674685866,0.02293393621224086,7.526443684043182,6.291482521783449,5.694907083720286,5.08817574258562,4.395176024655609,3.6651017046105965,2.9222427423387596,2.234614727132316,1.6456761331051506,1.1530158635321435,0.7616493202410887,0.47935790382461096,0.30034086500474927,0.19912330746860277,0.1381684408805236
0.0,65.0,65.0,0.0,120.0,0.0,-0.5041264219211712,0.5071175055273323,0.4569569041687329,-107.0,0.0,-45.0,0.44656964511827835,-0.6352565724155501,-0.2533086348824516,34.28551186217887,17.546392865702316,5.359077545955476,4.052450446106977,3.474131045339261,2.9242562103999177,2.343521475478189,1.7889033346316463,1.285444644383438,0.8758526447195594,0.5706853909162876,0.35040518428091705,0.20073096531605722,0.10905946351512986,0.059750116190815286,0.035665512885818415,0.02249970653868337,7.553610919116935,6.326185283232078,5.72760762378912,5.117841431346348,4.4208356127371635,3.6862534993601668,2.9387483306447435,2.246930839713491,1.654601965620647,1.1592827940029335,0.7656751852534356,0.4811256773324404,0.30004357698196515,0.1976100220082331,0.13639319535646402
0.0,66.0,66.0,0.0,120.0,0.0,-0.5063081589856251,-0.22724485144031337,-0.030045783305066243,-107.0,0.0,-45.0,-0.8044817521589307,0.4085677069276463,-0.5220243100150062,34.28551186217887,17.546392865702316,5.389876249503131,4.085848943483853,3.5030937736811802,2.9483582977004326,2.3622847597516605,1.8025986044791873,1.2947220219737716,0.8817737608161509,0.5743220010111529,0.35254460330483833,0.20185654854166007,0.10939890265409379,0.05953689954974688,0.03522522291969359,0.0220820143389561,7.5813678013911225,6.361149537219503,5.760513940169357,5.147674512982825,4.446622866139193,3.7074926806112707,2.9553024758310777,2.2592630749812015,1.6635206062095993,1.1655343645081444,0.7697159206727835,0.4829711986401793,0.2998602246631947,0.19619732959777536,0.13468353040650716
0.0,67.0,67.0,0.0,120.0,0.0,-0.05468983994770049,0.12447631898489897,-0.4370480123939191,-107.0,0.0,-45.0,0.9050905110667085,0.6827575205376284,-0.620543847402715,34.28551186217887,17.546392865702316,5.421473774707883,4.119651577487155,3.5323724928126246,2.9727048258725493,2.381222620360334,1.8164076241100895,1.3040644649127782,0.8877264724787122,0.577970095507672,0.35468702517474,0.20299275064496647,0.1097656266795625,0.05935693755331085,0.034811207531634365,0.021680338857000988,7.609720540568704,6.3963776453455665,5.793629211465044,5.177678086157731,4.47254055665491,3.728821485392208,2.9719070149802094,2.2716130550368723,1.6724333241487561,1.1717704678288878,0.7737673958589363,0.48488717080159827,0.2997846193810529,0.1948818088103316,0.13303784990430542
0.0,68.0,68.0,0.0,120.0,0.0,0.8872050783604002,0.6309036208695726,-0.5876508142053687,-107.0,0.0,-45.0,-0.591021938384177,-0.991070809220872,0.9235918252119826,34.28551186217887,17.546392865702316,5.453881029321682,4.153863539330326,3.5619717934306294,2.9972993879665735,2.4003376408277233,1.8303321416895493,1.3134731030547362,0.8937115163283174,0.5816301667572634,0.3568323558820827,0.2041380961005166,0.11015731745303317,0.05920842172490373,0.03442246813143874,0.021294177818628,7.638674792413903,6.431871922405193,5.826956469421965,5.207855051111685,4.498591275192865,3.750242178243859,2.9885638392665115,2.2839823176064233,1.6813413924812854,1.177991164757061,0.7778259709386487,0.48686677064859346,0.29981078524818644,0.19366009676729082,0.1314545896679741
0.0,69.0,69.0,0.0,120.0,0.0,0.25177305059497646,0.3337264081975635,0.83722775533928,-107.0,0.0,-45.0,-0.5592321215264946,-0.7335532237302513,-0.10517143503468218,34.28551186217887,17.546392865702316,5.487108609760859,4.188490139023601,3.591896325824634,3.0221456113974248,2.4196324198040315,1.8443739079389547,1.3229490618409208,0.8997296186883881,0.5853027030474209,0.3589805685116385,0.2052912830863722,0.11057181258101752,0.05908961637655262,0.03405803587569125,0.020923046449248767,7.668235682371991,6.467634714873027,5.860498717378793,5.238208262442439,4.524777565793409,3.771757010244063,3.0052748281953097,2.296372361791088,1.6902460705393223,1.1841966598384805,0.7818884528666248,0.4889036290440887,0.29993295861224795,0.19252889008209173,0.1299322169654083
0.0,70.0,70.0,0.0,120.0,0.0,0.6650593148449,0.2071020404820787,-0.8835066073449545,-107.0,0.0,-45.0,0.1080570709844677,-0.4330743216912898,0.3562446652262439,34.28551186217887,17.546392865702316,5.521166795050779,4.223536805522393,3.6221508021927207,3.047247162413997,2.4391095774915703,1.8585346793068183,1.3324934596454305,0.9057814978938826,0.5889881869078742,0.3611316923892243,0.206451167528906,0.11100709800088977,0.058998856976699855,0.03371697077119115,0.02056647654734245,7.698407823341822,6.50366845871202,5.894259018506192,5.268740643234615,4.551102026222559,3.7933681894927083,3.0220418008170977,2.308784682665373,1.6991485912075892,1.1903872800212143,0.7859520545485065,0.49099181108067214,0.3001455869953772,0.19148494583915948,0.12846922984211492
0.0,71.0,71.0,0.0,120.0,0.0,0.7342068432875362,0.36364727714977785,-0.32585371915994554,-107.0,0.0,-45.0,-0.30053347315825807,0.9682204553095659,-0.25170368298464174,34.28551186217887,17.546392865702316,5.5560655480870125,4.259009088850205,3.6527399980146287,3.0726077454597935,2.458771753059933,1.8728162174631484,1.3421074110909206,0.9118678638753683,0.5926870947297842,0.36328580348304984,0.20761674834211838,0.11146130067426491,0.058934548500725784,0.03339836085113835,0.020224015558938137,7.729195297869194,6.539975638948238,5.928240436414212,5.299455107887479,4.577567240533898,3.815077906016522,3.0388665539572006,2.321220750285325,1.7080501682601288,1.1965634520726047,0.7900143575097123,0.49312579627420894,0.3004433275438984,0.1905250825927177,0.1270641546032166
0.0,72.0,72.0,0.0,120.0,0.0,-0.7311012147333302,-0.871510686120176,0.38010027552461434,-107.0,0.0,-45.0,-0.11574062869756085,-0.19094424299966883,0.13958748761277473,34.28551186217887,17.546392865702316,5.591814517589423,4.294912661414602,3.6836687538825257,3.0982311047139506,2.4786216058039074,1.8872202902138047,1.3517920278160032,0.917989418841626,0.5963998962919072,0.36544301625735043,0.20878715373579865,0.11193268142381958,0.05889516376293914,0.0331013214134619,0.019895225748430685,7.76060165927266,6.576558789701322,5.962446036932435,5.330354564193816,4.604175781132604,3.8368883337877184,3.0557508641842364,2.333682011577243,1.7169519961601918,1.2027256848713586,0.7940732770133418,0.49530045893881663,0.30082104503956636,0.18964618133633543,0.125715544355696
0.0,73.0,73.0,0.0,120.0,0.0,0.1576170623443618,-0.8044014665642516,0.20013805460744916,-107.0,0.0,-45.0,-0.9258030069475289,-0.6594960740474938,-0.0015957819327347966,34.28551186217887,17.546392865702316,5.6284230427900885,4.331253319323021,3.7149419773227286,3.1241210256157754,2.498661816269129,1.9017486723805597,1.3615484192072864,0.9241468579265038,0.600127054516249,0.36760347670374605,0.20996162857100242,0.11241962792735588,0.05887924173185452,0.032824994312968384,0.01957968343147133,7.792629935793836,6.613420493989819,5.996878889763845,5.361441915285677,4.630930210703489,3.8588016326081407,3.0726964896475404,2.3461698920985676,1.7258552502366178,1.2088745542993127,0.798127029809167,0.49751104879824254,0.30127380950206895,0.18884518642996104,0.124421977736851
0.0,74.0,74.0,0.0,120.0,0.0,0.9738815542620751,0.2150978905946821,-0.133562799713016,-107.0,0.0,-45.0,-0.5302311095987451,-0.7581457640558944,0.22537629670158132,34.28551186217887,17.546392865702316,5.66590016091769,4.368036983725603,3.7465646446124437,3.150281336375219,2.518895087346678,1.9164031466484661,1.371377693097098,0.9303408698010475,0.6038690253974881,0.3697673564034546,0.21113952271388675,0.11292064788513513,0.05888538583045262,0.03256854729972791,0.019276978265715443,7.825282637846692,6.650563383363504,6.031542070020698,5.392720061450198,4.65783308400774,3.8808199498629947,3.0897051717867905,2.3586857976743247,1.734761087129772,1.2150106904023654,0.8021741043949797,0.4997531719062785,0.30179689341657623,0.18811910646752603,0.12318205781290326
0.0,75.0,75.0,0.0,120.0,0.0,-0.8087094671003885,-0.2643113226978626,-0.7915342682699242,-107.0,0.0,-45.0,0.5470662334837737,0.8027123273715138,0.4454575088978501,34.28551186217887,17.546392865702316,5.704254617502604,4.405269702207197,3.7785418025964486,3.1767159094717927,2.5393241453377815,1.9311855043821198,1.381280956428098,0.9365721372522339,0.6076262580616255,0.3719348474884674,0.2123202803369238,0.113434362374394,0.05891226222352743,0.03233117339708707,0.018986712595367317,7.858561768394183,6.687990137409611,6.0664386596526185,5.424191901818552,4.6848869495538645,3.9029454221486377,3.1067786369179538,2.3712311159133517,1.743670645422577,1.2211347665241978,0.8062132336653417,0.5020227719398876,0.30238576861946803,0.18746501507159472,0.12199441113224543
0.0,76.0,76.0,0.0,120.0,0.0,-0.11290711688336641,0.991428382006817,-0.7209438974818496,-107.0,0.0,-45.0,0.8044303080509325,0.6204881688849686,0.3278184115026279,34.28551186217887,17.546392865702316,5.743494879485366,4.44295765024564,3.810878570509499,3.203428663144357,2.5599517409897974,1.9460975464124388,1.3912593158859823,0.9428413377298399,0.6113991949186762,0.37410615838380523,0.21350343011536932,0.1139594994028699,0.05895859809446324,0.032112090313520275,0.018708500845629826,7.8924688364302895,6.725703483174094,6.101571748778951,5.455860335931011,4.712094351149051,3.925180176779277,3.123918597699921,2.3838072176090983,1.7525850463906851,1.2272474901482264,0.8102433698190773,0.5043161119201885,0.3030361028742287,0.186880051604393,0.12085768691845807
