Line_number,Fiducial,Easting,Northing,Height,Elevation,tx_pitch,tx_roll,tx_yaw,txrx_dx,txrx_dy,txrx_dz,rx_pitch,rx_roll,rx_yaw,PX,PZ,S0X_time_1.086e-05,S0X_time_3.256e-05,S0X_time_5.426e-05,S0X_time_8.680e-05,S0X_time_1.411e-04,S0X_time_2.279e-04,S0X_time_3.689e-04,S0X_time_5.860e-04,S0X_time_9.115e-04,S0X_time_1.411e-03,S0X_time_2.192e-03,S0X_time_3.418e-03,S0X_time_5.339e-03,S0X_time_8.301e-03,S0X_time_1.338e-02,S0Z_time_1.086e-05,S0Z_time_3.256e-05,S0Z_time_5.426e-05,S0Z_time_8.680e-05,S0Z_time_1.411e-04,S0Z_time_2.279e-04,S0Z_time_3.689e-04,S0Z_time_5.860e-04,S0Z_time_9.115e-04,S0Z_time_1.411e-03,S0Z_time_2.192e-03,S0Z_time_3.418e-03,S0Z_time_5.339e-03,S0Z_time_8.301e-03,S0Z_time_1.338e-02
0.0,0.0,0.0,0.0,120.0,0.0,0.0976270078546495,0.38506318015553176,-0.4447425874105362,-107.0240403389464,0.0,-44.993881490911704,-0.7040334195216622,0.3991501204495027,0.9959245026573469,34.27502789733331,17.548303877028573,4.54002343420141,2.670356521006277,2.1828976725161184,1.7768903952424793,1.4305541614073698,0.989210453177921,0.6286063448669148,0.41335391016521206,0.25099936313689847,0.1023151772259728,0.030734373967968624,0.04952337148227463,-0.029461973149555173,-0.019744867952790145,0.022037692997581734,6.923230919232527,4.901906204919432,4.27480563309989,3.736278709739798,3.126389413824292,2.53085865794473,1.89115897553601,1.3135756506233351,0.875674761651735,0.5884182084081497,0.3283110825427573,0.1858602463898041,0.10888266995186752,0.07600778700076904,0.049505623663868625
0.0,1.0,1.0,0.0,120.0,0.0,0.43037873274483895,0.45050855963928105,0.17356869291633759,-107.0277397558222,0.0,-45.02801033516755,-0.2984921922547515,0.9359311332084541,-0.2756218821212213,34.27502789733331,17.548303877028573,4.552561060640415,2.681750405930603,2.1663348440505543,1.81416887394311,1.410168889789493,1.0190822252240097,0.7237329578771761,0.4020547140182911,0.2277447744367042,0.13485323342632197,0.0902222764117366,0.03975972135187522,0.07030514394734347,0.004237814248422771,0.007489792906609423,6.93108008037347,4.943097538905207,4.298130323453509,3.7704596040138045,3.184154754118118,2.5814021105796923,1.9602395768419776,1.362070029066928,0.9248853834014998,0.584767210382594,0.36022536434671937,0.18585326004184458,0.14134348112869263,0.037925428217429204,0.02187979962022108
0.0,2.0,2.0,0.0,120.0,0.0,0.20552675214328775,0.002648763853404512,0.7277112118464628,-106.93261266851786,0.0,-45.04058362048315,0.9426175936495366,0.9888015792953588,-0.05870210157218092,34.27502789733331,17.548303877028573,4.582637046680454,2.6941738667545247,2.2292375126182877,1.8307838423590463,1.4556630069012408,1.0750079726462405,0.7534604888330132,0.4569268763755822,0.2704399563544642,0.12190076818490733,0.0873136959635877,0.0361260870508134,0.04267420989107816,0.04755248681667936,-0.004100815114238461,6.9220446861548,4.920104153509202,4.306593113140909,3.793216063971784,3.2464365904239867,2.6315978094617996,1.9943773774686946,1.437912930182595,0.9440333158590943,0.614301621833798,0.3572756505153235,0.21611911755939958,0.13129638997421145,0.05378167485757041,0.03423228022632215
0.0,3.0,3.0,0.0,120.0,0.0,0.08976636599379373,0.9121672694464478,-0.7649362880759338,-107.15994904164651,0.0,-45.00146394406384,-0.6164601176620557,-0.09635663466048072,-0.24350965015307646,34.27502789733331,17.548303877028573,4.5687319725493065,2.683167703797132,2.2310526168700537,1.864829833101379,1.4899333794678118,1.1000786936154328,0.7515621606319985,0.4414143767499251,0.2613922229047557,0.1553036907108762,0.08973022103306996,0.024457890303109048,0.016838767244371562,0.010954650160636858,0.006456971994504653,6.940448780457995,4.918887107550005,4.325982073638046,3.82568470494361,3.2595863232689917,2.7069223591116782,2.0562387511550555,1.4954174665484163,0.985397916649198,0.6211614973550327,0.38208724920216586,0.18949482088191427,0.11831950362550762,0.06135883830587171,0.04325100897845532
0.0,4.0,4.0,0.0,120.0,0.0,-0.15269040132219058,0.2879803984592748,0.03475821430822834,-106.92616383741948,0.0,-44.93255032949297,0.841033237252376,-0.8582604436315833,0.9590538586709172,34.27502789733331,17.548303877028573,4.583873707266141,2.704543606841068,2.216446463988532,1.9105404543520743,1.4841906570041554,1.1074437162459791,0.7528883379939655,0.5099424923603704,0.27256339684056713,0.136527229321261,0.07822327467549318,0.030663312830628026,0.0013769987884435994,0.022053521152104037,0.024351724521568065,6.9505394105988625,4.974780506381982,4.350772216881947,3.8143222431209436,3.3293427771047592,2.726199382141486,2.110828133458975,1.5349949665877478,1.0556973601542383,0.666583481903845,0.4008406903654799,0.2135247656471331,0.11974205886694071,0.049431504874251915,0.018897602078564637
0.0,5.0,5.0,0.0,120.0,0.0,0.29178822613331223,-0.15228990288364064,-0.7358637873096934,-107.03949398487532,0.0,-45.125263482218685,0.11402618901145431,-0.4144119371189623,-0.6506832292099884,34.27502789733331,17.548303877028573,4.551407956896651,2.723541328911208,2.2769889217098016,1.9558922539938555,1.5219353660129065,1.1226582510508105,0.8254029506225719,0.5003557635767459,0.28365575300830725,0.16473759675523797,0.05390051606434862,0.0413389565593115,0.014255644280294816,0.00879023607997912,0.010327483557333234,6.937892998761783,4.977323929710462,4.366524002135355,3.8675424387277317,3.311619522054742,2.733911883604702,2.1430152888005334,1.5395125856740886,1.0714683886926109,0.6996320135346479,0.4189822266317534,0.21547521357256003,0.11094145500820472,0.06840908168032843,0.024252036163205242
0.0,6.0,6.0,0.0,120.0,0.0,-0.12482557747461498,0.2127864282558487,0.4337193623851874,-106.98975446422172,0.0,-44.97644521744682,-0.17116345205245673,-0.6952905886245391,-0.34402399818384066,34.27502789733331,17.548303877028573,4.568080045699448,2.753491095607042,2.2474154495621446,1.8929080042369826,1.5156540576850097,1.1476965333964024,0.8016865894624379,0.5392729324198791,0.3119338631381312,0.15039061031444106,0.07894839432184615,0.004781900660974829,0.001686034230847672,0.051368971539145214,0.0006835539998765734,6.951916745526922,4.990873910815888,4.385283865411627,3.8895622083876114,3.3316668994748637,2.7846747345720844,2.205200665543845,1.588020380208619,1.0955466226354302,0.7060890007429743,0.42959618744960065,0.24684884223311213,0.1459644352420955,0.07280134057400325,0.029921605742889205
0.0,7.0,7.0,0.0,120.0,0.0,0.7835460015641595,-0.961613603381333,-0.2078805943854125,-106.99397991525493,0.0,-45.03410699837612,0.7614952697374062,-0.1650272504079764,0.3606973320300031,34.27502789733331,17.548303877028573,4.607448794928492,2.7696348613642257,2.2509476193714315,1.9688890888101414,1.5836185211974139,1.182311295817134,0.8460698942679498,0.5699046081551471,0.32019487880655817,0.19175772478359887,0.11076366764914714,0.019559277015324495,0.0051463132855037955,0.0263137908447944,0.012136112254659867,6.958152340860587,5.004922090683514,4.393078073365601,3.865567251185179,3.350191903454487,2.8112495466693668,2.226786714747206,1.6435105564754235,1.1338596094043802,0.7305668352554011,0.4442193953763485,0.24894702797002308,0.1522236221642843,0.06964862817915389,0.010191744891724547
0.0,8.0,8.0,0.0,120.0,0.0,0.9273255210020586,-0.39685036665090134,0.13084262371701794,-106.94109574254873,0.0,-45.11778661531122,-0.13015900523940116,-0.7374213430534879,-0.8735847633227387,34.27502789733331,17.548303877028573,4.554302900171804,2.8014467633468,2.2726250829534513,1.944327578220879,1.5526028712981474,1.1964543854878344,0.8517871368515619,0.5835636544844788,0.33206112800854554,0.183841786161264,0.060538620865858456,0.04670504588722068,0.029308237398835507,0.012527446421884098,0.03155337027102476,6.946723484058483,5.027258858661246,4.441936545680311,3.890309216355544,3.3787592246706555,2.8546730725208302,2.2576480082680765,1.6782487249735207,1.178020119966515,0.7624743754762788,0.48001262119762633,0.2618975312807778,0.1396786087838996,0.07181919754642342,0.035188507134063005
0.0,9.0,9.0,0.0,120.0,0.0,-0.2331169623484446,0.3203470749853701,-0.6334403275718428,-107.01672467163971,0.0,-45.121606442697754,0.44520501733028517,0.208235608041764,0.214498748023082,34.27502789733331,17.548303877028573,4.561055422382231,2.799466664586549,2.309949578581193,1.9802152758328246,1.5684400389786564,1.221569816341715,0.8744451953114007,0.5595612673521279,0.3683348380543179,0.23166682419248869,0.096077345221667,0.038195429304527795,0.011824893039672713,-0.031144518706723287,-0.0008530346755438274,6.95330043465872,5.055087343539609,4.449280781983529,3.9258421183931747,3.398566205763093,2.8698852853316024,2.266678607082024,1.6900856335591,1.2143927064050317,0.7951540537941562,0.47139647124514406,0.2563789666269455,0.11142576109220041,0.08007264376721647,0.02025918106306661
0.0,10.0,10.0,0.0,120.0,0.0,0.5834500761653292,-0.41984478557911187,-0.7103044813132455,-107.04237661134778,0.0,-45.057048968383455,-0.25803691452516037,-0.2343838816842918,-0.04470699424716784,34.27502789733331,17.548303877028573,4.547193411869023,2.831792870551449,2.341801047202583,1.9300353178318457,1.5555834869876628,1.242537051598411,0.8639522405520121,0.612981671975392,0.3715634331057522,0.21080793024736943,0.10893233501803198,0.050330038844878335,0.03813180966372599,-0.0011736297971092716,0.004682708543891007,6.965147809089197,5.063101999108791,4.433491896028763,3.9423309323920783,3.4233368751234052,2.864372133881266,2.319225120839874,1.7187873129257392,1.2176195013359814,0.8125607381257904,0.49055203442495793,0.2714540056469775,0.1340142463922621,0.07795593476414996,0.04906530773732972
0.0,11.0,11.0,0.0,120.0,0.0,0.05778983950580896,0.23603085799768309,-0.02388743870209087,-106.91888463808431,0.0,-44.98628065276293,0.8901181837482277,0.79077176857642,-0.4320000464757978,34.27502789733331,17.548303877028573,4.606806686666008,2.795108724471095,2.380551269348407,1.9368450976231426,1.5589343420094912,1.2550037216079135,0.8989016576131029,0.5866678921571378,0.3463283271629662,0.25499262591694316,0.10713275870767773,0.059400010619520806,0.027354250209520165,0.017472779386100923,0.014147823965783337,6.968414501073689,5.0641903568519915,4.466497460558974,3.9407390621557536,3.4235543843449667,2.8914484451160263,2.3287511946173916,1.758171384360301,1.2394889601220913,0.8031105221103777,0.45946028534461275,0.29880742024455403,0.14086458052906922,0.06918500019937218,0.036791527501741327
0.0,12.0,12.0,0.0,120.0,0.0,0.13608912218786462,-0.14246259810846773,-0.28877452430008876,-107.14776086357132,0.0,-44.97543356662625,0.32636426610468333,0.9355893435970037,-0.523173438151884,34.27502789733331,17.548303877028573,4.568962714180874,2.81954654424864,2.402162596940381,1.9922542139364543,1.6114038080672795,1.2111612596076298,0.9519242960550348,0.5796061410556661,0.418879573681481,0.17009843991681303,0.137848861562005,0.08377875865274173,0.004629711447797086,0.01753891428820569,0.01440124635136162,6.946212842973285,5.063355101157542,4.469010449193054,3.994688681161846,3.450526007747863,2.894264336631208,2.3461338510551824,1.779107489319117,1.2561833472425605,0.8235078606438272,0.521558653149274,0.28269415771971274,0.1552839084816973,0.10058205192604341,0.04300857872542868
0.0,13.0,13.0,0.0,120.0,0.0,0.8511932765853221,-0.7290518715550995,0.8808638905056261,-106.99872911364342,0.0,-45.058686348292355,0.34306022372193745,0.09376980333884433,0.029025486597513472,34.27502789733331,17.548303877028573,4.586115203546017,2.846046436724514,2.353419628592707,2.029603015353865,1.6029130608043407,1.258471695758268,0.9209703773679694,0.622867809925557,0.3473955049576437,0.1906588467488597,0.10347223555313609,0.05897394887378886,0.019652911769032378,-0.010596459284477633,-0.02459857809129004,6.957054177778011,5.095907095093447,4.517163290289891,3.9992278425577585,3.477367935687022,2.9087494821492137,2.3444614409354068,1.7865642134391662,1.277047074058456,0.8689373994070528,0.5155687145195346,0.29126791014728853,0.15723804650868173,0.06112902403436192,0.031920767653797096
0.0,14.0,14.0,0.0,120.0,0.0,-0.8579278836042261,-0.40343534808793846,0.5306505076139305,-107.08424533891431,0.0,-44.936436188036666,-0.3398975464767901,-0.4503528602648068,-0.26414483892591734,34.27502789733331,17.548303877028573,4.594616119367348,2.849702774168498,2.388495171000255,1.9917226277585252,1.6213486656781504,1.2909251318050134,0.9228865648215333,0.6528406355259754,0.40390263101071605,0.2431073857780162,0.10075775542123487,0.056547026107341504,0.026124909547314522,-0.00315809768862374,-0.013651744504986492,6.942869304895658,5.144618683100592,4.512739187259367,4.043891527704257,3.476889516195337,2.9191036994998,2.373328704745864,1.800826209257433,1.316876411937963,0.8725071525637783,0.5476069315218627,0.2930105366052649,0.17479786555094431,0.08910307935176044,0.02420619975402987
0.0,15.0,15.0,0.0,120.0,0.0,-0.8257414005969186,0.13992982140252974,0.4973272397010946,-107.04759833676603,0.0,-44.91106353146775,0.44623859363602875,0.1844608375236736,-0.0869602174746893,34.27502789733331,17.548303877028573,4.675653250921859,2.88587215087373,2.4553060728954006,2.0572025858121363,1.633245207464033,1.2634783868622266,0.9232412073165119,0.5993050418086033,0.39027161880162337,0.2383543931139735,0.1521757669445568,0.040419530256757374,0.04243638005277505,-0.01602167499659791,-0.008664897759137851,6.964482807425119,5.143796264113207,4.55491753172661,4.0563214913331125,3.5124111276299996,2.950272612007019,2.3842244804293258,1.8510862340438257,1.319213185969163,0.9055777103373479,0.5268883450851856,0.3211809264515009,0.16018540969045295,0.0842368440711132,0.053429694084030685
0.0,16.0,16.0,0.0,120.0,0.0,-0.9595632051193486,0.18174552249634646,0.8074394794918669,-106.87429645740855,0.0,-44.97524458844022,0.24558065449222852,0.7935223164488197,-0.32504523647152017,34.27502789733331,17.548303877028573,4.6252221631687975,2.9095911651350557,2.4538007952554715,2.0452883974192124,1.6735457936666127,1.274127468666905,0.9393319137934802,0.6345465382080635,0.43394374337341324,0.24772306634512914,0.11390909935189322,0.06155060912044991,0.046608725196275895,0.009350155761644878,-0.016032729936929523,6.978846562263849,5.123420997381997,4.579488903740509,4.053132797825512,3.509432615577022,2.973980211324994,2.3710853590208663,1.8720159535971426,1.3367245101977623,0.9023666807015784,0.580545503988663,0.3334852986374528,0.20715040506736343,0.08331260031930615,0.037557815107095424
0.0,17.0,17.0,0.0,120.0,0.0,0.665239691095876,0.1486504976991576,-0.8331551291159629,-107.00278721415349,0.0,-45.036962666738006,-0.5718322405867036,-0.18653330832850346,0.9409873871919552,34.27502789733331,17.548303877028573,4.593847337053592,2.899459469706,2.422634655895313,2.0415225003281323,1.6228152678840104,1.3249587383084156,0.9171177681074401,0.5942428537707598,0.39455661753680843,0.23225667512594983,0.10429813422889313,0.08300091026142252,0.023157565641207432,0.011032249036676134,0.016242576445584654,6.9860937115194535,5.189064430267864,4.569350292014427,4.06989675516488,3.5435521599717337,2.9353599112002473,2.3837849562540794,1.8646122121245077,1.3525613631982356,0.9389134093273105,0.5893282832144925,0.3135846222032048,0.1819139857888202,0.10593734900370844,0.04234365377573173
0.0,18.0,18.0,0.0,120.0,0.0,0.556313501899701,0.30640163971426726,0.10438493984481312,-106.98780814392804,0.0,-44.929723800968105,-0.5907241010363864,0.1041565533839417,-0.733121136508792,34.27502789733331,17.548303877028573,4.61116328906139,2.9426673685498526,2.4685491648623166,2.0772006376496193,1.6867789140930778,1.2351923788684804,0.9724957687215768,0.697393413731866,0.43491275729322953,0.25413021100562455,0.1460384539987214,0.06925082324577625,0.04033961667358953,0.010891912403673232,-0.0120449218476897,6.969281585991854,5.175301003527989,4.585132915891067,4.080589688387499,3.577169185919649,2.999815726762214,2.407517924292377,1.8644780288951384,1.3760880092969745,0.9297026736778643,0.5899359464432505,0.3500008234277177,0.1798725998517713,0.09559476713625864,0.05395067453989987
0.0,19.0,19.0,0.0,120.0,0.0,0.7400242964936383,0.30420654000337777,0.16895213791153774,-107.1113476784816,0.0,-44.95278776902104,0.6418956882116117,-0.45669446478770825,-0.8063920936432516,34.27502789733331,17.548303877028573,4.633320907831295,2.9466912647266197,2.4648196368253728,2.079448919503017,1.6762050144373954,1.2961588721865596,0.964482258492503,0.6778021523379048,0.4349990152680897,0.2655769731361344,0.11984065982220286,0.039329121320696284,0.03638545808506248,0.025408660968400512,0.004915009690841107,7.013867453556194,5.224542366670685,4.66999202577605,4.1133115569426995,3.5507972376625014,2.9906380416813874,2.420352261456637,1.8898584251607933,1.3559872154756993,0.9722479319924081,0.596472125010045,0.3426105475667051,0.16907630805717042,0.09126707969010692,0.0422566851897898
0.0,20.0,20.0,0.0,120.0,0.0,0.957236684465528,-0.1371631291320521,0.923872757094458,-107.04556529117467,0.0,-44.94578703679032,0.9147413611663578,-0.08911170109994604,-0.3132165424181679,34.27502789733331,17.548303877028573,4.643192233133974,2.9651799068456617,2.4756729157111437,2.0754697485420013,1.7065542609161972,1.3182574257120219,0.9716611921104161,0.694065085245887,0.41640670562374843,0.24235684295496449,0.16445885196877555,0.03545669874717792,0.0016480397388689214,0.028450738184129472,0.008919638714903227,6.998278580422089,5.227131191232487,4.648106494053729,4.134223629955476,3.6042818551497784,3.0097712177199494,2.4381374321262386,1.9212710217137823,1.401229616379351,0.9984217665047357,0.6090358620561354,0.37344286758805073,0.16501678207021725,0.09733306456445853,0.020095416885953576
0.0,21.0,21.0,0.0,120.0,0.0,0.5983171284334472,0.793093191702126,-0.4157049464149023,-106.98771516245445,0.0,-45.04102897968572,-0.10817341124079033,-0.19657292924080272,0.1820538017409825,34.27502789733331,17.548303877028573,4.671766051906786,2.9488187030521273,2.511726950964886,2.103480695808797,1.6819771712403833,1.2907376436231515,0.9633340993852613,0.7139548569602251,0.4369367783355378,0.2837098299687234,0.1405251088762208,0.08605007071029819,-0.00814403425868316,0.003625657111246518,0.02371057784512269,6.999281563428148,5.24624471922717,4.6613167282457555,4.17317693346437,3.6046682930912652,3.030506420111011,2.4618094944223707,1.9140660936298923,1.4158517417739396,1.0003149171492791,0.6198684678231496,0.3647571040189342,0.18394582807789053,0.09946947506960957,0.06690180877790265
0.0,22.0,22.0,0.0,120.0,0.0,-0.07704127549413631,-0.26487625990420693,-0.5183424401691064,-106.97782764418042,0.0,-45.177159656579676,0.2407756815583144,-0.503173069834058,0.3183529437000565,34.27502789733331,17.548303877028573,4.6451588041580525,2.968418626096424,2.5445152646589793,2.1213188587641523,1.720685606018332,1.333000694418462,0.9822336981399774,0.7007093443514706,0.4306089725290378,0.24808050407571247,0.14659965213118611,0.036597144724811674,0.002105946707372512,0.0508172250370526,0.019875429397953285,7.007603469448984,5.286996432771467,4.672347680981095,4.169537266355601,3.62676239916147,3.057550342032723,2.4711176630820213,1.8773729058144384,1.4093627358758138,0.9958442605809169,0.6253051875004024,0.4046725803652091,0.21090676918589757,0.10755791711827828,0.028746677490734077
0.0,23.0,23.0,0.0,120.0,0.0,0.5610583525729109,-0.12827014946874638,-0.7994121154690044,-106.96144459035042,0.0,-44.867700561157264,0.7407705434072896,0.011732767650616704,-0.2054865056639159,34.27502789733331,17.548303877028573,4.666183309293574,3.0166708342846253,2.5648923739919094,2.1586040627296277,1.752746530129242,1.3233749044763332,1.0167163500815821,0.6591923298083184,0.44164323456370047,0.28213619207437224,0.1447686987092746,0.050793160845382185,0.014367005425061277,-0.01926152541325913,0.015349812642965359,7.034948649448128,5.284957609218007,4.703556286596654,4.170902972169641,3.6484155231196196,3.091990127309049,2.4471353800825644,1.9095426581132724,1.424041154562095,0.9911442134375825,0.6432027094521939,0.3979980721612694,0.21623902352365423,0.10929364297485143,0.03538229928043623
0.0,24.0,24.0,0.0,120.0,0.0,-0.7634511482621336,0.7838467100313442,-0.9671407408170516,-106.99946075631765,0.0,-45.100679900215624,-0.05442481799960734,-0.37923834804037715,0.9985559878443422,34.27502789733331,17.548303877028573,4.6492475054344355,3.012400185581682,2.5917514106764536,2.1535875521934646,1.7333228880130815,1.3481187806425707,1.01077809082339,0.6655471781794285,0.48669946021690014,0.280375492362472,0.1463113362498512,0.08247873519435897,0.036703036985942926,0.005947257379050721,-0.000708049044826276,7.0053974647886,5.317124663904482,4.722630594888674,4.198858749761082,3.6539937349369738,3.092547905333226,2.4849184628063856,1.925964131952661,1.4499345069011071,1.0381041224471454,0.6275743653982387,0.3866767743061294,0.20866519719300042,0.12063860720027325,0.061133392918792016
0.0,25.0,25.0,0.0,120.0,0.0,0.27984204265504764,0.6123879780921715,0.8590586335843811,-106.96706223697159,0.0,-45.00223550449127,0.9021119388314567,-0.25393027223850506,-0.2962140076139148,34.27502789733331,17.548303877028573,4.678205436601683,3.0116995513704037,2.5936043672534552,2.15236296925146,1.73492851797771,1.3854890517782357,0.9806795728833452,0.7271354621593052,0.468449790624647,0.28747212731162514,0.15995233506986606,0.0412128920014578,-0.003596753437475654,0.017865819342973783,0.01634828664329071,7.027890634445991,5.313395109861611,4.75282509930068,4.23264308602626,3.6538157227674777,3.1019360057781773,2.470425012798048,1.9532548362080784,1.45884387662173,1.0339137553971733,0.6426858511707827,0.3890156717557386,0.2412082727504832,0.1155657592901943,0.049220684283364464
0.0,26.0,26.0,0.0,120.0,0.0,-0.7132934251819072,0.40777716708073264,0.3398330931818201,-106.97163863046028,0.0,-44.85120341554877,0.045987947354030334,0.049940884508528516,0.4428133359199049,34.27502789733331,17.548303877028573,4.7027954241462995,3.069541863466437,2.6418131625746417,2.2071252592552195,1.7657218993915582,1.3757186924314189,0.9980481678717014,0.7277738424518001,0.4361789930257381,0.25109772024342997,0.18647686253447085,0.12121304701208864,0.043588799235374294,0.016116795576671762,0.018319043117071585,7.0223894519926,5.349987864144358,4.774731824074482,4.263975103949826,3.6619121115449764,3.0928016076771656,2.5207995864839114,1.9432570161485854,1.4470240755058508,1.0581092390559783,0.6661668418166593,0.3853460247303521,0.18910550345192179,0.11868397946634228,0.058837494983844225
0.0,27.0,27.0,0.0,120.0,0.0,0.8893378340991678,-0.7995462253753978,0.5703058240462755,-107.11435877568778,0.0,-44.979338952732846,0.6345051174926579,0.501190045857975,0.2751653890615857,34.27502789733331,17.548303877028573,4.692344114972418,3.0628395478202415,2.6120597646377774,2.183674668336138,1.7599377435257242,1.3774796071391764,0.9905937630280417,0.7122061624438732,0.481909351938443,0.2703155312994977,0.13058547878817625,0.11063300593118726,0.01536960754869144,0.0005488304094629082,0.009286829256197029,7.050392825538394,5.363862898890097,4.803278740657753,4.267985594123278,3.6887008559045045,3.1370834711751785,2.557014494386315,1.9878260165438224,1.4722103843041323,1.063490060942246,0.6786544092757157,0.39287601665537103,0.22431210914438213,0.10888746644160878,0.03547676616579537
0.0,28.0,28.0,0.0,120.0,0.0,0.04369664350014335,0.8389652274893471,-0.43653978849210184,-106.99768714238061,0.0,-44.940672095402604,0.78440681687491,-0.33298506841744935,0.6261077264949213,34.27502789733331,17.548303877028573,4.68760515869605,3.1242473194044016,2.5910324928301898,2.230616098935269,1.7578752151488244,1.3440680880918894,0.9804966207271802,0.7527003174309704,0.4687979730871868,0.29270800877628955,0.19075449369785205,0.09928306430579352,0.006898103193969784,0.03246309424193019,0.008824004438331479,7.04189695424828,5.389520462438503,4.838399792564879,4.280736338813558,3.7279087590751208,3.1294422670046784,2.502885585460533,1.9589126495891809,1.4808705681378858,1.0635724855543423,0.695598903805156,0.4143920112033035,0.20952627605476676,0.13844532717119035,0.05376845959855904
0.0,29.0,29.0,0.0,120.0,0.0,-0.17067612001895283,0.42848259909822284,0.17282033237265337,-106.95200609951671,0.0,-45.09389978558636,0.6713635921283799,0.8483175332415271,0.95245132690764,34.27502789733331,17.548303877028573,4.694318489899452,3.1226009855488477,2.6694154753981505,2.233830887246232,1.8244254222318974,1.421915959910069,1.0341538572802285,0.6980657659534011,0.47919017056870183,0.29486999981068196,0.20225637518481188,0.047951122626648496,0.03366573458753115,0.0028572360314747264,0.012069890346735715,7.014264409393663,5.4286306599242415,4.840315366483636,4.286133554232732,3.7338627195159004,3.1536290314214313,2.51726485872573,1.97965510260678,1.4697919414276275,1.0437701072043444,0.6884619894284396,0.41404136768796557,0.21826537924046452,0.11841031284317209,0.06344797564286875
0.0,30.0,30.0,0.0,120.0,0.0,-0.47088877579074606,0.997694013135733,-0.8720894677580378,-106.9631325112041,0.0,-45.11110418467085,-0.6179309210399513,0.7246370936718047,0.7795873128910804,34.27502789733331,17.548303877028573,4.720283400469342,3.178298623987737,2.7007217795226475,2.2406574621156556,1.8047026563487498,1.3727518639911687,1.0296183020879108,0.7128270499342226,0.4959518667852268,0.26548578366823333,0.16033959800347153,0.10308046147044617,0.022194362943743388,-0.0004498117853132342,-0.02455308297894714,7.107291817446946,5.4201078579271025,4.841647761662154,4.323383585411191,3.7453991292866546,3.154786775944541,2.565428832285771,1.9836469291643013,1.4790793735294738,1.0377171078817808,0.69520973997112,0.4174809275658839,0.2509826008246673,0.11787324998099949,0.051151286292304296
0.0,31.0,31.0,0.0,120.0,0.0,0.5484673788684333,-0.7011033906840125,-0.028744808130754196,-107.02274117562317,0.0,-45.03329392449872,0.21667493782582775,-0.9026194080489429,0.5291239487154171,34.27502789733331,17.548303877028573,4.712686996558717,3.160731272845552,2.6785959246147804,2.2583210870858097,1.81082553579116,1.4291044721919068,1.0358911476971164,0.7206376548779156,0.44728508990395244,0.3097886055537668,0.17836091016215097,0.06721052581100205,0.058512758438279446,-0.01250813804998177,0.004975091637309069,7.066881785108147,5.432860246556333,4.888162086801726,4.38406037399542,3.7767210919571363,3.1666229862780937,2.5710266787381264,1.9982231546160294,1.5002928718317543,1.059682710302183,0.7222433834857986,0.4288225038285799,0.22467812172918214,0.1170235721337537,0.04283098506283288
0.0,32.0,32.0,0.0,120.0,0.0,-0.0876993355669029,0.7362521147364285,0.9549902794888936,-107.0503516567212,0.0,-44.93182814159785,-0.17385740561833013,-0.49271495148635447,0.39649695563658116,34.27502789733331,17.548303877028573,4.732935317444422,3.1742573659904068,2.682878125089149,2.2996545685160834,1.838243642268335,1.4391572249563507,1.0314340866568006,0.7279544309669224,0.47133074342036985,0.3170931864054737,0.16525408254178894,0.0708832516016164,0.004987952719089299,0.021702495008423688,-0.00905006203921315,7.079749741419487,5.4685837846237675,4.923261210556983,4.386779903549922,3.8009420517051358,3.1791869111951696,2.5827561711340317,2.0309397057992604,1.4943036373052532,1.0749997006726113,0.6834269596630467,0.44768732366005737,0.23008806400909756,0.13195034401326142,0.02958408363539432
0.0,33.0,33.0,0.0,120.0,0.0,0.13686789773729702,-0.6750141306472504,0.7530104906331816,-107.0698944952701,0.0,-45.02164059047796,-0.7660816585979515,-0.10772897468159615,-0.32900366064820075,34.27502789733331,17.548303877028573,4.798021060274678,3.201684914910584,2.7390921993281645,2.30287837568674,1.8522550665057782,1.472980824756162,1.0175416815476488,0.7398550783022101,0.50818731754749,0.30404070541308076,0.1699748010773526,0.08442995337753004,0.014317021017816858,0.01716788908044893,0.01627232362438614,7.090074012051654,5.494770171083235,4.923112000672588,4.394968608324951,3.8320579075154577,3.1714732097718747,2.5877554982535558,2.0085975019600526,1.5350939434258506,1.07945624596894,0.7353093804609002,0.40129947887738115,0.24597081082164438,0.12667995354914938,0.0755685212544085
0.0,34.0,34.0,0.0,120.0,0.0,-0.9624203991272897,0.23111912856768835,-0.32368209632630873,-107.00819087572134,0.0,-45.04966477006697,-0.19366754125597604,-0.7907442225150518,-0.7046288435865853,34.27502789733331,17.548303877028573,4.731175724518932,3.2276294489158577,2.7485258634172367,2.3058305388905596,1.8971457194762231,1.4398998037388777,1.1018794062772812,0.7600594740029345,0.5120428575717133,0.318662446789446,0.1523476490244257,0.07982480310964583,0.05224771770217475,0.030723625467539192,0.03279528133365657,7.0902965584878945,5.508129668821442,4.968030124593747,4.407970159125525,3.844580927247494,3.2374620457148113,2.6056847585156926,2.016599554769729,1.520513490161413,1.0933181626731812,0.7193420066414129,0.4690885490138216,0.22827225670356738,0.1100848975387701,0.04228517173698336
0.0,35.0,35.0,0.0,120.0,0.0,0.23527099415175412,-0.752360034301117,0.923140309082997,-106.92918250752751,0.0,-44.98762704437844,-0.3775117574666135,-0.30304802193300584,-0.8747279938803805,34.27502789733331,17.548303877028573,4.766410690244441,3.2049420192308675,2.7534690292418755,2.3195145921040043,1.8862905181323055,1.4659390272288622,1.0396996224413348,0.7612373394674016,0.5327437145023577,0.30503489531891825,0.20880975574503818,0.09415574180091356,0.08223125685458726,0.04015693250374451,-0.026288675760064405,7.1080835030555924,5.562518872570621,4.978174639282943,4.441842689956164,3.8694873890567787,3.223157476667009,2.610638178753598,2.035340132785047,1.5213252976242182,1.089913798974193,0.7359628028167579,0.44796640512510116,0.23419072564822674,0.11057055485551914,0.04594939429462516
0.0,36.0,36.0,0.0,120.0,0.0,0.22419144544484282,0.6960164586444688,-0.536596747057591,-107.1219877563426,0.0,-44.93237904884518,0.6447900014088561,0.480195051235365,-0.5161965915970304,34.27502789733331,17.548303877028573,4.791631397034386,3.2714933559051347,2.7693828533013054,2.337967817660134,1.8656891641087523,1.476009608497608,1.0718559786355861,0.7204407981456633,0.49872136298061925,0.3394375455737537,0.1626959180767703,0.11848989614268285,0.03524709841804891,0.02154601220966529,0.008121773842912395,7.1413457132944,5.571474392740872,4.982987396485314,4.443355752002402,3.844328722198989,3.222993337073543,2.622802406013151,2.0244924244322324,1.5314105104137636,1.0852493834318935,0.7184504574615291,0.43909431839290836,0.25934789942455655,0.14194742133904265,0.06367316645861618
0.0,37.0,37.0,0.0,120.0,0.0,0.23386799374951384,0.6146379174500214,0.8986376448313629,-107.04124323310809,0.0,-45.09030876244209,-0.9319557621811106,0.36102896228565173,-0.13543703763740278,34.27502789733331,17.548303877028573,4.78144310817679,3.31164947487757,2.823096864568152,2.37427670475255,1.899084050829107,1.4923511223305395,1.0885358317280824,0.6859957774733694,0.514439900490786,0.2739938892555912,0.19346035657353622,0.08936565192510476,0.06728949394233999,0.015794699932016352,-0.012045753222364869,7.125596428330137,5.6100076540022625,5.025667192370034,4.484325018851882,3.8990227226232776,3.268228320773475,2.6338117160572243,2.0680828422261093,1.5620619278512184,1.109968780005798,0.7304961265309566,0.47222303760992246,0.2694321379865853,0.14080387960589377,0.04165682947526056
0.0,38.0,38.0,0.0,120.0,0.0,0.8874961570292483,0.13820147722918663,0.8827554094129972,-107.07123765346417,0.0,-45.075658937132715,0.917268842986832,0.2447688571320097,0.04399254725996493,34.27502789733331,17.548303877028573,4.819770572294091,3.3038957155559556,2.8254000800641794,2.39115669329214,1.9280658041278818,1.477448032070173,1.1134386835155274,0.7202010537188652,0.519090583583713,0.2772305810494385,0.18929132567930762,0.07541655927122932,0.061494392812078295,0.019955562575409185,0.011487854664628554,7.121646014664733,5.6062166814278624,5.052686257267486,4.517550871424509,3.952459936606992,3.283999515901568,2.66070371723868,2.032534551020078,1.5251825074600922,1.100713738327105,0.7218433887176303,0.47620508832206826,0.24933609321268724,0.15228449497461277,0.08168011912352807
0.0,39.0,39.0,0.0,120.0,0.0,0.3636405982069668,-0.18563340554800067,0.5984051747047834,-106.95094015492246,0.0,-45.04929182840684,-0.28854362181426185,0.42105680544469126,0.5461671081097432,34.27502789733331,17.548303877028573,4.830716930773089,3.354447725631354,2.848673251310451,2.4154222352737267,1.9503180758248129,1.4952585014955975,1.104293519305939,0.7963007000580586,0.52157911639035,0.32455525348320613,0.18553649014662257,0.0739724671746269,0.022857170954953408,0.025191794245984223,-0.021731068695038762,7.13701266612431,5.662250400107411,5.10451344841565,4.504034469309873,3.951258357658904,3.2929564146529917,2.6575201583545303,2.0629183019921937,1.5673009743547077,1.0871093026669187,0.75062550715982,0.4447297818524357,0.2665466076519124,0.15645560680750759,0.06109838701851595
0.0,40.0,40.0,0.0,120.0,0.0,-0.280984198852428,-0.8616660090897239,0.26089587373358225,-107.0346443516607,0.0,-44.931585101580495,-0.3389410968141608,-0.5901526260805965,0.917481846113186,34.27502789733331,17.548303877028573,4.851863295033793,3.3758658180498515,2.853708343209084,2.45448099558065,1.9907219773924263,1.5232384891200816,1.1022926358772043,0.7550486460177056,0.49650268309240553,0.3552603890010815,0.21375454072773198,0.09469997569178656,0.012132709558139498,-0.039564254727531285,-0.015696483974551437,7.159258426647916,5.688971237675193,5.087708065964661,4.561077737883873,3.96557483239216,3.314027143492936,2.6676160323642866,2.0535176944940727,1.5393259235881736,1.121814589125107,0.7453167975174979,0.4641335327737324,0.2604564284620108,0.14554283416629213,0.05067582259433818
0.0,41.0,41.0,0.0,120.0,0.0,-0.1259360924013171,0.3948575462891273,0.748575933249894,-107.02941485363468,0.0,-44.9853236546282,-1.004291938617861,-0.31660377027053577,-0.765359039230378,34.27502789733331,17.548303877028573,4.849878485870389,3.4324313446009134,2.8752049427608553,2.433853773932263,1.9558007944085125,1.5283088024876865,1.1294643760489333,0.7588340002265574,0.503392332581845,0.3158658070299947,0.19690817116374315,0.08181766277623842,0.03765430387557093,-0.029736854520360022,-0.021714030175676472,7.171511970603499,5.705844295643969,5.127734152565492,4.558179588245414,3.9426023960664356,3.3306573444715006,2.656639946848924,2.0980639390832003,1.5643237287597038,1.0965424670187904,0.7382470656631515,0.4554751196939919,0.25272190701819036,0.11612295921008092,0.05028770935361417
0.0,42.0,42.0,0.0,120.0,0.0,0.3952623918545297,-0.09291463464386229,-0.4139594309844066,-107.01355934812103,0.0,-44.866740411839345,-0.6712678674250946,0.35248496455492573,-0.7859917196124169,34.27502789733331,17.548303877028573,4.856566072473956,3.3990316767309143,2.9390701905745575,2.460590304963715,1.9615835301890727,1.5223644479886795,1.0965742225625406,0.7675629855371542,0.5334487750373478,0.32876049468803115,0.2346677595561711,0.1059110192284638,0.027209515076677807,0.0362494848306881,0.029197916489472852,7.2042424866341115,5.698682399499159,5.145575852954839,4.616577393084407,3.957801898306753,3.336226902614932,2.672299032152855,2.076629936868,1.554331697270172,1.143367869109941,0.7529768253678567,0.45700383115502624,0.25164291469342626,0.14151265573074565,0.06368333018423439
0.0,43.0,43.0,0.0,120.0,0.0,-0.8795490567414603,0.44411119894069584,0.6978871106258364,-106.97216292181908,0.0,-44.94147214213555,-0.17704583618000397,0.7584695260626542,0.1793894460271015,34.27502789733331,17.548303877028573,4.917707885423884,3.4502069129873996,2.9051245487052006,2.4632564064656273,2.0204511287138756,1.5269938793948143,1.1589887134230277,0.7554502819766447,0.5299611003629431,0.307476497991591,0.17816390061112344,0.12185635971606176,0.04408464786403974,0.036658731972342096,0.01681988114896603,7.2113193203784425,5.727727737169091,5.169587406274254,4.628319399318749,3.990778611389447,3.385414477903535,2.694530440186762,2.0949797406543778,1.5604995821850227,1.0976217804607915,0.7866402672179157,0.47004394766506774,0.26283757806838026,0.13830462936609922,0.08527956294081956
0.0,44.0,44.0,0.0,120.0,0.0,0.33353343089133536,0.7327646518572584,0.23575338383504763,-107.02452431238436,0.0,-45.00219344855435,0.8792100292623223,0.0873561076561904,0.4907961478945859,34.27502789733331,17.548303877028573,4.880922298630096,3.4789598831333097,2.949401954673592,2.4827081709832437,2.024394788722671,1.5720471091128363,1.1189005107953702,0.7669941822032639,0.4964907730347704,0.35006381703825995,0.1781204200327154,0.06191876651011114,0.07643815902648092,-0.008059800181717616,0.023269713962766933,7.214957812066322,5.77295204660815,5.189155346786394,4.650592941307718,3.997864621350238,3.385513426929877,2.7426391417432416,2.121719260982401,1.5514541181766726,1.1191528117976963,0.7612139107503975,0.48342983423046043,0.2703793201072961,0.13573000397977145,0.07424333370305729
0.0,45.0,45.0,0.0,120.0,0.0,0.3412757392363188,0.9510430100057716,-0.973526284482201,-107.19038394092499,0.0,-44.920932635119456,-0.6616486188238162,-0.43460069810892676,0.6963007606939697,34.27502789733331,17.548303877028573,4.945428947050163,3.4839421270404025,2.9971163598501,2.4586783466262627,2.006969777755156,1.5551093495231798,1.1268347789669364,0.7947531651575738,0.5448189636852815,0.3394479755657703,0.1784212437014106,0.0696085475544141,0.05943862671189531,-0.01739884264629963,0.02079586663397128,7.222403361518187,5.775299885647539,5.228897028129199,4.668104703547789,4.043688798451279,3.391454206143164,2.7376926149845433,2.131240602144179,1.5951419397771691,1.153010409347313,0.766900558821035,0.5031196629282442,0.2827375334886853,0.13665933703283573,0.05069168562662147
0.0,46.0,46.0,0.0,120.0,0.0,-0.5792348778523182,0.711606684785222,-0.30553296413556086,-106.96604300678828,0.0,-44.98678143670426,0.9762898798513542,-0.9395294839880348,0.8716641604335771,34.27502789733331,17.548303877028573,4.94037263209369,3.4856579244358006,2.9826171433329343,2.5389291579275373,2.0290701194077947,1.5531025217041516,1.143879134240144,0.7940164138723381,0.5222439887987825,0.3228428374478767,0.21023222085063104,0.10906960456854906,0.043922651546137316,0.07169174596767017,0.01145699933720343,7.258898962054069,5.811967821940828,5.228094160272429,4.679081390632145,4.060331422069437,3.401545216167016,2.764288756396983,2.124422840647832,1.6007359149934741,1.1416109800303593,0.764643351995923,0.48312193877031057,0.3017837529602693,0.13503951196204658,0.07848162654097188
0.0,47.0,47.0,0.0,120.0,0.0,-0.7421474046902934,-0.9765718316299961,-0.7037182781036699,-106.9725598151455,0.0,-45.044057584531714,0.7071118584596094,0.4206736579484267,0.966852484521284,34.27502789733331,17.548303877028573,4.929647153860694,3.5301841866344854,3.027012194264369,2.5601777786926534,2.089168431445214,1.5830208995853607,1.1343288246957668,0.8108647660047447,0.5217984915189573,0.3373709035445996,0.1913293417882436,0.06271304519109801,0.05960834589323701,0.03319720425021451,0.02670438151060337,7.284874557021074,5.828489668379996,5.284610485178539,4.722047406383791,4.078392662472009,3.4320549305224994,2.7641137295948845,2.116838422781722,1.6036599952237036,1.1329330423939619,0.7647898658064616,0.4596207864336422,0.27237285355109725,0.1448148277943535,0.07620479772276373
0.0,48.0,48.0,0.0,120.0,0.0,-0.36914329815163227,-0.2800438710432722,0.9636587796365064,-107.0137213142707,0.0,-44.957501572234676,-0.07137085519763481,-0.9842317929831192,-0.20039661555094823,34.27502789733331,17.548303877028573,4.9708181652646735,3.532379707638079,3.069093386324785,2.57007916404567,2.0831215046205487,1.6158771015607483,1.189752559560421,0.8431311632946057,0.5307516662514772,0.34059455075575695,0.17257295923030802,0.12567439840409417,0.025218630755544962,-0.015777221307944286,0.02485128061296392,7.260806132059926,5.888048022592224,5.309203494648545,4.713395909214142,4.062697749082721,3.4255717385063646,2.769438711007105,2.125871018059625,1.5963894075774263,1.12910903344991,0.7801091643487822,0.4896917550750483,0.27455702176879165,0.1695744445786765,0.09077054690958529
0.0,49.0,49.0,0.0,120.0,0.0,-0.2725784581147548,0.45998112484811604,-0.043259385920023874,-107.067752288792,0.0,-45.04352041586631,-0.2842783626639949,-0.25464186035800895,-0.23932963294485377,34.27502789733331,17.548303877028573,5.002072878820352,3.5531699725479498,3.0495291327783587,2.601255506498497,2.0745864825017293,1.596265277248751,1.1863572526363935,0.8175565585328469,0.5625359897832891,0.32693045503745494,0.2245094646679696,0.09311065452644313,0.08118792056545712,0.023958677015610046,-0.00989644693690137,7.257715209432565,5.8978869355443395,5.32502032627831,4.777350246443453,4.124617112527298,3.452762158452725,2.798512487965408,2.1500868464846645,1.6037250097604336,1.1633635667856788,0.7735860567887028,0.5007271488752768,0.2751118966958054,0.14763594605103375,0.07215190469324047
0.0,50.0,50.0,0.0,120.0,0.0,0.14039354083575928,-0.656740645477119,-0.005217269002674607,-106.97801374308241,0.0,-45.01814981880024,-0.5325991274207289,0.0610744291255636,-0.7043826466054552,34.27502789733331,17.548303877028573,4.999729034113058,3.6195792338346227,3.1154253364572178,2.621305342033257,2.1140719691479175,1.6045352516693152,1.1931059129403678,0.8257424283423314,0.5589783597693972,0.322458786397458,0.19357057595064886,0.11845942776756621,0.038199163726621334,0.017409148283546366,0.04770730570724731,7.334485513728715,5.951029405951862,5.371196859217272,4.77165676168356,4.155375050221831,3.4708896492719967,2.7786773997026235,2.154991595440127,1.620291493085103,1.1508893779220426,0.7757734792657132,0.5053225453235773,0.28804786282958117,0.15575378193459197,0.0724041275302634
0.0,51.0,51.0,0.0,120.0,0.0,-0.1227969730753593,0.042073212408258565,0.2789450327974472,-106.97629777915402,0.0,-44.91701358150263,0.22457681430081522,0.8442229235343861,0.3698688773671188,34.27502789733331,17.548303877028573,5.012495875944806,3.6167195809290065,3.1284292995015544,2.6215505793879426,2.0762542113045894,1.6212444296962514,1.1598189084666055,0.8312494013181373,0.5518284921644834,0.34955193311072297,0.18445250432687044,0.12126300398878245,0.057890580992655025,0.013912919800989212,-0.001239177558852984,7.333285978668785,5.9510468284262386,5.387951367409168,4.829090242208123,4.198524110974056,3.5194945581790047,2.821723013770218,2.149173572487206,1.6145164902658973,1.1549966745625082,0.8111517791210165,0.4861140972538588,0.29366951245816286,0.1553054151537505,0.05808342926757257
0.0,52.0,52.0,0.0,120.0,0.0,0.9767476761184524,-0.8913240233214927,-0.26283078774076496,-107.0293770551688,0.0,-45.00633009288859,-0.9306273831258707,-0.8210109099341998,0.31352391688167414,34.27502789733331,17.548303877028573,5.056822686813432,3.683503469745554,3.1183991631083776,2.679548002237749,2.0905510232847084,1.6286637495353686,1.2112656506631736,0.7965177511665883,0.5511885357520756,0.3140023545183505,0.19735582422750128,0.05907497611468035,0.034405598238913246,-0.00917633983886364,-4.76705358221554e-05,7.328394214350096,5.97621336418276,5.423257596687636,4.8230573524238185,4.199630060759991,3.5362062580411955,2.8231292238526846,2.1683054301060682,1.6124279423197818,1.1567109837336216,0.8001666362280307,0.5010662975053737,0.3037132705088332,0.16644896991513855,0.07446323570785401
0.0,53.0,53.0,0.0,120.0,0.0,-0.7959103785039439,-0.6000069502071999,-0.7261994566288021,-107.01354571691097,0.0,-45.05019633670885,-0.9145830818058168,-0.18811535606343255,0.7241251917024145,34.27502789733331,17.548303877028573,5.079811311201287,3.743771323347312,3.2016696005274117,2.6669922140305835,2.172854068564843,1.6654939909789,1.2226613193502436,0.8405909459993192,0.5265228908797182,0.30897338941953095,0.21217816750411445,0.14695250801054274,0.03628300508417962,0.01906308347226465,-0.012998537643657406,7.373146783552769,5.97814301593145,5.401064518752405,4.8682352990209745,4.209707793978412,3.5207295326473145,2.8295568430607876,2.198800831687303,1.6312489654036013,1.1550818464805264,0.7790815871725412,0.5141553331282394,0.28445295784090563,0.13662119062325692,0.07470925611371387
0.0,54.0,54.0,0.0,120.0,0.0,-0.5822464878103306,-0.9629564110787721,0.644235466388491,-107.05813478140777,0.0,-45.02902110571472,-0.19542858767885138,-0.9513736005796845,-0.8054840104247187,34.27502789733331,17.548303877028573,5.102083692739906,3.7604153547970522,3.2002719403678,2.6800541501241875,2.178016046565034,1.6803723423292851,1.2058205733174578,0.8305833157522003,0.5552299974661216,0.34284370130069486,0.20652027221401878,0.08721546473911897,0.029028490703796688,0.005971692749592434,0.02173892366858353,7.375923281428638,6.062250048885418,5.4625526605677335,4.869018781126997,4.250687251622203,3.5454062648107514,2.8671551015044905,2.2091789555013945,1.6765397026355982,1.1721737075155525,0.8087680313077648,0.5165159493525064,0.28593217043638114,0.15557748277538685,0.05287879799747773
0.0,55.0,55.0,0.0,120.0,0.0,-0.6773809642300075,0.5873954067148413,-0.6203041761944841,-107.01116181825546,0.0,-44.93613808840071,-0.8842061938518204,-0.31477803131681936,-0.004446184349316429,34.27502789733331,17.548303877028573,5.077493232191667,3.762398619907277,3.2380997472295276,2.7293462568127795,2.1915549125950586,1.6952457950866655,1.2022369328579852,0.8308523472845376,0.5681748799053317,0.35497637545406824,0.19799253439408093,0.13632633077138873,0.02657594307393263,0.01279597690958082,0.0027702308715874518,7.40427365900493,6.074557634347728,5.473075945722241,4.92097598625265,4.271531542234299,3.5748522470097104,2.8703299122661954,2.181266265829985,1.636744070622793,1.1866749923291509,0.7975185355535339,0.5133760654862318,0.27745819164606533,0.15853610217200229,0.054703355878993616
0.0,56.0,56.0,0.0,120.0,0.0,0.30621665093079686,-0.5521506238792397,0.02263796509291205,-107.09690183406772,0.0,-45.03453379208855,-0.46671595195490906,0.2444621176795898,0.16216385934412614,34.27502789733331,17.548303877028573,5.091140443480993,3.795205311558678,3.264669737491309,2.742084400662766,2.200105715748935,1.6556068882929407,1.2440864914091472,0.840733219502032,0.596670969332042,0.3672414501591169,0.1618118190443554,0.12530290605014754,0.024875405310673747,0.008096432357671959,0.003566594598083013,7.408312061557,6.11076620169619,5.505190740281891,4.919796907788182,4.285735623866691,3.580877150925487,2.8769656129293613,2.1860061823436014,1.6539990849431079,1.1704563474393421,0.7875473896851328,0.5213835375166338,0.28174609771371567,0.14490782575161548,0.07079383206903635
0.0,57.0,57.0,0.0,120.0,0.0,-0.4934167949204358,-0.3092966386061946,-0.5513659420505215,-106.97391757368551,0.0,-45.02417942792816,-0.5382127273356976,-0.44186410354280325,-0.5168859199201632,34.27502789733331,17.548303877028573,5.169548315220956,3.7983957587837267,3.299055091090583,2.7898228044148454,2.1985700622254636,1.695894528304261,1.2145574696864652,0.8114313723855173,0.5651526124986271,0.364600348735332,0.24597572069956358,0.09179886543295976,0.08174294529181095,0.05173016575566171,0.012942158140241168,7.440169011803081,6.148621349927844,5.582460841641223,4.971727794064518,4.297348664070012,3.5854591910542,2.892538945281963,2.2443880496814788,1.6667933075433952,1.176219942938942,0.8050935093651963,0.5081504716443409,0.30327395250166933,0.13795166267385994,0.08431372442131004
0.0,58.0,58.0,0.0,120.0,0.0,-0.06737845428738742,0.8561625869311817,-0.8043110310119319,-107.05902303067651,0.0,-45.031893296227096,-0.4786436900632717,-0.5805001006887298,-0.6619491877416774,34.27502789733331,17.548303877028573,5.197157154288717,3.8577488663067876,3.2978730160559815,2.7406176831216955,2.2340726787633485,1.736072378854405,1.2210978945307713,0.8102212819315806,0.5297499996760477,0.35758437861568165,0.2130005118457088,0.12930264977140807,0.05344749160858535,-0.006666350501599451,-0.00790239328058902,7.464489142751741,6.166858525367053,5.589645085130089,4.997014832755352,4.317299980018409,3.6142815382075346,2.930046804365622,2.2448704721491555,1.6677331703781733,1.198654825186911,0.8097421103004585,0.4805897406741341,0.3105772228181483,0.1896919278893391,0.0658079438258568
0.0,59.0,59.0,0.0,120.0,0.0,-0.5111488159967945,0.40882880384706555,0.7243830348433666,-106.98511855326048,0.0,-44.98850465660374,-0.7610021104634722,-0.7685935333458127,0.7191616728392429,34.27502789733331,17.548303877028573,5.241778427667431,3.872315263391881,3.330771239052987,2.8252763614639527,2.236050594410125,1.7523857025915561,1.2219441635887345,0.8388020965768842,0.5525737569572386,0.3665160925517797,0.19917596230256107,0.08018329163995769,0.05054016434094318,0.008364053333933717,0.024185581621304325,7.4660060106881545,6.196338295074067,5.601435202740569,5.023190292690504,4.340057105855904,3.6402338029161267,2.8753910000148863,2.2498411274998644,1.6824196552293886,1.1931060499611004,0.8189592419412454,0.5248734319197772,0.3217376863822241,0.16605053574429532,0.050148801271736626
0.0,60.0,60.0,0.0,120.0,0.0,-0.6820608327089606,-0.9363221409373843,0.9458389780462606,-107.08787268226675,0.0,-45.02409311002347,-0.9151440673832829,0.15428048804068362,-0.8829301555288824,34.27502789733331,17.548303877028573,5.182103889538291,3.8729219225633478,3.3501250763976698,2.820711384261177,2.2748029623100283,1.7250571332772173,1.2404517587358972,0.8740613776863638,0.5817297348785623,0.3491449941836834,0.20638734717229879,0.12056290813491212,0.06583536127139016,0.0011899072788672214,-0.00562468066199784,7.472776392154571,6.217736319439844,5.6505303207066,5.051400473736946,4.348140760005553,3.6614518611107996,2.9304337017417765,2.2507273172484163,1.6617777070768205,1.197634776570228,0.8217496895868553,0.4844488871024437,0.298622608519192,0.19841048123667784,0.08829939870365153
0.0,61.0,61.0,0.0,120.0,0.0,-0.7792497176713897,-0.6706116870041745,0.9216693161260003,-107.03687860286685,0.0,-45.10011475306078,-0.6356646402722202,0.39054001180937203,-0.05875819216385425,34.27502789733331,17.548303877028573,5.266737236801361,3.9231308397004594,3.3629623601194547,2.8447656426322805,2.3208749925908205,1.7610131551317356,1.246060886052907,0.8924020038191288,0.5650570611276975,0.3914510723691903,0.1963916599210484,0.09205701744333257,0.0594282942054761,0.04530908721786964,0.030735252075544,7.518835698021564,6.241029329604393,5.658520616751414,5.036701558322628,4.373837937096029,3.6690911837392255,2.9490500545154696,2.2629810565576336,1.6886315092044193,1.198539279393449,0.8254118426927731,0.50480515801966,0.31811288974047897,0.19533401093559052,0.08612699608318955
0.0,62.0,62.0,0.0,120.0,0.0,0.31265917893054684,0.24295680299952704,0.8131109984423579,-107.00690558781662,0.0,-45.05544880886532,0.26236148738025866,0.3439142811916447,-0.7683319973982294,34.27502789733331,17.548303877028573,5.27598124145724,3.958955121307124,3.431871538991767,2.844671052761233,2.2833003196098165,1.7389759049377405,1.2460159323691757,0.851110833570115,0.5907773157032222,0.38081651755067875,0.1946258221058742,0.11765803170600564,0.07188726626211607,0.027353886276193357,-0.010248304099734857,7.514210507259834,6.305649408127805,5.7046141842609925,5.105344520041198,4.393688246587715,3.694122265676031,2.9667973740388303,2.2828703559962364,1.6850232238504488,1.223615351980973,0.7945279402701113,0.5333533700980555,0.3231640231081621,0.19085048056646858,0.07503901381670043
0.0,63.0,63.0,0.0,120.0,0.0,-0.7236340973027724,0.15445717720833518,0.5480946653972776,-107.10379373824182,0.0,-45.058299315094146,0.9364388817892356,0.8977220414410148,-0.08588247733726528,34.27502789733331,17.548303877028573,5.293170710221632,4.020382118998172,3.417329655350709,2.893152798747207,2.3148289823712935,1.7574785200540495,1.288485407680247,0.8491961203502951,0.5898119466029336,0.33956616449015997,0.1741285344653273,0.11290121125843308,0.06550479016973834,0.03741808609186678,0.026444758409866008,7.5228788698570686,6.3041740709543665,5.728251642094649,5.147589731974419,4.446857342004999,3.738894060123548,2.9631922244399678,2.2923203222352155,1.6864444729839152,1.2068474132765612,0.8087631494929227,0.5123461096364422,0.30319442269535574,0.16921900629793735,0.08101276358460449
0.0,64.0,64.0,0.0,120.0,0.0,-0.606835276639893,-0.5242143572509828,-0.33370969594271616,-106.99280325792874,0.0,-44.92229253847155,1.0279237711776967,-0.9945935722129946,0.9599246526846186,34.27502789733331,17.548303877028573,5.357260789090594,4.037948018920785,3.4530590500963037,2.903947717922844,2.333022340461545,1.7801810487540783,1.3007880385323012,0.9020025613620947,0.607220767625504,0.3448239242141708,0.22064499402699797,0.08566042174510088,0.06466797193359826,0.04808352726203165,0.006590361687814152,7.605502930109534,6.334149237031666,5.742232161989732,5.148162441203969,4.473960288463217,3.7214728670033854,2.9785438856205397,2.2832342058454986,1.7127405312534976,1.2355663340487788,0.8324514319295228,0.5335566609277302,0.30733109741707165,0.1621079908159513,0.09117646447296993
0.0,65.0,65.0,0.0,120.0,0.0,-0.2625496586780718,0.8684279958495875,-0.8377972200240065,-107.02369672268,0.0,-44.94920787236819,-0.2155875990509387,0.29439330778807205,-0.1525872930890544,34.27502789733331,17.548303877028573,5.373659669912765,4.063506373934512,3.508717952098858,2.9344674914217967,2.339706188052515,1.8223639772111022,1.300886291181958,0.8675214597540358,0.5606171965517089,0.3651301134614444,0.2602621359351307,0.10691355885794787,0.050380248478471,0.05741048318177182,0.008605308888904836,7.587564066509496,6.359450468239909,5.8073536566154464,5.188600987831859,4.494337253908261,3.746089700068164,2.9886921023240114,2.3051701274563428,1.7185671022533309,1.2089326150157251,0.8329833839950878,0.5067283468556755,0.3068880045801937,0.16838450016657677,0.07205378509306756
0.0,66.0,66.0,0.0,120.0,0.0,0.6419864596958702,0.22793191193179196,-0.18551765717238533,-107.10889726236309,0.0,-44.963296288787504,-0.7209467944507203,0.20078447419527912,0.7142498350091346,34.27502789733331,17.548303877028573,5.354214788974161,4.110373135914147,3.500703539939947,2.991463636713258,2.368759587870314,1.8046226794662896,1.3099720156926171,0.9169171354087098,0.575309343200253,0.38599195133798014,0.2426061780808782,0.13603953350457687,0.09125766376846922,0.05286157876880081,0.041145340447482595,7.665182206463263,6.421808769772717,5.811028802010851,5.168995984958904,4.48381894007072,3.7591058764369256,3.00846419023284,2.316404359942557,1.7084069468413086,1.2019975627755672,0.8253914923618989,0.5240700338883625,0.30133209599505373,0.16162548742821592,0.06911281812029726
0.0,67.0,67.0,0.0,120.0,0.0,-0.8057974484138775,0.07126560604991661,-0.5355317156581145,-107.08145267213202,0.0,-45.031584894829024,0.27957406145891556,0.17747921994057636,-0.7653688716336122,34.27502789733331,17.548303877028573,5.426852697662733,4.114595787756346,3.5741466115679503,2.9916789854322254,2.3736506074985084,1.8235996129319356,1.29197685351685,0.9216006671234082,0.6192041154934479,0.39269438826922115,0.18998764425001727,0.11420591198224707,0.04972658998964482,0.038000685419873045,-0.01078711346534921,7.652602812405493,6.444645865158056,5.851610212475131,5.244706835549337,4.523489800719821,3.7958037261978363,3.041579416655297,2.3258151851651907,1.711652608185927,1.2126103766559189,0.8385779399727264,0.5215636820685448,0.28948297093937375,0.18228776198476992,0.0852441487484098
0.0,68.0,68.0,0.0,120.0,0.0,0.6758898149976078,0.17981995270914197,-0.735024730484034,-106.96217999474487,0.0,-45.05098697137463,-0.18081409646314725,0.9255406396804848,-0.45749584647627173,34.27502789733331,17.548303877028573,5.435689948163354,4.1939675732385515,3.5939962250979103,3.01363926520558,2.3858251417999283,1.813121011001346,1.319477687114813,0.8699420689676318,0.6020436837222899,0.3391516153286266,0.21803655826184506,0.1106532443746868,0.07304997095766055,0.007260006993111624,0.015757089013392934,7.667262611115646,6.498193881146146,5.8785199144219655,5.269667431634791,4.53172971317509,3.812645007255989,3.0483001999860924,2.344973370456694,1.7419687746888353,1.2314514625419388,0.8507026247977248,0.5278994523168622,0.30491368361385635,0.17354312021606597,0.07025793239253214
0.0,69.0,69.0,0.0,120.0,0.0,-0.8078031842120739,0.46024405903353927,-0.8931456364263495,-106.94402775090305,0.0,-45.031719850103585,0.9066976568406123,-0.9662566532599206,-0.192414518665331,34.27502789733331,17.548303877028573,5.490136050076846,4.197835438101904,3.596613081475304,3.039428831122446,2.4744221197903764,1.8690000070359991,1.3577853533429132,0.9009937536422103,0.5846329276915153,0.36240016263492697,0.23321072529968842,0.07271209495102054,0.03734641020001726,0.028932735045619443,0.0055928579783789956,7.752222997046077,6.526210414230503,5.901113515532515,5.264497537539908,4.571567745233944,3.8039561181398067,3.065552762197205,2.3523688342603197,1.7490897921978672,1.2695232945746981,0.8216909943954163,0.5289997976574105,0.2992738665100293,0.17419481116700913,0.10769804429005918
0.0,70.0,70.0,0.0,120.0,0.0,0.9529189300267915,-0.3761100090407963,0.45118872842115754,-107.00824428998625,0.0,-45.06574250640948,-0.8911392016914924,0.3929648614029002,-0.20037571998133852,34.27502789733331,17.548303877028573,5.547536442069858,4.233911430483002,3.640473274247742,3.03325652115085,2.4428825326801418,1.872391913248234,1.3463492656821705,0.8851019305550917,0.6070442960835983,0.3778635143867553,0.20865874484020278,0.11770879091088628,0.02836671121970751,-0.0035127645635368264,0.013097263417000522,7.735489554477303,6.552687868718702,5.957607806158215,5.315839319688812,4.556593655890531,3.8417415298281865,3.0658160205213756,2.3569000006453553,1.7648372525405784,1.2196804967250159,0.8412014122855691,0.5563618268116062,0.30901501576249457,0.18315651427951296,0.09924666090505667
0.0,71.0,71.0,0.0,120.0,0.0,-0.06269759670459685,-0.20355787556781624,-0.9771450827499379,-106.97470238674747,0.0,-44.84392497552581,0.48188207299339414,0.6273572994037269,0.34276695734030627,34.27502789733331,17.548303877028573,5.573835701619208,4.256219653732172,3.6493934171979996,3.1010913813078753,2.483533293769719,1.8676439972028256,1.3285653922684368,0.8960729797112396,0.6382370198348714,0.37246561620099394,0.2662857352551118,0.12960446429139189,0.0683857307407523,0.03354079407066214,0.031031568663421404,7.759301216724278,6.62328583389118,5.974290694905174,5.336109204720466,4.6308533153073235,3.881110115860899,3.0726779738845154,2.379693281535807,1.747707495968688,1.2400070433620338,0.8330060305135044,0.5461711234548028,0.30317123746985597,0.18002381452706423,0.08090457441456395
0.0,72.0,72.0,0.0,120.0,0.0,0.9535221763806743,-0.5803125020497557,0.5411614970055525,-106.98600977729294,0.0,-45.14033260302321,-0.48774319920527026,0.01961439324316827,-0.31056374524898467,34.27502789733331,17.548303877028573,5.584905970967587,4.279899579375251,3.6690159928040162,3.074221942408115,2.509623159168002,1.893360261488966,1.366189685076799,0.9535090251808402,0.5814452896134179,0.3561385499740226,0.2235996321995792,0.08090179426661863,0.04766533116382275,0.008328761027325333,0.017318754382196398,7.798113029666584,6.655545349322605,6.0237502049939975,5.362759752089669,4.6446459273256115,3.8785237891534594,3.154363606681122,2.3588180265491694,1.768651882816821,1.2210507652566225,0.8426967757742477,0.564495761689885,0.3145130494743718,0.1941459293770534,0.08551666200443626
0.0,73.0,73.0,0.0,120.0,0.0,0.20969103949009193,-0.6276139882393277,-0.7061067091992499,-106.97939856361702,0.0,-44.96474946655789,-0.5444595309379775,-0.3320702608063817,0.4275337368200327,34.27502789733331,17.548303877028573,5.630934204962528,4.337484240975188,3.7136043277781345,3.1218660207920226,2.4810655846294494,1.94500611368165,1.3639100945592715,0.9407452249480143,0.592009307743271,0.4007545932834461,0.21358708749593422,0.11721650481102848,0.022146733676142408,0.035774662979632596,0.04798857662536437,7.820779670889251,6.649528859483953,6.022262333633078,5.408018538299436,4.676849206195927,3.9152193427910382,3.1270442761574424,2.38017985115196,1.7761696610232718,1.2515798534334934,0.8293595309250913,0.5363040185468376,0.3768655674440688,0.21257732332114934,0.08908567811671284
