Line_number,Fiducial,Easting,Northing,Height,Elevation,tx_pitch,tx_roll,tx_yaw,txrx_dx,txrx_dy,txrx_dz,rx_pitch,rx_roll,rx_yaw,PX,PZ,S0X_time_1.086e-05,S0X_time_3.256e-05,S0X_time_5.426e-05,S0X_time_8.680e-05,S0X_time_1.411e-04,S0X_time_2.279e-04,S0X_time_3.689e-04,S0X_time_5.860e-04,S0X_time_9.115e-04,S0X_time_1.411e-03,S0X_time_2.192e-03,S0X_time_3.418e-03,S0X_time_5.339e-03,S0X_time_8.301e-03,S0X_time_1.338e-02,S0Z_time_1.086e-05,S0Z_time_3.256e-05,S0Z_time_5.426e-05,S0Z_time_8.680e-05,S0Z_time_1.411e-04,S0Z_time_2.279e-04,S0Z_time_3.689e-04,S0Z_time_5.860e-04,S0Z_time_9.115e-04,S0Z_time_1.411e-03,S0Z_time_2.192e-03,S0Z_time_3.418e-03,S0Z_time_5.339e-03,S0Z_time_8.301e-03,S0Z_time_1.338e-02
0.0,0.0,0.0,0.0,120.0,0.0,-0.09886242042626892,0.16146381073941685,-0.06749288070004966,-107.0,0.0,-45.0,0.6356228082365953,-0.5365646893589089,-0.16143309804656614,34.270624069470855,17.560637190127487,4.553649340348123,2.6604640389543794,2.1652469780076515,1.737741831271666,1.2563602002243854,0.792112817902705,0.4186579805162991,0.18654110749450217,0.07206827939128199,0.023861360604236492,0.0067626035442931555,0.001695038717907219,0.00039435976283378106,7.913683847604727e-05,-7.896310996889529e-05,6.9441170602337365,4.924149569530123,4.272698663696599,3.6781305110946687,2.9448487955741327,2.130566623228034,1.348256779324608,0.7469654234851213,0.36933442093001106,0.16155374934978434,0.062437669629711104,0.021719053129975945,0.006969696579882307,0.0020946479919840087,0.0003861274320502688
0.0,1.0,1.0,0.0,120.0,0.0,0.7085396040936554,-0.1505305729522013,0.2739937521849529,-107.0,0.0,-45.0,-0.7093282251511219,-0.6209304063895849,0.32370955935767864,34.270624069470855,17.560637190127487,4.556641583916684,2.6738898980882424,2.1897828573125935,1.786823017410984,1.3319735295449877,0.8751858140338556,0.48662166890078334,0.22914107577227102,0.09342780019935726,0.032516419141863824,0.00961824067970048,0.0024848098360382084,0.0005849740412180304,0.00012056006709054589,-7.53008454638628e-05,6.946733381625455,4.939114027496965,4.3026628361794135,3.7453611112096303,3.0647314681948727,2.2863799913854583,1.503816631054602,0.8694369794267686,0.4482350339460466,0.2038031935423103,0.08144720532382817,0.02907955605923477,0.009500200223019716,0.002891707892413662,0.0005909902002646624
0.0,2.0,2.0,0.0,120.0,0.0,0.22356510770973137,0.8306390735951354,0.6364540121836659,-107.0,0.0,-45.0,-0.36307335382697614,-0.5324683179157323,0.16748365246262087,34.270624069470855,17.560637190127487,4.559763073475387,2.6867979914612716,2.2084737940734747,1.8218588376091995,1.3903942598442716,0.9449609385831219,0.5482773229816102,0.27076652016777375,0.11580256521959312,0.04218466746058833,0.01299528794587769,0.0034632577591549676,0.0008295109581074121,0.00017508932258986087,-6.89093213236566e-05,6.949443690369947,4.953558004246618,4.325656364974326,3.792749242012163,3.155387993038765,2.4135317613084064,1.6395995763287752,0.98335797465975,0.5260959047406615,0.24781786635949826,0.1022170570900618,0.03744154009116561,0.012461470411327641,0.003844674999388345,0.0008427018074651898
0.0,3.0,3.0,0.0,120.0,0.0,-0.31191081056151204,0.5123700002074374,-0.5747757945140821,-107.0,0.0,-45.0,0.0201857256556337,0.5095179283484517,0.5557556937604935,34.270624069470855,17.560637190127487,4.563019519142002,2.6997248678779076,2.224438854629487,1.8477718104299916,1.435536224851442,1.003269344531186,0.6035772587387861,0.3106746119971772,0.1386453436245223,0.05265595746276609,0.016854333469335365,0.004632965917921358,0.0011322469435052793,0.0002443898165877117,-5.936051563543281e-05,6.952251627404469,4.96802396101868,4.345474615756075,3.827568497223233,3.22422685627362,2.517329382234462,1.7576295971721938,1.088243238280817,0.6017249094948727,0.2927598037539795,0.12439714146926831,0.04671371485994548,0.015842656943905686,0.004956625177054729,0.0011436615765723058
0.0,4.0,4.0,0.0,120.0,0.0,0.8899978861950106,0.981894798581703,0.4987080899364449,-107.0,0.0,-45.0,-0.4518505884470383,-0.01821708032490088,-0.9366739661247685,34.270624069470855,17.560637190127487,4.566416217572372,2.712836376479914,2.2392823285245536,1.8680063804741716,1.4705590830064217,1.0518075584990203,0.652780087923212,0.3484096640642547,0.16151633869354226,0.06372742716948866,0.021145522640388485,0.005991488404099829,0.0014962301805149314,0.000329944466787889,-4.623728402113096e-05,6.955160664550937,4.982673622006058,4.364007401780629,3.8547271831347754,3.2768869811955326,2.6020630846152817,1.8599565511501903,1.1841179538387445,0.6743278242201401,0.3379425727948429,0.1476577325359053,0.05679592812957411,0.01962659345868617,0.00622837209716769,0.0014956922420761548
0.0,5.0,5.0,0.0,120.0,0.0,0.07092942342165176,0.1482124619987577,-0.2640519320044039,-107.0,0.0,-45.0,-0.5201324740396389,-0.73163124771973,0.37854887865633424,34.270624069470855,17.560637190127487,4.569958485128497,2.7261788264360574,2.2537653699785136,1.8848786728234241,1.498028762892582,1.0920969261537055,0.6962970974013659,0.38372194956994593,0.1840743797183063,0.07521263518538078,0.02581316822275704,0.0075322371789664335,0.0019233174654020666,0.00043302897763604256,-2.914353267164646e-05,6.9581745206241905,4.997550339935952,4.382123902222004,3.8774263176120467,3.317740678294221,2.671233445640952,1.948498822760697,1.2713034053356527,0.7434079240730949,0.3828176496812744,0.17169770545756222,0.06758431710244968,0.02379128850079441,0.007658749982205317,0.0019000795494837157
0.0,6.0,6.0,0.0,120.0,0.0,0.6659694103667793,-0.7034405302806053,-0.3823785633730914,-107.0,0.0,-45.0,0.6070642153999293,-0.040846823106207575,-0.47070587796766206,34.270624069470855,17.560637190127487,4.573651784434539,2.739765135294878,2.268220602037246,1.8998722695758838,1.5200066825410763,1.1254922040775246,0.7346043135123267,0.41650528064961173,0.2060632305558018,0.08694610917298277,0.030799335729967216,0.009245374815717912,0.002414253642714323,0.0005546967480748173,-7.711568014756568e-06,6.961297276221011,5.012665623672889,4.400192101579463,3.897662357612571,3.3501717966717215,2.7277448026587785,2.024988266201657,1.3502813853422309,0.8086860768784928,0.4269565148773205,0.19624833918593498,0.0789751568098296,0.028311222373712985,0.009244887387128364,0.0023576142349716104
0.0,7.0,7.0,0.0,120.0,0.0,-0.7141254170780393,0.34445141506871124,0.185022515023747,-107.0,0.0,-45.0,0.5870175267716491,0.8696461579980104,0.1914324048792475,34.270624069470855,17.560637190127487,4.577501770541801,2.7536002786151172,2.2827815822646746,1.9138909845629353,1.538109186121729,1.1531984402094146,0.7681953680289052,0.4467508855806793,0.2272969940811337,0.09878485607583211,0.03604649084110852,0.011118649863400994,0.0029687786398851193,0.0006957724278067124,1.8392729921322457e-05,6.964533395889295,5.028023670610862,4.4183546776905045,3.9166226914281066,3.376753000350533,2.7740415437021393,2.090966400514627,1.4216096769588524,0.8700394565025087,0.4700320593560593,0.22107419116646568,0.09086763780806607,0.03315845513174046,0.010982467680370665,0.0028686348091074916
0.0,8.0,8.0,0.0,120.0,0.0,-0.31293093052978493,-0.23244058052808292,0.6684995349345808,-107.0,0.0,-45.0,0.8033400714246637,0.8080452937906353,0.6489051047216812,34.270624069470855,17.560637190127487,4.5815143010411745,2.767687568351265,2.297497491641299,1.9274590529919395,1.5535642467075639,1.1762818349594328,0.7975584487912983,0.4745142378860951,0.247646518229063,0.11060798250389439,0.041499354130263996,0.013138140030328824,0.003585750062208301,0.000856852764462465,4.946642971637421e-05,6.96788771568485,5.043627170119264,4.436661956540302,3.9349807614739665,3.399388485891581,2.8121929479838395,2.1478032611369464,1.4858706252853262,0.927455555852701,0.5118011307673439,0.24597213089394657,0.10316578562302171,0.038303557302310734,0.012865972907051933,0.003433070154166365
0.0,9.0,9.0,0.0,120.0,0.0,0.4680977836665372,0.1583390731742571,-0.4857026832528304,-107.0,0.0,-45.0,0.12260807836759868,-0.7206227715540241,0.07079507502417837,34.270624069470855,17.560637190127487,4.585695436302872,2.782029885699468,2.312385147670061,1.9408663984506278,1.567273541836503,1.195674171447911,0.8231659536803639,0.4998918665682516,0.2670275418411737,0.12231523419377352,0.04710611929467943,0.015288888375070482,0.004263272017819875,0.0010383133265466156,8.57674089096983e-05,6.971365424723866,5.059478426076073,4.455130126933784,3.9531010080998064,3.419445236264395,2.84394380315359,2.1967221913448,1.5436413817170416,0.9809981183202301,0.5520890361788655,0.2707692884227405,0.11577970799287905,0.04371637856002319,0.014888908739949747,0.004050481270766357
0.0,10.0,10.0,0.0,120.0,0.0,0.1275937945999308,0.15970864402833396,-0.3595806089735518,-107.0,0.0,-45.0,-0.010731973354464852,-0.016522069800733563,0.32427458912152773,34.270624069470855,17.560637190127487,4.590051440545974,2.7966298938161707,2.3274503394813357,1.9542660689665383,1.5798770723101538,1.2121751002308394,0.8454696347595922,0.5230056905043113,0.2853907347765439,0.13382499730605688,0.05281917944010626,0.017555430867167796,0.004998823207256948,0.001240319751540076,0.0001275132906496743,6.974972049946828,5.075579586267194,4.473764250156383,3.971171657785107,3.4378742793253148,2.8707479674983576,2.238821703469365,1.595478328901243,1.0307821170475284,0.5907762478850509,0.2953204305110588,0.1286263271670841,0.04936667135075457,0.017044009204925357,0.004720101712430572
0.0,11.0,11.0,0.0,120.0,0.0,0.9454285318339026,-0.7007264699766866,0.7221302299572481,-107.0,0.0,-45.0,0.7188391498978526,-0.006980301836991387,0.6215882469160834,34.270624069470855,17.560637190127487,4.594588785327403,2.8114901202989797,2.3426956278237285,1.9677352662488823,1.5918144926718114,1.22645618896036,0.8648973601013287,0.5439928084703164,0.3027135414707526,0.14507210503581117,0.05859548617061691,0.019922221445725426,0.005789379350193352,0.0014628423083240113,0.00017488125423341397,6.978713443997673,5.091932751043385,4.492566317395822,3.9892855153243083,3.45531718041847,2.893796623366079,2.2750911137677097,1.6419104321017708,1.07695556698874,0.6277872483139635,0.31950510470294474,0.1416297260606715,0.05522458703188702,0.019323420720221324,0.005440876366366962
0.0,12.0,12.0,0.0,120.0,0.0,-0.857353447825469,0.5478961851415198,-0.8585474862134153,-107.0,0.0,-45.0,0.7029916631882525,0.5042842746010923,-0.9263967259392485,34.270624069470855,17.560637190127487,4.599314153976067,2.8266130239898954,2.3581228023256586,1.9813113087560381,1.6033785507728173,1.239068588749859,0.8818499851221777,0.5629990045700582,0.3189936527858006,0.1560056524803512,0.06439664463614837,0.0223739646622928,0.006631526734801604,0.001705672726358229,0.00022800854855243932,6.982595774133637,5.108540046000841,4.511537651095495,4.007486357345119,3.4721940216064224,2.914046952985032,2.306420156263745,1.6834376881832205,1.1196865275154775,0.6630813000623859,0.34322477133885676,0.15472121108195055,0.06126106183461872,0.021718865651980897,0.00621149832129466
0.0,13.0,13.0,0.0,120.0,0.0,-0.9795516830112425,0.7050702489220566,-0.29518122751965925,-107.0,0.0,-45.0,-0.2977486515061383,0.0742831307428451,0.06614172422539588,34.270624069470855,17.560637190127487,4.604234445769796,2.8420010386769756,2.373733501007134,1.995011652844077,1.6147584519854326,1.250454295287641,0.8966981869915974,0.5801745779366033,0.3342439032453214,0.16658693131553734,0.07018882670877845,0.024895867607603157,0.007521565040861503,0.0019684424013544054,0.0002869935611170145,6.986625511235107,5.12540365507599,4.530679464594468,4.0257941372031105,3.4887720515754115,2.9322526187492874,2.333604427147661,1.7205319572162336,1.1591540621099985,0.6966448778437199,0.3664000590765617,0.16783917228463974,0.06744810906810914,0.024221786059471565,0.0070304436366820326
0.0,14.0,14.0,0.0,120.0,0.0,0.911129720409253,0.9317923593313264,0.9594638114347707,-107.0,0.0,-45.0,0.12919528841820083,-0.7938298723709523,-0.1454391359292202,34.270624069470855,17.560637190127487,4.60935677949693,2.8576565921721846,2.3895293150195607,2.0088444337294065,1.6260730367008254,1.2609599083668117,0.9097796757503606,0.5956714817352804,0.348488376583293,0.17678754135561775,0.07594256521097364,0.027473823130199575,0.008455598603585305,0.002250641232135038,0.0003518973181549644,6.990809418798885,5.1425258219461165,4.549992948250447,4.04421793431447,3.5052166229377253,2.9489951246947763,2.35734881818753,1.75363842632511,1.1955421830500013,0.7284855073757013,0.3889682200497827,0.18092880347588994,0.07375903263558714,0.0268234686229686,0.007896003893617463
0.0,15.0,15.0,0.0,120.0,0.0,-0.3552376042173009,-0.44174409823525207,-0.3564144553849502,-107.0,0.0,-45.0,0.8722215792668462,0.9397714942642619,0.541306165032639,34.270624069470855,17.560637190127487,4.614688496368472,2.8735821093894747,2.405511799267699,2.0228137023675483,1.6373949346007672,1.2708514637844635,0.9213972538005002,0.609641117066969,0.36175949469039337,0.18658770558920507,0.08163247546119008,0.03009453594717773,0.009429615989472307,0.0025516364795047865,0.0004227453133414674,6.995154541895429,5.159908834634643,4.5694792847972145,4.062762221631967,3.521627349574563,2.964714382590855,2.378270669879409,1.7831767600741297,1.229035979600919,0.7586267892602825,0.41088081977068425,0.19394173059217507,0.08016857530583021,0.029515151963086093,0.008806316465525012
0.0,16.0,16.0,0.0,120.0,0.0,-0.8229567571609877,0.22679458393865937,-0.5131052690570224,-107.0,0.0,-45.0,-0.8784488836252302,0.8294022674867614,0.9411724592018675,34.270624069470855,17.560637190127487,4.620237162332403,2.8897800085938967,2.42168248645071,2.036921865714643,1.6487674071321883,1.2803290536433305,0.9318180202836731,0.6222324264736274,0.3740958683346676,0.1959747980092755,0.08723693692743048,0.03274560240418605,0.010439558216390176,0.0028706911680592955,0.0004995295830527793,6.999668196172251,5.1775550051309995,4.589139672307624,4.081429700127599,3.538062773509543,2.9797369431386747,2.3969036991997816,1.8095415919397009,1.259819261182304,0.787104422157405,0.4321016701982743,0.20683558525864307,0.08665301347151125,0.03228811770564091,0.009759392495931567
0.0,17.0,17.0,0.0,120.0,0.0,-0.7625931658059255,-0.1473905875244259,0.9064939384620359,-107.0,0.0,-45.0,-0.9421477605824669,0.10663320956368261,-0.15119419691003588,34.270624069470855,17.560637190127487,4.6260105697219265,2.906252696742255,2.4380429102145516,2.051170741653136,1.6602156448857848,1.2895403033212802,0.9412737894250931,0.6335901453511167,0.3855407059045378,0.20494208241645603,0.09273775762318921,0.035415553507025375,0.011481376240857209,0.00320698167404331,0.0005822109641434076,7.004357972074215,5.195466687168389,4.608975392159061,4.1002224912998555,3.5545565540610102,2.994300872454336,2.4137031223894834,1.833102396050889,1.2880731723743695,0.8139630685482758,0.45260499877111976,0.21957355125051375,0.09319020848438056,0.03513376673519888,0.010753142803530917
0.0,18.0,18.0,0.0,120.0,0.0,0.7127145019896957,0.8392621870246253,-0.5140816517033671,-107.0,0.0,-45.0,-0.8726486310487824,-0.37177081263543643,-0.4667368047214495,34.270624069470855,17.560637190127487,4.632016739210771,2.923002565236281,2.4545946253268007,2.0655619719035125,1.6717540791280192,1.298592158820079,0.9499626058080565,0.6438531979388764,0.39614060718001143,0.21348765188069965,0.09811983670282869,0.03809386953347281,0.012551078515644657,0.00355961425181915,0.0006707214696766821,7.009231690179343,5.213646175301909,4.628987733466843,4.119142549062092,3.5711278524949543,3.0085767345202385,2.429051963152151,1.8542029628818804,1.313975365384506,0.8392539255448244,0.4723738386068425,0.2321239040725107,0.09975962317643854,0.038043682118784554,0.011785400912899853
0.0,19.0,19.0,0.0,120.0,0.0,-0.1166956496612006,0.6510205289381057,-0.38818930789713924,-107.0,0.0,-45.0,-0.43812252402013696,-0.30144865118701625,0.2565993981654562,34.270624069470855,17.560637190127487,4.638263921009648,2.940031988229481,2.4713392231708844,2.0800971651236617,1.6833909511682117,1.3075607666345814,0.9580511252853604,0.6531532842946688,0.40594460720298925,0.22161355170512162,0.10337083585749918,0.04077097316075275,0.013644769528939733,0.003927640343518799,0.0007649667467996684,7.01429740587677,5.2320957275947455,4.649178040847072,4.138191811050443,3.5877876253215653,3.0226847510258117,2.4432682188267805,1.8731607730911624,1.3376994342128907,0.8630328765948424,0.49139862237298065,0.24445955781448853,0.10634231088908123,0.04100968016470819,0.012853944563071975
0.0,20.0,20.0,0.0,120.0,0.0,-0.40365688561686386,0.10627611291416228,0.33391790695838974,-107.0,0.0,-45.0,0.6852709582562684,0.38916868177553576,0.060496482842022914,34.270624069470855,17.560637190127487,4.644760595672572,2.957343322069995,2.4882783401935638,2.0947779378792277,1.6951310719002977,1.3164994641061456,0.9656775855871548,0.6616137170307924,0.4150033745514399,0.22932506365003294,0.10848086685629478,0.04343820672374011,0.014758680293308164,0.004310070588816007,0.0008648285636380591,7.019563414497532,5.250817590814964,4.669547753294702,4.157372243489005,3.604542341632986,3.0367083787105487,2.456612499109254,1.8902665153874252,1.3594144276586482,0.8853591090572197,0.5096759624737681,0.256557628645357,0.11292088321832744,0.0440238510256536,0.013956515123837571
0.0,21.0,21.0,0.0,120.0,0.0,-0.298796928828561,0.20585754529705969,-0.7446163157100079,-107.0,0.0,-45.0,-0.08623333578285508,-0.8713200580325258,-0.08392686900829549,34.270624069470855,17.560637190127487,4.651515474927408,2.9749389051307134,2.5054136604349337,2.1096059230070625,1.7069774307203434,1.3254450458077047,0.9729550967387931,0.6693485526485483,0.4233685034133637,0.2366301262608246,0.11344220028176712,0.046087798042593504,0.015889191768240163,0.004705887505144397,0.0009701672819062004,7.02503823281155,5.269813967823334,4.690098371351843,4.176685836403383,3.621396148185457,3.0507047390813637,2.4692957447970336,1.9057839237190475,1.379284346221624,0.9062940927646569,0.5272076011397501,0.2683990206972925,0.11947946171668887,0.04707859016238715,0.015090834685141025
0.0,22.0,22.0,0.0,120.0,0.0,0.7060429221741047,-0.5870632218833294,-0.03510725873995968,-107.0,0.0,-45.0,-0.43687888481083625,-0.8283627523684984,-0.8763110901146036,34.270624069470855,17.560637190127487,4.658537502041276,2.992821058172493,2.52274691565503,2.124582771879766,1.7189320981418135,1.3344225462690311,0.9799750185204599,0.6764620374807422,0.43109186684935596,0.24353886550642137,0.11824899873594313,0.048712818276549344,0.017032852179690087,0.005114056846004193,0.0010808242852975828,7.030730590352741,5.289087009493933,4.710831448359884,4.1961346023588,3.6383520453627924,3.064712454991818,2.4814866769495794,1.91995003310028,1.3974675911330499,0.9259008268703788,0.5439995148625646,0.27996803752135635,0.12600361793706075,0.05016662187058418,0.016254621357800415
0.0,23.0,23.0,0.0,120.0,0.0,-0.1290424301830586,-0.12975902319090493,-0.7152692127438696,-107.0,0.0,-45.0,0.4854203778783375,0.7460773144893025,-0.2091303289211055,34.270624069470855,17.560637190127487,4.665835851826799,3.010992084888106,2.5402798844056425,2.1397101571194206,1.7309967111713143,1.3434488016580883,0.9868102436866193,0.6830483625292306,0.43822501860920143,0.25006321131735226,0.12289707629969077,0.05130713448407778,0.018186389149332325,0.00553353767028065,0.0011966243347985824,7.036649421031314,5.308638807449677,4.7317485817173255,4.215720576491011,3.6554125028679754,3.078757400032314,2.4933187286662886,1.9329758762051008,1.414116376366995,0.944243276067289,0.5600611581046476,0.2912520205764202,0.13248030543770073,0.053281015954003176,0.0174456027694535
0.0,24.0,24.0,0.0,120.0,0.0,-0.09121758327277996,-0.059206891796958594,0.23081171734818806,-107.0,0.0,-45.0,0.3476946102686831,-0.08753417481346304,0.14982843833808146,34.270624069470855,17.560637190127487,4.673419930281716,3.0294542725662197,2.5580143910351314,2.154989776273552,1.7431727216726722,1.352535042546247,0.9935182593218583,0.6891917004826241,0.44481864330462306,0.25621657851130747,0.1273836847175378,0.05386535897998541,0.019346717472337217,0.005963291172547426,0.0013173778303507096,7.0428038549893905,5.328471387553345,4.752851405199649,4.235445817374039,3.6725797641388467,3.092856826236324,2.5048962986752903,1.9450475891606478,1.4293761363154502,0.9613859325572371,0.5754048312652454,0.30224101515209817,0.13889778668164607,0.05641519851035317,0.018661527875395788
0.0,25.0,25.0,0.0,120.0,0.0,-0.9333269524950478,-0.6711690456712394,0.5103545354401344,-107.0,0.0,-45.0,-0.9630981742928344,-0.5216344681727685,-0.586217819077173,34.270624069470855,17.560637190127487,4.681299373845187,3.048209892885623,2.575952305052233,2.1704233555141883,1.755461515921838,1.3616887412438459,1.0001439074311977,0.6949664839419111,0.45092206103512505,0.26201359437912136,0.13170732564870552,0.05638279714072181,0.020510943293701612,0.006402288336238494,0.0014428829646734708,7.049203210635644,5.348586704166124,4.774141582650889,4.255312407378811,3.6898559859481326,3.1070222663937153,2.5163002455686403,1.9563278597122846,1.4433849691963425,0.9773934554784829,0.5900451577700125,0.31292746351537454,0.14524555715685394,0.059562957689276275,0.01990017721095252
0.0,26.0,26.0,0.0,120.0,0.0,-0.4325596094259432,-0.7326552219681248,-0.007611878770520608,-107.0,0.0,-45.0,-0.8029067367243183,0.0918062434636755,0.3443656772175381,34.270624069470855,17.560637190127487,4.689484048245029,3.0672612028771313,2.5940955409344113,2.186012652592961,1.767864467727621,1.3709149010323087,1.006721806054446,0.7004378763981239,0.456582794381702,0.2674698592835584,0.13586758740531862,0.0588553949786567,0.021676365338130485,0.0068495164803665945,0.0015729277603597454,7.055856986787955,5.368986635207511,4.795620802959422,4.2753224517633335,3.7072432957416184,3.121261533402715,2.5275926049069763,1.9669576329569507,1.4562731538341398,0.9923303537698837,0.6039986551305536,0.3233059247330735,0.1515142685178966,0.06271844518765197,0.02115937171458123
0.0,27.0,27.0,0.0,120.0,0.0,-0.42192072490514887,-0.06138108016346422,0.7056943375605897,-107.0,0.0,-45.0,-0.4462028893672818,-0.9147784835381745,-0.0019737921333755626,34.270624069470855,17.560637190127487,4.697984046907359,3.086610446094693,2.6124460583057156,2.201759458761761,1.7803829594873501,1.380216937721688,1.0132784228024898,0.7056623857332188,0.4618462046176214,0.27260173052520226,0.13986500392213477,0.061279687547177684,0.02284047375469337,0.0073039847772060655,0.001707291985450581,7.062774854858012,5.389672978048685,4.817290776079972,4.295478076414728,3.7247438110224467,3.1355800695872986,2.5388205574331537,1.9770579853581258,1.4681627694142747,1.006260690808924,0.6172833850974933,0.33337282042256355,0.15769565210845804,0.0658761741654475,0.022436980249221274
0.0,28.0,28.0,0.0,120.0,0.0,0.29967039629597436,0.9261815763382728,-0.36101784283701677,-107.0,0.0,-45.0,0.6658120034898984,0.20683182210746653,-0.39783440863546815,34.270624069470855,17.560637190127487,4.706809688901983,3.106259854030733,2.6310058623614867,2.2176655997241217,1.7930183891267086,1.3895972701833461,1.019833814224538,0.7106885724834142,0.466755201359641,0.2774261231377097,0.14370093328059466,0.06365274902253219,0.024000947050508207,0.007764728823366729,0.0018457489454979117,7.069966651019084,5.410647446258949,4.839153229850442,4.3157814245659205,3.7423596431679136,3.1499818383377116,2.5500197067926265,1.9867320826862032,1.4791674374013684,1.0192477991316709,0.6299186687113352,0.3431262055312712,0.16378244386509713,0.06903101419366285,0.023730925943891784
0.0,29.0,29.0,0.0,120.0,0.0,0.8478165766541184,-0.2950724039343562,0.1604985756088093,-107.0,0.0,-45.0,0.9010828995904476,0.24370366931022946,0.9523815027276012,34.270624069470855,17.560637190127487,4.7159715163993505,3.126211647801304,2.649777004427016,2.233732935852475,1.8057721716735098,1.3990577076500492,1.026403058117674,0.7155578103413598,0.47135002668162784,0.2819603240223128,0.14737745293096874,0.06597214511709668,0.025155647511122214,0.00823081434995743,0.001988067151832129,7.077442368301095,5.431911667209599,4.861209907398013,4.33623465294162,3.7600928961030897,3.164469900426845,2.5612167421915593,1.9960671482288785,1.4893921942618231,1.0313540010043474,0.6419248531465206,0.35256556309374726,0.16976831132178558,0.0721781837817797,0.0250391914693384
0.0,30.0,30.0,0.0,120.0,0.0,0.46461157129320707,0.9724145744841997,-0.10256966461506623,-107.0,0.0,-45.0,0.03085245432831729,0.8854905098419945,-0.1571628781387695,34.270624069470855,17.560637190127487,4.7254802916150025,3.1464680401165492,2.6687615825674156,2.249963361939543,1.8186457393292386,1.4085996981246796,1.032997413374416,0.7203050631114974,0.4756681115953013,0.28622181787506157,0.15089726878655935,0.06823588830296984,0.02630261544037648,0.008701340158933061,0.0021340118667048913,7.085212148554445,5.453467180524186,4.883462564987073,4.3568399277519605,3.777945664109951,3.1790467777553917,2.5724315683995886,2.0051363811761345,1.4989334943041295,1.0426403357181677,0.6533231186779028,0.3616916217475205,0.17564778322231378,0.07531324097300986,0.02635982335195893
0.0,31.0,31.0,0.0,120.0,0.0,0.5267494951247493,0.24585604778912096,-0.38908010712359875,-107.0,0.0,-45.0,-0.6115022544622524,-0.2633476890357149,0.1921706960037064,34.270624069470855,17.560637190127487,4.7353469932155345,3.167031237543708,2.6879617421974,2.266358806712699,1.8316405414790888,1.4182244839129903,1.039625244814068,0.72495964958605,0.47974400015736435,0.2902281247421654,0.15426363555700764,0.07044239616168237,0.02744006249915768,0.009175440372077402,0.002283346526407558,7.093286274219545,5.475315437352747,4.905912970212115,4.377599420843881,3.795920030141784,3.1937146769707176,2.583678985312016,2.0140007793790047,1.5078793345283874,1.0531662975442264,0.6641353157636629,0.3705061946112231,0.18141618209245833,0.07843207243966858,0.02769093542033999
0.0,32.0,32.0,0.0,120.0,0.0,-0.15760217448426372,0.08082277500138924,-0.32321551362096734,-107.0,0.0,-45.0,0.12534006563920386,0.4361515649662786,0.7705072224516638,34.270624069470855,17.560637190127487,4.745582812157322,3.1879034430633797,2.707379676664587,2.2829212322755255,1.8447580449933063,1.4279331964347124,1.0462927500674257,0.7295459748767049,0.4836093344702327,0.2939966498531067,0.15748028599284297,0.07259045302693595,0.02856636437930102,0.009652286076530354,0.0024358340437548656,7.101675159835691,5.4974578004400705,4.928562900475285,4.398515306201391,3.814018064802307,3.208475622882627,2.59496999439218,2.0227108342901556,1.5163094880629728,1.0629895897207486,0.674383824007943,0.3790120379566268,0.18706956001315608,0.08153088145729512,0.0290307114695671
0.0,33.0,33.0,0.0,120.0,0.0,-0.514659406341271,0.6866353381625288,-0.4204769862320188,-107.0,0.0,-45.0,-0.9354549038934645,-0.9803624811001521,0.21897240508795468,34.270624069470855,17.560637190127487,4.756199146927603,3.2090868589154726,2.7270176277967453,2.299652633578424,1.85799973476191,1.4377269122767204,1.0530045231417484,0.7340842131699564,0.48729289254474034,0.2975445467449108,0.16055136708181747,0.07467917495567838,0.029680053014046984,0.010131086446500378,0.002591237991625268,7.110389343222835,5.519895544954689,4.951414141711711,4.419589756887216,3.8322418257620057,3.2233315353000678,2.606312801674333,2.031308077971501,1.5242958294597515,1.0721659000705357,0.6840914265214896,0.38721272795945183,0.19260463775768408,0.08460617508441888,0.030377407220485386
0.0,34.0,34.0,0.0,120.0,0.0,-0.4639972984566034,0.11812855517394283,-0.6261882042626143,-107.0,0.0,-45.0,0.16719703674674813,-0.7318474197175073,0.2701567655275616,34.270624069470855,17.560637190127487,4.767207598157152,3.2305836897284737,2.746877886413401,2.3165550379712077,1.871367114307221,1.4476066851512381,1.0597639856810952,0.7385909324240686,0.4908206703380519,0.3008885947236644,0.16348138162713974,0.07670797795172064,0.03077980849792619,0.010611089415133996,0.002749323669684215,7.1194394762721895,5.542629860044182,4.974468487338991,4.440824942448749,3.8505933573511424,3.2382842714060938,2.6177135780806493,2.039826472184691,1.5319027335482291,1.0807487032499983,0.6932811948412086,0.3951125537080583,0.19801874739950304,0.08765475082557793,0.03172935164451508
0.0,35.0,35.0,0.0,120.0,0.0,-0.4061555609155547,-0.9471175941706087,0.9029884654515568,-107.0,0.0,-45.0,-0.3054883500051304,0.5169183189343058,-0.1074468400430868,34.270624069470855,17.560637190127487,4.778619962575109,3.2523961459238184,2.7669627928071896,2.333630504857666,1.884861706343882,1.457573563317252,1.0665737128125063,0.7430796560951903,0.4942159991709268,0.3040450915202465,0.16627513401579455,0.07867654927769714,0.03186445086488697,0.01109158196395893,0.0029098590570328957,7.128836315285549,5.5656618510823375,4.997727737413632,4.4622230267692,3.869074690153925,3.253335647856819,2.629177028616286,2.0482936376540772,1.5391875293685684,1.0887890935410298,0.7019763810301355,0.4027164245951882,0.20330977845422346,0.09067368300903646,0.03308494771939524
0.0,36.0,36.0,0.0,120.0,0.0,0.5245370419094717,0.20177778874718544,-0.31773448716967456,-107.0,0.0,-45.0,0.05920585181473381,0.651667573566163,-0.8478042647060158,34.270624069470855,17.560637190127487,4.790448226278317,3.2745264473854863,2.7872747372020434,2.3508811254526605,1.8984850532134605,1.4676285985378326,1.0734356762819806,0.7475613605759502,0.4974996900480764,0.3070297616778862,0.1689376793283982,0.08058482162616461,0.03293293185239286,0.011571890090212276,0.0030726156542534994,7.1385907108071365,5.588992542573053,5.021193697979015,4.483786166323598,3.887687840526827,3.2684874514522946,2.6407068132216756,2.056731927696009,1.546200991559282,1.0963356507730697,0.7102003148159106,0.4100297902199634,0.20847612758316203,0.0936603090683717,0.03444267267708578
0.0,37.0,37.0,0.0,120.0,0.0,-0.17365559744162828,-0.7072844787994426,0.9430215513944775,-107.0,0.0,-45.0,0.48147461608995057,0.6641363701353866,-0.403918820834104,34.270624069470855,17.560637190127487,4.80270455728982,3.296976827383148,2.8078161601951135,2.3683090226327543,1.9122387171724637,1.477772850322547,1.0803514236237879,0.7520449097256664,0.5006901970356117,0.3098576808317741,0.17147427523645647,0.08243294987831819,0.03398432676004644,0.012051378505223129,0.00323736921913586,7.148713596895048,5.61262288167463,5.044868180589124,4.505516508791913,3.90643481003737,3.283741443723319,2.6523058540744757,2.0651593547473306,1.552987853140939,1.1034343405962508,0.7179763046220826,0.4170585709834499,0.21351665185284693,0.09661221587944395,0.03580107780169871
0.0,38.0,38.0,0.0,120.0,0.0,0.12034927158063535,-0.7374985970543424,0.23320358781399242,-107.0,0.0,-45.0,-0.6071748836657691,0.5829551501562651,-0.052267280444948216,34.270624069470855,17.560637190127487,4.815401297383166,3.3197495367350482,2.828589553188213,2.385916350868073,1.9261242805472074,1.4880073876937194,1.0873222085365062,0.7565374297778388,0.5038037926826299,0.3125432156584197,0.17389033637194148,0.08422129015709155,0.035017826493354366,0.012529450110087293,0.003403900401160979,7.1592159797822665,5.6365537423057495,5.068753001990721,4.527416191982147,3.925317584861172,3.299099362538253,2.663976557139239,2.073590381161964,1.5595873256338657,1.1101284490491243,0.7253275421061597,0.4238090976649522,0.21843062551281103,0.09952722627153544,0.03715878783237093
0.0,39.0,39.0,0.0,120.0,0.0,0.7846222678608394,0.2935442018342309,-0.5826854651537958,-107.0,0.0,-45.0,0.861470268453727,0.5374859662849216,-0.13366925712711386,34.270624069470855,17.560637190127487,4.828550953151213,3.342846848194269,2.849597458813147,2.403705296223267,1.9401433457868165,1.498333289759811,1.0943490845350654,0.7610446291551273,0.5068547494183651,0.3150999789206022,0.17619139103704742,0.08595038087743181,0.036032729866234584,0.01300554528850249,0.003571995280543438,7.170108925879659,5.660785929791567,5.092849983945333,4.549487343020787,3.944338135190593,3.3145629224449635,2.67572096981484,2.0820365872547626,1.5660336146498053,1.1164585502556108,0.7322770103594943,0.43028805840824863,0.22321770022210694,0.10240338580394444,0.03851450002322289
0.0,40.0,40.0,0.0,120.0,0.0,-0.4283699242374994,-0.6784400091256964,-0.8599477643580145,-107.0,0.0,-45.0,-0.44280724771180857,-0.925525800398779,0.4745033284823048,34.270624069470855,17.560637190127487,4.842166186300405,3.366271061039407,2.870842471354031,2.4216780764172823,1.9542975354508776,1.508751645793294,1.1014329713256086,0.7655710684326075,0.5098555218383318,0.3175407987346803,0.17838304025246712,0.08762092550681211,0.037028436219670086,0.013479141050869193,0.0037414458182176685,7.181403549076417,5.685320186005161,5.117160953171448,4.5717320777737624,3.963498414706651,3.330133814630691,2.6875408915943306,2.0905072302248198,1.5723564213342807,1.122462505187563,0.7388473962742004,0.4365024517161214,0.22787786862371837,0.10523894987674587,0.03986698290967334
0.0,41.0,41.0,0.0,120.0,0.0,0.9184517990385221,-0.6745078062450403,0.4008218987842316,-107.0,0.0,-45.0,0.21208324654610622,-0.7100406752663939,-0.24805556423167419,34.270624069470855,17.560637190127487,4.856259803154104,3.3900245058478378,2.892327237168708,2.439836940933864,1.9685884921658148,1.519263555164118,1.1085747011866347,0.7701203859870783,0.5128169257567949,0.31987770095158075,0.1804709192265386,0.08923377677007786,0.03800443839868419,0.013949750058803362,0.003912050223582979,7.19311099729725,5.7101571949563095,5.141687741387312,4.594152500466868,3.9828003601551423,3.3458137069060996,2.699437950641961,2.0990097075277303,1.5785814221833954,1.1281754887532358,0.7450610077734618,0.4424595442367744,0.23241143113618437,0.10803237122653803,0.041215074827337744
0.0,42.0,42.0,0.0,120.0,0.0,0.9283320226168019,0.12712771643236054,0.4495179347754059,-107.0,0.0,-45.0,0.14692181971317608,-0.19455457454612968,0.6737812934560601,34.270624069470855,17.560637190127487,4.870844741440444,3.414109548578059,2.914054455516284,2.4581841731593994,1.9830178808351302,1.5298701257789813,1.1157750512852675,0.7746954847022355,0.5157483108742559,0.32212190335470253,0.18246066137728123,0.09078992206003182,0.03896031611585669,0.014416919554990493,0.004083613254906522,7.205242463179574,5.73529765562112,5.166432279604702,4.616750797153553,4.002245892894739,3.361604176097315,2.7114136902561894,2.107549925846425,1.5847307249477767,1.1336300413842668,0.7509396967560027,0.4481668323070692,0.23681896580302222,0.11078228784646217,0.04255768292752522
0.0,43.0,43.0,0.0,120.0,0.0,-0.13623420415895549,-0.524535796843588,-0.20822003671994804,-107.0,0.0,-45.0,-0.43192791294984456,0.38556686779548266,-0.3222668832407045,34.270624069470855,17.560637190127487,4.885934062739787,3.4385285975445212,2.9360268778108045,2.4767220856052763,1.9975873831597915,1.5405724778610632,1.1230347642709546,0.7792986857515004,0.518657724371435,0.32428382037899417,0.18435786502912116,0.09229046985293522,0.03989572971598365,0.01488023021960448,0.004255946423460093,7.2178091078667395,5.760742124388431,5.191396367575907,4.639529006261742,4.021836914422789,3.377506874338956,2.7234695199628502,2.1161326404810255,1.59082328258055,1.1388561444411085,0.7565047880886722,0.45363200645569235,0.2411013010252387,0.11348751134656762,0.0438937796089151
0.0,44.0,44.0,0.0,120.0,0.0,-0.8091345951055182,-0.8749469072648297,0.19627450976090488,-107.0,0.0,-45.0,-0.8587604894659664,0.6923287274231134,0.6641448506956602,34.270624069470855,17.560637190127487,4.901540937084082,3.463284107684972,2.9582473089292596,2.4954530231330785,2.0122987006684507,1.5513717417669175,1.1303545632944474,0.783931853169163,0.5215520642513984,0.32637307677879235,0.18616806294940783,0.09373663695095955,0.04081041434702141,0.015339294971987329,0.004428868169981367,7.230822080541647,5.786491116094974,5.216581806823217,4.662489150542716,4.041575308651731,3.3935234341982183,2.7356067869081784,2.124761689551268,1.5968752864682987,1.1438813112947526,0.761777015935425,0.4588629181370172,0.245259490965286,0.11614701579042219,0.04522240152520366
0.0,45.0,45.0,0.0,120.0,0.0,0.009246897441044233,0.8192658225651421,0.7188716650590301,-107.0,0.0,-45.0,0.29197554295710004,0.4259230497432085,0.1963237448327979,34.270624069470855,17.560637190127487,4.917678628120575,3.4883785852476157,2.98071860776198,2.514379364221578,2.0271535560104166,1.5622690573533942,1.1377351615480704,0.7885964945285601,0.5244372210501596,0.3283985289118966,0.18789669481038893,0.0951297364187461,0.041704174531061455,0.015793757733457384,0.004602203977399972,7.244292514905066,5.812545146457278,5.241990451118228,4.685633287277063,4.0614629431263785,3.4096554331160958,2.747826809132994,2.133440188901493,1.6029005227649786,1.1487306935190134,0.7667764674979135,0.463867548239366,0.24929479341547822,0.1187599270099105,0.04654264788099216
0.0,46.0,46.0,0.0,120.0,0.0,-0.13321530843844798,0.09689170149549753,0.7754398508997966,-107.0,0.0,-45.0,0.828633201455053,-0.7338488220921333,0.6842499928813524,34.270624069470855,17.560637190127487,4.934360479483006,3.513814593452401,3.0034436874170116,2.533503520270565,2.0421536919370276,1.573265574895634,1.1451772680179508,0.7932938416928554,0.5273182073814153,0.33036829225807807,0.1895490826466797,0.0964711661085997,0.04257687912186308,0.016243292165337354,0.004775786428056978,7.258231499309747,5.838904706116077,5.267624160359855,4.708963462421526,4.081501668417529,3.4259044274824486,2.7601308682607204,2.1421706980839406,1.6089106913803213,1.153427198909301,0.7715225344900083,0.4686539770114541,0.2532086499084295,0.12132551240666627,0.04785367793831306
0.0,47.0,47.0,0.0,120.0,0.0,-0.1275895204470776,-0.38974123520972515,-0.5502769402021637,-107.0,0.0,-45.0,-0.2868032594538459,0.9813437874921835,0.8187174948853964,34.270624069470855,17.560637190127487,4.951599899459046,3.539594757772838,3.0264255156674804,2.5528279359360755,2.0573008714189447,1.5843624552625166,1.1526815911737662,0.7980249148940313,0.5301992752962541,0.33228977383407765,0.19113040934406328,0.0977623976957109,0.04342845662957897,0.016687600394610015,0.004949455223124724,7.272650058351418,5.865570267753509,5.293484800883186,4.7324817109918085,4.1016933185007876,3.4422719533633193,2.7725202155258426,2.150955346836376,1.614915693343139,1.1579916172212117,0.7760338726511868,0.47323035515652007,0.25700266784169634,0.12384317124911369,0.049154708823089845
0.0,48.0,48.0,0.0,120.0,0.0,-0.8098783215776961,-0.9521014483741594,-0.5269386114920096,-107.0,0.0,-45.0,0.15742916299909493,-0.599762323914039,0.9051885565223503,34.270624069470855,17.560637190127487,4.96941034489698,3.565721771189355,3.049667115410212,2.57235508949672,2.0725968778015895,1.5955608700949457,1.160248841182753,0.802790573234147,0.5330840216341431,0.3341697083037904,0.19264570014322124,0.09900496617154082,0.04425889088851581,0.01712641173812601,0.005123057165658744,7.287559133627024,5.8925422932549605,5.319574245775343,4.756190057521271,4.122039711232205,3.4587595272406717,2.784996075547835,2.159795934216546,1.620923886393272,1.162442751063858,0.7803283692607296,0.4776048759626813,0.2606786043940303,0.12631242546659815,0.05044501330678877
0.0,49.0,49.0,0.0,120.0,0.0,0.5612116258612629,0.660900147527917,0.19619390329223574,-107.0,0.0,-45.0,-0.5512803384349563,0.3377570826045935,0.5614588814844499,34.270624069470855,17.560637190127487,4.98780530438686,3.5921983993798685,3.0731715651385865,2.592087493250019,2.088043514995816,1.6068620019801994,1.1678797311892803,0.8075915541737254,0.5359754818209849,0.33601419668578697,0.19409980710230706,0.10020045976378919,0.04506821704083851,0.017559481434986583,0.005296446112270337,7.302969563687237,5.91982124085355,5.345894375194053,4.78009051658512,4.14254264890542,3.4753686467521314,2.797559648717298,2.168694005721123,1.6269423106640917,1.1667975493888383,0.7844231185089138,0.48178574841322214,0.26423835201671175,0.12873291094059938,0.051723917580816056
0.0,50.0,50.0,0.0,120.0,0.0,0.5061101197885483,0.7582457791727988,0.43589776750268805,-107.0,0.0,-45.0,0.13030032391140733,-0.8852832498513088,0.5499455954245862,34.270624069470855,17.560637190127487,5.006798280761113,3.6190274858133913,3.096941999432647,2.6120276939374563,2.1036426077003543,1.6182670446196126,1.1755749780229419,0.8124285041649274,0.5388762127470745,0.3378287466822159,0.19549739642380407,0.10135051026801661,0.045856517807564875,0.01798658939553653,0.005469482897922552,7.31889206322262,5.947407572195443,5.372447076686181,4.8041850933803865,4.16320391887559,3.4921007914250968,2.8102121127629225,2.17765091282871,1.632976886596089,1.1710712413457574,0.7883344044494075,0.4857811712810634,0.2676839252941889,0.13110436929051364,0.052990799038334584
0.0,51.0,51.0,0.0,120.0,0.0,-0.24266589601108102,0.25551801020919873,-0.607013913878607,-107.0,0.0,-45.0,-0.47523865015339517,-0.13567889006900202,-0.7955395727217169,34.270624069470855,17.560637190127487,5.0264027729706005,3.6462119567132922,3.1209816094697773,2.6321782731971695,2.1193960016527185,1.6297772029898543,1.1833353025729774,0.8173020022247028,0.5417883654759728,0.33961831377808677,0.1968429385174196,0.10245678378877925,0.046623920017729095,0.018407538974237983,0.005642035237848803,7.3353372015363885,5.97530175926539,5.399234245505659,4.828475784353453,4.184025294237681,3.508957423404946,2.822954623862418,2.1866678586288963,1.6390325873794012,1.1752774686064351,0.7920776911464548,0.4895993082550135,0.2710174489820498,0.13342664014884525,0.05424508407563029
0.0,52.0,52.0,0.0,120.0,0.0,-0.9084945246971659,-0.263771845842121,-0.9980871193763037,-107.0,0.0,-45.0,0.924440461056989,0.46101438740928025,0.42487105477453024,34.270624069470855,17.560637190127487,5.046632257403417,3.6737548258581696,3.145293643559259,2.65254184804315,2.135305563905469,1.641393693499752,1.1911614299804956,0.8222125779263761,0.5447137486051211,0.34138734238386076,0.19814070064282907,0.10352097189733213,0.04737059136721262,0.018822155772639723,0.00581397761017129,7.352315380370973,6.003504291113608,5.42625778493156,4.852964577867718,4.2050085345481465,3.5259399881793234,2.835788317521013,2.195745932528625,1.6451135882834274,1.1794284145817167,0.7956676195418589,0.49324826417378503,0.2742411470466997,0.135699653917986,0.05548624592301905
0.0,53.0,53.0,0.0,120.0,0.0,-0.058519948041549696,0.0842389819760554,-0.5604706897636014,-107.0,0.0,-45.0,-0.8096026945554144,-0.819347392169991,0.2497080796899258,34.270624069470855,17.560637190127487,5.067500162261484,3.701659203057777,3.169881414013032,2.673121066944797,2.1513731848538824,1.6531177436715745,1.1990540898271445,0.8271607250097808,0.547653883128867,0.3431398064139079,0.19939474195373164,0.104544783219005,0.04809673738005923,0.0192302864775578,0.005985191113682685,7.369836812380808,6.032015691193714,5.453519604971891,4.877653450625965,4.226155388427992,3.5430499150087074,2.8487143093177525,2.204886136483309,1.6512233952085715,1.1835349292602733,0.7991180105001067,0.49673606245936247,0.2773573325489242,0.13792342499800878,0.05671380252634247
0.0,54.0,54.0,0.0,120.0,0.0,-0.982323726836547,-0.7242788310228803,0.8994158462849207,-107.0,0.0,-45.0,-0.3085599094353857,0.8636862564818237,-0.09568654886825634,34.270624069470855,17.560637190127487,5.0890198579608805,3.7299282928839514,3.194748288020793,2.6939186170348637,2.167600775950809,1.6649505930170359,1.2070140160721108,0.8321469116049294,0.5506100496593541,0.34487924880306003,0.20060891074940085,0.10552993546644632,0.04880259854710432,0.019631797738569566,0.006155563334533621,7.387911496744853,6.060836505345176,5.481021624553448,4.90254437591481,4.247467591125798,3.560288618189724,2.861733695695004,2.2140894045982944,1.6573649547561171,1.1876066486715795,0.8024418734456931,0.5000706238463182,0.28036839823225856,0.1400980454721476,0.05792731443974813
0.0,55.0,55.0,0.0,120.0,0.0,-0.5662616578766562,0.04537381116832706,-0.11620829823321888,-107.0,0.0,-45.0,-0.4832051190845579,-0.38207425572454334,0.11320184736137251,34.270624069470855,17.560637190127487,5.111204642812649,3.7585653950070976,3.2198976841557245,2.714937234421872,2.1839902742739365,1.6768934943673188,1.215041943300211,0.8371715897440218,0.5535833281682164,0.34660881974607477,0.20178684369385044,0.10647814794168194,0.04948844761869139,0.0200265750874426,0.00632498825633246,7.406549224333737,6.089967376114297,5.508765891119729,4.927639478394943,4.268946995929247,3.577657454351417,2.874847486384386,2.2233566613662354,1.663540732684841,1.1916521118570296,0.8056514194251282,0.5032597465525934,0.2832768077054101,0.14222367922038204,0.05912638440337611
0.0,56.0,56.0,0.0,120.0,0.0,0.4572472887320205,-0.7712637144790755,0.8604388218294738,-107.0,0.0,-45.0,-0.2250584665289559,-0.5652922969248095,0.5361043343266978,34.270624069470855,17.560637190127487,5.134067708831667,3.7875739166947886,3.2453330830600593,2.736179679011182,2.200543630816532,1.688947711155128,1.2231386172039094,0.8422351956816478,0.5565746341891442,0.34833131252731864,0.20293196695369967,0.10739113449845322,0.050154587032933594,0.020414521904062385,0.0064933659064974475,7.42575947249808,6.119408864645837,5.536754256861112,4.952940610280199,4.2905952188124195,3.595157841991761,2.888056792135057,2.2326887131587156,1.669752835033096,1.1956788577139819,0.8087580805846407,0.5063110877331377,0.2860850870726246,0.14430055650718246,0.060310650937966885
0.0,57.0,57.0,0.0,120.0,0.0,0.029109763335150696,-0.9932661215569096,0.9067471636281865,-107.0,0.0,-45.0,0.05436865561864668,-0.8163317449565259,-0.2736753731651447,34.270624069470855,17.560637190127487,5.157622126443747,3.816957373938667,3.271058027159807,2.7576487515752364,2.2172628227897415,1.701114519223558,1.2313047862082498,0.8473381583332698,0.5595847464026736,0.3500491982588216,0.20404749874720898,0.10827059702522836,0.05080134645915699,0.020795558425725114,0.006660602329186314,7.44555145026586,6.149161618792516,5.564988644874026,4.978449698505333,4.312413935227234,3.6127911636501,2.901362671165072,2.242086354762709,1.6760030405432924,1.1996935329562641,0.8117725306254295,0.5092321467351943,0.288795817010561,0.14632896890378558,0.06147979008522097
0.0,58.0,58.0,0.0,120.0,0.0,0.839239202401318,0.14692940139837596,0.26466918127389083,-107.0,0.0,-45.0,-0.1575003326294413,0.21872699616494118,0.5580159500859225,34.270624069470855,17.560637190127487,5.181880824846586,3.8467193943776588,3.2970761204236156,2.779347292731593,2.2341498521094425,1.7133952069719747,1.2395412026983244,0.852480901617726,0.5626143313398206,0.3517646580511793,0.20513645335228298,0.10911821942084635,0.05142908044427899,0.021169620804180254,0.006826609387442866,7.465934064912469,6.1792263535291365,5.593471013501929,5.0041686990497976,4.334404840384621,3.6305587802330095,2.914766150958197,2.2515503618202084,1.6822928614629886,1.2037019837082088,0.8147047098051295,0.5120302498222621,0.2914116251532387,0.14830926462550068,0.06263351304082494
0.0,59.0,59.0,0.0,120.0,0.0,-0.6301769308839322,-0.08094950693863656,-0.87639619255787,-107.0,0.0,-45.0,0.31053474074505005,-0.7637252477531755,-0.7592065146014433,34.270624069470855,17.560637190127487,5.206856572665457,3.8768637201368326,3.3233910285528885,2.8012781825154156,2.2512067444723907,1.72579107543214,1.2478486239409132,0.8576638461444471,0.5656639640417768,0.3534796130017955,0.20620164628268817,0.10993566208385959,0.0520381661493172,0.021536660208818625,0.006991304568169437,7.48691589177031,6.209603838160225,5.622203331561347,5.030099565233784,4.356569621667223,3.64846204121092,2.9282682438211207,2.2610814857264643,1.6886235936687453,1.2077093403314305,0.8175638524418415,0.5147125365389577,0.2939351787583395,0.15024184422375342,0.06377156400060051
0.0,60.0,60.0,0.0,120.0,0.0,0.00913621416058108,-0.5598647509976811,-0.727714061212049,-107.0,0.0,-45.0,0.5781988358132502,0.7088920325931405,0.7997462971897054,34.270624069470855,17.560637190127487,5.232561958779751,3.907394210523081,3.3500064797889446,2.823444341050141,2.268435549769171,1.7383034384764973,1.256227812217728,0.8628874106987527,0.5687341451567473,0.35519575199095804,0.20724570043559715,0.11072455691965506,0.052629001166483565,0.02189664197514344,0.0071546107977453095,7.508505151171991,6.2402948997937555,5.65118757876751,5.056244248548854,4.37890995949237,3.666502285404778,2.9418699477175427,2.270680456804314,1.6949963555809464,1.2117200960373082,0.8203585163076342,0.5172859477405956,0.2963691776178058,0.15212715660603976,0.0648937184222606
0.0,61.0,61.0,0.0,120.0,0.0,0.7204281645562303,0.8048575597776968,-0.26067489454952897,-107.0,0.0,-45.0,-0.6475981956134158,0.44301998690685074,-0.5180536506931455,34.270624069470855,17.560637190127487,5.259009373775672,3.938314844421455,3.376926265759268,2.8458487292409163,2.285838342510062,1.7509336230377723,1.264679534967665,0.8681520132818945,0.5718253151171778,0.3569145572591524,0.20827105303665816,0.11148650286313584,0.053202001409738235,0.02224954479726082,0.007316456256620718,7.530709686052407,6.271300426290094,5.680425746184362,5.08260469949587,4.401427528180123,3.684680841781907,2.9555722471019363,2.2803479866721013,1.7014121203541204,1.2157381787030117,0.8230966135244083,0.5197572152754524,0.29871634718443363,0.15396569536098742,0.06599978135315442
0.0,62.0,62.0,0.0,120.0,0.0,0.8761866175523274,-0.04451918493440865,0.5279309730616473,-107.0,0.0,-45.0,-0.963808183296418,-0.8364281114826311,0.06455841089676362,34.270624069470855,17.560637190127487,5.286210992216007,3.969629722401783,3.404154242362294,2.868494349490874,2.3034172222633833,1.7636829693397071,1.2732045649355894,0.8734580718339057,0.5749378658387123,0.3586373278115362,0.2092799632142188,0.11222306191156553,0.05375759907367782,0.022595359962607284,0.007476774193977979,7.553536940427553,6.30262136868553,5.709919836698758,5.1091828684283,4.42412399682473,3.7029990302594085,2.9693761137485093,2.2900847700434146,1.707871742390275,1.2197670161592502,0.8257854424983337,0.5221328533008592,0.30097943189841125,0.15575799536252444,0.06708958582507074
0.0,63.0,63.0,0.0,120.0,0.0,-0.8642747437026748,0.3680679818445636,-0.09335815993855445,-107.0,0.0,-45.0,0.8777579399660445,0.993643594571147,-0.1673491020247071,34.270624069470855,17.560637190127487,5.3141787559256,4.001343068550853,3.4316943306898917,2.891384246440288,2.3211743141057557,1.776552831138521,1.2818036803256982,0.8788060047343272,0.5780721503276304,0.3603652007224843,0.21027452004803593,0.11293575565804918,0.05429624065742191,0.02293409062680488,0.0076355027434143645,7.576993938977688,6.334258743098468,5.739671865517821,5.135980706398743,4.447001030167873,3.7214581625129814,2.9832825075717957,2.2998914861329576,1.714375979086235,1.223809595270601,0.8284317204730989,0.5244191511981241,0.30316118870628106,0.1575046296274265,0.06816299131673824
0.0,64.0,64.0,0.0,120.0,0.0,0.6644643057833419,-0.9388514416939064,-0.9048734565432808,-107.0,0.0,-45.0,-0.2744308885211253,0.8592053715865446,-0.8440380960518328,34.270624069470855,17.560637190127487,5.342924358496845,4.033459232050732,3.459550517986538,2.914521507728624,2.339111769083918,1.7895445759745892,1.2904776649579976,0.8841962311505136,0.5812284905330916,0.362099170433604,0.21125665095214455,0.11362606231230675,0.05481838505168771,0.023265751126282496,0.007792584740499247,7.601087267970318,6.36621363213516,5.769683860687564,5.163000166006635,4.470060289472057,3.7400595427888907,2.9972923774365374,2.309768799794712,1.720925508601483,1.2278685151662938,0.8310416163274211,0.5266221680365677,0.30526438077172247,0.15920620640110006,0.06921988228435315
0.0,65.0,65.0,0.0,120.0,0.0,0.25106680275803384,-0.4016491385522112,0.05036367970135491,-107.0,0.0,-45.0,0.184585990688235,0.9905430802087671,0.6570891372854606,34.270624069470855,17.560637190127487,5.372459231222307,4.065982688528695,3.4877268586441263,2.9379092647794147,2.357231764687589,1.8026595854336884,1.2992273084269965,0.8896291712839568,0.584407183734515,0.36384010615333306,0.21222813026602771,0.11429541419195588,0.055324501688478085,0.023590366326150112,0.007947967542940075,7.625823057763107,6.398487185820035,5.799957863630156,5.1902432022447975,4.493303433392477,3.7588044687166486,3.0114066619551743,2.319717362481729,1.7275209443209358,1.2319460350025084,0.8336207832867282,0.5287477285242331,0.30729177138292224,0.16086336644739951,0.07026016676007417
0.0,66.0,66.0,0.0,120.0,0.0,-0.3755638323378392,-0.8392713086121368,-0.9744893397438532,-107.0,0.0,-45.0,-0.6838944829234497,-0.7716202347372949,-0.740216241307738,34.270624069470855,17.560637190127487,5.402794532501239,4.098918043280437,3.516227477439638,2.961550695820392,2.3755365070487504,1.815899255471852,1.3080534042809338,0.8951052471352196,0.5876085077265025,0.3655887674645114,0.2131905879307055,0.1149451956714285,0.05581506875171119,0.023907971001256193,0.008101602877722217,7.6512069740219655,6.431080639014157,5.830495955885696,5.217711810884414,4.516732165995671,3.7776942670317823,3.0256262652491555,2.3297378026057625,1.7341628565859402,1.2360441132379167,0.8361743919216013,0.5308014203091583,0.30924611805436114,0.16247678053541412,0.07128377575130966
0.0,67.0,67.0,0.0,120.0,0.0,-0.9324107042217873,-0.40116472881473975,0.8295741834358603,-107.0,0.0,-45.0,0.5423327802400848,-0.5642052226075704,0.021543068995090175,34.270624069470855,17.560637190127487,5.4339411372397235,4.1322700322811645,3.545056570651662,2.9854490268019998,2.394028231562264,1.8292649968048265,1.316956750131359,0.9006248826011358,0.5908327250183725,0.36734581827592244,0.21414551817847582,0.11557674155211425,0.05629057145415703,0.024218609246858022,0.008253446670331378,7.677244204566828,6.4639953126448795,5.861300261451029,5.24540803185936,4.540348240827266,3.79673029676,3.0399520560232416,2.3398307255902955,1.7408517828633858,1.2401644454092995,0.8387071619155974,0.5327885926706896,0.31113016685567774,0.16404714707107812,0.07229066202347548
0.0,68.0,68.0,0.0,120.0,0.0,0.1682184666984048,0.1543599772041071,0.3496796127914936,-107.0,0.0,-45.0,-0.13947343595907657,-0.00018222446946336568,-0.6254426362860788,34.270624069470855,17.560637190127487,5.465909617319363,4.1660435106499305,3.5742183939146335,3.0096075189265026,2.412709192979808,1.842758234713797,1.3259381597053046,0.9061885001596969,0.5940800860532729,0.36911183933740943,0.21509428820397813,0.11619133579613529,0.05675150039281921,0.02452233391371363,0.008403458731958316,7.703939406301355,6.497232510906605,5.892372788753619,5.2733337227407775,4.564153176226559,3.8159137385860746,3.054385019857869,2.3499967780873487,1.7475881748449373,1.2443085185123763,0.8412233889766781,0.5347143568387122,0.3129466470375201,0.16557518977134253,0.07328079445843134
0.0,69.0,69.0,0.0,120.0,0.0,-0.8444439393529715,0.013361038622838661,0.8761316625408895,-107.0,0.0,-45.0,0.33909912150658506,0.15759823121918548,0.9391239259864579,34.270624069470855,17.560637190127487,5.49871020943506,4.200243458003587,3.603717309968529,3.03402951148818,2.4315816584956154,1.856380417009991,1.3349984457152966,0.9117965257773318,0.5973508319903975,0.37088733916745914,0.21603814651928455,0.11679021073277017,0.05719834994328702,0.024819206075336362,0.008551602718934565,7.731296752636449,6.53079369456602,5.923715677844992,5.301490832989037,4.588148629031467,3.8352458724659653,3.068926062689261,2.360236565274535,1.754372483851805,1.2484776137902465,0.8437269799665057,0.536583586582152,0.3146982657485967,0.16706165568206918,0.07425416283038476
0.0,70.0,70.0,0.0,120.0,0.0,0.3137700586528782,0.8618815871477661,0.11336859302352686,-107.0,0.0,-45.0,0.15957751424099587,-0.6289589913370988,0.2901960060513693,34.270624069470855,17.560637190127487,5.532352908165701,4.2348750078662905,3.6335577144094575,3.058718351507732,2.450647956399681,1.8701329959189408,1.344138429997113,0.917449386794177,0.6006451967905648,0.3726727638461174,0.21697823121454732,0.1173745465438497,0.057631616746245534,0.02510929451266673,0.0086978460806605,7.759319910507083,6.564680330875521,5.95533101836135,5.329881350853795,4.61233626214658,3.8547279735477873,3.0835760830592354,2.3705506832720245,1.7612051362390149,1.2526728430494798,0.8462214797463564,0.5384009205343311,0.31638770312864234,0.16850731312921688,0.07521077431678536
0.0,71.0,71.0,0.0,120.0,0.0,0.7650513774736829,0.8221843391134382,-0.23086649706835005,-107.0,0.0,-45.0,0.5915972686060444,0.9016805984879428,-0.48552474132710843,34.270624069470855,17.560637190127487,5.566847394870816,4.269943420057067,3.6637440789761806,3.0836774413282124,2.4699104406201293,1.88401744073874,1.3533589407841724,0.9231475123784894,0.6039634088956733,0.37446850558388883,0.2179155779307644,0.11794547108918936,0.05805179826100614,0.02539267522078649,0.008842159773215605,7.788012027582957,6.598893959605452,5.987220928928673,5.358507269763181,4.636717738329557,3.8743613161345465,3.0983359737032883,2.3809397190910198,1.7680865375816492,1.256895171687779,0.84871009874461,0.5401707652833142,0.3180176076405205,0.16991294980817198,0.0761506526604315
0.0,72.0,72.0,0.0,120.0,0.0,0.9916102668893865,-0.6231982969944274,0.592422410400177,-107.0,0.0,-45.0,-0.7384380346886157,0.9480626366461071,0.6384919753450151,34.270624069470855,17.560637190127487,5.602203033953499,4.3054540824753476,3.694280958978664,3.108910241092194,2.4893714886120972,1.8980352390928197,1.3626608127241941,0.9288913336165695,0.607305692564316,0.37627491024880316,0.21885112752623145,0.11850406002850083,0.05845939139301889,0.025669430934439724,0.0089845181095505,7.817375736288245,6.633436196985065,6.019387558742506,5.387370584324692,4.661294723065455,3.894147173765035,3.1132066224755532,2.3914042512253677,1.7750170758847217,1.2611454388974115,0.8511957392103916,0.5418972993184344,0.319590591684621,0.17127937095200957,0.07707383723177913
0.0,73.0,73.0,0.0,120.0,0.0,-0.7881358072834179,-0.163578167910587,-0.1392077711089892,-107.0,0.0,-45.0,0.22593810654506563,-0.6182507002445747,-0.933730573240289,34.270624069470855,17.560637190127487,5.638428889818122,4.341412516236161,3.7251729858252363,3.134420261505406,2.5090335086459206,1.9121878949193267,1.3720448875697893,0.9346812835557342,0.6106722689129062,0.378092283955254,0.2197857334095511,0.11905133721088317,0.058854891197428726,0.025939650670577998,0.009124898638113122,7.847413157150368,6.668308721707303,6.051833074704117,5.416473298239957,4.686068885926201,3.9140868196136354,3.1281889128033304,2.4019448504259016,1.781997124123614,1.265424375313002,0.8536810201097864,0.5435844777336071,0.32110922750581905,0.1726073975682135,0.0779803820955645
0.0,74.0,74.0,0.0,120.0,0.0,-0.37994034455848946,0.79159513743679,0.8699034777030705,-107.0,0.0,-45.0,0.8475556890898726,-0.03726016349708772,-0.39705837519680487,34.270624069470855,17.560637190127487,5.675533733685211,4.377824376470409,3.7564248682944665,3.160211064802489,2.5288989403922826,1.9264769287774524,1.3815120143479402,0.9405177973073227,0.6140633567338575,0.37992089880617674,0.22072016852047716,0.1195882753034112,0.05923878966040652,0.02620342928640843,0.009263282004424988,7.878125904947946,6.703513273522838,6.084559662019999,5.44581742511688,4.7110419013074605,3.934181527220954,3.143283724335728,2.4125620803261074,1.7890270423280448,1.2697326183668494,0.8561683006383404,0.5452360375911998,0.3225760434012994,0.17389786473507682,0.0788703551650702
0.0,75.0,75.0,0.0,120.0,0.0,0.7141753243798659,0.8332678432400091,0.48392118578379106,-107.0,0.0,-45.0,-0.6725920992340888,-0.4462713831804779,0.15745630317439474,34.270624069470855,17.560637190127487,5.713526053221022,4.414695453211001,3.788041393864436,3.186286265739565,2.5489702555110827,1.940903878158427,1.3910630495295029,0.9464013121522241,0.6174791731361455,0.3817609978838075,0.2216551319433304,0.12011579663205407,0.059611574559336265,0.026460867051635837,0.009399651817775774,7.909515098116099,6.739051651817396,6.117569524818091,5.475404989267294,4.736215449137265,3.954432571208539,3.1584919335721233,2.4232564980528064,1.7961071792756809,1.2740707256184078,0.8586597023375007,0.5468555038541332,0.32399352023523165,0.17515161995060388,0.07974383740707157
