Line_number,Fiducial,Easting,Northing,Height,Elevation,tx_pitch,tx_roll,tx_yaw,txrx_dx,txrx_dy,txrx_dz,rx_pitch,rx_roll,rx_yaw,PX,PZ,S0X_time_1.086e-05,S0X_time_3.256e-05,S0X_time_5.426e-05,S0X_time_8.680e-05,S0X_time_1.411e-04,S0X_time_2.279e-04,S0X_time_3.689e-04,S0X_time_5.860e-04,S0X_time_9.115e-04,S0X_time_1.411e-03,S0X_time_2.192e-03,S0X_time_3.418e-03,S0X_time_5.339e-03,S0X_time_8.301e-03,S0X_time_1.338e-02,S0Z_time_1.086e-05,S0Z_time_3.256e-05,S0Z_time_5.426e-05,S0Z_time_8.680e-05,S0Z_time_1.411e-04,S0Z_time_2.279e-04,S0Z_time_3.689e-04,S0Z_time_5.860e-04,S0Z_time_9.115e-04,S0Z_time_1.411e-03,S0Z_time_2.192e-03,S0Z_time_3.418e-03,S0Z_time_5.339e-03,S0Z_time_8.301e-03,S0Z_time_1.338e-02
0.0,0.0,0.0,0.0,120.0,0.0,-0.8787458182095644,0.7752499445854433,0.9768428659952137,-107.0,0.0,-45.0,0.051399429786213036,-0.8878801238584935,0.6503646457522634,34.28551186217887,17.546392865702316,4.439204947580692,2.5483336385848454,2.0834730363636558,1.7790635542612026,1.5479830435624757,1.3760159123249978,1.2229997513825441,1.074868332388079,0.9287484195115782,0.780031569084528,0.629834914699946,0.4845804089557595,0.3525848187453863,0.24209640695972895,0.15052551862362523,6.490856736399603,4.47357562105662,3.8564166282048395,3.423975783338782,3.07768928119425,2.811981360261771,2.5732181316095093,2.337943178628564,2.098806069857629,1.8455918377486498,1.5767641333188727,1.3001459028318272,1.0290177694327214,0.7807126210581492,0.5508712549527287
0.0,1.0,1.0,0.0,120.0,0.0,-0.5416309841118632,0.7496899894348361,0.2653551169128603,-107.0,0.0,-45.0,0.4231145065885509,-0.2021514849054955,0.8594471047676364,34.28551186217887,17.546392865702316,4.446367327634603,2.5642085274065574,2.093629491226959,1.7677258371460955,1.5080927676559501,1.3189507206734292,1.1626639193486414,1.0187081191241059,0.8795186286279587,0.7389879320929733,0.5974987059371861,0.46071025841874913,0.3362114177203852,0.231687135640239,0.1446903022563127,6.506159331443982,4.499538659216602,3.878190563275031,3.420024686749245,3.0325717731014357,2.7359882042161767,2.4858172299630454,2.251693153163779,2.0190638996793577,1.7751403547573759,1.517382944948795,1.252671921400921,0.9932469208822113,0.7553628627361997,0.5346207381149635
0.0,2.0,2.0,0.0,120.0,0.0,-4.327337250087382e-06,-0.08857736096206081,-0.4427940688509122,-107.0,0.0,-45.0,-0.3295827815786265,-0.29715721611979684,0.046307451507526354,34.28551186217887,17.546392865702316,4.4534769903965765,2.5806138925368134,2.1079030543387183,1.7670582247193627,1.4817260179704734,1.2723436385317632,1.1091543067581136,0.9674613451428985,0.8341233293314682,0.7009147394048766,0.567356141119394,0.4383522533938862,0.32079702440421887,0.22183419423466696,0.13913270812516162,6.521117862969623,4.525749155334487,3.9041729301716663,3.4290494502086344,3.006007429769038,2.675307473883457,2.408221507061725,2.1721829268733424,1.9445730220927082,1.7088971280410281,1.4612951118865387,1.2076523422880114,0.9591899806120805,0.7311261188614729,0.5190084816280605
0.0,3.0,3.0,0.0,120.0,0.0,0.16886566142732273,0.5792002796500884,0.9718044063529192,-107.0,0.0,-45.0,-0.08160615489143574,0.4676799618784213,0.49548369923082713,34.28551186217887,17.546392865702316,4.460547834707876,2.5972236047805133,2.124129621461666,1.7733444887346188,1.466451534183647,1.2356951660666071,1.0623461560823966,0.9208369401535668,0.7922597608818109,0.6655705050221401,0.5392354531641425,0.4173953799697587,0.30627677439055956,0.21250348559764612,0.1338377204578997,6.53575639986875,4.551908701105212,3.9319813175154246,3.4462990806554035,2.9944375699652155,2.629319388298054,2.340647345840425,2.0992813024623116,1.8750517936488076,1.6465969874882562,1.4082916515815798,1.1649379606005144,0.9267495721827371,0.7079444521127339,0.5040048841584968
0.0,4.0,4.0,0.0,120.0,0.0,-0.04372408098521263,-0.2792846715041504,-0.4416666382064769,-107.0,0.0,-45.0,0.8809793126944092,-0.8735903575661681,0.03892807554856703,34.28551186217887,17.546392865702316,4.4675937939184305,2.613946995640541,2.1412231782172584,1.7839253767300622,1.4598043544657147,1.208139516924292,1.0220906173032749,0.878617734499349,0.7536689279721598,0.6327397241614677,0.5129809180866918,0.3977379677416363,0.29259070921136093,0.20366319933313887,0.12879119182970772,6.550098525410024,4.577944164016283,3.9604538872632515,3.468458883421231,2.9943376671450572,2.5967354109495044,2.2831545263759665,2.032948386285895,1.810274591745011,1.5880036713066603,1.3581813126000748,1.1243906575157523,0.8958348050519609,0.6857633617093429,0.4895818699772695
0.0,5.0,5.0,0.0,120.0,0.0,-0.272214451356094,0.7211975872661847,0.4393032237963992,-107.0,0.0,-45.0,-0.290105040010169,-0.2418911075521779,0.07890022762291116,34.28551186217887,17.546392865702316,4.474628603588166,2.630767909856479,2.15868378647502,1.7970354381300617,1.4595835671390744,1.1885655729278457,0.98814773730232,0.840637260957508,0.7181326926037213,0.6022305039286012,0.4884513065601015,0.3792868444163632,0.2796833894752113,0.19528365809895543,0.12397979521899924,6.564167146689504,4.6038513174246996,3.9890728091679586,3.4933758813675295,3.0026267010571424,2.5758515561790496,2.235547283727329,1.9731871259013265,1.7500705233652478,1.5329086374522876,1.3107892628075075,1.0858825215069605,0.8663608144635985,0.6645315721781088,0.4757128103024756
0.0,6.0,6.0,0.0,120.0,0.0,0.6069949427446424,0.8128899284467421,-0.47333437093808506,-107.0,0.0,-45.0,-0.654028645485242,-0.31513295437070665,0.9030019288140723,34.28551186217887,17.546392865702316,4.481665755661092,2.6476904342429286,2.176302169223676,1.8115706163834762,1.4639782448549705,1.175761265377653,0.9601626474002407,0.8067518673177685,0.6854696743061063,0.5738726192741459,0.4655185291644103,0.3619565733061022,0.2675035363375891,0.18733717213326057,0.11939097758754377,6.577984473064861,4.629643775600314,4.017631152288198,3.519730556704759,3.01681655661018,2.564807879508658,2.197359402571669,1.9199882291468586,1.694317098079362,1.481130323039245,1.2659559777943694,1.0492950652469222,0.8382483345668481,0.6442008337895616,0.4623724476426014
0.0,7.0,7.0,0.0,120.0,0.0,0.38953122542777896,0.07659984993577984,0.5486128958530418,-107.0,0.0,-45.0,-0.05581188596404396,0.29364304986869283,0.47671396728419557,34.28551186217887,17.546392865702316,4.48871850225843,2.664723111541232,2.194001159954529,1.8268762552546478,1.4715825057794398,1.1685319318450547,0.9376769488074483,0.7768155827132176,0.6555291857235912,0.5475158591154212,0.4440664465020086,0.34566876964033705,0.2560036999605064,0.17979790214925429,0.11501291532719275,6.591572044871482,4.655338651189794,4.046059535006121,3.5467561037036366,3.0350076187454746,2.561784987007745,2.16789953821116,1.8732848641329405,1.6429280344324138,1.4325133988869059,1.2235363057337265,1.0145185338593137,0.8114233024618261,0.6247257344698994,0.4495368234624041
0.0,8.0,8.0,0.0,120.0,0.0,0.8908403017184647,-0.04761554788995692,0.28796824877151117,-107.0,0.0,-45.0,0.3051832375831762,0.7758415420865632,0.13355561369498536,34.28551186217887,17.546392865702316,4.495799880104985,2.681875110416568,2.2117583975230697,1.8425837349853884,1.481353341029303,1.1657782639319638,0.920159341423838,0.750662794927319,0.6281835439340111,0.5230284253013014,0.4239898281008258,0.3303514885639821,0.2451399537789993,0.1726417306297243,0.1108344717344503,6.604950779233259,4.680953205688982,4.074343926878123,3.57403033048439,3.0558119326655366,2.5651253518034363,2.1463239930078917,1.8329261557793612,1.5958371154213804,1.3869273607391115,1.1833987011780993,0.9814512927232348,0.7858164924737637,0.6060635229287917,0.4371832092478139
0.0,9.0,9.0,0.0,120.0,0.0,-0.9445288673811609,0.06539814919602738,0.145413725155511,-107.0,0.0,-45.0,-0.7469714803830083,-0.7140204197446776,-0.21452947113572018,34.28551186217887,17.546392865702316,4.502922738654149,2.6991554864246305,2.2295719907500255,1.8584965310712336,1.4925461033155092,1.1665376956109186,0.9070415335304102,0.7281000906616408,0.6033198635691456,0.500295151490225,0.4051934452079991,0.31593867597864544,0.23487161368890913,0.1658461413656523,0.10684515656708278,6.618141016053127,4.7065042162620765,4.102490145567295,3.6013345581306235,3.0782527679797993,2.5733927837838864,2.1317117988755157,1.7986701794997617,1.5529813848158844,1.344263957240257,1.1454245922047612,0.9499992822027827,0.7613631806686404,0.5881739424440644,0.425290040982586
0.0,10.0,10.0,0.0,120.0,0.0,0.4881588992462158,-0.5237555639123019,-0.08221025147256955,-107.0,0.0,-45.0,-0.7557971626547788,0.6325075027996472,-0.6713447227711775,34.28551186217887,17.546392865702316,4.510099765798789,2.7165730568397475,2.247446714658075,1.8745163939872294,1.5046472747980038,1.1699988813050466,0.89775080027521,0.708905889860586,0.5808325546089144,0.479215425250301,0.38759127046978564,0.3023696745202903,0.22516098114231775,0.15939010690987507,0.10303508770330001,6.6311625594106625,4.732007854840707,4.130510018475334,3.6285642575366603,3.1016660883547913,2.5853891713865336,2.123128328463442,1.7701920224924304,1.5142867098885855,1.3044333663561487,1.1095077944001976,0.9200755317263181,0.7380028388003832,0.5710190746132959,0.41383685705958745
0.0,11.0,11.0,0.0,120.0,0.0,-0.8772482628588609,-0.8162826386834643,-0.5143134803080591,-107.0,0.0,-45.0,-0.3926102181211999,0.21944680550253248,-0.7685392508491657,34.28551186217887,17.546392865702316,4.517343510793065,2.734136356606409,2.265389075814487,1.890598395015542,1.5173142162361972,1.1754987451278087,0.8917353723578678,0.6928353379950035,0.5606173985676889,0.4597008472985795,0.3711057448587384,0.2895887791819564,0.21597310868773223,0.15325398355895004,0.09939495490156354,6.644034714860144,4.757479639200023,4.158416620052437,3.655675691316709,3.12561539283755,2.600145085993908,2.11967257941042,1.7471008832494577,1.4796575452730079,1.2673594432839252,1.0755538551464863,0.8915997295829932,0.7156788555616496,0.5545631925759728,0.40280423959799444
0.0,12.0,12.0,0.0,120.0,0.0,-0.41804112477887645,-0.22616001684565257,0.2188544769424483,-107.0,0.0,-45.0,0.8152982027966673,-0.9415146119720474,-0.40066770892675607,34.28551186217887,17.546392865702316,4.524666405377839,2.7518536093816204,2.2834058030113673,1.9067250476779003,1.5303257028393797,1.1825094994937468,0.8884819507791961,0.6796279142628011,0.5425675760633282,0.44167277300863145,0.3556670700800174,0.27754483827894566,0.2072755861093991,0.14741941352089583,0.09591598562078077,6.656776324004421,4.782934408806091,4.1862228896146485,3.6826557524057164,3.1498235816389717,2.6168963180096525,2.1205084814565427,1.7289608289048086,1.4489714173095947,1.2329746002908173,1.043479224786368,0.8644978433334408,0.6943382823249957,0.5387726235395939,0.3921737590174812
0.0,13.0,13.0,0.0,120.0,0.0,0.834203935333687,0.5681492518289428,0.7486950982345693,-107.0,0.0,-45.0,0.34920770198592543,0.5337773583324872,0.38560869039464896,34.28551186217887,17.546392865702316,4.532080783828788,2.7697327164864105,2.301503486205655,1.9228921945158985,1.5435437537691175,1.1906208209536555,0.887526217316794,0.6690157785919011,0.5265715904719117,0.4250599235662863,0.34121249486489696,0.2661908950269018,0.19903834523014563,0.14186923399371126,0.09258991281535367,6.6694057971830105,4.8083863257023065,4.213941328345207,3.7095058084371657,3.1741214231678714,2.6350543550838306,2.1248828741856434,1.715311378362185,1.422077670381875,1.2012149083979267,1.0132101997246945,0.8387017799823785,0.6739316007702125,0.5236156206487673,0.38192792160437333
0.0,14.0,14.0,0.0,120.0,0.0,0.5507105928526308,0.3635035370034585,-0.9373891718982521,-107.0,0.0,-45.0,-0.5561316872397799,0.07537606606785174,-0.6168947624685808,34.28551186217887,17.546392865702316,4.539598902163155,2.787781261996866,2.3196885261943394,1.9391017204795777,1.556885589638384,1.1995205848806252,0.8884577756568576,0.6607315774235202,0.5125127658698054,0.40979623622809436,0.3276855808910505,0.25548386371022636,0.19123348161102222,0.13658739290574876,0.08940894458656065,6.681941144547204,4.833848893699508,4.241583966111391,3.736233516999518,3.198410317946154,2.6541757894829816,2.1321333707813848,1.7056856647337022,1.3987994963718446,1.1720158903285163,0.9846816434275248,0.8141490690287085,0.6544125104435453,0.5090622442052618,0.37205011975860824
0.0,15.0,15.0,0.0,120.0,0.0,0.32403832499445717,0.6817454469266615,0.4653394776572206,-107.0,0.0,-45.0,0.20697512124383732,0.5998576491602494,-0.7370757268185877,34.28551186217887,17.546392865702316,4.547232956485599,2.806006526991142,2.3379671379612605,1.9553580049445582,1.5703038773865863,1.208976251163484,0.8909209896525206,0.6545150287663984,0.5002698886162965,0.39581907058451543,0.31503545172021286,0.24538423336030393,0.1838350916424588,0.1315588710400354,0.08636573556208438,6.694400005560397,4.859334986041816,4.269162366885372,3.7628489242606915,3.2226364421162064,2.673933552504496,2.141689065212788,1.6996251718763267,1.378938129033019,1.145309287191677,0.9578355430871163,0.7907825486740393,0.6357377347933084,0.4950842520344357,0.3625245846479629
0.0,16.0,16.0,0.0,120.0,0.0,-0.20060705679465896,-0.09706347042668528,0.7598450703205397,-107.0,0.0,-45.0,0.32047966762382396,-0.1822639342611072,-0.8444852460537202,34.28551186217887,17.546392865702316,4.55499510040573,2.8244155067371937,2.356345351828228,1.971666305629592,1.5837733271999588,1.2188180729217357,0.894612991619634,0.6501180358767847,0.4897185658299063,0.38306782567996234,0.30321604120702084,0.23585579175529894,0.17681912372679345,0.1267696102031664,0.0834533598877627,6.706799676934248,4.884856874460009,4.296687630641531,3.789362733275631,3.2467734325654454,2.694091479216322,2.153066494807653,1.696690859424847,1.3622781870635408,1.1210208955632557,0.9326194905911863,0.7685500371462924,0.6178668442522132,0.4816549985295161,0.35333634108681244
0.0,17.0,17.0,0.0,120.0,0.0,-0.9003449024142147,-0.751456039307943,0.23377556050629833,-107.0,0.0,-45.0,0.046109359815689865,0.3310055875761031,0.6924987600803196,34.28551186217887,17.546392865702316,4.562897461483061,2.8430149273880825,2.3748290110343815,1.9880320805295348,1.5972819118064747,1.2289246720991363,0.899279879631444,0.6473083436748535,0.4807329404234883,0.37148296823695254,0.29218536437863574,0.22686536352295428,0.17016324233835564,0.12220644703809859,0.0806652857394568,6.719157139020573,4.910426256294288,4.324170395052082,3.815785602281022,3.270811182998787,2.7144827992859115,2.1658627004869855,1.6964709534346687,1.3485933651570758,1.0990694253360347,0.9089851845376985,0.7474039765444164,0.6007620945165175,0.46874934170058175,0.34447116455619287
0.0,18.0,18.0,0.0,120.0,0.0,-0.4794943904877076,0.045250466284876945,-0.4831387351832426,-107.0,0.0,-45.0,0.5187649210746574,-0.6023915892289229,-0.5176203564790582,34.28551186217887,17.546392865702316,4.570952156678143,2.8618112610149504,2.3934237716051068,2.004460733790116,1.6108253042908258,1.2392111129507715,0.9047118812006564,0.645871891669379,0.47318749193479154,0.3610054329921248,0.28190483426710927,0.2183825578709706,0.16384670373296434,0.11785705204172303,0.07799535128739078,6.731489080679215,4.9360542789161315,4.351620843018956,3.8421278959102882,3.294748833098865,2.7349925812293527,2.179746734621474,1.69858589079114,1.3376519123858759,1.0793662346366046,0.886887040031633,0.7273010440144848,0.5843882775529279,0.4563435574588993,0.335915540355652
0.0,19.0,19.0,0.0,120.0,0.0,-0.03826236530149485,-0.9210199804304737,-0.29704988111603603,-107.0,0.0,-45.0,-0.9505220226816862,-0.6163108505040225,-0.5982990718280936,34.28551186217887,17.546392865702316,4.579171306805972,2.880810738998705,2.4121351070591945,2.020957536727962,1.6244034703767676,1.2496193498007122,0.910738055784225,0.645614074200396,0.4669587403387192,0.3515763335160382,0.2723386443150705,0.2103795235128414,0.15785024202312917,0.11370987334003277,0.07543774206291941,6.743811922647294,4.96175156183282,4.379048717269345,3.8683996168692967,3.318590527360029,2.755543825753426,2.1944505739703053,1.7026909615920423,1.3292215520998758,1.0618157525502598,0.866280972048277,0.708201732500517,0.5687125823373568,0.4444152603705402,0.32765662491192254
0.0,20.0,20.0,0.0,120.0,0.0,-0.15444321421133345,-0.13826316385780135,0.49760964181058376,-107.0,0.0,-45.0,-0.617765545792093,-0.3194751837487697,-0.21829226421485637,34.28551186217887,17.546392865702316,4.587567050003475,2.900019364201604,2.4309683174099064,2.0375276126528554,1.6380186510249166,1.2601107852724611,0.917220943080485,0.6463601275279108,0.4619267439312603,0.3431369133372645,0.2634532297866183,0.20283071026605334,0.15215596429986517,0.10975408479134116,0.07298696968610931,6.756141839447779,4.987528217134801,4.406463340110059,3.8946103999300163,3.3423429385971755,2.7760867360319157,2.209760093571711,1.7084771664282343,1.3230736664087541,1.04631639203966,0.8471233930801962,0.6900699093439889,0.5537044621049562,0.4329433301765411,0.3196822092674355
0.0,21.0,21.0,0.0,120.0,0.0,-0.08373497799399954,-0.5971662780994218,-0.2663552712046029,-107.0,0.0,-45.0,0.9327434888502386,0.03888101265542954,0.2589724009714549,34.28551186217887,17.546392865702316,4.596151554231738,2.919442922342693,2.4499285407380436,2.0541759405298112,1.6516742110369842,1.2706606149211297,0.924051433644303,0.6479548473181111,0.4579763382449436,0.33562866877212905,0.2552168148251278,0.19571263828501353,0.14674725350719175,0.10597953802087907,0.07063785191268492,6.768494779882293,5.013393868839358,4.433873635699047,3.9207695226501054,3.3660138766588714,2.796590634721263,2.225506529714893,1.7156707411685659,1.3189866884867263,1.0327617713698418,0.8293704417045582,0.6728723648992067,0.5393355050508907,0.42190784345671634,0.31198068474601925
0.0,22.0,22.0,0.0,120.0,0.0,-0.9393781413438778,0.6884958337322649,-0.9838536878121669,-107.0,0.0,-45.0,-0.004519996486335831,0.43305358115865444,0.17251951446960567,34.28551186217887,17.546392865702316,4.604937028832375,2.9390869928741186,2.4690207656969183,2.0709073619708804,1.6653740082775872,1.2812536264888272,0.9311440371434082,0.6502618138505132,0.454998101624657,0.32899358263448475,0.24759904560420623,0.18900367682778388,0.1416086778743003,0.10237671802807768,0.06838549395388445,6.78088648615157,5.039357671488481,4.461288152732623,3.946885918279786,3.389611540799285,2.8170380087361795,2.2415586901247746,1.724031727065796,1.3167487237179145,1.0210420912837561,0.8129774386690125,0.6565783649713397,0.5255793059331154,0.41129000988086456,0.3045410107575334
0.0,23.0,23.0,0.0,120.0,0.0,0.2661482104585702,-0.7421481882642991,-0.7889634107155257,-107.0,0.0,-45.0,-0.8469704032129417,0.33360964554465533,0.8473156137600903,34.28551186217887,17.546392865702316,4.613935735150763,2.9589569595272525,2.4882498438514897,2.0877265876747417,1.6791220644990321,1.2918811458593042,0.9384326464780357,0.653162273684177,0.4528890575837403,0.32317441874080294,0.24057070507775505,0.18268383485165515,0.136725905873415,0.09893670204357775,0.06622527101562643,6.7933325116417915,5.0654283281976324,4.4887150863109015,3.972968187905664,3.4131441394365476,2.837420213390003,2.257816044434937,1.7333518920984081,1.3161594656609523,1.0110455486971068,0.7978985523927699,0.6411592205777136,0.5124113367843505,0.40107211253190694,0.29735268466899506
0.0,24.0,24.0,0.0,120.0,0.0,-0.09806883616637396,-0.05072515457669713,-0.429319259764412,-107.0,0.0,-45.0,-0.3836406195640105,0.6426891263367034,0.3639442607630945,34.28551186217887,17.546392865702316,4.623159996233981,2.9790580206103097,2.507620501298947,2.1046382032010285,1.692922403978996,1.3025388618509526,0.9458668387613859,0.6565537993601667,0.4515531379524103,0.31811503853553585,0.23410350138154554,0.17673456567940687,0.13208562587598155,0.09565112134316672,0.06415281199666605,6.805848237412327,5.091614108253729,4.516162298464396,3.999024612222137,3.4366197108555254,2.8577344363587227,2.274202738191631,1.743452245942806,1.3170314945223087,1.002659700307328,0.7840866464620746,0.626587886800719,0.49980881580552705,0.3912374518041442,0.29040571364321655
0.0,25.0,25.0,0.0,120.0,0.0,-0.9664225649208675,-0.22972462481156652,-0.21366039362123002,-107.0,0.0,-45.0,-0.9964552276531866,-0.14720616843384104,0.12394310019518939,34.28551186217887,17.546392865702316,4.632622205610184,2.9993951990932577,2.5271373493993985,2.1216466746913536,1.7067789813122047,1.3132253077471978,0.953408713281408,0.6603488244555287,0.450901437399551,0.3137607118039214,0.22816991991424718,0.17113858760504788,0.12767546989885564,0.09251212575017763,0.06216398428043754,6.818448887418685,5.117922864313021,4.54363733727356,4.025063163674895,3.4600460484762263,2.877981595082116,2.2906625115253574,1.754180337166919,1.3191910523382173,0.995772718166123,0.7714932770772935,0.6128385999083024,0.48775057435987457,0.3817702923868044,0.28369058832884364
0.0,26.0,26.0,0.0,120.0,0.0,0.8784266838397707,0.6907701893987679,-0.2713505538564387,-107.0,0.0,-45.0,0.1588284837712286,0.8250585088916695,0.4231963344498644,34.28551186217887,17.546392865702316,4.642334835156599,3.01997335249806,2.5468048946534823,2.1387563549464166,1.7206956539783764,1.3239408223088531,0.961030238965246,0.6644731302715919,0.45085229177751057,0.3100584025631785,0.22274312831061457,0.16587972174691604,0.12348394104131206,0.0895123505778586,0.06025487955257847,6.831149542499441,5.144362049231051,4.571147454725323,4.051091519302582,3.483430677259938,2.8981649102273286,2.3071544632284007,1.7654074766006949,1.3224783864651282,0.990274502638195,0.7600688074622783,0.5998865589698297,0.4762169227178603,0.37265581285258964,0.2771982582770545
0.0,27.0,27.0,0.0,120.0,0.0,-0.6045991537946425,0.12324940613628255,0.6128554422844701,-107.0,0.0,-45.0,0.9989565001991363,-0.7816645517995493,0.32744697618023944,34.28551186217887,17.546392865702316,4.652310442062151,3.0407971826093614,2.566627547846299,2.15597148994707,1.7346761757970524,1.3346868532663219,0.9687110668068475,0.6688643424868025,0.451331211824214,0.30695701856053803,0.21779692362821051,0.16094274782156456,0.11950034439472146,0.0866448857811501,0.05842180057556368,6.8439651531450805,5.17093873255086,4.598699623507642,4.077117074195856,3.506780853101123,2.918288958300448,2.3236495772864276,1.7770259941794324,1.3267477455139973,0.986057636098569,0.7497626079027089,0.5877076552831842,0.46518951575818523,0.36388005739272017,0.2709201089576666
0.0,28.0,28.0,0.0,120.0,0.0,-0.6608208108180431,-0.05009071100881202,-0.5568345276550106,-107.0,0.0,-45.0,0.18019899504214254,-0.6255933823911863,0.5349566384559239,34.28551186217887,17.546392865702316,4.662561674886719,3.0618712450226955,2.58660963258696,2.1732962256999793,1.7487241991211597,1.3454655003230072,0.976436753751364,0.6734704809350325,0.452270701356465,0.304407618394828,0.21330571181442276,0.15631327789075872,0.11571472134885899,0.08390324710491681,0.056661248852982835,6.856910551051606,5.197659616672183,4.6263005529192895,4.103146955279873,3.5301035712797533,2.938359056733762,2.3401279177160275,1.788946606625227,1.3318671022819748,0.9830181737006489,0.7405233133703046,0.5762782503185401,0.4546512201851989,0.35542988928034724,0.2648479402486283
0.0,29.0,29.0,0.0,120.0,0.0,0.5101880904115639,0.1923880858665057,-0.17937336873342402,-107.0,0.0,-45.0,0.22014585762888972,0.36743515057989695,0.1448526256966156,34.28551186217887,17.546392865702316,4.673101278713327,3.083199958549283,2.6067553933502605,2.1907346152111065,1.7628432800387344,1.3562792222083546,0.9841973415200735,0.6782485929818955,0.45360998602424574,0.30236357432094757,0.20924451065002087,0.1519776475843429,0.11211778731814476,0.08128134903441053,0.0549699131183225,6.870000459446313,5.2245310527201285,4.653956704019092,4.1291880350798165,3.5534055776537232,2.9583808748462244,2.356576395328191,1.8010959490486245,1.33771766818038,0.9810562763786479,0.7322991148288149,0.5655750007269907,0.4445859849828645,0.34729294570360203,0.2589739462757777
0.0,30.0,30.0,0.0,120.0,0.0,-0.3026736908841232,-0.5357177765478138,0.6284537882374592,-107.0,0.0,-45.0,-0.3445467745438422,-0.49245463987565263,0.6145815901097664,34.28551186217887,17.546392865702316,4.683942099384365,3.1047876144967694,2.627069003095593,2.2082906253973213,1.7770368841644744,1.3671306537576042,0.9919862349987957,0.6831634904951633,0.45529467545071384,0.30078069156628356,0.20558896867669846,0.1479228238562149,0.10870087296920242,0.07877347937376962,0.05334465858610107,6.883249502161416,5.251559056126762,4.681674304085345,4.1552469451769705,3.576693380081207,2.9783601949654557,2.372987013878595,1.8134143040375827,1.3441932540216186,0.9800766968093477,0.7250380647176322,0.5555747273172039,0.4349787168150062,0.33945759368384526,0.2532906964834596
0.0,31.0,31.0,0.0,120.0,0.0,0.2230967609355088,0.0427670818221082,0.586874561068724,-107.0,0.0,-45.0,-0.5259349087943803,-0.6708189075931588,0.8001146098706884,34.28551186217887,17.546392865702316,4.695097086809,3.1266383858438993,2.6475545705101977,2.225968143792181,1.7913083921871753,1.3780224951972289,0.9997993286295722,0.6881866019059719,0.4572763784169968,0.29961728676634847,0.20231539396006998,0.1441363280015725,0.10545586905319895,0.07637427529965694,0.051782516906608005,6.89667221142428,5.278749321934516,4.709459360415167,4.1813300891463365,3.599973259307771,2.9983027711251085,2.389355510683797,1.82585354634568,1.3511995232266119,0.9799891321754843,0.7186883813678427,0.5462543237644566,0.4258151619363476,0.33191288687875287,0.2477911178204442
0.0,32.0,32.0,0.0,120.0,0.0,-0.9880677183620579,-0.29992492349705757,-0.5895493875327136,-107.0,0.0,-45.0,0.01631314408023865,0.7729874898657143,0.39295365882913313,34.28551186217887,17.546392865702316,4.706579297327036,3.1487563363246864,2.6682161469035512,2.2437709849554683,1.8056611050143987,1.3889574477303395,1.0076343345928427,0.693294944119508,0.4595122877892693,0.2988342291684082,0.1994007878155998,0.14060617244861387,0.10237517493964982,0.07407870075886626,0.05028067676903828,6.910283034331438,5.3061072398273135,4.737317673468041,4.207443654849598,3.623251279243663,3.0182142496135995,2.4056803164253404,1.8383753093057962,1.3586531756859053,0.9807084589516524,0.7131987409738455,0.5375907001348063,0.4170817959387685,0.32464852315562986,0.2424684779298288
0.0,33.0,33.0,0.0,120.0,0.0,-0.13713221280701582,-0.7821641300119337,-0.2718539754702156,-107.0,0.0,-45.0,0.7995723339547809,-0.8631983070356775,-0.28476028391623576,34.28551186217887,17.546392865702316,4.718401895113676,3.1711454294349495,2.689057732767023,2.261702896542082,1.820098248587412,1.399938178063842,1.0154902725935493,0.6984702138512089,0.46196474917646396,0.2983949487699229,0.19682287977257312,0.1373208097255755,0.09945165092076852,0.07188202510009035,0.04883647510135877,6.924096337975577,5.33363790889444,4.7652548493461095,4.23359362602441,3.6465332967554525,3.038100127648625,2.421961769256024,1.8509493700696573,1.3664810936446463,0.9821548651394669,0.708518549092624,0.529560756011286,0.4087657223600611,0.3176548029019805,0.23731636923643207
0.0,34.0,34.0,0.0,120.0,0.0,-0.9503319767275042,0.5829971946270867,-0.6873737009142329,-107.0,0.0,-45.0,-0.9804977917705981,0.9829422148714242,-0.4400435287942839,34.28551186217887,17.546392865702316,4.730578152609578,3.1938095373711723,2.7100832840066995,2.2797675650191014,1.8346229784770125,1.4109673005079288,1.0233670871703335,0.7036979941335755,0.4646008248599106,0.29826541572108844,0.19456016104049226,0.13426909197771525,0.09667857431442432,0.06977980285009884,0.047447388818798335,6.93812641319931,5.361346152132924,4.79327631160238,4.259785793158606,3.669824971096707,3.057965734791013,2.4382015285845786,1.8635522442480985,1.3746194750101284,0.9842538948405266,0.7045981864273563,0.5221413780188242,0.40085458086181425,0.31092258811188367,0.2323286938309622
0.0,35.0,35.0,0.0,120.0,0.0,-0.580876296031253,-0.2784091542778746,-0.8198000235952589,-107.0,0.0,-45.0,0.13930168448369495,0.7251786227402139,0.2743713304238131,34.28551186217887,17.546392865702316,4.743121449960993,3.216752449908929,2.7312967178550855,2.2979686210405257,1.8492383843402023,1.4220473693797722,1.0312653642406917,0.7089670690593163,0.4673918623441334,0.2984140952532445,0.19259191456557548,0.1314402394502752,0.09404959934611938,0.0677678545626001,0.04611102707632826,6.952387476955548,5.389236530696368,4.821387312373127,4.28602576366834,3.6931317730463578,3.07781622737553,2.4544021434892818,1.876165976082566,1.383012974307783,0.9869364190840235,0.7013892258862378,0.5153094567813905,0.39333646536519096,0.3044432623447351,0.2274996490572512
0.0,36.0,36.0,0.0,120.0,0.0,-0.6105651722975367,-0.44217757893829535,0.10838637248941163,-107.0,0.0,-45.0,-0.14297785745936298,0.7365154947046055,0.26285827654892424,34.28551186217887,17.546392865702316,4.756045273455386,3.2399778832253596,2.752701918467865,2.316309644500295,1.8639474942752106,1.4331808771878556,1.0391861238446725,0.7142688381041634,0.4703130749282417,0.29881188218744814,0.19089824042894518,0.12882381644447113,0.09155872074143698,0.06584224868354936,0.044825123983952435,6.966893673261441,5.417313357900778,4.849592942839239,4.3123189714169685,3.716458993769448,3.0976565899929005,2.470566739280982,1.8887771075301154,1.3916138670460638,0.9901385456343355,0.6988446196384013,0.5090419187375639,0.3861998522385451,0.29820869169528014,0.22282371371704274
0.0,37.0,37.0,0.0,120.0,0.0,0.9418535184539629,-0.9988607651664587,-0.3610155152901702,-107.0,0.0,-45.0,0.24235861198798103,0.2574261250915495,-0.9521788722967417,34.28551186217887,17.546392865702316,4.769363212939227,3.2634894886677013,2.774302742213544,2.3347941692885392,1.8787532790794854,1.4443702558667475,1.0471306706435353,0.7195968204237918,0.47334313997654115,0.2994320187918082,0.18946007585804484,0.1264097133778154,0.08920024091423709,0.06399928438928275,0.043587531747046306,6.981659072740404,5.445580713000646,4.87789814303093,4.338670685620721,3.7398117533821025,3.117491640487976,2.4866987931652456,1.901375808243526,1.4003812494129693,0.9938014792331441,0.6969188561826881,0.503315768728458,0.3794335383717081,0.2922111869402843,0.2182956348162513
0.0,38.0,38.0,0.0,120.0,0.0,-0.39517382703017945,-0.9239910240370754,0.027378433052297924,-107.0,0.0,-45.0,0.6799160524160301,-0.5502886403301119,0.4942187792555921,34.28551186217887,17.546392865702316,4.7830889582065454,3.287290861467432,2.7961030226659536,2.353425687776489,1.8936586563965225,1.4556178794743948,1.0551004876376595,0.7249462391752035,0.4764638190628317,0.300249999432707,0.18825920951834663,0.12418813372370234,0.08696874059528044,0.062235475363599725,0.04239621419732285,6.996697670754603,5.4740424547506485,4.906307710999575,4.365086019191083,3.7631950091904867,3.137326036469245,2.502801976225632,1.9139551480640544,1.4092802819492734,0.997871342466559,0.6955680883732699,0.49810813980599233,0.37302658875603606,0.28644346703845697,0.21391041478684325
0.0,39.0,39.0,0.0,120.0,0.0,0.6785027718519636,-0.4963110574429417,0.17581979715614016,-107.0,0.0,-45.0,-0.1019121747467635,0.5961831094544385,-0.5562510263444991,34.28551186217887,17.546392865702316,4.797236294349483,3.311385549397313,2.8181065753116754,2.372207655053929,1.9086664947305196,1.4669260674708664,1.0630971618153633,0.7303136760238832,0.47965960286356146,0.30124346512928685,0.18727829004423707,0.12214958475689058,0.0848590527126065,0.06054753448690578,0.04124924068329448,7.012023384137955,5.502702234769651,4.9348263113883295,4.391569936564917,3.7866135635765095,3.157164282258671,2.51888004412867,1.926510494047531,1.418281483069031,1.0022989662400963,0.6947502339788236,0.4933963472522196,0.3669682930196323,0.28089862415841943,0.20966329912925707
0.0,40.0,40.0,0.0,120.0,0.0,-0.15848683700947697,-0.3409394214821664,0.21238453521852074,-107.0,0.0,-45.0,-0.5646344367585887,-0.8923988696513869,-0.8910196757191273,34.28551186217887,17.546392865702316,4.81181909606543,3.335777061366445,2.8403172019862413,2.391143492940783,1.9237796173090067,1.4782970881207214,1.0711223330879187,0.7356967864346762,0.4829173825689418,0.30239209078760465,0.1865008289758844,0.12028487118275469,0.0828662393096675,0.05893235941499125,0.04014478029226231,7.02765004654671,5.531563510723519,4.963458483439405,4.418127261072516,3.8100720715143614,3.1770107357597532,2.5349367631429454,1.9390390149857513,1.427360075976747,1.0070396577171359,0.6944250507529908,0.48915794432440207,0.3612481302426964,0.27557009039658953,0.20554976443121134
0.0,41.0,41.0,0.0,120.0,0.0,0.7242586607755146,0.3982552360561964,0.8815304133876778,-107.0,0.0,-45.0,-0.24678602613767842,0.16423068989569,-0.6936015848751778,34.28551186217887,17.546392865702316,4.826851320919187,3.360468875946296,2.8627386950544405,2.4102365937920713,1.9390008057787607,1.4897331618042786,1.0791776599798242,0.7410940669987734,0.48622614865588304,0.3036774675691991,0.18591119841095094,0.11858509087275632,0.08098557126992013,0.05738701902738786,0.03908109637889881,7.043591402450964,5.560629559341897,4.99220864848018,4.444762681892149,3.833575047715775,3.1968696150290916,2.550975861398781,1.9515392776767477,1.4364953906182052,1.012052952539992,0.6945541882187004,0.4853707777276796,0.3558557412954529,0.27045160632573834,0.20156550672921872
0.0,42.0,42.0,0.0,120.0,0.0,0.32557445884150593,-0.2630878753340027,-0.530701560599379,-107.0,0.0,-45.0,-0.6988972566983129,-0.12168072972359667,0.3135617769474528,34.28551186217887,17.546392865702316,4.842347001562881,3.3854644498185222,2.8853748413510996,2.429490324113374,1.9543328037271512,1.501236464155422,1.0872647972055323,0.7465046668339309,0.4895767171088417,0.3050829825428692,0.1854946237713735,0.11704163206233688,0.07921251060692688,0.05590874072588643,0.03805654137834009,7.059861099795589,5.589903489281142,5.021081116932585,4.471480760637295,3.857126873415228,3.216745004497482,2.567000997923033,1.9640109206888643,1.4456703207562056,1.0173023572065567,0.6951012184634914,0.4820130412560108,0.35078090789595495,0.26553719148813393,0.19770643018917358
0.0,43.0,43.0,0.0,120.0,0.0,-0.9858151509919888,0.5930497758281561,0.7961705864599229,-107.0,0.0,-45.0,-0.8302015715783222,0.5008136639595255,0.04610937619751887,34.28551186217887,17.546392865702316,4.85832023692111,3.4107672261332302,2.9082294258993127,2.448908028002268,1.9697783200275094,1.5128091290101844,1.0953853815511179,0.7519282359418809,0.49296148256972133,0.30659369748034987,0.18523717213904412,0.11564617148801433,0.07754269507612843,0.05449489856309807,0.037069551884329775,7.07647268136358,5.619388253841329,5.050080094890971,4.498285937619975,3.880731802816686,3.236640860862214,2.5830157439931694,1.9764543929384184,1.4548708350434167,1.0227550866169905,0.6960316482448542,0.4790633264272565,0.3460135375713433,0.26082111691692483,0.19396863609114978
0.0,44.0,44.0,0.0,120.0,0.0,-0.7767995497222364,0.17433242908068847,-0.8973826763337724,-107.0,0.0,-45.0,-0.248247301193673,-0.952463735607799,0.6938754832597747,34.28551186217887,17.546392865702316,4.874785182353783,3.436380642764052,2.931306235423397,2.4684930304297032,1.9853400320124328,1.5244532511795936,1.1035410234617462,0.757364804264345,0.496374197430513,0.30819622838720623,0.18512573664008491,0.11439067304664963,0.07597192486741207,0.05314300217935755,0.036118643975378034,7.0934395748784045,5.649086663539627,5.079209690312545,4.525182537830063,3.904393969230313,3.2565610187000487,2.599023572879886,1.988870745973554,1.4640855400327812,1.0283818010274608,0.6973129146425381,0.47650066926845563,0.3415436537182,0.25629787973785695,0.1903484121114826
0.0,45.0,45.0,0.0,120.0,0.0,-0.9373099862931475,-0.2988658938322071,-0.9392343217752319,-107.0,0.0,-45.0,0.25139709922293707,-0.22642899250652082,-0.7874945000180191,34.28551186217887,17.546392865702316,4.891756038814765,3.4623081404442657,2.9546090616738425,2.488248640374224,2.001020588482892,1.5361708890698538,1.111733302475178,0.7628146860103475,0.4998097755362281,0.3098786271099369,0.18514801736357278,0.11326738665159637,0.07449615114527851,0.051850686524073465,0.035202408774039004,7.110775081885569,5.679001398536283,5.108473918862717,4.552174776666962,3.928117390931414,3.2765091958546138,2.6150278551887296,2.0012614703657206,1.4733052923842371,1.0341563459465972,0.6989143663911829,0.4743045926841671,0.33736138998969895,0.25196217987234265,0.186842221901576
0.0,46.0,46.0,0.0,120.0,0.0,-0.8191098907992607,-0.6852051024860517,-0.7824638605073357,-107.0,0.0,-45.0,-0.4743293278248992,-0.0458111969450119,0.659033281116882,34.28551186217887,17.546392865702316,4.909247041030474,3.4885531707660595,2.9781417045811724,2.5081781538208836,2.0168226125634927,1.5479640671727326,1.1199637651901404,0.7682784046076369,0.5032641189247523,0.31163026612909694,0.1852924992930476,0.11226884703826115,0.07311146621477727,0.0506157023351842,0.03431950822631153,7.128492365457074,5.7091350209023535,5.137876709454434,4.579266765455794,3.951905976774248,3.296488998644848,2.6310318578522986,2.0136283680159552,1.4825228570580873,1.040055497878637,0.7008072328977583,0.4724551440680162,0.33345698828398,0.24780889883344315,0.18344669496805313
0.0,47.0,47.0,0.0,120.0,0.0,-0.5593718603117608,-0.9972611813188277,0.287378294169057,-107.0,0.0,-45.0,0.8313683189383887,-0.6952815490448891,0.30183579993976517,34.28551186217887,17.546392865702316,4.927272444729375,3.5151192040230894,3.0019079752551425,2.5282848566358322,2.0327487044154657,1.5598347784452113,1.1282339248600082,0.7737566343448543,0.5067339658786724,0.31344172743623366,0.1855484277123509,0.11138787233656443,0.07181409510545704,0.049435907347896456,0.03346867108981954,7.146604436766474,5.7394899867116,5.167421909517267,4.606462516775951,3.9757635315920563,3.31650392693047,2.6470387454355735,2.0259734534610963,1.4917326079964994,1.0460587182511163,0.7029645828058979,0.4709329280000614,0.3298207996650024,0.2438330805795804,0.18015861686268272
0.0,48.0,48.0,0.0,120.0,0.0,0.5711653756283495,-0.2337714496686738,0.060587034916810945,-107.0,0.0,-45.0,0.3779025989060034,-0.17055962643310307,-0.5701409121997709,34.28551186217887,17.546392865702316,4.945846512960796,3.542009736874907,3.0259116988450567,2.5485720273267005,2.048801443819373,1.5717849865925235,1.1365452619919139,0.7792501554105409,0.5102167584867041,0.31530469619943563,0.18590578152456297,0.11061756228112066,0.07060038838136543,0.04830925820153568,0.032648689120812355,7.165124140587072,5.770068657932087,5.197113290027965,4.633765949625566,3.9996937614112973,3.3365573790599847,2.6630515828539156,2.0382988784043414,1.50093026765314,1.0521479173597235,0.7053612738214038,0.4697191340157597,0.32644328760994895,0.24002991436735333,0.17697491969305718
0.0,49.0,49.0,0.0,120.0,0.0,0.46736126170019254,-0.18655938614508738,-0.6757536337858225,-107.0,0.0,-45.0,0.37262690620379857,0.8209553721226466,0.47381123134411274,34.28551186217887,17.546392865702316,4.96498350154972,3.5692282998105394,3.050156717276102,2.569042939698107,2.064983392639123,1.5838166282645978,1.1448992255372654,0.7847598195980862,0.5137105278950068,0.31721185974829474,0.1863552448963192,0.10995129597308555,0.06946681600199477,0.047233803011317375,0.03185841345120882,7.18406413977144,5.800873314086967,5.226954550330277,4.661180894440999,4.023700278504244,3.3566526567175163,2.679073338910435,2.0506068746933397,1.5101126817081088,1.058307229714963,0.7079738953656607,0.4687955595417833,0.3233150330428488,0.2363947195249991,0.1738926729664178
0.0,50.0,50.0,0.0,120.0,0.0,-0.5105728876537661,-0.27221751283184603,-0.7041901051574693,-107.0,0.0,-45.0,0.38342137051327585,-0.06273155160995603,0.4826665758417774,34.28551186217887,17.546392865702316,4.984697643743316,3.596778464387721,3.0746468918757546,2.5897008654107823,2.0812970971781177,1.5959316151724567,1.1532972344037244,0.7902865244337539,0.5172137954586429,0.3191568122537682,0.1868881776111533,0.10938272914199602,0.06840996207621332,0.0462076745701791,0.031096751147849672,7.203436898777329,5.831906163648397,5.2569493227676825,4.6887110979862285,4.047786606299377,3.3767929696776138,2.6951068902714965,2.0628997118313057,1.5192776253748068,1.0645228017812904,0.7107807054795022,0.4681446281749819,0.32042674067975496,0.23292293205196105,0.17090907477945136
0.0,51.0,51.0,0.0,120.0,0.0,-0.21915411689325737,0.6048080894275025,0.05885861684661675,-107.0,0.0,-45.0,-0.996631003543115,-0.4964476447666668,-0.783996831035235,34.28551186217887,17.546392865702316,5.00500313411475,3.6246638502240596,3.0993861059033403,2.6105490764520978,2.0977450904374026,1.6081318361290384,1.16174067911756,0.7958311939021963,0.5207254880692412,0.3211339653413857,0.1874965844858398,0.10890579088281854,0.06742652036823835,0.045229084144602916,0.030362661946909737,7.2232546663131245,5.8631693551242465,5.28710117714912,4.716360228123265,4.071956184164769,3.396981440472097,2.7111550256428036,2.0751796658418584,1.5284236378449239,1.0707825927561176,0.7137615632618943,0.4677494035384313,0.31776924627466974,0.22961009293764426,0.16802144336643896
0.0,52.0,52.0,0.0,120.0,0.0,0.7189758703164988,-0.8088894387327801,0.9180117975285285,-107.0,0.0,-45.0,0.6260135068318018,0.06467012206335232,-0.46710637795798116,34.28551186217887,17.546392865702316,5.025914111118625,3.6528881321478073,3.1243782676591834,2.631590847048067,2.1143298944711426,1.6204191589665744,1.1702309235409778,0.8013947642959699,0.5242448660266377,0.32313846475703195,0.18817308417371434,0.10851467986418868,0.06651329043111337,0.04429631582757437,0.0296551551561077,7.243529457320656,5.894664988979007,5.317413624884077,4.744131878005635,4.096212372275905,3.417221108937176,2.7272204499994994,2.0874489969301164,1.53754988160605,1.077076188740341,0.7168978579962891,0.4675935989873516,0.31533352441581863,0.22645183808347794,0.1652272090184628
0.0,53.0,53.0,0.0,120.0,0.0,-0.8553576814784281,-0.7701955516411239,-0.6345399881251284,-107.0,0.0,-45.0,0.8352172558867603,-0.8783151308322443,0.2777298078536645,34.28551186217887,17.546392865702316,5.0474446371843,3.681455048026046,3.1496273153632393,2.6528294542795554,2.1310540231348347,1.6327954322506288,1.1787693065999822,0.8069781740090769,0.5277714619317093,0.32516611310225113,0.1889108776491127,0.10820386001943683,0.06566717425868794,0.04340772141152762,0.02897328671693033,7.264273034544415,5.926395132092394,5.347890122578652,4.772029568994268,4.120558456878255,3.437514936589421,2.7433057887837125,2.0997099338996206,1.5466560235893154,1.0833946304007689,0.7201724359934528,0.46766158346126296,0.3131106965779884,0.2234438897067558,0.16252390638522995
0.0,54.0,54.0,0.0,120.0,0.0,0.12963151739047496,-0.533073382862713,-0.48174097954980466,-107.0,0.0,-45.0,-0.9612040325278233,-0.4114629144726514,-0.23885067396833737,34.28551186217887,17.546392865702316,5.069608691724795,3.710368398271844,3.175137208895589,2.674268187795019,2.1479199811776524,1.6452624879072764,1.1873571437880772,0.8125823563532091,0.5313050292000253,0.32721329856852294,0.18970371663825553,0.10796805574346889,0.06488517336161304,0.04256171574423271,0.028316156441843276,7.285496887017509,5.958361809185896,5.378534078831059,4.800056762377781,4.1449976515995735,3.45786581151951,2.759413592097516,2.111964663643229,1.555742135365296,1.0897302540101292,0.7235695260641131,0.4679383837907689,0.311092039187833,0.22058204910179996,0.15990916713684658
0.0,55.0,55.0,0.0,120.0,0.0,-0.7699438735483186,0.02746540684537524,-0.7588334152973777,-107.0,0.0,-45.0,0.19658798077047512,0.5672734833806767,0.5304898920496022,34.28551186217887,17.546392865702316,5.0924201383047,3.7396320564533356,3.2009119420087346,2.695910345269003,2.1649302726467154,1.657822141111226,1.1959957288702043,0.8182082346090428,0.5348454989521143,0.3292769295155123,0.19054587223693506,0.10780224662592208,0.06416438618627081,0.04175677253107404,0.027682905373068153,7.307212237410027,5.990567102003704,5.409348954557029,4.828216955845691,4.169533108568484,3.4782764798088746,2.775546375032852,2.124215312002101,1.5648086132266048,1.0960765449180845,0.7270746645202285,0.46840968376042724,0.3092689915033389,0.21786219063608733,0.15738071380696209
0.0,56.0,56.0,0.0,120.0,0.0,0.9881094529294863,0.4518028011833011,0.1892036873430485,-107.0,0.0,-45.0,0.3531515402549572,0.2838285004925052,0.07208488161525106,34.28551186217887,17.546392865702316,5.115892717990457,3.769249978110098,3.226955543351545,2.7177592338895797,2.182087393529064,1.6704761949315798,1.2046863353490538,0.8238567188923409,0.5383929439523139,0.33135437477164603,0.19143210390229595,0.10770166176310157,0.0635020058063269,0.04099142054802571,0.027072713308777623,7.329429959282021,6.023012979631453,5.4403380234569285,4.85651344491911,4.1941679134289584,3.4987497275575175,2.7917065323553456,2.1364639709181343,1.5738561006370573,1.1024280060172154,0.7306746199769365,0.46906182028191146,0.30763316315759537,0.21528025684714544,0.1549363514283938
0.0,57.0,57.0,0.0,120.0,0.0,-0.11670769524699032,0.8073274812037796,0.8535385797185342,-107.0,0.0,-45.0,-0.6075148381013173,-0.9520302968245795,0.7139941496615356,34.28551186217887,17.546392865702316,5.140040026161042,3.799226202529836,3.2532720774264754,2.7398181746044306,2.1993938383646787,1.68322644023247,1.2134302180038345,0.8295287041167013,0.5419475488788792,0.33344340928242183,0.1923576290380779,0.10766177368019779,0.06289531783022931,0.04026424023078961,0.026484796466305683,7.352160593226016,6.0557014082956115,5.471504519862129,4.884949471613215,4.218905093929668,3.5192882803499845,2.8078963949705056,2.148712678573509,1.5828854361886004,1.108780035733754,0.7343573192751564,0.4698817769010409,0.30617634123441706,0.21283225453881063,0.152573962475318
0.0,58.0,58.0,0.0,120.0,0.0,0.8305425699085776,-0.46581032949954015,-0.523969717205697,-107.0,0.0,-45.0,0.6764225259985817,0.13975199741036182,-0.7779479691841735,34.28551186217887,17.546392865702316,5.1648754923762095,3.829564856170239,3.2798656460734144,2.762090504630642,2.2168521036178173,1.6960746568321372,1.2222286142207617,0.8352250689531767,0.5455095857873467,0.3355421649221153,0.19331809330506605,0.10767829191289799,0.062341698474444145,0.03957386060690664,0.025918405278707608,7.375414338133719,6.08863439238406,5.502851689859216,4.913528276322282,4.243747625714184,3.5398947725566,2.824118251045137,2.1609634132361597,1.5918976085684189,1.115128818202426,0.7381117745745163,0.47085717497731283,0.30489049679257463,0.21051425174981836,0.15029150147714926
0.0,59.0,59.0,0.0,120.0,0.0,-0.6940345753496511,-0.7444012966342648,-0.0551574736373317,-107.0,0.0,-45.0,0.25166282857817657,-0.565319839113116,0.46749354492480033,34.28551186217887,17.546392865702316,5.1904123636104496,3.860270158115252,3.3067403910376636,2.784579578781657,2.2344646878203576,1.709022615524373,1.2310827453206723,0.840946675458041,0.5490793939837281,0.3376490861660192,0.1943095417902664,0.10774715629212296,0.0618386127617634,0.03891895653927453,0.02537282232367709,7.399201018999869,6.121813948685068,5.5343827480590795,4.942253054798794,4.268698434671176,3.560571785128764,2.8403743325694384,2.173218100099201,1.6008937170054756,1.1214712249474679,0.7419280120575544,0.4719762628105684,0.3037677907737468,0.20832237548575214,0.14808698931562286
0.0,60.0,60.0,0.0,120.0,0.0,0.9806123466953782,0.018428999113135225,0.8152291171227191,-107.0,0.0,-45.0,-0.5498898533409915,0.9514996316571547,-0.07072005986206475,34.28551186217887,17.546392865702316,5.216663686329281,3.89134642403164,3.3339004960380496,2.807288771381048,2.2522340932244393,1.7220720795347781,1.2399938178314953,0.8466943691470203,0.5526573636619958,0.3397628902848025,0.1953283911522918,0.1078645299738695,0.06138361281162162,0.03829824625119537,0.0248473603781277,7.423530066824655,6.155242112806082,5.566100880957823,4.971126961912044,4.293760400707315,3.581321849315906,2.856666818870928,2.1854786129416865,1.6098749406618857,1.1278047264131554,0.7457970027485745,0.47322790295944683,0.30280057924907283,0.20625281011540034,0.1459585082520961
0.0,61.0,61.0,0.0,120.0,0.0,-0.881392132604446,-0.4008151792214143,0.4165662811494202,-107.0,0.0,-45.0,0.9343802334351066,0.5673739913869067,0.03878191164927247,34.28551186217887,17.546392865702316,5.243642289126814,3.9227980697615266,3.3613501888096837,2.830221478132585,2.2701628274051555,1.735224805921912,1.2489630247092243,0.8524689793858083,0.556243922678879,0.34188253174851724,0.1963714028298665,0.10802679225789794,0.060974336195136064,0.03771048910492737,0.024341360593464704,7.448410499036966,6.1889209449266875,5.598009250180829,5.000153115276289,4.3189363613908345,3.6021474502511834,2.872997840014966,2.197746776267326,1.618842514153918,1.1341273129379381,0.7497105956996805,0.4746015580002254,0.3019814179801346,0.20430179633509363,0.14390419732702864
0.0,62.0,62.0,0.0,120.0,0.0,-0.8821553553005672,0.9689840777089092,0.05657332692901429,-107.0,0.0,-45.0,-0.5682687506519597,-0.7441838015445907,-0.43190887575565085,34.28551186217887,17.546392865702316,5.2713607661186295,3.9546296145631534,3.3890937431231762,2.8533811179492203,2.2882534048152228,1.7484825469252812,1.257991546510504,0.8582713199896808,0.5598395259428636,0.34400717051839313,0.19743565738309848,0.10823053123721428,0.06060850433302442,0.037154483607575665,0.023854190786439584,7.473850900654023,6.222852534882046,5.63011099560671,5.029334598744303,4.344229115460948,3.6230510304016734,2.889369480088647,2.2100243677364415,1.6277977081632387,1.1404374244472248,0.7536614537800611,0.47608727495382824,0.30130306628422143,0.20246563061310768,0.1419222481208266
0.0,63.0,63.0,0.0,120.0,0.0,0.646474271915976,-0.9203149752634396,0.27861353608998174,-107.0,0.0,-45.0,0.3571756138663831,-0.22890864463801064,-0.4618736926347762,34.28551186217887,17.546392865702316,5.299831461291901,3.986845684017418,3.417135480781591,2.876771134743351,2.3065083482933804,1.761847051262149,1.2670805525192277,0.8641021899542112,0.5634446469696058,0.3461361439089585,0.1985185300191788,0.10847253631875294,0.06028392091907132,0.036629065620070234,0.023385243840460777,7.499859406403557,6.257039006582379,5.662409238367374,5.0586744657626195,4.369641426198699,3.644034992879433,2.905783780364296,2.2223131207562044,1.6367418142491343,1.1467338881486615,0.7576429922487782,0.4776756685928008,0.30075849020570533,0.20074066503380505,0.1400109008636695
0.0,64.0,64.0,0.0,120.0,0.0,0.5531844830508543,-0.6182099377721852,0.46167914046864156,-107.0,0.0,-45.0,-0.05222044228015332,-0.02006073699065891,-0.6203923692232343,34.28551186217887,17.546392865702316,5.32906645402044,4.019451012622935,3.445479773595864,2.9003949991806826,2.3249301905281023,1.775320065375027,1.276231201829083,0.8699623742610879,0.5670597712225541,0.348268941711407,0.19961766733771916,0.10874979065385688,0.059998470355628025,0.03613310674685867,0.02293393621224086,7.526443684043182,6.291482521783449,5.694907083720286,5.08817574258562,4.395176024655609,3.6651017046105965,2.9222427423387596,2.234614727132316,1.6456761331051506,1.1530158635321437,0.7616493202410888,0.47935790382461096,0.3003408650047493,0.1991233074686027,0.13816844088052374
0.0,65.0,65.0,0.0,120.0,0.0,-0.5041264219211712,0.5071175055273323,0.4569569041687329,-107.0,0.0,-45.0,0.44656964511827835,-0.6352565724155501,-0.2533086348824516,34.28551186217887,17.546392865702316,5.359077545955476,4.052450446106976,3.474131045339261,2.9242562103999172,2.343521475478189,1.7889033346316463,1.2854446443834382,0.8758526447195595,0.5706853909162877,0.35040518428091716,0.20073096531605716,0.10905946351512993,0.05975011619081528,0.03566551288581839,0.022499706538683346,7.553610919116934,6.326185283232079,5.72760762378912,5.117841431346348,4.4208356127371635,3.686253499360167,2.938748330644743,2.246930839713491,1.654601965620647,1.1592827940029333,0.7656751852534355,0.4811256773324402,0.30004357698196515,0.1976100220082331,0.13639319535646413
0.0,66.0,66.0,0.0,120.0,0.0,-0.5063081589856251,-0.22724485144031337,-0.030045783305066243,-107.0,0.0,-45.0,-0.8044817521589307,0.4085677069276463,-0.5220243100150062,34.28551186217887,17.546392865702316,5.389876249503131,4.085848943483853,3.50309377368118,2.9483582977004326,2.3622847597516605,1.8025986044791873,1.2947220219737714,0.8817737608161507,0.5743220010111529,0.35254460330483833,0.20185654854166007,0.10939890265409376,0.059536899549746905,0.03522522291969363,0.02208201433895612,7.5813678013911225,6.361149537219504,5.760513940169357,5.147674512982825,4.446622866139194,3.7074926806112707,2.9553024758310773,2.2592630749812024,1.663520606209599,1.1655343645081448,0.7697159206727833,0.4829711986401794,0.2998602246631947,0.19619732959777536,0.1346835304065071
0.0,67.0,67.0,0.0,120.0,0.0,-0.05468983994770049,0.12447631898489897,-0.4370480123939191,-107.0,0.0,-45.0,0.9050905110667085,0.6827575205376284,-0.620543847402715,34.28551186217887,17.546392865702316,5.421473774707883,4.119651577487154,3.5323724928126246,2.9727048258725493,2.381222620360334,1.8164076241100895,1.3040644649127782,0.8877264724787121,0.5779700955076721,0.35468702517473993,0.20299275064496652,0.10976562667956245,0.059356937553310826,0.03481120753163435,0.021680338857000995,7.609720540568704,6.396377645345565,5.793629211465044,5.177678086157731,4.472540556654911,3.728821485392208,2.9719070149802103,2.2716130550368723,1.6724333241487561,1.1717704678288883,0.7737673958589364,0.4848871708015983,0.2997846193810529,0.19488180881033157,0.13303784990430534
0.0,68.0,68.0,0.0,120.0,0.0,0.8872050783604002,0.6309036208695726,-0.5876508142053687,-107.0,0.0,-45.0,-0.591021938384177,-0.991070809220872,0.9235918252119826,34.28551186217887,17.546392865702316,5.453881029321682,4.153863539330325,3.5619717934306294,2.997299387966574,2.4003376408277233,1.8303321416895493,1.3134731030547362,0.8937115163283172,0.5816301667572634,0.3568323558820826,0.20413809610051656,0.11015731745303316,0.059208421724903745,0.034422468131438705,0.021294177818627965,7.638674792413903,6.431871922405193,5.826956469421964,5.207855051111685,4.498591275192865,3.75024217824386,2.9885638392665115,2.283982317606423,1.6813413924812854,1.177991164757061,0.7778259709386487,0.48686677064859346,0.2998107852481864,0.19366009676729085,0.1314545896679742
0.0,69.0,69.0,0.0,120.0,0.0,0.25177305059497646,0.3337264081975635,0.83722775533928,-107.0,0.0,-45.0,-0.5592321215264946,-0.7335532237302513,-0.10517143503468218,34.28551186217887,17.546392865702316,5.487108609760859,4.188490139023601,3.591896325824634,3.0221456113974243,2.419632419804032,1.8443739079389547,1.3229490618409208,0.8997296186883881,0.5853027030474209,0.3589805685116384,0.2052912830863722,0.11057181258101743,0.0590896163765526,0.03405803587569122,0.02092304644924878,7.668235682371991,6.467634714873027,5.860498717378793,5.238208262442439,4.524777565793409,3.771757010244063,3.0052748281953097,2.296372361791088,1.6902460705393219,1.1841966598384805,0.7818884528666247,0.48890362904408863,0.29993295861224795,0.1925288900820916,0.12993221696540827
0.0,70.0,70.0,0.0,120.0,0.0,0.6650593148449,0.2071020404820787,-0.8835066073449545,-107.0,0.0,-45.0,0.1080570709844677,-0.4330743216912898,0.3562446652262439,34.28551186217887,17.546392865702316,5.521166795050779,4.223536805522393,3.6221508021927207,3.047247162413998,2.4391095774915703,1.8585346793068183,1.3324934596454308,0.9057814978938826,0.5889881869078742,0.3611316923892243,0.20645116752890605,0.11100709800088977,0.058998856976699876,0.03371697077119115,0.020566476547342408,7.698407823341822,6.50366845871202,5.894259018506191,5.268740643234615,4.551102026222559,3.793368189492708,3.0220418008170973,2.3087846826653724,1.6991485912075892,1.1903872800212143,0.7859520545485064,0.49099181108067214,0.3001455869953772,0.1914849458391595,0.12846922984211492
0.0,71.0,71.0,0.0,120.0,0.0,0.7342068432875362,0.36364727714977785,-0.32585371915994554,-107.0,0.0,-45.0,-0.30053347315825807,0.9682204553095659,-0.25170368298464174,34.28551186217887,17.546392865702316,5.556065548087012,4.259009088850206,3.652739998014628,3.0726077454597935,2.458771753059933,1.8728162174631484,1.3421074110909206,0.9118678638753682,0.5926870947297842,0.36328580348304984,0.2076167483421184,0.11146130067426491,0.0589345485007258,0.03339836085113831,0.020224015558938123,7.729195297869194,6.539975638948238,5.92824043641421,5.299455107887479,4.577567240533898,3.815077906016522,3.0388665539572006,2.3212207502853244,1.7080501682601288,1.1965634520726047,0.7900143575097123,0.4931257962742088,0.30044332754389846,0.19052508259271766,0.12706415460321666
0.0,72.0,72.0,0.0,120.0,0.0,-0.7311012147333302,-0.871510686120176,0.38010027552461434,-107.0,0.0,-45.0,-0.11574062869756085,-0.19094424299966883,0.13958748761277473,34.28551186217887,17.546392865702316,5.591814517589423,4.294912661414602,3.6836687538825257,3.0982311047139506,2.4786216058039074,1.8872202902138044,1.351792027816003,0.917989418841626,0.5963998962919074,0.3654430162573505,0.20878715373579868,0.1119326814238196,0.05889516376293916,0.0331013214134619,0.019895225748430674,7.760601659272659,6.576558789701322,5.962446036932435,5.330354564193816,4.604175781132604,3.836888333787719,3.0557508641842364,2.333682011577243,1.7169519961601918,1.2027256848713586,0.7940732770133421,0.49530045893881647,0.30082104503956636,0.1896461813363354,0.125715544355696
0.0,73.0,73.0,0.0,120.0,0.0,0.1576170623443618,-0.8044014665642516,0.20013805460744916,-107.0,0.0,-45.0,-0.9258030069475289,-0.6594960740474938,-0.0015957819327347966,34.28551186217887,17.546392865702316,5.628423042790088,4.331253319323021,3.7149419773227286,3.1241210256157754,2.498661816269129,1.90174867238056,1.3615484192072869,0.9241468579265038,0.600127054516249,0.36760347670374616,0.20996162857100245,0.11241962792735591,0.058879241731854506,0.03282499431296839,0.019579683431471324,7.792629935793836,6.613420493989819,5.996878889763845,5.361441915285677,4.630930210703489,3.8588016326081407,3.0726964896475404,2.346169892098567,1.725855250236618,1.2088745542993127,0.798127029809167,0.4975110487982424,0.3012738095020689,0.18884518642996104,0.124421977736851
0.0,74.0,74.0,0.0,120.0,0.0,0.9738815542620751,0.2150978905946821,-0.133562799713016,-107.0,0.0,-45.0,-0.5302311095987451,-0.7581457640558944,0.22537629670158132,34.28551186217887,17.546392865702316,5.66590016091769,4.368036983725603,3.7465646446124437,3.150281336375219,2.518895087346678,1.9164031466484661,1.371377693097098,0.9303408698010471,0.6038690253974881,0.3697673564034546,0.21113952271388678,0.11292064788513512,0.05888538583045262,0.032568547299727885,0.019276978265715415,7.825282637846692,6.650563383363504,6.031542070020698,5.392720061450198,4.65783308400774,3.8808199498629947,3.0897051717867905,2.3586857976743247,1.734761087129772,1.2150106904023652,0.8021741043949795,0.4997531719062785,0.30179689341657623,0.188119106467526,0.12318205781290331
0.0,75.0,75.0,0.0,120.0,0.0,-0.8087094671003885,-0.2643113226978626,-0.7915342682699242,-107.0,0.0,-45.0,0.5470662334837737,0.8027123273715138,0.4454575088978501,34.28551186217887,17.546392865702316,5.704254617502604,4.405269702207197,3.7785418025964486,3.1767159094717927,2.5393241453377815,1.9311855043821198,1.381280956428098,0.9365721372522338,0.6076262580616255,0.3719348474884673,0.21232028033692377,0.113434362374394,0.05891226222352747,0.03233117339708707,0.018986712595367296,7.858561768394182,6.687990137409613,6.0664386596526185,5.424191901818552,4.6848869495538645,3.9029454221486386,3.1067786369179538,2.3712311159133517,1.743670645422577,1.2211347665241978,0.8062132336653417,0.5020227719398878,0.30238576861946803,0.18746501507159472,0.12199441113224542
0.0,76.0,76.0,0.0,120.0,0.0,-0.11290711688336641,0.991428382006817,-0.7209438974818496,-107.0,0.0,-45.0,0.8044303080509325,0.6204881688849686,0.3278184115026279,34.28551186217887,17.546392865702316,5.743494879485366,4.44295765024564,3.810878570509499,3.203428663144357,2.5599517409897974,1.9460975464124386,1.3912593158859823,0.9428413377298399,0.6113991949186762,0.3741061583838052,0.21350343011536932,0.1139594994028699,0.058958598094463244,0.03211209031352026,0.01870850084562982,7.892468836430289,6.725703483174094,6.101571748778951,5.455860335931011,4.712094351149051,3.925180176779277,3.1239185976999213,2.383807217609098,1.7525850463906851,1.227247490148226,0.8102433698190772,0.5043161119201883,0.30303610287422866,0.18688005160439308,0.12085768691845808
