Line_number,Fiducial,Easting,Northing,Height,Elevation,tx_pitch,tx_roll,tx_yaw,txrx_dx,txrx_dy,txrx_dz,rx_pitch,rx_roll,rx_yaw,PX,PZ,S0X_time_1.086e-05,S0X_time_3.256e-05,S0X_time_5.426e-05,S0X_time_8.680e-05,S0X_time_1.411e-04,S0X_time_2.279e-04,S0X_time_3.689e-04,S0X_time_5.860e-04,S0X_time_9.115e-04,S0X_time_1.411e-03,S0X_time_2.192e-03,S0X_time_3.418e-03,S0X_time_5.339e-03,S0X_time_8.301e-03,S0X_time_1.338e-02,S0Z_time_1.086e-05,S0Z_time_3.256e-05,S0Z_time_5.426e-05,S0Z_time_8.680e-05,S0Z_time_1.411e-04,S0Z_time_2.279e-04,S0Z_time_3.689e-04,S0Z_time_5.860e-04,S0Z_time_9.115e-04,S0Z_time_1.411e-03,S0Z_time_2.192e-03,S0Z_time_3.418e-03,S0Z_time_5.339e-03,S0Z_time_8.301e-03,S0Z_time_1.338e-02
0.0,0.0,0.0,0.0,120.0,0.0,0.0,0.0,0.0,-107.0,0.0,-45.0,0.0,0.0,0.0,34.27253218749016,17.55503396713325,10.387003509558093,9.642417864820931,9.170752989479855,8.648909670152362,8.004114137686393,7.257403815372284,6.404326998617489,5.4933767966880165,4.557009256363695,3.565865389297289,2.5393628978778366,1.5898807026931019,0.8530304158851281,0.38943858342454846,0.13977571942162742,10.929504456682592,10.491926365242858,10.202443887399866,9.871547953351051,9.44503152592118,8.924445595409017,8.290481347929225,7.559780155613164,6.739083549814073,5.770936921729592,4.618786391629193,3.3538039668803097,2.155899971917321,1.2158956977520123,0.5660690019626504
0.0,1.0,1.0,0.0,120.0,0.0,0.0,0.0,0.0,-107.0,0.0,-45.0,0.0,0.0,0.0,34.27253218749016,17.55503396713325,10.38848908231283,9.643899154734308,9.172230010829919,8.650380320559908,8.005574251219956,7.258846909388036,6.405725166066953,5.494396176037721,4.556265111419357,3.56136791050345,2.530918633432182,1.5799778403433107,0.8447168591093396,0.38414765620326474,0.1373098176923658,10.934670298337888,10.497081768520951,10.207588878674558,9.876677380879608,9.45013514468176,8.929507899500024,8.29546460175205,7.564386819733938,6.741909107627573,5.769223455279885,4.61062834407832,3.3405679811587246,2.1415274624012173,1.2041445149971743,0.558826219545921
0.0,2.0,2.0,0.0,120.0,0.0,0.0,0.0,0.0,-107.0,0.0,-45.0,0.0,0.0,0.0,34.27253218749016,17.55503396713325,10.38995412456711,9.64535995560757,9.173686584615867,8.651830585067394,8.007014084836696,7.260269841833772,6.40710087081636,5.49536549813968,4.555396831132961,3.556688884998018,2.522325754291942,1.5700134566798845,0.8364118843090057,0.37889130073500205,0.13487185968439339,10.939798120125255,10.502199177185757,10.212695900675266,9.881768877079969,9.455200897792736,8.934532408655484,8.300408345628425,7.568930405571219,6.74459312657227,5.7672736919402565,4.602218046621149,3.327155205806605,2.1270834695461303,1.192400350201552,0.5516209154592058
0.0,3.0,3.0,0.0,120.0,0.0,0.0,0.0,0.0,-107.0,0.0,-45.0,0.0,0.0,0.0,34.27253218749016,17.55503396713325,10.391399327562505,9.646800956375555,9.175123397494524,8.653261146835643,8.008434316100828,7.261673273953505,6.408454395747943,5.49628256549769,4.554397750537986,3.5518183729988624,2.5135732245557483,1.5599776792706475,0.8281088608889409,0.3736661473723157,0.1324605753855275,10.944889278965682,10.507279944360711,10.217766302750992,9.886823785597347,9.460230119666727,8.93952043713501,8.305313602299432,7.573409822488108,6.747130146490234,5.765078571641233,4.593544782330476,3.313554800234391,2.112559401990407,1.1806580547066503,0.5444508132893858
0.0,4.0,4.0,0.0,120.0,0.0,0.0,0.0,0.0,-107.0,0.0,-45.0,0.0,0.0,0.0,34.27253218749016,17.55503396713325,10.39282532202915,9.648222785697794,9.176541076085883,8.654672629343647,8.009835563426039,7.263057807414405,6.409785921441503,5.497144955492668,4.55326106705431,3.5467467342757075,2.5046507384564234,1.5498614821846095,0.8198017987008255,0.3684691652486741,0.1300748155182858,10.94994501463976,10.512325306400346,10.22280131785193,9.891843334223282,9.465224029729407,8.944473184694694,8.310181248916892,7.577823715241891,6.749514418899539,5.762628966072215,4.584598066027214,3.2997563997400325,2.0979472063057383,1.1689128775589763,0.5373138317998992
0.0,5.0,5.0,0.0,120.0,0.0,0.0,0.0,0.0,-107.0,0.0,-45.0,0.0,0.0,0.0,34.27253218749016,17.55503396713325,10.394232682815247,9.649626016574105,9.177940191573768,8.656065600967596,8.011218390601508,7.264423988450766,6.411095524829085,5.497950006389039,4.551979810511932,3.5414645691034505,2.4955486323493496,1.5396565994654479,0.8114852897917145,0.36329763396850606,0.12771354206510427,10.9549664568189,10.517336389894979,10.227802069507524,9.896828641835006,9.470183739287172,8.949391743152546,8.31501201938172,7.582170455762976,6.75173989216025,5.759915660945844,4.57536761776394,3.2857500792444965,2.0832393310355344,1.157160440643205,0.5302080732373836
0.0,6.0,6.0,0.0,120.0,0.0,0.0,0.0,0.0,-107.0,0.0,-45.0,0.0,0.0,0.0,34.27253218749016,17.55503396713325,10.395621933120909,9.651011170564205,9.179321263910214,8.657440579164023,8.0125833109223,7.265772311554128,6.412383177016248,5.498694803819945,4.550546817935454,3.5359626678952543,2.486257807490927,1.5293554485224314,0.8031544564639747,0.3581491181561597,0.12537581966541267,10.959954631535426,10.522314218116502,10.232769578247916,9.901780724782856,9.475110257849396,8.954277102378411,8.319806505794533,7.586448134699767,6.753800198347331,5.756929339776562,4.565843337145805,3.2715263190745705,2.068428693499094,1.145396715866334,0.5231318125645894
0.0,7.0,7.0,0.0,120.0,0.0,0.0,0.0,0.0,-107.0,0.0,-45.0,0.0,0.0,0.0,34.27253218749016,17.55503396713325,10.396993548804112,9.652378722086553,9.180684766106321,8.658798034750879,8.013930791435849,7.267103223235511,6.413648740771519,5.499376167997275,4.548954712749951,3.5302319688903268,2.476769662993295,1.5189510627572573,0.7948049047351124,0.35302144414479547,0.1230608081174562,10.964910468498775,10.527259719351289,10.237704770953485,9.906700507766088,9.480004506534726,8.959130167474502,8.324565177374067,7.590654580915029,6.75568868389098,5.7536606300484605,4.556015358369683,3.2570760499266984,2.053508664497363,1.1336179458157216,0.5160835320374292
0.0,8.0,8.0,0.0,120.0,0.0,0.0,0.0,0.0,-107.0,0.0,-45.0,0.0,0.0,0.0,34.27253218749016,17.55503396713325,10.398347960673252,9.65372910067635,9.182031126455072,8.660138394081029,8.015261255015751,7.2684171234257935,6.414891964995993,5.499990638476077,4.547195884382665,3.5242635192127607,2.467076034325235,1.5084370303396755,0.7864326836374036,0.34791268053894076,0.12076775427527403,10.969834802597546,10.532173725298874,10.24260847615126,9.911588814482323,9.484867300976948,8.963951728943577,8.32928832560622,7.5947872678804575,6.7573982728424316,5.750099908600714,4.545873790271497,3.2423903941864816,2.0384729949165568,1.1218207980540078,0.5090617799392436
0.0,9.0,9.0,0.0,120.0,0.0,0.0,0.0,0.0,-107.0,0.0,-45.0,0.0,0.0,0.0,34.27253218749016,17.55503396713325,10.399685558963009,9.655062695469221,9.183360733021797,8.661462043546322,8.016575084868425,7.269714369363058,6.416112481368545,5.500534462083999,4.545262474107277,3.5180484453775316,2.4571691432080094,1.497807442445289,0.7780342477506617,0.34282111841327106,0.11849598649943088,10.974728382933797,10.537056983115935,10.247481439067752,9.916446387193899,9.489699378389949,8.968742501351572,8.33397611650373,7.59884338632039,6.758921580604428,5.746237466974775,4.535408926341323,3.2274608627290693,2.023315834518675,1.1100021772816246,0.5020652918398045
0.0,10.0,10.0,0.0,120.0,0.0,0.0,0.0,0.0,-107.0,0.0,-45.0,0.0,0.0,0.0,34.27253218749016,17.55503396713325,10.401006695948212,9.656379857796626,9.184673936220317,8.662769332129237,8.017872627024525,7.270995277241934,6.417309798003574,5.501003578230302,4.543146360350645,3.511577925525443,2.4470415512265,1.4870568460236406,0.7696064244904647,0.33774525488227103,0.11624490840511194,10.979591876307424,10.54191015792501,10.25232432316244,9.921273886803244,9.494501395203233,8.973503116561497,8.338628571464225,7.602819807304965,6.760250865400988,5.74206344364552,4.5246111502054225,3.2122792580460824,2.008031694330902,1.098159263271136,0.49509294167775103
0.0,11.0,11.0,0.0,120.0,0.0,0.0,0.0,0.0,-107.0,0.0,-45.0,0.0,0.0,0.0,34.27253218749016,17.55503396713325,10.40231168869068,9.657680903921559,9.185971051536677,8.664060574113428,8.01915419300713,7.272260123920811,6.418483292565828,5.501393604266901,4.540839146181228,3.5048431660764696,2.436686119675134,1.4761802024441195,0.7611463847616928,0.3326837779210531,0.11401399341031829,10.98442587158249,10.546733837144986,10.257137714422397,9.92607189709763,9.499273931208998,8.97823412712949,8.343245563763615,7.6067130702409775,6.761378018557786,5.737567812202068,4.51347091432783,3.196837649008495,1.9926154249028993,1.086289497405566,0.4881437336291999
0.0,12.0,12.0,0.0,120.0,0.0,0.0,0.0,0.0,-107.0,0.0,-45.0,0.0,0.0,0.0,34.27253218749016,17.55503396713325,10.403600821579662,9.658966117569083,9.187252362048712,8.665336051592053,8.020420062300383,7.273509148261434,6.419632204339647,5.5016998203408045,4.538332148135617,3.497835381606798,2.4260959743372275,1.4651728510300766,0.7526516167748367,0.32763555262899113,0.11180277974357988,10.989230883776932,10.551528534568027,10.26192212542638,9.930840928798279,9.504017493570112,8.982936009535521,8.347826814462238,7.6105193707139245,6.76229455604797,5.732740371545509,4.501978721611695,3.18112834920937,1.9770621968278184,1.0743905692598625,0.4812167954533258
0.0,13.0,13.0,0.0,120.0,0.0,0.0,0.0,0.0,-107.0,0.0,-45.0,0.0,0.0,0.0,34.27253218749016,17.55503396713325,10.404874348678163,9.660235752263631,9.18851812075334,8.666596016785327,8.021670484629258,7.274742552082366,6.420755625193708,5.501917153693956,4.535616386154756,3.490545777452048,2.4152644745860035,1.4540304769348897,0.7441199026937049,0.32259960879538346,0.10961086585968575,10.994007357874795,10.5562946941603,10.266677999133844,9.935581423336059,9.50873252055648,8.987609167008829,8.352371887308399,7.614234547572367,6.762991610328202,5.727570736704069,4.490125108178738,3.165143897184922,1.9613674830809467,1.0624604043522639,0.4743113723366112
0.0,14.0,14.0,0.0,120.0,0.0,0.0,0.0,0.0,-107.0,0.0,-45.0,0.0,0.0,0.0,34.27253218749016,17.55503396713325,10.406132495893996,9.661490033491988,9.189768552720217,8.667840694185786,8.022905682068519,7.275960500711572,6.421852489388816,5.502040162393192,4.532682574460982,3.4829655346273185,2.4041851862879873,1.442749082885888,0.735549297816709,0.31757512963421014,0.10743790622371248,10.998755672385435,10.561032693610617,10.271405712422718,9.940293756377427,9.513419385032808,8.99225393194819,8.356880182602973,7.617854069247178,6.763459922397474,5.722048330152892,4.477900627265752,3.148877038423051,1.9455270430568137,1.0504971529758051,0.4674268211945959
0.0,15.0,15.0,0.0,120.0,0.0,0.0,0.0,0.0,-107.0,0.0,-45.0,0.0,0.0,0.0,34.27253218749016,17.55503396713325,10.407375462992542,9.662729160708723,9.19100385708871,8.669070282547837,8.024125850996748,7.277163123117045,6.422921562172722,5.502063018484648,4.529521113242478,3.4750857967162254,2.392851858058705,1.4313249643785466,0.7269381120273869,0.3125614415695431,0.10528360742774166,11.00347614267173,10.565742847648878,10.276105579397726,9.944978241122028,9.518078397718597,8.996870567931685,8.361350929985031,7.6213730193058336,6.763689834025745,5.716162373533321,4.465295834173071,3.1323207090680225,1.9295369081927825,1.0384991800273056,0.46056260539321825
0.0,16.0,16.0,0.0,120.0,0.0,0.0,0.0,0.0,-107.0,0.0,-45.0,0.0,0.0,0.0,34.27253218749016,17.55503396713325,10.408603425466417,9.663953309199346,9.192224208923152,8.670284956736317,8.025331163909273,7.278350511587609,6.423961427101238,5.50197949057652,4.5261220810385145,3.466897658432741,2.3812584004806667,1.4197546879530034,0.7182848932792889,0.3075580049657846,0.10314772460843925,11.008169024066904,10.570425411153856,10.280777854488656,9.949635131391004,9.522709810238695,9.001459271304979,8.365783180093006,7.62478608124626,6.763671280109076,5.7099018796738035,4.452301272198711,3.115468021231245,1.913393369074553,1.0264650557579376,0.45371828985544577
0.0,17.0,17.0,0.0,120.0,0.0,0.0,0.0,0.0,-107.0,0.0,-45.0,0.0,0.0,0.0,34.27253218749016,17.55503396713325,10.409816536275732,9.665162631814605,9.193429760939955,8.671484869447303,8.026521771101912,7.279522720928991,6.424970472021897,5.501782925861252,4.522475227739624,3.4583921556025046,2.3693988679467126,1.4080350722289754,0.7095884129064776,0.30256440570808285,0.10103005813689384,11.01283451479771,10.575080582067912,10.285422735356015,9.954264624523214,9.527313817980787,9.006020172331505,8.37017579505262,7.628087522539655,6.76339378111624,5.703255644821498,4.438907459493304,3.0983122498210123,1.8970929639262664,1.0143935473756065,0.4468935365215689
0.0,18.0,18.0,0.0,120.0,0.0,0.0,0.0,0.0,-107.0,0.0,-45.0,0.0,0.0,0.0,34.27253218749016,17.55503396713325,10.411014927471197,9.666357260588283,9.194620645118677,8.67267015281292,8.027697802235648,7.280679767132668,6.425946873652687,5.501466231595463,4.518569968132375,3.449560256347105,2.357267442837724,1.3961631714141047,0.7008476525739902,0.2975803475480954,0.09893045055493883,11.017472758730102,10.579708504134572,10.29004036562,9.958866864094961,9.531890562774272,9.010553335881523,8.374527437738045,7.631271177935271,6.762846435595544,5.69621224100004,4.4251048767741965,3.0808468208086035,1.8806324683953881,1.0022836114349745,0.4400881001342798
0.0,19.0,19.0,0.0,120.0,0.0,0.0,0.0,0.0,-107.0,0.0,-45.0,0.0,0.0,0.0,34.27253218749016,17.55503396713325,10.412198711711067,9.66753730824926,9.19579697420804,8.673840919900755,8.028859367790446,7.281821625466834,6.426888580685365,5.501021856061261,4.514395375930058,3.4403928532858066,2.344858421784254,1.3841362610349346,0.6920617927029122,0.2926056451390199,0.09684878373479437,11.022083847951833,10.584309269473527,10.29463083742719,9.963441942477335,9.536440135403183,9.015058761631186,8.378836559749677,7.634330432043916,6.762017912714397,5.688760008414489,4.410883955841175,3.0630653008530038,1.8640088865489448,0.9901343869561431,0.4333018243220274
0.0,20.0,20.0,0.0,120.0,0.0,0.0,0.0,0.0,-107.0,0.0,-45.0,0.0,0.0,0.0,34.27253218749016,17.55503396713325,10.413367983681965,9.668702869637823,9.196958843136642,8.674997266117256,8.030006560414504,7.282948227930511,6.427793295340557,5.50044176903802,4.509940178238989,3.4308807565949846,2.3321662037969313,1.3719518256699577,0.6832302022228027,0.28764021769137915,0.09478497624106484,11.026667825205237,10.58888292100604,10.29919419386802,9.967989903243923,9.54096257796401,9.019536383735549,8.38310138804806,7.637258201219737,6.760896444804448,5.680887047829959,4.396235068841494,3.0449613882118864,1.8472194430048725,0.9779451892177189,0.4265346379562501
0.0,21.0,21.0,0.0,120.0,0.0,0.0,0.0,0.0,-107.0,0.0,-45.0,0.0,0.0,0.0,34.27253218749016,17.55503396713325,10.414522821432351,9.669854023035015,9.19810633033726,8.676139270523615,8.03113945617322,7.284059460001979,6.428658453299415,5.499717441818634,4.505192750415956,3.421014687788676,2.3191852800811783,1.3596075484908396,0.6743524295200802,0.2826840831880273,0.09273898087614474,11.031224686182153,10.593429454742795,10.303730431256927,9.972510743440514,9.545457886077426,9.023986069932505,8.387319910180896,7.640046914763311,6.759469819885482,5.672581212854928,4.381148518237439,3.0265289048728405,1.8302615761281753,0.9657155041743378,0.41978655175997437
0.0,22.0,22.0,0.0,120.0,0.0,0.0,0.0,0.0,-107.0,0.0,-45.0,0.0,0.0,0.0,34.27253218749016,17.55503396713325,10.415663287626794,9.670990831412944,9.199239498992767,8.67726699707174,8.03225811569996,7.285155156603233,6.429481201935444,5.498839826808628,4.50014111127612,3.4107852741025373,2.3059102253791006,1.3471013024412748,0.6654281944650925,0.27773735310273523,0.0907107823918667,11.035754381691936,10.597948821945039,10.308239501286094,9.977004415727247,9.54992601096106,9.028407620026766,8.39148985803708,7.642688495471436,6.75772537413869,5.663830102064782,4.365614527435288,3.0077617898440883,1.813132932227706,0.9534449834525247,0.4130576551471403
0.0,23.0,23.0,0.0,120.0,0.0,0.0,0.0,0.0,-107.0,0.0,-45.0,0.0,0.0,0.0,34.27253218749016,17.55503396713325,10.416789430728253,9.67211334361327,9.200358398210723,8.678380495766964,8.033362585248113,7.28623509719103,6.430258376768972,5.497799336750687,4.494772918612741,3.4001830433809284,2.2923356907046926,1.334431142903792,0.656457381412976,0.2728002275721793,0.08870039535184229,11.040256819712402,10.602440931168783,10.312721313062527,9.981470830402822,9.55436686136846,9.032800763694947,8.395608690059605,7.645174339561905,6.755649984298159,5.654621050905262,4.349623232040696,2.988654093550552,1.7958313606949328,0.9411334398825736,0.40634811327336695
0.0,24.0,24.0,0.0,120.0,0.0,0.0,0.0,0.0,-107.0,0.0,-45.0,0.0,0.0,0.0,34.27253218749016,17.55503396713325,10.417901286114896,9.67322159546037,9.201463064133414,8.679479803763808,8.034452897641545,7.287298999873819,6.430986476066745,5.496585823621424,4.489075464990673,3.3891984193811178,2.278456397359657,1.3215953017229038,0.6474400330845607,0.267872990975867,0.08670786213029884,11.044731867332844,10.606905650201268,10.317175735037772,9.985909857319541,9.55878030539738,9.037165157543734,8.399673571847854,7.647495296004055,6.753230059924941,5.644941123319209,4.333164671711127,2.969199973286769,1.7783549100312717,0.9287808435271233,0.39965816428053463
0.0,25.0,25.0,0.0,120.0,0.0,0.0,0.0,0.0,-107.0,0.0,-45.0,0.0,0.0,0.0,34.27253218749016,17.55503396713325,10.41899887713736,9.674315610814883,9.202553520988934,8.680564946400038,8.035529073116516,7.288346514441022,6.431661633509756,5.495188557250039,4.483035673774855,3.3778217174223912,2.264267132135,1.3085921824691849,0.6383763452431321,0.2629560078828044,0.08473325103457084,11.04917935259717,10.611342807897659,10.321602596838098,9.990321327696709,9.563166172167623,9.041500381343669,8.40368135507781,7.649641645287521,6.75045153552329,5.634777103043924,4.316228782582457,2.949393689683989,1.7607018247154722,0.9163873181703153,0.3929881167185838
0.0,26.0,26.0,0.0,120.0,0.0,0.0,0.0,0.0,-107.0,0.0,-45.0,0.0,0.0,0.0,34.27253218749016,17.55503396713325,10.420082216121813,9.675395402573017,9.203629782088846,8.68163593817418,8.036591120045411,7.2893772141783,6.432279588853869,5.493596203712679,4.476640095353703,3.366043140319376,2.2497627436199314,1.295420356843077,0.6292666620916302,0.2580497193274475,0.08277665453949766,11.053599066254716,10.61575219592545,10.326001691002892,9.994705035839942,9.567524253366486,9.045805933351065,8.407628554669158,7.651603077664123,6.747299862453752,5.624115484529894,4.298805390251557,2.9292296041547052,1.7428705428670386,0.9039531382339597,0.3863383471293297
0.0,27.0,27.0,0.0,120.0,0.0,0.0,0.0,0.0,-107.0,0.0,-45.0,0.0,0.0,0.0,34.27253218749016,17.55503396713325,10.421151305323642,9.67646097361629,9.204691850777174,8.682692783670749,8.037639035527313,7.290390586327878,6.432835656510325,5.491796803558201,4.469874903514581,3.3538527745500533,2.234938139553399,1.2820785621297497,0.6201114723223602,0.25315463938089744,0.0808381876230038,11.057990763425401,10.620133570423357,10.330372774637901,9.999060740772514,9.571854304656329,9.050081224619362,8.411511324127535,7.6533686708988045,6.743760000590731,5.612942463435604,4.2808842033035335,2.90870217728302,1.7248596946658872,0.8914787260896382,0.379709297777914
0.0,28.0,28.0,0.0,120.0,0.0,0.0,0.0,0.0,-107.0,0.0,-45.0,0.0,0.0,0.0,34.27253218749016,17.55503396713325,10.422206137836065,9.677512317716035,9.205739721335028,8.683735478437397,8.038672805825748,7.291386021037914,6.43332469197689,5.489777749923867,4.462725891925604,3.3412405866186914,2.2197882851663677,1.2685656996274528,0.6109114057580367,0.24827135198614958,0.07891798619309078,11.062354165185267,10.624486653580629,10.334715570989475,10.003388167784765,9.576156046935283,9.05432557218981,8.415325428991574,7.654926867566355,6.739816409665345,5.601243926656471,4.262454807376599,2.8878059681351127,1.706668101492403,0.8789646497377699,0.37310147451866765
0.0,29.0,29.0,0.0,120.0,0.0,0.0,0.0,0.0,-107.0,0.0,-45.0,0.0,0.0,0.0,34.27253218749016,17.55503396713325,10.423246698457879,9.678549420396559,9.206773379844932,8.684764009817611,8.039692406627724,7.292362798629204,6.433741056054962,5.487525766600726,4.45517847067434,3.328196419583884,2.204308202473869,1.2548808339816895,0.6016672305290246,0.24340050802906948,0.07701620559726481,11.066688960078032,10.628811135142454,10.339029770945363,10.007687009906768,9.580429167437913,9.058538191039023,8.419066218316036,7.656265451931466,6.735453040226871,5.589005441850266,4.243506659763662,2.8665356344688835,1.6882947757555062,0.8664116208268228,0.3665154447828055
0.0,30.0,30.0,0.0,120.0,0.0,0.0,0.0,0.0,-107.0,0.0,-45.0,0.0,0.0,0.0,34.27253218749016,17.55503396713325,10.424272964523636,9.679572259760482,9.207792805018235,8.685778357742334,8.040697803090795,7.293320074990083,6.434078576794039,5.485026886109424,4.447217662809811,3.314709989730632,2.1884929704855733,1.2410231933661673,0.5923798507365904,0.2385428226189087,0.07513301920621183,11.070994805557401,10.63310667384615,10.343315034467038,10.011956929309155,9.584673320657709,9.06271818464762,8.422728594124564,7.65737152644831,6.7306533241471485,5.576212246424817,4.224029084554286,2.844885933826954,1.6697389213797684,0.8538204929873703,0.3599518356763585
0.0,31.0,31.0,0.0,120.0,0.0,0.0,0.0,0.0,-107.0,0.0,-45.0,0.0,0.0,0.0,34.27253218749016,17.55503396713325,10.425284906699927,9.680580807279494,9.208797968988996,8.686778495483633,8.041688949636484,7.29425686489319,6.434330509112191,5.482266427847023,4.438828100829993,3.3007708833742067,2.172337726312743,1.2269921704592948,0.5830503045569283,0.23369907255446398,0.07326861706418764,11.075271329364917,10.637372898792997,10.347570991958209,10.016197558636582,9.588888129067689,9.066864534040599,8.426306978769654,7.65823148791518,6.725400164584124,5.562849235958643,4.204011268326125,2.8228517255023275,1.6509999349257254,0.841192260457528,0.35341133217723525
0.0,32.0,32.0,0.0,120.0,0.0,0.0,0.0,0.0,-107.0,0.0,-45.0,0.0,0.0,0.0,34.27253218749016,17.55503396713325,10.426282489750504,9.68157502855345,9.209788838077015,8.687764390373172,8.042665789438121,7.295172023008729,6.434489492049824,5.479228976364325,4.4299940230523935,3.286368553792364,2.155837667156791,1.2127873241718465,0.5736797627444096,0.22887009395376567,0.07142320459919303,11.079518130847235,10.641609410759504,10.351797245573552,10.020408502277814,9.59307318360849,9.070976085135568,8.429795280141619,7.658831003316702,6.719675925310886,5.548900952029118,4.183442256399412,2.8004279733703537,1.632077407320148,0.8285280569775062,0.3468946754210911
0.0,33.0,33.0,0.0,120.0,0.0,0.0,0.0,0.0,-107.0,0.0,-45.0,0.0,0.0,0.0,34.27253218749016,17.55503396713325,10.427265673273235,9.682554884040504,9.210765373522658,8.688736004488126,8.043628253539541,7.2960642223702665,6.434547503624393,5.475898359830703,4.420699269800728,3.271492318290825,2.1389880531722936,1.1984083820874973,0.5642695274962103,0.2240567800268812,0.06959700138662643,11.083734782216919,10.645815783452347,10.355993370471685,10.024589337576518,9.597228043905949,9.075051534219646,8.433186854674377,7.659154985382531,6.71346241930672,5.5343515694277565,4.162310949673207,2.777609749585657,1.6129711261759039,0.8158291549323285,0.340402661066189
0.0,34.0,34.0,0.0,120.0,0.0,0.0,0.0,0.0,-107.0,0.0,-45.0,0.0,0.0,0.0,34.27253218749016,17.55503396713325,10.428234412411149,9.683520329760567,9.211727532195502,8.689693295306542,8.044576259526679,7.296931930028728,6.434495813264915,5.472257628739756,4.410927279336415,3.256131355415491,2.121784211203354,1.183855243583441,0.5548210316434078,0.21926007897291672,0.06779023996054237,11.087920829760133,10.649991564710225,10.36015891601592,10.028739615986265,9.60135223817064,9.079089411360405,8.436474468102226,7.65918756788584,6.706740896497184,5.519184882747269,4.140606102066586,2.7543922391467928,1.5936810786831388,0.8030969647227733,0.3339361377279005
0.0,35.0,35.0,0.0,120.0,0.0,0.0,0.0,0.0,-107.0,0.0,-45.0,0.0,0.0,0.0,34.27253218749016,17.55503396713325,10.429188658539953,9.684471317974307,9.212675267278614,8.690636216333882,8.045509709658134,7.297773379610632,6.4343249318188755,5.468289034903651,4.400661083459353,3.2402747023335663,2.1042215393983974,1.1691279836032191,0.5453358381362141,0.21448099198365367,0.06600316466716541,11.09207579499507,10.654136277656624,10.364293406926274,10.032858864173436,9.605445262721751,9.083088061540034,8.439650253930273,7.658912080698103,6.699492030519412,5.503384292330432,4.118316318592832,2.7307707453361116,1.574207455055825,0.7903330343456849,0.32749600547403035
0.0,36.0,36.0,0.0,120.0,0.0,0.0,0.0,0.0,-107.0,0.0,-45.0,0.0,0.0,0.0,34.27253218749016,17.55503396713325,10.43012835993378,9.68540779783943,9.213608528929743,8.691564717701688,8.04642848834141,7.298586540476087,6.434024559138296,5.463974010776686,4.389883302698905,3.2239112524145206,2.086295512714025,1.1542268570582013,0.535815639793181,0.20972057133741903,0.06423603055573228,11.096199175784589,10.658249421806893,10.368396344386419,10.036946585071536,9.609506581065132,9.087045623285444,8.442705669590048,7.658311024607617,6.6916959043791175,5.486932789576369,4.095430054099368,2.7067406960467246,1.5545506525196189,0.7775390491653422,0.32108321437248066
0.0,37.0,37.0,0.0,120.0,0.0,0.0,0.0,0.0,-107.0,0.0,-45.0,0.0,0.0,0.0,34.27253218749016,17.55503396713325,10.431053462410585,9.686329716045618,9.214527264920136,8.692478746738333,8.047332458819241,7.299369083151698,6.43358352926802,5.459293149139503,4.378576141012523,3.2070297530504277,2.0680016893236477,1.1391523038381934,0.5262622592859997,0.20497991856787834,0.06248910230213998,11.100290447406707,10.662330474133427,10.372467207108912,10.04100225889018,9.613535622441278,9.09096000455043,8.445631450261901,7.65736604589759,6.68333199485502,5.469812941606216,4.071935612711012,2.6822976510124876,1.5347112798286058,0.7647168318585086,0.3146987630831751
0.0,38.0,38.0,0.0,120.0,0.0,0.0,0.0,0.0,-107.0,0.0,-45.0,0.0,0.0,0.0,34.27253218749016,17.55503396713325,10.431963909958139,9.687237017429025,9.215431421251072,8.693378248510435,8.048221458904628,7.300118340693624,6.432989753276867,5.454226183163623,4.366721379907747,3.1896188037648145,2.049335717951936,1.1239049544152004,0.5166776493328826,0.20026018269338894,0.06076265316124625,11.104349063586955,10.666378890092965,10.376505452362561,10.045025344082019,9.617531779742299,9.094828855589183,8.44841756035754,7.656057910666163,6.674379155497026,5.452006875296518,4.047821148019115,2.6574373099618787,1.5146901623000533,0.751868342516099,0.3083436974864873
0.0,39.0,39.0,0.0,120.0,0.0,0.0,0.0,0.0,-107.0,0.0,-45.0,0.0,0.0,0.0,34.27253218749016,17.55503396713325,10.432859645340887,9.68812964556664,9.216320942747425,8.694263166331302,8.049095295573338,7.300831265616932,6.4322301597906515,5.448751966862111,4.35430037190121,3.1716668546681133,2.0302933461608226,1.1084856360275723,0.5070638930745908,0.1955625584933939,0.059056963944082816,11.108374457496591,10.670394104620085,10.380510516965574,10.049015278270094,9.621494406678085,9.09864953854413,8.451053142667758,7.654366478853791,6.66481559805445,5.433496260695033,4.023074664064324,2.6321555217209,1.4944883473572843,0.7389956788850502,0.30201910934067544
0.0,40.0,40.0,0.0,120.0,0.0,0.0,0.0,0.0,-107.0,0.0,-45.0,0.0,0.0,0.0,34.27253218749016,17.55503396713325,10.433740612597274,9.689007545248385,9.21719577551214,8.695133444095056,8.049953740013526,7.30150438375901,6.431290634905895,5.442848457219096,4.341294033974562,3.1531622050629493,2.010870427951949,1.0928953774956338,0.49742320628143294,0.19088828442393896,0.05737232199749483,11.112366017652839,10.674375508013908,10.384481793173796,10.052971454090356,9.625422789108471,9.10241906884575,8.453526441530325,7.652270656670737,6.654618856404164,5.414262289808296,3.9976840327575207,2.6064483223380677,1.4741070955201088,0.7261010752640972,0.2957261360110794
0.0,41.0,41.0,0.0,120.0,0.0,0.0,0.0,0.0,-107.0,0.0,-45.0,0.0,0.0,0.0,34.27253218749016,17.55503396713325,10.434606757911935,9.689870663361265,9.218055867826045,8.6959890270936,8.050796519676979,7.302133741736656,6.430155959092648,5.436492696272336,4.327682840583566,3.134093004038177,1.9910629348509432,1.077135415788394,0.48775793711536447,0.18623864201654206,0.05570902008232916,11.116323155352385,10.678322513386348,10.388418696112826,10.056893286456251,9.629316206368802,9.106134142539569,8.455824810032107,7.649748426057673,6.643765805869035,5.394285669254145,3.9716369550118262,2.5803118719049176,1.4535479271373988,0.7131869066101859,0.2894659564114129
0.0,42.0,42.0,0.0,120.0,0.0,0.0,0.0,0.0,-107.0,0.0,-45.0,0.0,0.0,0.0,34.27253218749016,17.55503396713325,10.435458025421395,9.690718944668214,9.21890116589967,8.696829857603788,8.05162330315326,7.302714843463408,6.428809736749765,5.429660788299162,4.3134468112660205,3.1144472491783186,1.970866969804783,1.0612072093609528,0.4780705644951212,0.1816149535255754,0.05406735565477432,11.120245253358163,10.682234505336199,10.392320612462685,10.060780161213621,9.633173873311216,9.109791043010654,8.457934603158952,7.646776773363956,6.632232606376149,5.373546594014545,3.9449209972981163,2.5537425249930816,1.4328125976430894,0.7002556864223521,0.2832397918480159
0.0,43.0,43.0,0.0,120.0,0.0,0.0,0.0,0.0,-107.0,0.0,-45.0,0.0,0.0,0.0,34.27253218749016,17.55503396713325,10.436294363654923,9.691552338261499,9.219731620326337,8.6976558811716,8.052433693578736,7.303242591484515,6.427234334685343,5.4223278875335374,4.2985655061920305,3.0942127914738093,1.9502787812026279,1.0451124448659876,0.4683636979320617,0.17701857804197765,0.05244763158607836,11.124131677778351,10.686110857011428,10.396186922693571,10.064631465009525,9.636994974771305,9.113385656968688,8.459841213486955,7.643331806435801,6.619994890121031,5.352025034083977,3.917523992909588,2.5267372352032376,1.4119031552827526,0.6873096945416719,0.2770491188034387
0.0,44.0,44.0,0.0,120.0,0.0,0.0,0.0,0.0,-107.0,0.0,-45.0,0.0,0.0,0.0,34.27253218749016,17.55503396713325,10.437115716790556,9.692370788715046,9.220547177110742,8.698467037234487,8.053227203523237,7.30371120565264,6.425410802238991,5.414468168848524,4.283018003404367,3.073377324938683,1.9292947663105668,1.0288530420157185,0.4586400865827399,0.17245091669318155,0.0508501499038699,11.127981768967565,10.689950905417035,10.40001696077194,10.068446521453849,9.640778552802397,9.116913257062762,8.461528743333592,7.639388308942379,6.607027101951907,5.329699800003393,3.8894328405168834,2.4992923668739166,1.390821812173454,0.6743521004344333,0.2708950227460091
0.0,45.0,45.0,0.0,120.0,0.0,0.0,0.0,0.0,-107.0,0.0,-45.0,0.0,0.0,0.0,34.27253218749016,17.55503396713325,10.437922034190748,9.693174245697676,9.221347787324039,8.699263268524323,8.054003246036524,7.304114154879949,6.423318810818844,5.40605482052018,4.266782898199126,3.0519284006664025,1.907911496173401,1.0124311671501192,0.4489026123864485,0.16791340414561168,0.04927521612836951,11.131794857716995,10.69375398317228,10.403810061464096,10.072224661525027,9.644523603896692,9.12036861584608,8.462980211103467,7.634920131163394,6.593303100093516,5.306549437695782,3.8606347129680763,2.4714049051086517,1.3695710924029751,0.6613858439032507,0.26477884022096493
0.0,46.0,46.0,0.0,120.0,0.0,0.0,0.0,0.0,-107.0,0.0,-45.0,0.0,0.0,0.0,34.27253218749016,17.55503396713325,10.43871326801827,9.6939626615463,9.222133404585495,8.700044517966246,8.054761109367803,7.304444068522587,6.4209365784758665,5.397060022331694,4.249838286081254,3.0298534264390504,1.8861257283683133,0.9958492418300694,0.43915429355793645,0.16340750913163757,0.047723136624422124,11.135570261263586,10.697519409440309,10.407565546164456,10.075965201468835,9.648229029859852,9.123745887708429,8.464177397119764,7.629900021575976,6.578795914803595,5.282551909932003,3.831116673022341,2.44307208228451,1.3481537953374902,0.6484140018156094,0.25870194730784624
0.0,47.0,47.0,0.0,120.0,0.0,0.0,0.0,0.0,-107.0,0.0,-45.0,0.0,0.0,0.0,34.27253218749016,17.55503396713325,10.439489373633494,9.694735991652097,9.222903985371365,8.700810728228715,8.055499930312957,7.304692643091429,6.418240796636939,5.387454926723693,4.23216174817929,3.007139671258176,1.8639344243389275,0.9791099533264949,0.429398285640036,0.15893473272195227,0.04619421765401873,11.139307284268417,10.701246490846858,10.411282723723206,10.079667443092367,9.65189362087836,9.127038539893675,8.465100774785776,7.624299592437722,6.5634777078380235,5.257684572318784,3.8008656778255294,2.4142913908525916,1.3265730043689352,0.6354397938456601,0.25266575543315567
0.0,48.0,48.0,0.0,120.0,0.0,0.0,0.0,0.0,-107.0,0.0,-45.0,0.0,0.0,0.0,34.27253218749016,17.55503396713325,10.440250309981872,9.695494194840077,9.223659489301607,8.701561840946011,8.056218662524174,7.3048505408194995,6.415206556008827,5.3772096393313795,4.213730335499307,2.9837742712836794,1.8413347681794494,0.9622162656438985,0.4196378824998452,0.15449660651562291,0.044688764456580266,11.143005219914315,10.70493452259075,10.414960891529505,10.083330674242687,9.655516035802224,9.130239277963785,8.465729441233767,7.618089285308235,6.547319731429736,5.23192415320644,3.7698685901873277,2.3850606027536654,1.3048320967247518,0.622466583290998,0.24667170998207813
0.0,49.0,49.0,0.0,120.0,0.0,0.0,0.0,0.0,-107.0,0.0,-45.0,0.0,0.0,0.0,34.27253218749016,17.55503396713325,10.440996039917271,9.69623723368783,9.224399879349804,8.702297795441648,8.056916038928323,7.304907279646392,6.411807271828443,5.366293198561062,4.194520551970822,2.9597442373042577,1.818324186906153,0.9451714310534464,0.40987651727947944,0.15009469076807058,0.043207080332744646,11.14666335106752,10.708582789623511,10.418599336659295,10.086954169107642,9.659094778637499,9.133339964606396,8.466041046376185,7.611238334258867,6.530292283820165,5.205246733605734,3.738112191504888,2.3553777902648463,1.2829347537185756,0.6094978778709548,0.24072128887520658
0.0,50.0,50.0,0.0,120.0,0.0,0.0,0.0,0.0,-107.0,0.0,-45.0,0.0,0.0,0.0,34.27253218749016,17.55503396713325,10.441726530444493,9.696965074767808,9.225125121961058,8.70301852678451,8.057590527340578,7.304851114253206,6.408014608676981,5.354673553861126,4.174508336312442,2.9350364639299977,1.794900372305794,0.9279790021273076,0.40011776327622006,0.14573057244785237,0.0417494657306623,11.150280951512842,10.712190567908372,10.422197337098696,10.090537188258457,9.662628170646375,9.1363315314428,8.466011720451723,7.603714726308873,6.5123646611729935,5.17762772723752,3.705583196476301,2.325241348349054,1.2608849714339836,0.5965373304879518,0.23481600110498524
0.0,51.0,51.0,0.0,120.0,0.0,0.0,0.0,0.0,-107.0,0.0,-45.0,0.0,0.0,0.0,34.27253218749016,17.55503396713325,10.442441752861937,9.697677688794577,9.225835187061094,8.703723962961128,8.058240278249725,7.3046689078191545,6.403798405061157,5.342317542294275,4.153669042770881,2.909637740712951,1.7710613044580192,0.9106428442641253,0.39036533472552176,0.14140586321336235,0.040316217333857554,11.15385728726744,10.715757125764794,10.42575416305047,10.094078978320834,9.666114317370944,9.139203883505626,8.46561600013779,7.595485158561024,6.493505105713162,5.149041860853753,3.6722682697641598,2.294650018582081,1.2386870718319993,0.5835887399328147,0.22895738522680678
0.0,52.0,52.0,0.0,120.0,0.0,0.0,0.0,0.0,-107.0,0.0,-45.0,0.0,0.0,0.0,34.27253218749016,17.55503396713325,10.44314168278446,9.69837505065782,9.226530047939905,8.704414020889578,8.058863063636412,7.304345994220599,6.399126597941488,5.329190862970334,4.131977420817092,2.883534765417598,1.7468052770365938,0.8931671486939595,0.38062308745891543,0.13712219730101238,0.03890762714957738,11.157391617972728,10.719281725298908,10.42926907832552,10.097578771120027,9.669551069807982,9.141945796073205,8.464826753268639,7.586514991440629,6.473680749948818,5.119463154985877,3.6381540447898892,2.263602914736191,1.216345714270923,0.5706560515139336,0.2231470077998287
0.0,53.0,53.0,0.0,120.0,0.0,0.0,0.0,0.0,-107.0,0.0,-45.0,0.0,0.0,0.0,34.27253218749016,17.55503396713325,10.443826300027364,9.699057139322223,9.227209680994811,8.705088600929647,8.059456205565775,7.303866030454209,6.393965147351716,5.315258048852306,4.109407593915955,2.856714159679395,1.7221309245007215,0.8755564459487496,0.3708950194073642,0.13288122931686175,0.03752398159635698,11.160883198356121,10.72276362391219,10.432741341813964,10.101035782092382,9.672935978864691,9.144544803569692,8.463615102152835,7.5767681973700585,6.452857556851964,5.088864905295965,3.603227144861553,2.23209955010222,1.193865907425235,0.5577433575893732,0.217386461772493
0.0,54.0,54.0,0.0,120.0,0.0,0.0,0.0,0.0,-107.0,0.0,-45.0,0.0,0.0,0.0,34.27253218749016,17.55503396713325,10.444495588336194,9.699723937579051,9.227874065321823,8.705747579459803,8.060016493174306,7.3032108391404345,6.388277961205143,5.300482435405709,4.08593303752276,2.8291624873053878,1.6970372512932732,0.8578156197820851,0.3611852709190715,0.1286846319240727,0.03616556058931046,11.164331279744355,10.726202075870708,10.436170209020238,10.104449207690088,9.676266242121603,9.146987080266726,8.461950345421538,7.566207304135171,6.431000255891657,5.057219664727193,3.567474206862476,2.200139866635253,1.171253021586973,0.5448548979803522,0.21167736480769891
0.0,55.0,55.0,0.0,120.0,0.0,0.0,0.0,0.0,-107.0,0.0,-45.0,0.0,0.0,0.0,34.27253218749016,17.55503396713325,10.445149534955242,9.700375431641838,9.228523182151632,8.706390798991272,8.060540086550606,7.302360241052231,6.382026820320735,5.284826125523882,4.0615265564999605,2.8008662754875386,1.6715236631668384,0.8399499215196714,0.35149812485941384,0.12453409341897212,0.034832636621258725,11.167735111600322,10.72959633390656,10.439554933635456,10.107818221426868,9.679538641819725,9.149257312555703,8.45979987826053,7.554793332124776,6.408072274834612,5.024499226674565,3.5308819077558087,2.1677242660124922,1.1485128013304378,0.5319950602435629,0.2060213575420342
0.0,56.0,56.0,0.0,120.0,0.0,0.0,0.0,0.0,-107.0,0.0,-45.0,0.0,0.0,0.0,34.27253218749016,17.55503396713325,10.445788130040137,9.701011610590845,9.229157014136804,8.70701805517066,8.06102240589319,7.301291877717319,6.375171303622654,5.268249950132955,4.036160262191432,2.771812039214921,1.6455900007604867,0.8219649848188887,0.3418380064592758,0.12043131518869185,0.033525473837618835,11.171093943044207,10.732945650811732,10.442894769107106,10.111141968116286,9.682749472876377,9.151338562598339,8.457129110779642,7.542485724547328,6.384035667248207,4.990674609422915,3.493436994187336,2.134853642694702,1.125651378516796,0.5191683797791057,0.20042010177303496
0.0,57.0,57.0,0.0,120.0,0.0,0.0,0.0,0.0,-107.0,0.0,-45.0,0.0,0.0,0.0,34.27253218749016,17.55503396713325,10.446411365938578,9.701632465689011,9.229775544510165,8.707629079882055,8.061458004220652,7.299981024259684,6.367668713371038,5.250713423861942,4.009805549439454,2.741986309186771,1.6192365755504246,0.8038668408127474,0.33220948287712326,0.11637800904358274,0.032244327102721015,11.17440702431185,10.736249280975406,10.446188970153813,10.114419555743703,9.685894459622283,9.153212123209927,8.453901384155328,7.529242269656664,6.358851035662574,4.955716042128683,3.455126315498878,2.101529419085807,1.102675285611976,0.5063795397501886,0.19487527856733233
0.0,58.0,58.0,0.0,120.0,0.0,0.0,0.0,0.0,-107.0,0.0,-45.0,0.0,0.0,0.0,34.27253218749016,17.55503396713325,10.447019236387364,9.702237989615764,9.230378756149424,8.708223519493162,8.061840421812896,7.29840039277657,6.359474000166029,5.232174695158818,3.982433073880956,2.7113756635439055,1.59246420829685,0.7856619336098225,0.3226172624391148,0.11237589441735842,0.03098944105532613,11.177673608099282,10.739506481810746,10.449436794161581,10.11765004428397,9.688968659845397,9.154857363884695,8.450077884042317,7.515019013949239,6.332477450369174,4.919592952653148,3.415936860492593,2.0677535828887343,1.0795914692870365,0.4936333707897294,0.18938858628151659
0.0,59.0,59.0,0.0,120.0,0.0,0.0,0.0,0.0,-107.0,0.0,-45.0,0.0,0.0,0.0,34.27253218749016,17.55503396713325,10.447611735702138,9.70282817569315,9.230966630595962,8.70880090709177,8.062162020481713,7.2965199266867655,6.350539687330376,5.21259049024406,3.954012729914349,2.67996676375227,1.5652742701077442,0.7673571361172827,0.31306619352053655,0.10842669542761546,0.02976104915157577,11.180892950745285,10.74271651501856,10.452637502389546,10.120832430631564,9.691966354629919,9.15625156793664,8.44561755059016,7.499770165235078,6.304872363852668,4.882273957588855,3.375855798313931,2.0335287267585618,1.0564073042663613,0.4809348504680731,0.18396173848611672
0.0,60.0,60.0,0.0,120.0,0.0,0.0,0.0,0.0,-107.0,0.0,-45.0,0.0,0.0,0.0,34.27253218749016,17.55503396713325,10.448188858067724,9.70340301720987,9.231539147082607,8.709360627322676,8.062413795706867,7.294306586629576,6.340815794115302,5.191916050322169,3.9245136297863894,2.6477463949898943,1.5376687262409257,0.7489597661490893,0.3035612630305008,0.10453213778876805,0.028559372694451066,11.184064313217698,10.74587864764724,10.455790360909619,10.123965628646657,9.69488092239886,9.157369760803759,8.440476984219941,7.483447984433938,6.275991520872465,4.843726854857289,3.334870523846768,1.99885809035796,1.0331306073858453,0.46828910249465233,0.17859646178160646
0.0,61.0,61.0,0.0,120.0,0.0,0.0,0.0,0.0,-107.0,0.0,-45.0,0.0,0.0,0.0,34.27253218749016,17.55503396713325,10.448750597065642,9.70396250697789,9.23209628161684,8.709901872151278,8.062585164633168,7.291724128632893,6.330249756986103,5.170105061518147,3.8939040843092543,2.6147015114094403,1.5096501827696214,0.7304776027749817,0.29410759445948076,0.10069394556862203,0.027384619850494677,11.187186961894653,10.748992152932034,10.45889464120446,10.12704844313883,9.697704695511572,9.158184529646139,8.434610346115479,7.466002664910719,6.2457888642251955,4.803918619294109,3.292968708038727,1.9637456049232045,1.0097696518192008,0.4557013956245072,0.1732944934942553
0.0,62.0,62.0,0.0,120.0,0.0,0.0,0.0,0.0,-107.0,0.0,-45.0,0.0,0.0,0.0,34.27253218749016,17.55503396713325,10.4492969455972,9.704506637278646,9.232638006132074,8.710423585538665,8.06266372790629,7.2887328753915614,6.318786348025143,5.147109577071953,3.8621515857811577,2.5808192866743314,1.4812219362473416,0.7119189028582971,0.2847104454455761,0.09691383777919257,0.026236984656545167,11.190260169170864,10.752056310933614,10.461949620350607,10.130079536407498,9.700428797739095,9.158665834456233,8.427969252162367,7.44738219814012,6.214216436232566,4.762815401679351,3.2501383536006507,1.9281959404530928,0.9863331814268711,0.4431771422379682,0.16805757923873416
0.0,63.0,63.0,0.0,120.0,0.0,0.0,0.0,0.0,-107.0,0.0,-45.0,0.0,0.0,0.0,34.27253218749016,17.55503396713325,10.449827896367726,9.705035400364158,9.2331642876467,8.710924394602825,8.06263500333121,7.285289481589625,6.306367589236438,5.122879931407413,3.829222793750401,2.5460871702010395,1.452388026527107,0.6932924177213418,0.27537520480972993,0.09319352479191606,0.025116646021990045,11.193283213970016,10.755070409044928,10.464954580713206,10.133057385730798,9.70304296094628,9.158780810987562,8.420502658825297,7.42753222448053,6.181224276006688,4.720382531714972,3.206367856554669,1.892214555636913,0.9628304251770281,0.43072189655874715,0.16288747033456738
0.0,64.0,64.0,0.0,120.0,0.0,0.0,0.0,0.0,-107.0,0.0,-45.0,0.0,0.0,0.0,34.27253218749016,17.55503396713325,10.450343443082035,9.70554878966432,9.23367508724057,8.711402524349756,8.062482129368037,7.281346694244685,6.292932661245051,5.097364645792956,3.795083524333672,2.5104929495860406,1.4231532929179431,0.6746074098654427,0.2661073890022743,0.08953470456780434,0.024023766734852486,11.196255382301432,10.758033742490932,10.46790880906468,10.135980229935067,9.705535319350188,9.158493565881585,8.412156739186809,7.4063958678376425,6.146760312545653,4.676584525501878,3.161646074147655,1.855807750641437,0.939271111580318,0.4183413524717481,0.15778592106472739
0.0,65.0,65.0,0.0,120.0,0.0,0.0,0.0,0.0,-107.0,0.0,-45.0,0.0,0.0,0.0,34.27253218749016,17.55503396713325,10.450843582456663,9.706046801808824,9.234170358454456,8.711855692477343,8.062185536537479,7.276853109029812,6.278417804555505,5.070510325428815,3.7596987438790688,2.4740248197583394,1.3935234338965052,0.655873669658416,0.2569126378936073,0.08593905869434164,0.022958492482684285,11.199175968053474,10.760945614999137,10.470811594997254,10.13884600287447,9.70789217979846,9.157764964417902,8.402874747071872,7.383913553004626,6.110770253705648,4.631385098127358,3.1159623997077714,1.8189827228806987,0.9156654830682185,0.406041340898078,0.15275468576734702
0.0,66.0,66.0,0.0,120.0,0.0,0.0,0.0,0.0,-107.0,0.0,-45.0,0.0,0.0,0.0,34.27253218749016,17.55503396713325,10.451328317175767,9.706529439587394,9.234650044504532,8.712280980153164,8.061722584951681,7.271752923444984,6.262756211143407,5.042261547830209,3.7230325676676586,2.4366714592300136,1.3635050705067844,0.6371015320506646,0.24779670976089285,0.08240824827641591,0.0219209508552005,11.202044270723649,10.7638053363253,10.473662224877549,10.141652247772964,9.710097763126914,9.156552407907759,8.392596863695806,7.360022801916228,6.073197469799881,4.584747182989066,3.069306848164673,1.7817476257184954,0.8920243097304685,0.39382782673523853,0.1477955157926901
0.0,67.0,67.0,0.0,120.0,0.0,0.0,0.0,0.0,-107.0,0.0,-45.0,0.0,0.0,0.0,34.27253218749016,17.55503396713325,10.45179768960116,9.706996745503613,9.235114102762644,8.712674703058067,8.061067194845062,7.265985714719952,6.245877928144979,5.012560761038377,3.685048271861471,2.3984221037960682,1.3331057895593967,0.6183018927822409,0.2387654779500736,0.07894391261162469,0.02091124844813649,11.20485949476263,10.766612128915002,10.476459890709327,10.144395940926906,9.712133866572294,9.154809585088566,8.381260062447883,7.334658130989704,6.033983115300926,4.536633335172587,3.021670530221756,1.744111499358243,0.8683585671488682,0.38170721927070306,0.14291011915860802
0.0,68.0,68.0,0.0,120.0,0.0,0.0,0.0,0.0,-107.0,0.0,-45.0,0.0,0.0,0.0,34.27253218749016,17.55503396713325,10.452251747748113,9.707448768375052,9.23556245855251,8.713032182257624,8.060189377062809,7.259486157195854,6.227709696855443,4.981348140455898,3.6457083071213874,2.3592666615206337,1.3023342443111736,0.5994862243334885,0.22982492557100181,0.0755476542089763,0.019929475855459,11.207621071286503,10.76936542652638,10.479203957530107,10.147073607236429,9.713979732779723,9.152486320371434,8.368797837557299,7.307750466927511,5.993065293972999,4.487004636168486,2.9730446056615234,1.7060847286816148,0.8446804433456815,0.36968544105849294,0.13810026548709212
0.0,69.0,69.0,0.0,120.0,0.0,0.0,0.0,0.0,-107.0,0.0,-45.0,0.0,0.0,0.0,34.27253218749016,17.55503396713325,10.45269054892718,9.707885566423787,9.235994987754651,8.713347506844947,8.059054755272586,7.252183762284724,6.208174789333484,4.94856144072078,3.6049743056642285,2.3191958058039073,1.2712002356719851,0.5806665896898865,0.22098113108694378,0.072221044479842,0.018975701756173222,11.210328357202014,10.772064594626135,10.481893693673369,10.149680944045436,9.71561154073235,9.149528259073275,8.35514007439475,7.279227212799355,5.950379615500937,4.435821815890358,2.9234214889893373,1.667678734007354,0.8210024066395415,0.357768805457211,0.13336768025616927
0.0,70.0,70.0,0.0,120.0,0.0,0.0,0.0,0.0,-107.0,0.0,-45.0,0.0,0.0,0.0,34.27253218749016,17.55503396713325,10.453114175931358,9.708307223599121,9.236411504261016,8.7136132627469,8.057624065721347,7.244002634552076,6.187192844820622,4.9141358652023674,3.562807121472762,2.278201089889992,1.2397147818276848,0.561855657341434,0.21224026335614216,0.06896561570092415,0.018049973471100142,11.212980736760207,10.774709025267843,10.484528341915063,10.152212716832654,9.717002096560256,9.145876654280464,8.34021279849892,7.249011879114956,5.905858881026228,4.383045003265925,2.872794660709514,1.628906148449842,0.797337477586616,0.3459637700220451,0.12871406864500023
0.0,71.0,71.0,0.0,120.0,0.0,0.0,0.0,0.0,-107.0,0.0,-45.0,0.0,0.0,0.0,34.27253218749016,17.55503396713325,10.453522741374057,9.708713853765268,9.236811722600553,8.713820192340535,8.055852605305422,7.234861211054178,6.16467966748601,4.8780039181738335,3.51916687458151,2.2362750732198267,1.207890202725963,0.5430667152383076,0.20360857194226015,0.06578285572498654,0.017152316256939772,11.21557762878945,10.777298142757436,10.48710709928352,10.15466254242516,9.718120431592178,9.141468106259047,8.323937892561606,7.217023754895995,5.85943292292928,4.3286337552657175,2.8211587739147967,1.5897809058806136,0.773699270169256,0.33427690129633586,0.12414111520211654
0.0,72.0,72.0,0.0,120.0,0.0,0.0,0.0,0.0,-107.0,0.0,-45.0,0.0,0.0,0.0,34.27253218749016,17.55503396713325,10.45391639091037,9.709105603511887,9.237195202163724,8.713956787420928,8.053689640246295,7.224671994130049,6.140546993962791,4.840095253042389,3.4740130106726945,2.1934114621446796,1.1757402087359692,0.52431368271271,0.19509237649480174,0.06267420266556915,0.016282732599900023,11.218118496142981,10.779831412013479,10.489629090134025,10.157022634166312,9.71893137549262,9.136234299889447,8.30623278837831,7.183177572303787,5.811028468200549,4.272547131343923,2.7685098008445284,1.550318320762718,0.7501020023404451,0.3227148676799763,0.11965047989724122
0.0,73.0,73.0,0.0,120.0,0.0,0.0,0.0,0.0,-107.0,0.0,-45.0,0.0,0.0,0.0,34.27253218749016,17.55503396713325,10.45429530371737,9.709482651693529,9.237561265353346,8.71400880438689,8.051077775043863,7.213341273148134,6.114702225242333,4.80033651742279,3.4273043782246693,2.1496052666541776,1.1432799936000497,0.5056111205079697,0.18669805505943884,0.05964103938148589,0.015441201524997563,11.22060285622124,10.782308347662275,10.492093326394954,10.159283499151247,9.719395099451942,9.130101729271537,8.287010115946277,7.147383145478027,5.76056900036532,4.214743782984131,2.714845193701589,1.5105351715751099,0.7265605053833062,0.31128443145650975,0.11524379405703787
0.0,74.0,74.0,0.0,120.0,0.0,0.0,0.0,0.0,-107.0,0.0,-45.0,0.0,0.0,0.0,34.27253218749016,17.55503396713325,10.45465968904668,9.70984520405837,9.237908880707579,8.713958690309717,8.047952282440912,7.2007688297673464,6.087048117745055,4.758651196398799,3.3789993261654336,2.1048529751056146,1.1105263315984786,0.48697423852515287,0.17843203127194524,0.05668468775466573,0.014627677891699642,11.223030291326621,10.784728522431173,10.49449864919623,10.161433579567849,9.719466628979157,9.122991404509994,8.266177303023369,7.109544982535456,5.707974621680769,4.155182061219322,2.66016406094504,1.4704497876059068,0.7030902319400559,0.2999924399123722,0.11092265618868537
0.0,75.0,75.0,0.0,120.0,0.0,0.0,0.0,0.0,-107.0,0.0,-45.0,0.0,0.0,0.0,34.27253218749016,17.55503396713325,10.455009777966762,9.710193481345275,9.238236500257623,8.713784908372846,8.044240395983158,7.186847619861102,6.057482428412849,4.714959455425703,3.32905582523824,2.0591527489150234,1.077497678766015,0.4684189009498594,0.17030076035402672,0.05380640275682038,0.013842091638639642,11.2254004569133,10.787091572559152,10.496843644134438,10.16345882907663,9.719095325478106,9.11481853352518,8.243636117409064,7.069561869504512,5.653161918007755,4.0938201456068475,2.604467360340932,1.4300821387947573,0.6797072625631199,0.28884581547188015,0.10668862768144625
0.0,76.0,76.0,0.0,120.0,0.0,0.0,0.0,0.0,-107.0,0.0,-45.0,0.0,0.0,0.0,34.27253218749016,17.55503396713325,10.455345810113542,9.71052769950312,9.238541838603776,8.713461151642234,8.039860567884837,7.171463423930906,6.025897509020407,4.669177984460559,3.2774316164465658,2.012504639004674,1.0442142779066927,0.4499616285099265,0.162310713778692,0.051007366306369095,0.01308434693768424,11.227713085186945,10.789397197097147,10.49912652028439,10.165342214234018,9.718224335330273,9.105492169233939,8.219282143078741,7.027326424729615,5.596043829532448,4.03061619871103,2.547758110089456,1.3894539282522391,0.656428310617601,0.2778515447615721,0.10254322835682461
0.0,77.0,77.0,0.0,120.0,0.0,0.0,0.0,0.0,-107.0,0.0,-45.0,0.0,0.0,0.0,34.27253218749016,17.55503396713325,10.455668016406676,9.710848041199965,9.2388215794472,8.712955435393269,8.034721696280636,7.154494456681882,5.99217984564599,4.621219845082894,3.2240843899814466,1.9649108255327685,1.010698267071548,0.431619597707525,0.15446836241724848,0.04828868092721691,0.012354321224434497,11.229967981223064,10.791645147318645,10.501344940945435,10.167063130483564,9.716790004795904,9.094914809767666,8.193004180199747,6.982724621974296,5.536529531311302,3.9655285505935827,2.4900416193485926,1.348588687109348,0.6332707253052233,0.26701666650992206,0.09848793181429658
0.0,78.0,78.0,0.0,120.0,0.0,0.0,0.0,0.0,-107.0,0.0,-45.0,0.0,0.0,0.0,34.27253218749016,17.55503396713325,10.455976600194251,9.711154618392236,9.239070993536192,8.712229060324638,8.028722327397269,7.135810925458761,5.95620954038901,4.570994322601925,3.168971997942048,1.9163758821583763,0.976973791123168,0.4134106369104584,0.14678015794013743,0.045651363234373125,0.011651864091720284,11.232165009100864,10.793835202246788,10.503495792291162,10.168596722550262,9.714721258850199,9.08298193677684,8.164683558125837,6.935635280083314,5.474524328335012,3.898515918065365,2.4313257394497705,1.3075118714609333,0.6102524924800915,0.2563482581858443,0.09452416049665793
0.0,79.0,79.0,0.0,120.0,0.0,0.0,0.0,0.0,-107.0,0.0,-45.0,0.0,0.0,0.0,34.27253218749016,17.55503396713325,10.456271720927875,9.71144742607204,9.239283449978574,8.711235441819007,8.021749839364592,7.11527452635205,5.91785973390572,4.518406785455907,3.1120527039920196,1.8669070659792275,0.9430671160395121,0.3953532191069921,0.13925251224590265,0.0430963372849343,0.010976796066422188,11.234304066782395,10.795967126757354,10.505574874880603,10.169913100534552,9.711938942266451,9.069581474596175,8.134193349860057,6.885929516603739,5.40992957033061,3.8295376635126464,2.3716211370906133,1.2662509613324093,0.5873922327946952,0.24585342128426613,0.09065328038340252
0.0,80.0,80.0,0.0,120.0,0.0,0.0,0.0,0.0,-107.0,0.0,-45.0,0.0,0.0,0.0,34.27253218749016,17.55503396713325,10.45655348581005,9.711726286821992,9.239449800271892,8.709918803635926,8.013679614716892,7.092737865735826,5.8769959689984566,4.463358554648689,3.0532854729856833,1.816514634508183,0.9090067457108965,0.377466450867214,0.13189177476054992,0.04062442784190408,0.010328907336585154,11.236385050797521,10.798040609951114,10.507576502626078,10.170976445892155,9.708355121919512,9.054593151372718,8.10139747631144,6.833470162147593,5.3426425917210905,3.758554098094607,2.3109415908655353,1.2248355617313864,0.5647091965790276,0.23553926517905688,0.08687659522087732
0.0,81.0,81.0,0.0,120.0,0.0,0.0,0.0,0.0,-107.0,0.0,-45.0,0.0,0.0,0.0,34.27253218749016,17.55503396713325,10.45682195527989,9.71199078366155,9.239557610699496,8.708212737481404,8.00437420727577,7.068043793395979,5.833475497103524,4.405746786669664,2.992630303794519,1.7652121917649395,0.8748235411049514,0.35977005660473865,0.12470420759004158,0.03823635359775126,0.009707956549319203,11.238407815174766,10.800055183355393,10.509492994341986,10.171744005853625,9.703872350274288,9.037887742336576,8.06614968897268,6.778111131403582,5.272556681973899,3.685526834283179,2.2493043127437304,1.1832975058058266,0.5422232547652736,0.22541288947878607,0.08319534022337455
0.0,82.0,82.0,0.0,120.0,0.0,0.0,0.0,0.0,-107.0,0.0,-45.0,0.0,0.0,0.0,34.27253218749016,17.55503396713325,10.45707716699892,9.712240173884942,9.239590213364798,8.70603863203929,7.993682505030573,7.041024630745631,5.787146530815671,4.345464374583075,2.930048609419786,1.7130170667326274,0.8405508416831435,0.3422843566839791,0.1176959586955544,0.035932720392174045,0.009113669848549926,11.240372133046407,10.802010120442949,10.511314044119677,10.17216498033949,9.698382890843781,9.019326175122856,8.028292420293969,6.719696745492671,5.199561091067975,3.6104191934833474,2.1867302965870916,1.1416709597644439,0.5199548851824215,0.21548136483216546,0.07961067523577595
0.0,83.0,83.0,0.0,120.0,0.0,0.0,0.0,0.0,-107.0,0.0,-45.0,0.0,0.0,0.0,34.27253218749016,17.55503396713325,10.457319179552305,9.712473268208006,9.239525538654966,8.70330397546416,7.981438882781925,7.011501273400804,5.737847446353265,4.282399874213675,2.865503650396629,1.659950728767386,0.8062245886455693,0.32503023747493776,0.11087303342488596,0.03371401443687777,0.00854574034846399,11.24227767298853,10.80390431980678,10.51302595770272,10.172179311147262,9.691767906045381,8.998758476980777,7.987655491744042,6.658060998859789,5.123541074309651,3.5331966762578575,2.12324469647511,1.0999925284273722,0.4979251536980705,0.2057517121268518,0.07612367743704533
0.0,84.0,84.0,0.0,120.0,0.0,0.0,0.0,0.0,-107.0,0.0,-45.0,0.0,0.0,0.0,34.27253218749016,17.55503396713325,10.457548229358537,9.712688344400842,9.23933477895426,8.699900628337115,7.967462417165204,6.979282224521247,5.685406005227594,4.21643749471,2.798961000186513,1.6060391606713198,0.7718834398126322,0.30802913713419455,0.10424125797493276,0.031580593869472214,0.008003828956771467,11.244123789739959,10.805735974845986,10.514610561058575,10.171716233603407,9.683896496876852,8.976022513548184,7.944054775853974,6.593027083151129,5.044378576983803,3.4538282534990348,2.0588773525082757,1.0583008818172974,0.47615592760714814,0.19623074667765328,0.07273543702428126
0.0,85.0,85.0,0.0,120.0,0.0,0.0,0.0,0.0,-107.0,0.0,-45.0,0.0,0.0,0.0,34.27253218749016,17.55503396713325,10.45776466273402,9.71288272883489,9.238980509183829,8.695702755995546,7.951555835561626,6.944162264326139,5.629638406390725,4.147457105115935,2.7303891809184093,1.5513134659548315,0.7375688820745372,0.29130298171851066,0.09780624642505081,0.02953268873539274,0.0074875659407901,11.245910195606477,10.807502993738813,10.516044648208704,10.170693356619216,9.674625103176488,8.950942620653763,7.897290249762547,6.524405535379988,4.961950574844148,3.372284769399283,1.993662913365824,1.0166382727614496,0.4546691381380772,0.18692545188006784,0.06944673929505885
0.0,86.0,86.0,0.0,120.0,0.0,0.0,0.0,0.0,-107.0,0.0,-45.0,0.0,0.0,0.0,34.27253218749016,17.55503396713325,10.457968986898331,9.71305233661818,9.23841454280368,8.690564742935997,7.9335044454327015,6.905920965581708,5.5703483330270345,4.075334289314906,2.659760300123679,1.4958104351144998,0.7033253740384723,0.2748740911264246,0.09157338585745489,0.0275703869812554,0.006996550072578001,11.247636516535117,10.809202317277576,10.517298283730458,10.169014888842609,9.663796309078352,8.92332795311488,7.847144622902476,6.4519943000915365,4.876131027313834,3.2885417815021865,1.9276416094209028,0.9750492811400849,0.4334874220897029,0.17784256801081483,0.06625836196328708
0.0,87.0,87.0,0.0,120.0,0.0,0.0,0.0,0.0,-107.0,0.0,-45.0,0.0,0.0,0.0,34.27253218749016,17.55503396713325,10.458161918767782,9.713190998277769,9.237575371556078,8.684319008873024,7.913074919478814,6.864320991721125,5.507326034292441,3.999940579482003,2.5870508320025305,1.4395730951733476,0.6692004371976297,0.2587651333900548,0.08554779073873542,0.02569362977438947,0.006530351561877356,11.249302547114091,10.810829748078417,10.518333406585366,10.166570231990038,9.651237775376204,8.892970515333992,7.7933812330449825,6.375577396225879,4.786790647723357,3.202579841982182,1.860859709162576,0.9335812667104469,0.41263389105467824,0.16898867405732715,0.06317098033699645
0.0,88.0,88.0,0.0,120.0,0.0,0.0,0.0,0.0,-107.0,0.0,-45.0,0.0,0.0,0.0,34.27253218749016,17.55503396713325,10.458344321338519,9.713289381559253,9.23638502642516,8.676773610953655,7.8900137320439,6.819106009870298,5.440347333188219,3.9211438268042538,2.512242557186542,1.382651346189163,0.6352447374508376,0.2429990479513089,0.07973426385923703,0.023902205326636776,0.006088513959532977,11.250908436979769,10.812379557317358,10.519102097404401,10.16323246134076,9.636760974278264,8.859642928038008,7.735741901835522,6.294923815569811,4.693797228576774,3.1143854156199913,1.7933700734737563,0.8922844817601548,0.3921320619555174,0.1603701676948618,0.0601851541963378
