Line_number,Fiducial,Easting,Northing,Height,Elevation,tx_pitch,tx_roll,tx_yaw,txrx_dx,txrx_dy,txrx_dz,rx_pitch,rx_roll,rx_yaw,S0Z_time_5.811e-05,S0Z_time_8.588e-05,S0Z_time_1.137e-04,S0Z_time_1.414e-04,S0Z_time_1.692e-04,S0Z_time_1.970e-04,S0Z_time_2.248e-04,S0Z_time_2.525e-04,S0Z_time_2.803e-04,S0Z_time_3.081e-04,S0Z_time_3.359e-04,S0Z_time_3.637e-04,S0Z_time_3.914e-04,S0Z_time_4.192e-04,S0Z_time_4.470e-04,S0Z_time_4.748e-04,S0Z_time_5.026e-04,S0Z_time_5.442e-04,S0Z_time_5.998e-04,S0Z_time_6.692e-04,S0Z_time_7.526e-04,S0Z_time_8.359e-04,S0Z_time_9.331e-04,S0Z_time_1.044e-03,S0Z_time_1.169e-03,S0Z_time_1.308e-03,S0Z_time_1.461e-03,S0Z_time_1.628e-03,S0Z_time_1.822e-03,S0Z_time_2.044e-03,S0Z_time_2.280e-03,S0Z_time_2.544e-03,S0Z_time_2.850e-03,S0Z_time_3.197e-03
0.0,0,0.0,0.0,30.0,0.0,0.0,0.0,0.0,2.0,2.0,-12.0,0.0,0.0,0.0,4.2838987790918545e-06,2.9689540737519688e-06,2.4358831775723487e-06,2.0175118900729358e-06,1.7847465548784157e-06,1.58997340609121e-06,1.4601602904705225e-06,1.3224485515114898e-06,1.2119943868379112e-06,1.087750452509183e-06,1.05421201827083e-06,1.0353334286046299e-06,9.470012444790987e-07,8.633190453945928e-07,8.318997398417044e-07,8.089843277351937e-07,7.459033751403424e-07,6.970288663219357e-07,6.154139565869328e-07,5.813432531854612e-07,5.075798012162995e-07,4.323729017850986e-07,3.814212237090403e-07,3.2979431806626914e-07,3.056238916648602e-07,2.414086784599772e-07,2.0824103947349703e-07,1.7890936290675943e-07,1.476718413275038e-07,1.2213524207648954e-07,1.0374237300567584e-07,9.01304495641931e-08,8.094645964911985e-08,5.8636577437507153e-08
0.0,1,1.0,0.0,30.0,0.0,0.0,0.0,0.0,2.0,2.0,-12.0,0.0,0.0,0.0,4.703584579748274e-06,3.2663096432746554e-06,2.4283261277414237e-06,2.002097402563704e-06,1.7210148029327328e-06,1.5299827590782872e-06,1.3775539326350997e-06,1.170889395054777e-06,1.173258964039317e-06,1.118826248536705e-06,9.67123416478436e-07,9.215852938027128e-07,8.624933732743793e-07,7.903664723381706e-07,7.762732248645658e-07,7.30125003689496e-07,7.080318969954173e-07,6.3188538111488e-07,6.217098653701298e-07,5.104489509558308e-07,4.458182786955141e-07,3.990957511982264e-07,3.497344407849953e-07,3.066432679745785e-07,2.650286188684466e-07,2.261377945657373e-07,1.891692907571714e-07,1.6803621466256174e-07,1.3904860156276792e-07,1.167793109349244e-07,9.476226629532517e-08,8.23773778588579e-08,6.847367158103233e-08,5.351378077465897e-08
0.0,2,2.0,0.0,30.0,0.0,0.0,0.0,0.0,2.0,2.0,-12.0,0.0,0.0,0.0,4.9771449599198425e-06,3.3929864436131286e-06,2.5848456434289268e-06,2.0425777397413075e-06,1.7104184122629026e-06,1.4475600845326266e-06,1.337351115863702e-06,1.1395881518566173e-06,1.081126124083664e-06,1.0163143588933736e-06,8.947983963794923e-07,8.842093806549426e-07,7.81784257325865e-07,7.380924862486718e-07,6.984384199812127e-07,6.671893082220365e-07,6.304044032121335e-07,5.935371355558846e-07,5.150409446357256e-07,4.927133525004459e-07,4.05315710511512e-07,3.407833963116001e-07,3.209517111679957e-07,2.78622145879955e-07,2.6392253310158935e-07,2.0334069964937295e-07,1.8219479265221247e-07,1.5350961130211375e-07,1.2318397033700473e-07,1.0566724166277194e-07,8.663794337485766e-08,7.654361765998348e-08,5.5753479522345624e-08,4.8170859081277344e-08
0.0,3,3.0,0.0,30.0,0.0,0.0,0.0,0.0,2.0,2.0,-12.0,0.0,0.0,0.0,5.151076413849384e-06,3.5158914540152964e-06,2.7571982941797052e-06,2.1603457523180438e-06,1.8780019331270765e-06,1.4804254028465896e-06,1.350549167811428e-06,1.1625865437853451e-06,1.029448168699284e-06,9.669712437637884e-07,8.77165993645556e-07,8.52249907550789e-07,7.255919415416357e-07,7.12579877838164e-07,6.739680471723092e-07,6.384724377944019e-07,6.08140397268888e-07,5.316715056264522e-07,4.729651592571072e-07,4.399421505077279e-07,3.7001366691387594e-07,3.1621734246476015e-07,3.077646090000776e-07,2.496374176967642e-07,2.283527156803538e-07,1.8556092435180298e-07,1.6615747800815244e-07,1.3631118180017845e-07,1.2120143096738286e-07,1.0044138114080464e-07,8.840743848550794e-08,6.911542626585644e-08,5.267066364984408e-08,4.231425036498165e-08
0.0,4,4.0,0.0,30.0,0.0,0.0,0.0,0.0,2.0,2.0,-12.0,0.0,0.0,0.0,5.6701617921441394e-06,3.9510230474499035e-06,2.9236853776224585e-06,2.446884000361193e-06,1.804344978759643e-06,1.5841081998910916e-06,1.3602118870124318e-06,1.1811278458338056e-06,1.0673981999455476e-06,9.729874098053056e-07,8.786440122755744e-07,8.124623973036054e-07,7.295925029073066e-07,6.561101261939839e-07,6.417128692544937e-07,6.04944876080304e-07,5.475839752258239e-07,4.866635374896099e-07,4.6327298979365434e-07,4.0522657340165465e-07,3.500629409257494e-07,3.166082278717879e-07,2.843006542040291e-07,2.2655394015159674e-07,2.211274583710194e-07,1.7200027084506143e-07,1.5605483746615285e-07,1.2512725273592435e-07,1.060151378338725e-07,8.894798509718101e-08,7.047122132882596e-08,6.324065790627139e-08,4.980620383287566e-08,4.273098418628774e-08
0.0,5,5.0,0.0,30.0,0.0,0.0,0.0,0.0,2.0,2.0,-12.0,0.0,0.0,0.0,5.904368142449972e-06,4.226375818459873e-06,3.0512092183747645e-06,2.4608180148599813e-06,2.001917982397209e-06,1.735276458357198e-06,1.4375551010131767e-06,1.207317715141575e-06,1.0925500603917939e-06,9.392830120172751e-07,9.04948295277163e-07,7.704286800848576e-07,7.170542305605052e-07,6.530916848020118e-07,6.358137392724098e-07,5.588262659197002e-07,5.353465111279286e-07,5.026856044458383e-07,4.5156118837715473e-07,3.8328464478965016e-07,3.326506701240164e-07,2.9320745036222245e-07,2.4942541743051654e-07,2.1601051458062568e-07,1.8950459661030605e-07,1.5350723291917633e-07,1.384489528386221e-07,1.2730594434358544e-07,9.775863504385907e-08,8.009288705841722e-08,6.876760982231219e-08,5.705689091897974e-08,4.834958732615562e-08,3.6952424975388636e-08
0.0,6,6.0,0.0,30.0,0.0,0.0,0.0,0.0,2.0,2.0,-12.0,0.0,0.0,0.0,5.9591364868736635e-06,4.3845426249970685e-06,3.371829169041337e-06,2.67452763049559e-06,2.0375011333356865e-06,1.8493834776169165e-06,1.6072810451709393e-06,1.324587384925367e-06,1.095380052586791e-06,1.0021095636027948e-06,8.610909320075722e-07,7.988236813422964e-07,7.368994979976685e-07,6.97031310769644e-07,5.954864951890721e-07,5.639267430816697e-07,5.718867763879202e-07,4.853475627408193e-07,4.369246852728894e-07,3.759362704493651e-07,3.125308154327735e-07,2.6983648944452417e-07,2.287193478098755e-07,2.00597377275126e-07,1.7261708882284176e-07,1.4807448089402197e-07,1.308404040626163e-07,9.766325803134182e-08,8.745619427692335e-08,7.568837847573685e-08,6.398167019275797e-08,5.21457109019246e-08,4.191569262795455e-08,3.697714781135371e-08
0.0,7,7.0,0.0,30.0,0.0,0.0,0.0,0.0,2.0,2.0,-12.0,0.0,0.0,0.0,6.398398090119853e-06,4.615122540035756e-06,3.4913022718171956e-06,2.893469441435894e-06,2.0869366054555292e-06,1.9303423010956355e-06,1.6572679264769608e-06,1.418060364518864e-06,1.1780322308431677e-06,1.0126077625268908e-06,9.220866231669027e-07,8.392787040773828e-07,7.343848395132093e-07,6.972462683032956e-07,6.22306292913609e-07,5.790693748080822e-07,5.078998228804695e-07,4.686953326960359e-07,3.9903400843666356e-07,3.728777439890921e-07,3.0888416188589927e-07,2.587016526531664e-07,2.2354803726079995e-07,2.0328655289634512e-07,1.6726878311132935e-07,1.375914640772053e-07,1.1438601322485962e-07,9.265258527887095e-08,8.561879341579937e-08,6.935270637288699e-08,6.288216228684798e-08,5.018024600486196e-08,3.962600583731402e-08,3.270615607355197e-08
0.0,8,8.0,0.0,30.0,0.0,0.0,0.0,0.0,2.0,2.0,-12.0,0.0,0.0,0.0,6.526992204478895e-06,4.664663999964623e-06,3.694294095022029e-06,3.0891595287415106e-06,2.406108650123572e-06,1.94447427105567e-06,1.6497614296157443e-06,1.4720573146487383e-06,1.2758873012497802e-06,1.1094022470344079e-06,9.486109802015094e-07,8.825373203329657e-07,7.824740512910701e-07,7.291931826984121e-07,6.536632805749148e-07,5.688256244929422e-07,5.211268393834017e-07,5.044574864606906e-07,4.171263439472189e-07,3.5235206291121096e-07,2.925609425460938e-07,2.518885013123785e-07,2.1746833285620122e-07,1.9153388431053139e-07,1.6335879862238748e-07,1.303368098288389e-07,1.194075825592177e-07,9.221854165009349e-08,8.122031295718035e-08,6.510321717089463e-08,5.649940136909162e-08,4.5898860885689984e-08,3.771160744374278e-08,3.090277560297302e-08
0.0,9,9.0,0.0,30.0,0.0,0.0,0.0,0.0,2.0,2.0,-12.0,0.0,0.0,0.0,7.173134053653949e-06,5.0756209504188715e-06,3.9359706269193035e-06,3.179306892526264e-06,2.557258072941061e-06,2.229747680133382e-06,1.8552129025294221e-06,1.5525797061144837e-06,1.2979430970762072e-06,1.152885036951716e-06,1.0659214531273745e-06,9.171230817201777e-07,8.382500233029184e-07,7.365879662271755e-07,6.396352274326169e-07,6.103756952367231e-07,5.335592526204354e-07,5.042918633228891e-07,4.55096187120294e-07,3.60708674672268e-07,3.082771835100627e-07,2.545390919991757e-07,2.0411135464087578e-07,1.813139027111272e-07,1.461841989267835e-07,1.1939008604269303e-07,1.0649731674540228e-07,8.933446756906765e-08,7.143035037632796e-08,6.144144134077177e-08,4.859172273670248e-08,4.6421440670262304e-08,3.506388983014301e-08,2.75090535643206e-08
0.0,10,10.0,0.0,30.0,0.0,0.0,0.0,0.0,2.0,2.0,-12.0,0.0,0.0,0.0,6.952540265231478e-06,5.274513470065719e-06,4.13889425032121e-06,3.1698156859640893e-06,2.743335214986027e-06,2.2610591842619183e-06,2.0206957884137573e-06,1.654656045929382e-06,1.4227611767915446e-06,1.2393538031127225e-06,1.0776072104659932e-06,9.397001543435329e-07,8.432329606811887e-07,7.976174982940734e-07,6.995091936012025e-07,6.092133757721692e-07,5.635985713287907e-07,5.177277247193313e-07,4.599684313821755e-07,3.8172745056766605e-07,2.885068805862995e-07,2.4930128684787357e-07,2.0620616855039363e-07,1.7342523421118094e-07,1.4804335562368011e-07,1.2030353897584917e-07,1.0139944906984042e-07,8.079078819143181e-08,6.887993421994247e-08,5.986418570399695e-08,4.895535529310976e-08,4.249917407880048e-08,3.21420482725031e-08,2.5976397717212967e-08
0.0,11,11.0,0.0,30.0,0.0,0.0,0.0,0.0,2.0,2.0,-12.0,0.0,0.0,0.0,7.301531860105064e-06,5.106563346910106e-06,4.0237630592735834e-06,3.2870894220366094e-06,2.9363401054017734e-06,2.3269895139095803e-06,2.051404382321242e-06,1.8153739537722267e-06,1.4468911072652152e-06,1.3452797429700946e-06,1.1788369573820946e-06,1.0681597099515535e-06,9.661464403418407e-07,7.799151736620296e-07,7.58498852518816e-07,6.439201007423862e-07,6.6968346884323e-07,5.285050404143632e-07,4.396549055433134e-07,3.581496830174456e-07,3.0748182516499837e-07,2.4605949037287054e-07,2.1575984248165587e-07,1.7324654041061567e-07,1.445080102558173e-07,1.1454818111569866e-07,9.983456070253609e-08,8.220752962449986e-08,6.863940810579616e-08,5.1408002285134775e-08,4.515234669837339e-08,3.6791411983992143e-08,3.203823097936842e-08,2.342513950419688e-08
0.0,12,12.0,0.0,30.0,0.0,0.0,0.0,0.0,2.0,2.0,-12.0,0.0,0.0,0.0,7.3278524744619395e-06,5.36337863315854e-06,4.433871850628507e-06,3.5503797842610757e-06,2.789645764764637e-06,2.604023694087133e-06,2.268833056467784e-06,1.8704347420794927e-06,1.6486987402273518e-06,1.3724877267354005e-06,1.2461554130700183e-06,1.1540371432327427e-06,1.0309313504497626e-06,8.768114133822049e-07,7.913543112272758e-07,7.043358169966971e-07,6.439924036363883e-07,5.751540013614373e-07,4.738724578395478e-07,4.0005451799066714e-07,3.227105757855444e-07,2.6763728359950395e-07,2.227060241644126e-07,1.8139054633365743e-07,1.421710889577003e-07,1.1689547307017874e-07,9.564613242786743e-08,7.53014455738793e-08,6.298208454405511e-08,5.446314356986897e-08,4.473838670279556e-08,3.4166233639599907e-08,3.050564714934301e-08,2.6396482706518822e-08
0.0,13,13.0,0.0,30.0,0.0,0.0,0.0,0.0,2.0,2.0,-12.0,0.0,0.0,0.0,7.799390436327521e-06,5.5354746465665205e-06,4.551156040979173e-06,3.4269215244184655e-06,2.9159530289743322e-06,2.4274049895709875e-06,2.1438118735533407e-06,1.9238609013637446e-06,1.6506919561537991e-06,1.5179620911974706e-06,1.2364762225590122e-06,1.1644556899444387e-06,1.0419046432798738e-06,9.348397897941992e-07,8.329697184518002e-07,7.67221583646089e-07,6.636477127272634e-07,6.02984444574616e-07,5.073261844657141e-07,4.141063618704026e-07,3.310106032810551e-07,2.683162904820566e-07,2.2220635177975616e-07,1.802419186953713e-07,1.4416645988742265e-07,1.1667589000389993e-07,9.163610467883378e-08,7.714487941679035e-08,6.289664892320137e-08,5.0092294008885585e-08,4.356796678068035e-08,3.175878260408725e-08,2.8666197910626474e-08,2.1770420393236353e-08
0.0,14,14.0,0.0,30.0,0.0,0.0,0.0,0.0,2.0,2.0,-12.0,0.0,0.0,0.0,7.695431335907047e-06,5.8874098361365776e-06,4.648147851612584e-06,3.7761173216444262e-06,3.292095016858922e-06,2.5723937535432745e-06,2.175258044343288e-06,1.9606026941047044e-06,1.7624853011923773e-06,1.580276417276587e-06,1.3417260951697553e-06,1.216400291934919e-06,1.0938162045003834e-06,9.425964868581464e-07,8.811115333596655e-07,8.016990077467693e-07,7.463741334581495e-07,6.381700812279573e-07,5.266330742505291e-07,4.425114886224695e-07,3.573544600449059e-07,2.8353881817494027e-07,2.245257733818222e-07,1.8102535635097524e-07,1.4496749406052423e-07,1.204438779393358e-07,9.499690721419988e-08,7.59412555061719e-08,6.428620331489971e-08,4.573265680433325e-08,3.86550788028277e-08,3.374193919536445e-08,2.7817727504103536e-08,2.0053446737481932e-08
0.0,15,15.0,0.0,30.0,0.0,0.0,0.0,0.0,2.0,2.0,-12.0,0.0,0.0,0.0,7.699081173627482e-06,5.987162729392672e-06,4.812862506597074e-06,3.838045652902395e-06,3.3876234230121786e-06,2.724755632385602e-06,2.398939638689442e-06,2.0410794366023177e-06,1.8116245212687964e-06,1.6126604781101793e-06,1.4505597293888104e-06,1.3017492882397601e-06,1.1235223738487108e-06,1.0344571953872478e-06,9.90558219286555e-07,8.821144149767243e-07,7.588060180714457e-07,6.833033518870572e-07,5.879170828734459e-07,4.843357592054681e-07,3.7674593963643326e-07,2.963981736094541e-07,2.3982334829878754e-07,1.8700990202753322e-07,1.4549836768256242e-07,1.1903510077373115e-07,9.987060922588837e-08,7.58652113007276e-08,5.945982493988071e-08,4.9588296160704486e-08,3.643477472065974e-08,3.320365178448819e-08,2.3876567762394686e-08,2.0457391419909415e-08
0.0,16,16.0,0.0,30.0,0.0,0.0,0.0,0.0,2.0,2.0,-12.0,0.0,0.0,0.0,8.124233155603882e-06,5.924709555382279e-06,4.864990749686812e-06,4.001638378666763e-06,3.542516150371746e-06,2.824963693502449e-06,2.3433678322113297e-06,2.1314337052752275e-06,1.9465826197524934e-06,1.7062440870004343e-06,1.4935511792477275e-06,1.3201804551655761e-06,1.2184385021241062e-06,1.099882984635009e-06,9.396823506726065e-07,8.952062547714684e-07,7.807457786636933e-07,7.041645034043138e-07,5.80693008632066e-07,4.849799374148337e-07,3.921803193652274e-07,3.087567408294945e-07,2.7113952959878847e-07,1.8750975535152238e-07,1.560645648208136e-07,1.2600776512139946e-07,9.580375894007676e-08,7.466085350576706e-08,6.047949100310194e-08,4.735737320402852e-08,3.537651597327177e-08,3.3814389687941415e-08,2.677050735094172e-08,1.7408583900349704e-08
0.0,17,17.0,0.0,30.0,0.0,0.0,0.0,0.0,2.0,2.0,-12.0,0.0,0.0,0.0,7.653808709455777e-06,5.911126281308756e-06,4.903036857135369e-06,4.098366319898709e-06,3.415788369875397e-06,3.0550208600567786e-06,2.517497778031521e-06,2.2270978878996014e-06,1.991885315100224e-06,1.733171167750976e-06,1.4733327395472784e-06,1.3900440155068657e-06,1.2699670786573741e-06,1.0772755147582615e-06,1.0269788532685337e-06,9.583932518842412e-07,8.13786509251524e-07,7.172299014493428e-07,5.927041975302158e-07,5.132010708382777e-07,4.005682732802014e-07,3.247212182796435e-07,2.663534207391029e-07,2.1050350538682597e-07,1.595528532536279e-07,1.2637817861665286e-07,1.0080497086308539e-07,7.79491605881237e-08,6.006882963366477e-08,4.459380898766459e-08,3.307575040512426e-08,3.087197796579635e-08,2.4166972505113412e-08,1.950872049819271e-08
0.0,18,18.0,0.0,30.0,0.0,0.0,0.0,0.0,2.0,2.0,-12.0,0.0,0.0,0.0,8.299070263114174e-06,5.936095833070135e-06,5.229182257573993e-06,4.393746483226767e-06,3.3734889636981464e-06,2.9634784327994888e-06,2.4151977339403395e-06,2.2145115863239325e-06,2.028724214471566e-06,1.8118306543401885e-06,1.5629300013667909e-06,1.3919662408681909e-06,1.2988163430587551e-06,1.142464479971138e-06,1.0117331397750017e-06,9.506281286346812e-07,8.391941566176173e-07,7.921872969022014e-07,6.136017426481864e-07,5.225864736796774e-07,4.0401387679375845e-07,3.295590036014344e-07,2.7724628744324816e-07,2.159168044628441e-07,1.7312759331659777e-07,1.2839927123385975e-07,1.0532524297499689e-07,7.948440390616348e-08,6.018502967381515e-08,4.511292918115444e-08,3.8488084437028324e-08,3.016896590340224e-08,2.493393614663863e-08,1.824171817507229e-08
0.0,19,19.0,0.0,30.0,0.0,0.0,0.0,0.0,2.0,2.0,-12.0,0.0,0.0,0.0,8.46871166967085e-06,6.358476274296585e-06,5.055827530416659e-06,4.3096586483672865e-06,3.5836057732850892e-06,3.0536136713902455e-06,2.5754519158009246e-06,2.3673275192382676e-06,2.0347624324555738e-06,1.797666765740731e-06,1.6504719440792105e-06,1.5396660777080153e-06,1.3781800590499897e-06,1.175494106631585e-06,1.0618813659509355e-06,1.0050446804384956e-06,8.905294347279127e-07,7.892345060737174e-07,6.224598159767103e-07,5.457951589453385e-07,4.46322329850949e-07,3.5050985016111797e-07,2.8080832306560084e-07,2.2479578718674699e-07,1.7312417082922026e-07,1.3649698114310205e-07,1.0422547405486573e-07,8.137618672337432e-08,6.147565512288449e-08,4.9483344207349276e-08,3.8471192410012634e-08,2.9465175928309864e-08,2.4057298749354468e-08,1.7945982082744374e-08
0.0,20,20.0,0.0,30.0,0.0,0.0,0.0,0.0,2.0,2.0,-12.0,0.0,0.0,0.0,8.493417813346398e-06,6.710186620449552e-06,5.166907360585053e-06,4.420976308330216e-06,3.7079072900002593e-06,3.1432310340232057e-06,2.757051908615924e-06,2.3525414967929995e-06,2.124941467590988e-06,1.889124243474063e-06,1.6679446702590595e-06,1.5193953963122543e-06,1.2916042154356636e-06,1.2382751162486643e-06,1.1089269766739143e-06,9.89774812721099e-07,9.120554787083583e-07,7.77826939057664e-07,6.913221095875967e-07,5.863360262007549e-07,4.441323889554017e-07,3.5898403110638185e-07,3.086006913757397e-07,2.2150161786066108e-07,1.8243471722797448e-07,1.4333792679961922e-07,1.087658215814739e-07,8.237629826228302e-08,6.650450272053681e-08,4.471715469464588e-08,3.754718016118559e-08,2.9163952070605752e-08,2.294312682224797e-08,1.6802237830195084e-08
0.0,21,21.0,0.0,30.0,0.0,0.0,0.0,0.0,2.0,2.0,-12.0,0.0,0.0,0.0,8.362702917045896e-06,6.273408317583591e-06,5.284068297399773e-06,4.367583383817481e-06,3.6270933936747685e-06,3.092730911038203e-06,2.6732104123661437e-06,2.4163129048663257e-06,2.046390645055381e-06,1.8612480123171812e-06,1.6667140092409652e-06,1.57482716467044e-06,1.4442275693879343e-06,1.3343783186649963e-06,1.196863522372228e-06,1.0452162267991669e-06,9.580283234573952e-07,8.079150808801977e-07,6.796308775884106e-07,5.998410828836003e-07,5.010071453751787e-07,4.0747030869863557e-07,2.9708675194214394e-07,2.444873400686646e-07,1.843300860453049e-07,1.4685561418307236e-07,1.116171424132234e-07,8.733932121502114e-08,6.481772054307117e-08,4.8203467298443805e-08,3.947426912463976e-08,2.8692345143263636e-08,2.2270935572798888e-08,1.7278828186408394e-08
0.0,22,22.0,0.0,30.0,0.0,0.0,0.0,0.0,2.0,2.0,-12.0,0.0,0.0,0.0,8.494454607873315e-06,6.5830633443038796e-06,5.23899553695931e-06,4.350177905492191e-06,3.749579378811778e-06,3.0360337725139905e-06,2.842572923548438e-06,2.428405381520909e-06,2.2207111393816583e-06,1.9657446584856676e-06,1.8047701571996109e-06,1.5669815050620233e-06,1.3801940980328877e-06,1.3315404818343745e-06,1.2194014606527464e-06,1.0667857585870892e-06,9.70272926194715e-07,8.906459538862742e-07,7.348856619796579e-07,6.29842583387809e-07,5.110528792666552e-07,4.0403574344952555e-07,3.3160511625537647e-07,2.6105997861207205e-07,2.0191759701195745e-07,1.451939259224548e-07,1.168407979815718e-07,8.94306143285861e-08,6.724575618979213e-08,4.888443756342773e-08,3.75917061241144e-08,3.1027741858557166e-08,2.3248061230806132e-08,1.7038560565370157e-08
0.0,23,23.0,0.0,30.0,0.0,0.0,0.0,0.0,2.0,2.0,-12.0,0.0,0.0,0.0,8.935760950265271e-06,6.943672956640927e-06,5.296446857853093e-06,4.37986080939741e-06,3.952307253363068e-06,3.2351865980855332e-06,3.019670836587614e-06,2.6253941298098042e-06,2.0832127440971478e-06,1.832779488148399e-06,1.7153962017700046e-06,1.6168754192278902e-06,1.4423371659273607e-06,1.275826734585389e-06,1.1498557018014714e-06,1.1323229428269108e-06,1.0227380248598522e-06,8.945090877015063e-07,7.61632504584261e-07,6.225105747628477e-07,5.39459561232409e-07,4.1339238519039707e-07,3.424739131106029e-07,2.580877400980647e-07,2.0004899374491259e-07,1.5750201443514393e-07,1.209926199833531e-07,9.385393107588936e-08,7.308820634362035e-08,5.324822154755789e-08,4.135859964658373e-08,3.2348228843217996e-08,2.0698684553065985e-08,1.6561557032073198e-08
0.0,24,24.0,0.0,30.0,0.0,0.0,0.0,0.0,2.0,2.0,-12.0,0.0,0.0,0.0,8.720341412356178e-06,6.576060837850079e-06,5.319029287735254e-06,4.572344419556107e-06,3.892337185993613e-06,3.408126268304821e-06,2.902373110597764e-06,2.542991437884163e-06,2.2781752120724797e-06,2.0765750502630326e-06,1.7347862630606475e-06,1.5672527614651694e-06,1.4744058492700408e-06,1.327651574553183e-06,1.2541706156050911e-06,1.0799523606470775e-06,1.0052653795757963e-06,9.442243746530467e-07,8.162086948270626e-07,6.540527195104261e-07,5.461209137299465e-07,4.402453449861919e-07,3.5205330417308626e-07,2.627775723412023e-07,2.0726412319271047e-07,1.608893495254681e-07,1.2362462573040333e-07,9.300481567486847e-08,6.958609960051481e-08,5.419031595285641e-08,4.2243912273060416e-08,3.0612054011011164e-08,2.2863800305848517e-08,1.7049886739009714e-08
0.0,25,25.0,0.0,30.0,0.0,0.0,0.0,0.0,2.0,2.0,-12.0,0.0,0.0,0.0,9.282345996942799e-06,6.916205875420669e-06,5.237560394113783e-06,4.9583698403636335e-06,3.953246614902483e-06,3.4039406118262728e-06,2.961842067840495e-06,2.615435554415972e-06,2.3057718014833552e-06,2.0738065033481783e-06,1.981990250216467e-06,1.6442042684578724e-06,1.5017704892159726e-06,1.3390689579519991e-06,1.2256419602854015e-06,1.1917274174446463e-06,1.0805845493245259e-06,9.444821156672725e-07,7.962298574870411e-07,6.684327572891035e-07,5.314202448089233e-07,4.4250672295273824e-07,3.6246509032117114e-07,2.7721357782312463e-07,2.2244176923394882e-07,1.6435684214773637e-07,1.272508857031745e-07,1.0211119022033823e-07,7.540675530640032e-08,5.793635324335666e-08,4.153313988303639e-08,3.358786745179317e-08,2.4525742505837873e-08,1.8235612872286547e-08
0.0,26,26.0,0.0,30.0,0.0,0.0,0.0,0.0,2.0,2.0,-12.0,0.0,0.0,0.0,8.695119557555568e-06,7.217238291841267e-06,5.569270699056297e-06,4.669729146234157e-06,3.834588668701688e-06,3.385858901489184e-06,3.004684217456164e-06,2.6895555902804324e-06,2.1728749628469673e-06,2.0541940606317792e-06,1.8006217870791998e-06,1.6141382782680365e-06,1.5197252815411945e-06,1.4326128682365322e-06,1.2375146215103202e-06,1.1537987195178675e-06,1.0698569159282018e-06,8.939900289376603e-07,8.033326968464566e-07,6.536723943719699e-07,5.476904427040604e-07,4.716877042456013e-07,3.6994884368094846e-07,3.063467941446649e-07,2.2101635856345145e-07,1.8022527524691636e-07,1.3777050718218396e-07,1.0276406699860206e-07,8.240850712941561e-08,5.9058466768616855e-08,4.120371950282661e-08,3.1816560309665536e-08,2.443593321720334e-08,1.9215909020210847e-08
0.0,27,27.0,0.0,30.0,0.0,0.0,0.0,0.0,2.0,2.0,-12.0,0.0,0.0,0.0,9.808206692185167e-06,7.171455291101287e-06,5.570063306432756e-06,4.505104607122829e-06,3.9495844092834155e-06,3.418476956374134e-06,3.0850811659246327e-06,2.6639110344160613e-06,2.451397132902949e-06,2.1835956694870753e-06,1.9193829637126367e-06,1.7523971242493668e-06,1.6109150145400033e-06,1.3960972731769202e-06,1.4134891763251944e-06,1.2105282833830589e-06,1.101385973602074e-06,9.860351661888486e-07,8.288548381836108e-07,6.900426832525037e-07,5.575386363157642e-07,4.7075596900402256e-07,3.676857977157078e-07,2.9202868146134473e-07,2.3433573378486838e-07,1.8357104756584015e-07,1.37433891160023e-07,1.0214015285015673e-07,8.15146772818498e-08,5.886500810844022e-08,4.596742000507241e-08,3.370171225109187e-08,2.3900257418887288e-08,1.775906663663012e-08
0.0,28,28.0,0.0,30.0,0.0,0.0,0.0,0.0,2.0,2.0,-12.0,0.0,0.0,0.0,9.332369091979959e-06,7.410496393509425e-06,5.60373731817554e-06,4.872636546459618e-06,4.0646190526758765e-06,3.428480577324445e-06,2.98497790062476e-06,2.707839941554685e-06,2.235096214200967e-06,2.24132544204934e-06,1.8783841316864285e-06,1.7076093466260668e-06,1.5929487867126154e-06,1.4265658107596322e-06,1.3933460175965414e-06,1.2138963032387595e-06,1.061946922757895e-06,9.71410705004361e-07,8.690819764484277e-07,6.807848310302254e-07,5.669362343306026e-07,5.020252028439654e-07,3.89788104138226e-07,2.9329548320399204e-07,2.38403734443345e-07,1.9084238077434191e-07,1.5405917993649723e-07,1.0920924916600596e-07,8.465118357712014e-08,6.209086748170101e-08,4.501327287133779e-08,3.29175704683499e-08,2.3683400637595097e-08,1.5979551975898598e-08
0.0,29,29.0,0.0,30.0,0.0,0.0,0.0,0.0,2.0,2.0,-12.0,0.0,0.0,0.0,9.588673582301229e-06,7.356429789653436e-06,5.909004961370381e-06,4.703059289242469e-06,4.183664421301257e-06,3.7036981163811552e-06,3.03373441812233e-06,2.7267165423942415e-06,2.466783626828857e-06,2.280985680267768e-06,2.036025689673932e-06,1.762460646042138e-06,1.5644102129337026e-06,1.4848755769637476e-06,1.3536932939680818e-06,1.1847905235759213e-06,1.1086015499244304e-06,9.415570748415997e-07,8.580836260746914e-07,7.087943060017897e-07,5.92036686681087e-07,4.929461240062904e-07,4.0146200819759693e-07,3.269078848184238e-07,2.5245495102356205e-07,1.9485943427139197e-07,1.5739910865457021e-07,1.1575244048778297e-07,8.653658333105338e-08,6.428880056098294e-08,4.739155573667185e-08,3.43025057793652e-08,2.742757351450585e-08,1.897486818747983e-08
0.0,30,30.0,0.0,30.0,0.0,0.0,0.0,0.0,2.0,2.0,-12.0,0.0,0.0,0.0,1.049359003461839e-05,7.761379816752057e-06,6.277316936230315e-06,4.7927746536567075e-06,4.391652734618884e-06,3.4352772775831136e-06,2.9515065543722853e-06,2.7839975125396792e-06,2.391729463506601e-06,2.1955538085808036e-06,2.0220852733998757e-06,1.7729916306070678e-06,1.6332732173358882e-06,1.4766141639860815e-06,1.387089516389539e-06,1.1900069574337884e-06,1.134899031822846e-06,1.0313727900998169e-06,9.043438730913059e-07,7.346554351105071e-07,5.99140354728306e-07,4.979389300173894e-07,4.0810382420611653e-07,3.182858144589831e-07,2.48277079073968e-07,1.966970331165201e-07,1.567108795709059e-07,1.1697105552107509e-07,9.236199772805594e-08,6.96690523313381e-08,4.888210492410665e-08,3.6856686669766093e-08,2.6438956746826973e-08,1.9474431382069105e-08
0.0,31,31.0,0.0,30.0,0.0,0.0,0.0,0.0,2.0,2.0,-12.0,0.0,0.0,0.0,1.0092987815834319e-05,7.7443185366605e-06,6.19947074429501e-06,5.034542030055389e-06,4.080927931708808e-06,3.6712223712466815e-06,3.1372678454426308e-06,2.712332136897455e-06,2.503853289006757e-06,2.209297749973582e-06,2.071485224090506e-06,1.8126307598255783e-06,1.609881827089076e-06,1.5541680692637351e-06,1.4068273590782407e-06,1.236623557708692e-06,1.1489177815521814e-06,1.0347881422031378e-06,8.935500498267683e-07,7.719980018082903e-07,6.153750671324415e-07,5.307408319709588e-07,4.0627628162592973e-07,3.310942632308995e-07,2.6866770789509823e-07,2.0098682288997822e-07,1.6199201401990788e-07,1.2976389728499505e-07,9.513733011783218e-08,6.867763384332229e-08,5.0823853059094016e-08,3.601644075931909e-08,2.7714111329004804e-08,2.2701332392535498e-08
0.0,32,32.0,0.0,30.0,0.0,0.0,0.0,0.0,2.0,2.0,-12.0,0.0,0.0,0.0,1.0340227066952208e-05,7.904579522612637e-06,6.385063879356699e-06,5.127807342117972e-06,4.238934781882875e-06,3.7341561874981843e-06,3.3289653267032775e-06,2.795285014029739e-06,2.5575208519088727e-06,2.270631675154868e-06,2.002698826779919e-06,1.7624610870274522e-06,1.7041570690420373e-06,1.5502851472111685e-06,1.3889500559931698e-06,1.2542243886009787e-06,1.1170906136508002e-06,1.0787868589655904e-06,8.53505955184364e-07,7.32675787671682e-07,6.497002472141603e-07,5.04533346953902e-07,4.183004855217692e-07,3.2463168435510425e-07,2.6175146852839467e-07,2.1451303887897574e-07,1.6461694277913796e-07,1.3505635076630564e-07,9.348472574769401e-08,7.124399258686143e-08,5.3004857309143475e-08,3.802358176595834e-08,2.9070319730037445e-08,2.0462118975019446e-08
0.0,33,33.0,0.0,30.0,0.0,0.0,0.0,0.0,2.0,2.0,-12.0,0.0,0.0,0.0,1.0063056510387556e-05,8.052248952397597e-06,6.129232166554374e-06,5.118352134724186e-06,4.24145230027112e-06,3.6063501540850287e-06,3.143086557309462e-06,2.894294233000897e-06,2.4766359465796842e-06,2.2875404582028497e-06,2.0520125938221186e-06,1.8861586791049052e-06,1.6072640320215214e-06,1.5395971630329318e-06,1.3605106630228156e-06,1.3129651111319535e-06,1.2040160974401038e-06,1.0727662545827183e-06,9.113537048340478e-07,7.098346466469802e-07,5.996676511100101e-07,5.32651545254536e-07,4.1808315584344143e-07,3.533229268595479e-07,2.6210113595518787e-07,2.196095621650959e-07,1.693167235409561e-07,1.3182894101578333e-07,9.89055478058974e-08,7.092157181852633e-08,5.4128259291352665e-08,4.161323790147926e-08,2.833000193509297e-08,2.2699420592163025e-08
0.0,34,34.0,0.0,30.0,0.0,0.0,0.0,0.0,2.0,2.0,-12.0,0.0,0.0,0.0,1.0952229494241786e-05,8.288320083381228e-06,6.485022120830093e-06,5.00959996796811e-06,4.432590348592036e-06,3.866013120409683e-06,3.230013160815995e-06,2.8077273475331903e-06,2.459453359123055e-06,2.216861586305358e-06,2.0774871264543088e-06,1.8676987320430672e-06,1.7647683232775397e-06,1.542383083451869e-06,1.4049137614171857e-06,1.3177963260037677e-06,1.1627190116768083e-06,1.0977170790020264e-06,9.419326363392435e-07,7.466336817108843e-07,6.383344948194934e-07,5.238521680661127e-07,4.3464055165833414e-07,3.594292649919645e-07,2.708038472331415e-07,2.1135787426698799e-07,1.7590159305640942e-07,1.215631169289586e-07,1.0108604221122138e-07,7.542943821301828e-08,5.6116237827112794e-08,4.25819132285176e-08,2.9240526885821188e-08,2.2383140588636422e-08
0.0,35,35.0,0.0,30.0,0.0,0.0,0.0,0.0,2.0,2.0,-12.0,0.0,0.0,0.0,1.061940576973247e-05,7.93262594878563e-06,6.258554067168416e-06,5.183755073358111e-06,4.495914649481412e-06,4.109485189182433e-06,3.4550631205243877e-06,3.0425799361707813e-06,2.430450486628031e-06,2.388644834970171e-06,2.0400864743288695e-06,1.920465358450394e-06,1.632032780609841e-06,1.5906189790726432e-06,1.3947338241502667e-06,1.2656219994969996e-06,1.2365497910865683e-06,1.1374491165104616e-06,9.341943996046535e-07,7.937564173925958e-07,6.736836542924221e-07,5.059468497873934e-07,4.3660305675848486e-07,3.3677114643439867e-07,2.776681232044537e-07,2.2047542460581098e-07,1.844705968096711e-07,1.3644494897328278e-07,1.0432104448805925e-07,7.61189104935702e-08,5.7925697252492274e-08,4.413035050546487e-08,3.110791504482714e-08,2.2067237679959802e-08
0.0,36,36.0,0.0,30.0,0.0,0.0,0.0,0.0,2.0,2.0,-12.0,0.0,0.0,0.0,1.095449717806603e-05,7.91262413533474e-06,6.1634214509286766e-06,5.154685814049404e-06,4.540519473370135e-06,3.799174203231039e-06,3.3302544589550566e-06,2.9062448378964096e-06,2.5764713528985458e-06,2.3209288577717894e-06,1.987428922853815e-06,1.8926919205995566e-06,1.6873389066781505e-06,1.5403508932074254e-06,1.4876569729303087e-06,1.3484907952246747e-06,1.1576653038491312e-06,1.0578546831329953e-06,9.099469444326776e-07,8.093405017321442e-07,6.404585906496881e-07,5.519169933518321e-07,4.427348993838189e-07,3.509398574311321e-07,2.832915248994471e-07,2.1328511681312065e-07,1.7793482875546103e-07,1.3973191968373852e-07,1.0484720193669807e-07,8.077787696618307e-08,6.09492348921304e-08,4.5550476601936096e-08,3.407975237409952e-08,2.2010316904924415e-08
0.0,37,37.0,0.0,30.0,0.0,0.0,0.0,0.0,2.0,2.0,-12.0,0.0,0.0,0.0,1.1069941975421215e-05,8.259629535161654e-06,6.725760008093116e-06,5.237991271710008e-06,4.49106375489983e-06,3.819264935612035e-06,3.4190248610742396e-06,2.988031778715164e-06,2.604278624562725e-06,2.1561940338820362e-06,2.083311727861705e-06,1.794433414850571e-06,1.721858270137758e-06,1.558184202760481e-06,1.4630974882704274e-06,1.331648153351743e-06,1.203329090681396e-06,1.1096748098257067e-06,8.930166760809997e-07,7.779120379533062e-07,6.153318444074175e-07,5.319974709173296e-07,4.477947817440729e-07,3.4780317555845973e-07,2.9057093673007336e-07,2.17321846101113e-07,1.7597778056583636e-07,1.36729014064072e-07,1.1444939858565927e-07,7.766426250492094e-08,6.003871084104503e-08,4.6803145783135265e-08,3.473538400354795e-08,2.2033568084717167e-08
0.0,38,38.0,0.0,30.0,0.0,0.0,0.0,0.0,2.0,2.0,-12.0,0.0,0.0,0.0,1.1518655645706276e-05,8.322175756345488e-06,6.592395751337242e-06,5.692102923005264e-06,4.635595568662983e-06,3.941852108382116e-06,3.6141275849153342e-06,3.0525134437942032e-06,2.785754488330541e-06,2.4798080858902604e-06,2.1895311855872017e-06,1.981036708439853e-06,1.7119966936730401e-06,1.6038702450978018e-06,1.488187944967314e-06,1.4002536667525115e-06,1.1846686317605071e-06,1.076747561262251e-06,1.0132955622827539e-06,8.075381557466219e-07,6.600620132786402e-07,5.514172708504116e-07,4.5996274899268673e-07,3.7578394884739947e-07,3.0173721723299565e-07,2.2754608708977444e-07,1.9152958889760246e-07,1.4892029258208643e-07,1.0781135835238197e-07,8.410001661903601e-08,6.342065730735329e-08,5.094443209129661e-08,3.5789766781354214e-08,2.3286407448795667e-08
0.0,39,39.0,0.0,30.0,0.0,0.0,0.0,0.0,2.0,2.0,-12.0,0.0,0.0,0.0,1.1100747056763509e-05,7.935209895183504e-06,6.9519465892952365e-06,5.455185282503288e-06,4.703124647049971e-06,3.990709481835978e-06,3.314161753710776e-06,3.0905628835429738e-06,2.676962457092344e-06,2.3477123558171242e-06,2.194909337902836e-06,1.930762052245243e-06,1.7533868440102306e-06,1.628229777106285e-06,1.4881303725186265e-06,1.371673843211267e-06,1.297094579536656e-06,1.0907983902790242e-06,9.640010034933907e-07,7.851184306706191e-07,6.687960737427093e-07,5.722453244895033e-07,4.5603443999105496e-07,3.7685798582206257e-07,3.2079766270133386e-07,2.425192413497565e-07,1.82388635543268e-07,1.4663203231147926e-07,1.106409094428921e-07,8.361275001205917e-08,6.44549354956772e-08,4.77984857659947e-08,3.4811143434601834e-08,2.6566169025684645e-08
0.0,40,40.0,0.0,30.0,0.0,0.0,0.0,0.0,2.0,2.0,-12.0,0.0,0.0,0.0,1.1483500292961001e-05,8.726020088255994e-06,6.833619965084964e-06,5.859541971977619e-06,5.0367038644645425e-06,3.9987772008052726e-06,3.691517362098256e-06,3.120883968702334e-06,2.755930005321491e-06,2.4798296125512573e-06,2.213352442916427e-06,1.9278316823388385e-06,1.7965735807735727e-06,1.629720433379313e-06,1.4919930491606637e-06,1.3617186561595848e-06,1.2632657126691249e-06,1.1357178542679762e-06,9.582625978070432e-07,8.512370660516918e-07,6.948399685865517e-07,5.559253508989752e-07,4.663313447535102e-07,3.740714043868672e-07,3.031822154284478e-07,2.373272092457048e-07,1.9107616724301175e-07,1.405026150723361e-07,1.0996484874933276e-07,8.478989337617185e-08,6.1612299732292e-08,4.873349945857324e-08,3.426766579908126e-08,2.5005299611734547e-08
0.0,41,41.0,0.0,30.0,0.0,0.0,0.0,0.0,2.0,2.0,-12.0,0.0,0.0,0.0,1.1877870405783632e-05,9.033856160048708e-06,7.126754117101657e-06,5.7647041400580915e-06,4.816533081200244e-06,4.116210737856791e-06,3.636415374339818e-06,3.3046243691285045e-06,2.7013462370590668e-06,2.462582859443681e-06,2.1273489597178255e-06,2.130815805990728e-06,1.7532407371970907e-06,1.7095881870001359e-06,1.4416752970899589e-06,1.3568986372212765e-06,1.2829212674850335e-06,1.0905792027094828e-06,1.0303405793971304e-06,8.235008849085837e-07,7.254447574818816e-07,5.729414352404749e-07,4.4260395271804714e-07,3.5899414839163513e-07,3.0636625384399403e-07,2.4853236835247897e-07,1.8603569308422836e-07,1.4498099419260383e-07,1.1345351282997742e-07,8.52306623178236e-08,6.899968281121554e-08,5.2447062444348686e-08,3.695868339625418e-08,2.4125769248394383e-08
0.0,42,42.0,0.0,30.0,0.0,0.0,0.0,0.0,2.0,2.0,-12.0,0.0,0.0,0.0,1.1930000536107279e-05,9.176193814636215e-06,7.114750568246082e-06,5.8277370172388676e-06,4.77829544083105e-06,4.207833932662068e-06,3.7884684743312293e-06,3.1577799776298755e-06,2.765386986936253e-06,2.4401796079067316e-06,2.165287676129943e-06,2.0976100212287204e-06,1.8863740494446978e-06,1.7083417414843264e-06,1.540631910667566e-06,1.4584228670809166e-06,1.3505665772721337e-06,1.099182347587943e-06,9.751675839886624e-07,8.19345150991532e-07,6.955783043731342e-07,5.806798167111955e-07,4.5909782754109887e-07,3.541886039458613e-07,2.92986171182629e-07,2.2795114470263542e-07,1.8919352657615167e-07,1.4902799698662825e-07,1.1926092030804275e-07,9.172898718724192e-08,6.769285405732683e-08,5.095507575484098e-08,4.053255690185427e-08,2.737597634524141e-08
0.0,43,43.0,0.0,30.0,0.0,0.0,0.0,0.0,2.0,2.0,-12.0,0.0,0.0,0.0,1.2326085912000565e-05,9.482024731655737e-06,7.247303522169298e-06,5.922826496640364e-06,4.905907065485976e-06,4.267755184436591e-06,3.620200156997921e-06,3.2067644805574166e-06,2.7672484889245056e-06,2.619968258722415e-06,2.257359689186876e-06,2.047062150609501e-06,1.7850029516349296e-06,1.6794147489922554e-06,1.6164533800253447e-06,1.4447727644587808e-06,1.2802933705757477e-06,1.1474284044233195e-06,9.898738843080246e-07,8.27534408899889e-07,6.869126473672136e-07,5.992422468725032e-07,4.663316951662186e-07,3.7511593066435287e-07,2.9903416088485297e-07,2.423937641505312e-07,2.0950843179878174e-07,1.6042275425970934e-07,1.2169844097446312e-07,9.324050440581832e-08,6.732283265248729e-08,5.097269584279448e-08,4.00053162291921e-08,2.7433581091455158e-08
0.0,44,44.0,0.0,30.0,0.0,0.0,0.0,0.0,2.0,2.0,-12.0,0.0,0.0,0.0,1.2367316583775198e-05,9.64580298210445e-06,7.046595281984023e-06,6.200484326145527e-06,5.091581345793036e-06,4.208863056123075e-06,3.713262544037985e-06,3.304393700452087e-06,2.840847119691437e-06,2.6283813064457454e-06,2.24871916716774e-06,2.096164170913538e-06,1.804808317741906e-06,1.683243105879011e-06,1.5662499342490101e-06,1.4123154598987342e-06,1.2637160240799523e-06,1.2139762473373566e-06,1.0320883371361525e-06,8.321135563339945e-07,7.08153128232988e-07,5.645738598383979e-07,5.048328878959907e-07,3.798496666636929e-07,3.291370287457962e-07,2.5681107594928805e-07,1.9783438320106475e-07,1.464002675176369e-07,1.1640353327736299e-07,9.064276965506019e-08,6.90612043515331e-08,5.206551858835882e-08,3.592815711074576e-08,3.0765118520987145e-08
0.0,45,45.0,0.0,30.0,0.0,0.0,0.0,0.0,2.0,2.0,-12.0,0.0,0.0,0.0,1.2777513080030878e-05,9.448939029976647e-06,7.147691810454833e-06,6.1873192587109175e-06,4.978788872249009e-06,4.272871524239989e-06,3.7675285289425313e-06,3.451241350868772e-06,3.0546821373924855e-06,2.478618219312589e-06,2.3312998092901122e-06,2.1209458796742276e-06,1.9514315912517255e-06,1.7300321938990297e-06,1.5749954096865589e-06,1.4903019461986235e-06,1.3790669739600214e-06,1.2261901776914206e-06,9.934146001859594e-07,8.432267158066975e-07,6.937354167691229e-07,5.889526198543366e-07,4.910885919013366e-07,3.9978272123723156e-07,3.189316651697091e-07,2.5278301799770746e-07,1.9918597330126376e-07,1.6030483384792832e-07,1.2354268491820487e-07,9.556536902267995e-08,7.470186224137947e-08,5.2862431547204555e-08,3.87172020401345e-08,2.9129223221091826e-08
0.0,46,46.0,0.0,30.0,0.0,0.0,0.0,0.0,2.0,2.0,-12.0,0.0,0.0,0.0,1.2772596644295816e-05,9.942080243117199e-06,7.165011718468647e-06,6.184085163131671e-06,5.190337964992181e-06,4.290665038992432e-06,3.5860679910469124e-06,3.2769709636719e-06,2.9147120479445756e-06,2.6830675311302083e-06,2.3967924811561135e-06,2.1040822893825285e-06,1.945277142501928e-06,1.6895265977024812e-06,1.565562317539967e-06,1.4571399517124796e-06,1.4214002430528523e-06,1.1437020126326009e-06,1.0427302690439544e-06,8.779477361629822e-07,6.713730723786794e-07,5.933777396188893e-07,4.955168021731558e-07,3.9053798090718074e-07,3.1931396903866156e-07,2.477855014575918e-07,1.8719206270792363e-07,1.4434986152977902e-07,1.217354930652025e-07,9.504403076383486e-08,7.098131721610156e-08,5.515738478060096e-08,4.143731060123733e-08,3.0693595958982536e-08
0.0,47,47.0,0.0,30.0,0.0,0.0,0.0,0.0,2.0,2.0,-12.0,0.0,0.0,0.0,1.3226529166524735e-05,1.0328656413866334e-05,7.920418259709584e-06,6.420856520377122e-06,5.006686960125711e-06,4.4442789390882734e-06,3.7850946322649544e-06,3.5089737676973106e-06,2.9412287755296567e-06,2.6878169372798638e-06,2.3606635663251275e-06,2.1520687421668833e-06,1.921378584919001e-06,1.7705743131169826e-06,1.6611510900066557e-06,1.5086286388801e-06,1.2877178419417325e-06,1.1685410348107546e-06,1.0556705239526313e-06,8.610394078123012e-07,7.514038480124323e-07,5.939394190566853e-07,4.761225651979335e-07,4.0240423505431325e-07,3.1522693997761357e-07,2.498854408459919e-07,2.0044426422391819e-07,1.6475232688275644e-07,1.2571003680162423e-07,9.758236017630427e-08,7.033502045624119e-08,5.71197332733794e-08,4.078283117928797e-08,2.8889282103319734e-08
0.0,48,48.0,0.0,30.0,0.0,0.0,0.0,0.0,2.0,2.0,-12.0,0.0,0.0,0.0,1.2830981476828943e-05,1.0259028741194765e-05,7.832614593295187e-06,6.448754139297455e-06,5.121383703403436e-06,4.540717167542244e-06,3.8064642680857725e-06,3.469085552015795e-06,3.0095297724864927e-06,2.482754388795613e-06,2.289671634203486e-06,2.167461676248758e-06,1.9668217636280637e-06,1.7646255675951286e-06,1.5958647902390844e-06,1.49118855055923e-06,1.3324021488838993e-06,1.2216296233237234e-06,1.0811291729719458e-06,8.690000502039584e-07,7.094791034340836e-07,6.069528525769627e-07,5.255179702363038e-07,3.8554055709854377e-07,3.365611897199066e-07,2.6334856696931557e-07,2.1240160058126713e-07,1.6876847860622217e-07,1.2551671598968504e-07,9.768252503342905e-08,7.346751701623421e-08,5.239632841872589e-08,4.06311864874546e-08,3.1064359028798907e-08
0.0,49,49.0,0.0,30.0,0.0,0.0,0.0,0.0,2.0,2.0,-12.0,0.0,0.0,0.0,1.3963801935219825e-05,9.907595277753694e-06,7.627256754865398e-06,6.602342828173166e-06,5.581001029146026e-06,4.620092264316119e-06,3.9977597627376365e-06,3.4607133177488657e-06,2.992434119510263e-06,2.7017078843928002e-06,2.466777674617302e-06,2.127360327983348e-06,2.074987788506007e-06,1.797246028858641e-06,1.5238629841139875e-06,1.5485847853616221e-06,1.3373580580411866e-06,1.196836978974766e-06,1.0377455297587119e-06,8.826700593580166e-07,7.312854308445299e-07,5.795409206697464e-07,4.99011564387346e-07,4.058027132028795e-07,3.09490840875627e-07,2.5452212170004255e-07,2.1333437042641075e-07,1.6425679317435864e-07,1.325534318645018e-07,9.908299154407178e-08,7.642911250876781e-08,5.261302409974616e-08,4.34753552478011e-08,3.017966006251938e-08
0.0,50,50.0,0.0,30.0,0.0,0.0,0.0,0.0,2.0,2.0,-12.0,0.0,0.0,0.0,1.3800358798975633e-05,1.0241265778712978e-05,8.058128177420844e-06,6.727989288592974e-06,5.491328369632681e-06,4.93885630272381e-06,4.049946585414214e-06,3.5206448251897164e-06,3.2697390711354602e-06,2.71280701657352e-06,2.379242867455327e-06,2.3751980796394045e-06,1.9866832820931987e-06,1.8240209315123025e-06,1.752619035112354e-06,1.5256554368502525e-06,1.3575878572077387e-06,1.1857994715596953e-06,1.064479665154132e-06,9.327278066078566e-07,7.32497595827679e-07,5.913708573099766e-07,4.925335375286151e-07,4.050534790065194e-07,3.3141576355330767e-07,2.6072130157381885e-07,2.0211945866341437e-07,1.6554179416941377e-07,1.2552524733579936e-07,9.621242900966631e-08,7.556367542835596e-08,5.718241376409986e-08,4.182179422630976e-08,2.9475927519802238e-08
0.0,51,51.0,0.0,30.0,0.0,0.0,0.0,0.0,2.0,2.0,-12.0,0.0,0.0,0.0,1.3596574947170322e-05,1.0332373725060913e-05,8.161923396744258e-06,6.722533763788209e-06,5.423147506716464e-06,4.737670253822302e-06,3.960757988446793e-06,3.465513192032748e-06,3.212215718977759e-06,2.8319580779995184e-06,2.469503095566201e-06,2.3087600490210044e-06,2.1040524411094833e-06,1.7848694027531775e-06,1.7158716685397149e-06,1.6073248923255441e-06,1.4072336841106946e-06,1.228876354225576e-06,1.0492282641223436e-06,9.304269005964513e-07,7.546725071938609e-07,6.360710768477204e-07,4.930023647863997e-07,4.048547362509796e-07,3.26405062955617e-07,2.683157101836561e-07,2.0960282902347445e-07,1.6147685458591163e-07,1.293579449642018e-07,9.829247481206613e-08,7.67543712306027e-08,5.6038420657405825e-08,4.544630537883247e-08,3.0775096536769484e-08
0.0,52,52.0,0.0,30.0,0.0,0.0,0.0,0.0,2.0,2.0,-12.0,0.0,0.0,0.0,1.4275517570789103e-05,1.119641471036096e-05,8.081169701556028e-06,6.757545599834247e-06,5.855390584110637e-06,4.989025860850291e-06,4.201800252250709e-06,3.494121483787457e-06,2.973701518493528e-06,2.936965195653382e-06,2.4581293154718024e-06,2.1772847843378473e-06,2.181398410900448e-06,1.7538611101606877e-06,1.703005940354472e-06,1.4838231088614974e-06,1.4520169889360631e-06,1.2721751377059607e-06,1.1201441038503742e-06,9.12267482186747e-07,7.498669764596341e-07,6.131529004132681e-07,5.092049516552642e-07,4.241035295616439e-07,3.09403253099402e-07,2.5837407746045677e-07,2.0703760741672584e-07,1.7484034485945521e-07,1.27222753591169e-07,9.975791688932443e-08,7.750484859882525e-08,6.224953796304212e-08,4.1671234863314997e-08,2.998838699151831e-08
0.0,53,53.0,0.0,30.0,0.0,0.0,0.0,0.0,2.0,2.0,-12.0,0.0,0.0,0.0,1.4401486448090991e-05,1.1418587042517045e-05,8.551483306510168e-06,6.867166458053356e-06,5.749600975652205e-06,4.740493135159129e-06,4.0539704664855446e-06,3.730133335025325e-06,3.358452940905763e-06,2.898355608991719e-06,2.5512928806971374e-06,2.2244391435220857e-06,2.051854719573027e-06,1.9832343334419736e-06,1.5712106272771848e-06,1.6562984087343103e-06,1.4418661425645812e-06,1.269380627433298e-06,1.1056985839550463e-06,9.161849860487722e-07,6.992664984711948e-07,6.1760743190033e-07,5.27188651590381e-07,4.327011103902341e-07,3.2495877571350405e-07,2.6551237501330036e-07,2.0365114867934913e-07,1.6805341822415733e-07,1.3516042322151185e-07,9.985761064210948e-08,7.620805464544902e-08,5.576048023752804e-08,4.451346100428355e-08,3.1497528048644695e-08
0.0,54,54.0,0.0,30.0,0.0,0.0,0.0,0.0,2.0,2.0,-12.0,0.0,0.0,0.0,1.4803572452874212e-05,1.0648737185685016e-05,8.249914849452455e-06,6.9238044362182254e-06,5.686189226751868e-06,5.104411090149637e-06,4.043816306530901e-06,3.6153002274975162e-06,3.201925518418528e-06,2.751810378720622e-06,2.6221540518954933e-06,2.14743152469387e-06,2.0639240007110194e-06,1.9291808958017975e-06,1.7976674751814404e-06,1.522918499981841e-06,1.4508690125413203e-06,1.2848477341778751e-06,1.1549751918234813e-06,9.717541400837854e-07,7.421964671751392e-07,6.178677882454684e-07,5.101510592659079e-07,3.883855723597072e-07,3.404888936338337e-07,2.741280116910713e-07,2.2131516027575241e-07,1.6578805351586383e-07,1.4071888229490574e-07,9.700286771314374e-08,7.481100143252389e-08,6.209716762275326e-08,4.302442428523823e-08,3.281982565234051e-08
0.0,55,55.0,0.0,30.0,0.0,0.0,0.0,0.0,2.0,2.0,-12.0,0.0,0.0,0.0,1.5257724488432874e-05,1.11942462463081e-05,8.812656989116179e-06,6.926558743859215e-06,5.8625154074984525e-06,4.5710318758202435e-06,4.358923996928263e-06,3.4398818209135365e-06,3.331239667890893e-06,2.95240093526756e-06,2.730216108852278e-06,2.464898162873678e-06,2.1817968763158998e-06,1.9841401828220557e-06,1.7781015015184126e-06,1.5825139239447648e-06,1.4341513371456523e-06,1.2863782811283128e-06,1.1806321910131593e-06,9.478512232314483e-07,7.60863129256154e-07,6.343955681324004e-07,5.281334932145681e-07,4.214308531122567e-07,3.47671231171737e-07,2.597993279951634e-07,2.1032739523438448e-07,1.6046429028456519e-07,1.3491991191114224e-07,1.0422513258563494e-07,8.059165961930781e-08,5.962976153684982e-08,4.691361840041868e-08,3.202766886381519e-08
0.0,56,56.0,0.0,30.0,0.0,0.0,0.0,0.0,2.0,2.0,-12.0,0.0,0.0,0.0,1.5188614786361114e-05,1.1729377010661164e-05,8.151976664739717e-06,7.517881064212033e-06,6.2266196345847065e-06,5.184627982818108e-06,4.385738092872439e-06,3.895389223364762e-06,3.184188975967017e-06,2.996116543083129e-06,2.75844148731753e-06,2.442608355014616e-06,2.1216922807015088e-06,1.9635507499818608e-06,1.7497521778099245e-06,1.5952959764647035e-06,1.4442258417546402e-06,1.353069081583123e-06,1.1030292804929158e-06,9.139072613745661e-07,8.00117793108687e-07,6.269843796336417e-07,5.144828877781033e-07,4.2967303014827104e-07,3.2932786361862186e-07,2.8214229743548095e-07,2.1667192917919475e-07,1.810017751364139e-07,1.328945187332169e-07,1.0179978736064219e-07,7.482614146424401e-08,6.16191180851192e-08,4.762887582897794e-08,3.277649218962252e-08
0.0,57,57.0,0.0,30.0,0.0,0.0,0.0,0.0,2.0,2.0,-12.0,0.0,0.0,0.0,1.6229605448152625e-05,1.1570884576422788e-05,8.762169950256445e-06,7.389150276933379e-06,6.1106359978547185e-06,5.02347525341669e-06,4.6509676413972735e-06,3.883228697965537e-06,3.418940987010635e-06,3.0097225638843697e-06,2.737803903205302e-06,2.46403175239347e-06,2.1606516117866495e-06,2.045758628003284e-06,1.791031800843391e-06,1.679871428325505e-06,1.5460136265489233e-06,1.4012119719981537e-06,1.1033182949111897e-06,9.407314075121787e-07,7.995315838465107e-07,6.574279076963949e-07,5.203178036553938e-07,4.284476013055091e-07,3.38498104334393e-07,2.624530578821297e-07,2.302624870630196e-07,1.6700840066140867e-07,1.3339434528423984e-07,1.0234198651606486e-07,8.12084198639936e-08,5.774377727885332e-08,4.5159130109827e-08,3.455250610729537e-08
0.0,58,58.0,0.0,30.0,0.0,0.0,0.0,0.0,2.0,2.0,-12.0,0.0,0.0,0.0,1.600561976362796e-05,1.1635558971477045e-05,9.190823787158416e-06,7.628120489491677e-06,6.078582205501428e-06,5.045457895138974e-06,4.424458681798788e-06,3.8458496235030704e-06,3.384860338797666e-06,3.0101860126719123e-06,2.5695312043115174e-06,2.3606201623266917e-06,2.2279307271672234e-06,1.986212906529826e-06,1.724001029644555e-06,1.715031471096112e-06,1.464326072607271e-06,1.3862346711447262e-06,1.1720362929448126e-06,9.339376829666264e-07,7.634274293616216e-07,6.546229138679522e-07,5.679075639920037e-07,4.453693077135706e-07,3.372743245241393e-07,2.8447078100946134e-07,2.0621864942755153e-07,1.7570413628918482e-07,1.357110253242325e-07,1.0684259543785004e-07,8.342534758410862e-08,6.695356767977227e-08,4.138055369331522e-08,3.265359701598654e-08
0.0,59,59.0,0.0,30.0,0.0,0.0,0.0,0.0,2.0,2.0,-12.0,0.0,0.0,0.0,1.686036688643475e-05,1.2265607587590788e-05,9.520705885112498e-06,6.947074799398689e-06,6.536983478286473e-06,5.256697636595612e-06,4.824853375064582e-06,3.950031386371766e-06,3.5360777062060947e-06,3.1733817911612726e-06,2.722878744330706e-06,2.3047124758550304e-06,2.2688939741761125e-06,2.0204794489130235e-06,1.8887080550407428e-06,1.6781130087294409e-06,1.5556540408268858e-06,1.3823205883233313e-06,1.1586902714525847e-06,9.383661118662319e-07,7.685735894852753e-07,6.790757402652032e-07,5.419207463682738e-07,4.2195481510888533e-07,3.6908605471314e-07,2.891271380495096e-07,2.1153869640056634e-07,1.799658706424366e-07,1.3171214721345705e-07,9.981463580643712e-08,7.949277068701431e-08,6.086391799778485e-08,4.475521855735704e-08,3.430109401559142e-08
0.0,60,60.0,0.0,30.0,0.0,0.0,0.0,0.0,2.0,2.0,-12.0,0.0,0.0,0.0,1.6658612496936083e-05,1.1769388103258356e-05,9.410938083909988e-06,7.5092178907573384e-06,6.013987575568679e-06,5.365077458476701e-06,4.473168894124409e-06,4.054418467535149e-06,3.451933312040802e-06,3.0737191993765207e-06,2.7231694535099935e-06,2.4020091568625974e-06,2.2211329608043174e-06,1.9138408572930375e-06,1.88657342558781e-06,1.6198138248381e-06,1.5463166317083978e-06,1.430379736269743e-06,1.1931972917548763e-06,9.836065174211683e-07,7.70171703733865e-07,6.755509159956798e-07,5.479830665307072e-07,4.1302342743404966e-07,3.64768961236328e-07,2.890268361393645e-07,2.3093777445235458e-07,1.7629343223838856e-07,1.439349905598672e-07,1.0731049153993287e-07,7.972478082119714e-08,6.182872195630624e-08,4.675841469282402e-08,3.4099016741411166e-08
0.0,61,61.0,0.0,30.0,0.0,0.0,0.0,0.0,2.0,2.0,-12.0,0.0,0.0,0.0,1.7830801178875833e-05,1.2216119060350532e-05,9.500630495211454e-06,7.753608768464973e-06,6.7415550599752726e-06,5.5756480522006865e-06,4.698296795522655e-06,4.021696284666674e-06,3.5461634099191275e-06,3.108993759212003e-06,2.8919508772723745e-06,2.494814411320424e-06,2.2350898358670764e-06,2.0670658391982493e-06,1.8662639538447642e-06,1.642156917533924e-06,1.5511264183064493e-06,1.4189255760460268e-06,1.1511622517671385e-06,1.0170975017020115e-06,8.210431134095298e-07,7.070275136918517e-07,5.623018872303709e-07,4.3658388681681015e-07,3.5112786035152647e-07,2.8196051732767537e-07,2.1989400857491588e-07,1.8023835869850737e-07,1.3860386717714223e-07,1.0282309574535996e-07,7.894731933562314e-08,6.231801036464244e-08,4.576956548854198e-08,3.759126656784949e-08
0.0,62,62.0,0.0,30.0,0.0,0.0,0.0,0.0,2.0,2.0,-12.0,0.0,0.0,0.0,1.6792256981377073e-05,1.3143934852880826e-05,9.843172964163448e-06,8.169141198795888e-06,6.622316294046293e-06,5.715624110567994e-06,4.559391643608762e-06,3.9259692238040274e-06,3.6676586537642887e-06,3.0985584860643904e-06,2.912766376655993e-06,2.59760542261015e-06,2.3017911113547634e-06,2.1443384993313372e-06,1.868279718638616e-06,1.7929174760588788e-06,1.5565723492263332e-06,1.4640812481607917e-06,1.2184567277469735e-06,9.295060395700318e-07,7.850453763902016e-07,6.840377249952203e-07,5.841668957672993e-07,4.3955293580132307e-07,3.6765129350028097e-07,2.938631350003828e-07,2.3144874994733728e-07,1.7232237648219409e-07,1.445426891390095e-07,1.0053679946324014e-07,8.458155202085061e-08,6.108271627889165e-08,4.711743334824699e-08,3.630455063425184e-08
0.0,63,63.0,0.0,30.0,0.0,0.0,0.0,0.0,2.0,2.0,-12.0,0.0,0.0,0.0,1.829249012941228e-05,1.2860407087954853e-05,1.0051136067732493e-05,8.006082799508546e-06,6.314989748282417e-06,5.5368230313147035e-06,4.93507571930524e-06,4.127013293021651e-06,3.7199279529756468e-06,3.099911091991893e-06,2.925470467702068e-06,2.524060163703991e-06,2.3912161860975326e-06,2.070516301885372e-06,1.962461416538258e-06,1.725586673886801e-06,1.7062528742272998e-06,1.430242405045714e-06,1.320945142812933e-06,1.0489048125698413e-06,7.969490498260494e-07,6.997051317382476e-07,5.356296567144908e-07,4.6031830016621196e-07,3.625676851367531e-07,2.71419002607007e-07,2.3223227643488147e-07,1.7314243516606101e-07,1.3643375665626326e-07,1.0569947704614115e-07,8.282721288035797e-08,6.581501039362731e-08,4.771580683624555e-08,3.647829364963243e-08
0.0,64,64.0,0.0,30.0,0.0,0.0,0.0,0.0,2.0,2.0,-12.0,0.0,0.0,0.0,1.774019206877526e-05,1.3426314355881788e-05,9.98635448831697e-06,8.390928712805069e-06,6.919469434976557e-06,5.576899219124329e-06,4.6151887279319266e-06,4.1285584842661635e-06,3.7689077948197904e-06,3.1527755289203024e-06,2.9167873018591944e-06,2.6632539906310037e-06,2.3148231581739338e-06,2.0936567532334826e-06,1.9413979620526158e-06,1.767774977818644e-06,1.7000467208704315e-06,1.4831412625479096e-06,1.2570485722133045e-06,1.0252585367678763e-06,8.525893249835899e-07,6.784522526686033e-07,5.430791016106435e-07,4.500360705449945e-07,3.604478989683412e-07,2.864785311039282e-07,2.2944988827098077e-07,1.8317111324462656e-07,1.3591676872680071e-07,1.1509704287447109e-07,8.533739099181092e-08,6.578446095106877e-08,4.847616177144799e-08,3.5166288730935446e-08
0.0,65,65.0,0.0,30.0,0.0,0.0,0.0,0.0,2.0,2.0,-12.0,0.0,0.0,0.0,1.878629368060347e-05,1.2642151318100924e-05,1.0939455729208209e-05,7.939448485618538e-06,7.17151184439871e-06,5.844315451833807e-06,4.843112765669228e-06,4.057005638782314e-06,3.753731050779444e-06,3.3331178036181907e-06,2.957841611138775e-06,2.5188887988261586e-06,2.4383073703259093e-06,2.1167626254731514e-06,1.9930339832091616e-06,1.773730176986508e-06,1.6792822778674908e-06,1.5008765939045935e-06,1.2557005740571056e-06,1.0538643986202844e-06,8.631345624738844e-07,6.908801488887045e-07,5.842943585959604e-07,4.5410947395770937e-07,3.727589660822097e-07,3.1545496100050635e-07,2.1858650185474382e-07,1.9060031964662735e-07,1.409453725520665e-07,1.0314929946548226e-07,8.51545404309183e-08,6.248679353545382e-08,5.199426143618225e-08,3.6822341602026725e-08
0.0,66,66.0,0.0,30.0,0.0,0.0,0.0,0.0,2.0,2.0,-12.0,0.0,0.0,0.0,1.9049473744019894e-05,1.3578920273786196e-05,1.0337737611660532e-05,8.395271203015518e-06,6.764035187958032e-06,5.965217344443296e-06,5.343320897781319e-06,4.181384394381339e-06,3.8814882596487975e-06,3.2935411289879064e-06,3.0050385259599707e-06,2.751139855592376e-06,2.513349339430783e-06,2.212017124388322e-06,1.9976347347648044e-06,1.6944560979793597e-06,1.6590443813929882e-06,1.4503971637290727e-06,1.2919320458260286e-06,1.0564081329004022e-06,8.736909509352171e-07,7.062265067240815e-07,5.798566311264923e-07,4.741240554110551e-07,3.5108186954690693e-07,2.9263256051270684e-07,2.3938462338295054e-07,1.8779525926688696e-07,1.4607582703652774e-07,1.1163903348878699e-07,8.39181580045667e-08,6.336385930176114e-08,4.988486260903342e-08,3.744503381899439e-08
0.0,67,67.0,0.0,30.0,0.0,0.0,0.0,0.0,2.0,2.0,-12.0,0.0,0.0,0.0,1.9493312761838226e-05,1.4060913114216616e-05,1.0281611967730634e-05,8.358386582373408e-06,7.362617369828321e-06,5.9390599982561745e-06,5.20357077266319e-06,4.5315667502613984e-06,3.756050268654733e-06,3.3957491824054385e-06,3.134834508412933e-06,2.6993982385764242e-06,2.396647395780554e-06,2.199979675520035e-06,2.1640335416422614e-06,1.8831056869817378e-06,1.7056449856105465e-06,1.4724566468213979e-06,1.3744766705951971e-06,1.0688171553914202e-06,8.405088854331448e-07,7.124546543173528e-07,5.681808743307108e-07,4.793680248105606e-07,3.712933864122053e-07,2.963310992540171e-07,2.3963870905590256e-07,1.8293691125471283e-07,1.5179175803414092e-07,1.1128804245123173e-07,8.367443985047861e-08,6.417109938625723e-08,4.6828355930104246e-08,3.7024378810031275e-08
0.0,68,68.0,0.0,30.0,0.0,0.0,0.0,0.0,2.0,2.0,-12.0,0.0,0.0,0.0,1.927957253134788e-05,1.4065027018767374e-05,1.1045925969039533e-05,8.58446508554695e-06,7.02541764153883e-06,6.01501711863841e-06,5.262629142381517e-06,4.269191070256184e-06,3.819034338547754e-06,3.441612559202377e-06,3.1890752898919898e-06,2.8109834196223684e-06,2.4310966309995634e-06,2.2472242304246645e-06,1.960546113947212e-06,1.9000372343156585e-06,1.6477568895560737e-06,1.4875010810634618e-06,1.3302064540231722e-06,1.0878866453778685e-06,8.836781738887465e-07,7.336122848852456e-07,6.266036719548827e-07,4.988848327029133e-07,3.9851430510234994e-07,3.044253122876809e-07,2.486435833563452e-07,1.8001158256046503e-07,1.4003178889157472e-07,1.0641633371470337e-07,8.873691356517042e-08,6.501261544512523e-08,4.9301357710174324e-08,3.417671406436226e-08
0.0,69,69.0,0.0,30.0,0.0,0.0,0.0,0.0,2.0,2.0,-12.0,0.0,0.0,0.0,1.973915278772013e-05,1.3529212054754968e-05,1.0435007006146254e-05,8.454840534424073e-06,7.218553611570211e-06,6.3686226463435605e-06,5.113909015464216e-06,4.455323203140247e-06,3.79409446653467e-06,3.574733452359859e-06,3.026648215783925e-06,2.8326028617367614e-06,2.4949238448313782e-06,2.3718963079139807e-06,2.1260068060890994e-06,1.9871337344140705e-06,1.6873387796031977e-06,1.5616264843639617e-06,1.3016886639976077e-06,1.0979889191242907e-06,9.185607380829902e-07,7.221175269239087e-07,6.245625016446636e-07,4.66102918739528e-07,4.008028317429202e-07,3.05226799853028e-07,2.3777027042970026e-07,1.918926340639912e-07,1.5757121583765302e-07,1.0866415009469709e-07,8.586779995642464e-08,6.133166201765051e-08,4.611980974104025e-08,3.7590315784863865e-08
0.0,70,70.0,0.0,30.0,0.0,0.0,0.0,0.0,2.0,2.0,-12.0,0.0,0.0,0.0,1.9777250574121884e-05,1.4073587227991882e-05,1.0919716598464822e-05,8.882375237952456e-06,7.105308763773396e-06,6.197879632436651e-06,5.3466114731890605e-06,4.657109964615032e-06,4.09448437935876e-06,3.5183888218329917e-06,3.181824698328131e-06,2.7714433596357555e-06,2.496441410957598e-06,2.272712878949898e-06,2.158279557099695e-06,1.8563625563482862e-06,1.6719618060155977e-06,1.589549526563181e-06,1.2945849002259e-06,1.1730916611218836e-06,8.703157465920577e-07,7.309942092608642e-07,5.686600561190314e-07,4.813337782346204e-07,3.8888929145048373e-07,3.11159900437143e-07,2.4609695944003774e-07,1.8866919749535994e-07,1.527485491134001e-07,1.1335128824519126e-07,8.861152546879238e-08,6.689664155599338e-08,5.0166056045338867e-08,3.6945661172842387e-08
