Line_number,Fiducial,Easting,Northing,Height,Elevation,tx_pitch,tx_roll,tx_yaw,txrx_dx,txrx_dy,txrx_dz,rx_pitch,rx_roll,rx_yaw,S0Z_time_3.834e-04,S0Z_time_3.924e-04,S0Z_time_4.039e-04,S0Z_time_4.184e-04,S0Z_time_4.364e-04,S0Z_time_4.589e-04,S0Z_time_4.869e-04,S0Z_time_5.224e-04,S0Z_time_5.679e-04,S0Z_time_6.249e-04,S0Z_time_6.969e-04,S0Z_time_7.879e-04,S0Z_time_9.019e-04,S0Z_time_1.046e-03,S0Z_time_1.227e-03,S0Z_time_1.456e-03,S0Z_time_1.744e-03,S0Z_time_2.109e-03,S0Z_time_2.567e-03,S0Z_time_3.145e-03,S0Z_time_3.864e-03,S0Z_time_4.745e-03,S0Z_time_5.821e-03,S0Z_time_7.140e-03,S0Z_time_8.754e-03,S0Z_time_1.073e-02,S1Z_time_2.057e-05,S1Z_time_2.607e-05,S1Z_time_3.307e-05,S1Z_time_4.206e-05,S1Z_time_5.356e-05,S1Z_time_6.807e-05,S1Z_time_8.607e-05,S1Z_time_1.086e-04,S1Z_time_1.366e-04,S1Z_time_1.721e-04,S1Z_time_2.176e-04,S1Z_time_2.746e-04,S1Z_time_3.466e-04,S1Z_time_4.376e-04,S1Z_time_5.516e-04,S1Z_time_6.956e-04,S1Z_time_8.771e-04,S1Z_time_1.106e-03,S1Z_time_1.394e-03
0.0,0,0.0,0.0,30.0,0.0,0.0,0.0,0.0,-13.0,0.0,2.0,0.0,0.0,0.0,3.264931889707684e-11,2.8846959710886274e-11,2.5139334461429376e-11,2.1757502525033917e-11,1.8700871286234848e-11,1.6083762057786377e-11,1.3842468607025963e-11,1.1883314328626835e-11,1.0149269959260381e-11,8.620497144344824e-12,7.2684718728618265e-12,6.057036591130337e-12,4.99189267776539e-12,4.054447555463976e-12,3.237484018426728e-12,2.5379974936613696e-12,1.9519017268683247e-12,1.468731710891247e-12,1.0784779192358081e-12,7.727021769815579e-13,5.40820505155986e-13,3.7177589193580956e-13,2.502869018113645e-13,1.65265310030087e-13,1.0685163637580089e-13,6.773388457824269e-14,3.550147768289745e-09,1.6357115215619725e-09,8.202756551810384e-10,4.4724259633263695e-10,2.603234677572696e-10,1.5634358932090394e-10,9.436601425817887e-11,5.637921679489836e-11,3.391082965209792e-11,2.0804547634079466e-11,1.3213832924413609e-11,8.798106950179786e-12,6.021457144488929e-12,4.185698495881669e-12,2.915357278635052e-12,2.0178099916121663e-12,1.3789477480755603e-12,9.317287480310498e-13,6.174956468874451e-13
0.0,1,1.0,0.0,30.0,0.0,0.0,0.0,0.0,-13.0,0.0,2.0,0.0,0.0,0.0,3.663948222406304e-11,3.2291842725803686e-11,2.7935899960097674e-11,2.3829043568009514e-11,2.0033360777381146e-11,1.675032447441162e-11,1.397105171195461e-11,1.1617995286023897e-11,9.643073605493378e-12,8.007907434201032e-12,6.641823404308543e-12,5.4708213615203155e-12,4.473637118825003e-12,3.614718192316215e-12,2.877138576382915e-12,2.2517516300208814e-12,1.7313194853953692e-12,1.3037019559976702e-12,9.589137464166457e-13,6.887108418045245e-13,4.835215399835336e-13,3.336005353565113e-13,2.2547478630018475e-13,1.4950552643103097e-13,9.708922870727743e-14,6.181151789184634e-14,3.5270801612780198e-09,1.622182607206566e-09,8.166970991576559e-10,4.5236656548911206e-10,2.727027279821962e-10,1.7268943356583704e-10,1.1039542167937243e-10,6.900047528633107e-11,4.2148320366185623e-11,2.526068226815621e-11,1.513272808969895e-11,9.376626846108781e-12,6.021041932902303e-12,3.9990476099514055e-12,2.7014662372772498e-12,1.83477331154929e-12,1.2383576378498643e-12,8.29417074240134e-13,5.48463441124489e-13
0.0,2,2.0,0.0,30.0,0.0,0.0,0.0,0.0,-13.0,0.0,2.0,0.0,0.0,0.0,4.066664620006118e-11,3.599452961012287e-11,3.120918925856932e-11,2.656255989721598e-11,2.2142905228481803e-11,1.821732245443106e-11,1.4839232313515718e-11,1.1970766614574522e-11,9.609350933352584e-12,7.735929758067386e-12,6.253842652110535e-12,5.0533619391719845e-12,4.077919433432675e-12,3.2660892882358437e-12,2.5849438487617226e-12,2.0159070467401712e-12,1.547583897774948e-12,1.1648106234883716e-12,8.575000768119153e-13,6.168392090288106e-13,4.34127707710426e-13,3.004289652868743e-13,2.0377128914586257e-13,1.3561024021232583e-13,8.842995185556534e-14,5.6514877563423407e-14,3.5035192675902547e-09,1.6086281954380482e-09,8.11994047389543e-10,4.5333825953095004e-10,2.778937279091143e-10,1.8132291366460656e-10,1.2082785780007973e-10,7.903265411861869e-11,5.010743366126232e-11,3.05399761029629e-11,1.8033982786307065e-11,1.0678584426763397e-11,6.445378307133245e-12,4.031655808990949e-12,2.6009794883141224e-12,1.714214847862008e-12,1.1340812056262849e-12,7.491839808158496e-13,4.939371517156119e-13
0.0,3,3.0,0.0,30.0,0.0,0.0,0.0,0.0,-13.0,0.0,2.0,0.0,0.0,0.0,4.433298490467054e-11,3.948285714777752e-11,3.444398215159041e-11,2.9447863780123354e-11,2.4579456901937842e-11,2.0136653659163904e-11,1.6216542497352115e-11,1.2819021136075338e-11,1.0001448870197895e-11,7.794556094574467e-12,6.103297691047743e-12,4.799421900208206e-12,3.794873969889767e-12,2.9970075693476905e-12,2.3503043521870125e-12,1.8220884203510865e-12,1.3943577561562928e-12,1.0476323713758105e-12,7.712148142321403e-13,5.551466708035751e-13,3.9142642113105553e-13,2.7152316916276363e-13,1.8474295804049698e-13,1.2333240932802288e-13,8.074118579506197e-14,5.1799943834873687e-14,3.4794671809650592e-09,1.5952400261585204e-09,8.075370345944724e-10,4.5362581310810283e-10,2.8052046983745085e-10,1.857945695354386e-10,1.269362609041728e-10,8.591672344277418e-11,5.653652419938445e-11,3.556252595976494e-11,2.1316822643943267e-11,1.2485583791449843e-11,7.2580254810552514e-12,4.2959749823138045e-12,2.623507529165432e-12,1.6562810842667407e-12,1.0631976651269701e-12,6.883620890903501e-13,4.506542061418697e-13
0.0,4,4.0,0.0,30.0,0.0,0.0,0.0,0.0,-13.0,0.0,2.0,0.0,0.0,0.0,4.751304377358788e-11,4.256211661692416e-11,3.737837469905818e-11,3.217248168036835e-11,2.7012662074756345e-11,2.220052160648709e-11,1.7851780024995445e-11,1.3988165590267484e-11,1.0720131297447884e-11,8.139722385867842e-12,6.176294143523974e-12,4.705060189210347e-12,3.6206251944274467e-12,2.801442335772816e-12,2.166355050956372e-12,1.6642100904852842e-12,1.2667924030038447e-12,9.487029191514658e-13,6.976231750612657e-13,5.020580679799257e-13,3.5441129967891523e-13,2.4626832884691584e-13,1.6802169127792262e-13,1.1246243087969829e-13,7.390737063908789e-14,4.760384711188646e-14,3.4549425164002536e-09,1.5820327582862566e-09,8.034809694982255e-10,4.5412442321597216e-10,2.8258109294045556e-10,1.8853544694927534e-10,1.3049835436561691e-10,9.028525841281702e-11,6.118161831771391e-11,3.9732690777804014e-11,2.4460607744977013e-11,1.4496822147523131e-11,8.34003017975889e-12,4.767066929125482e-12,2.7712095399542667e-12,1.6639617764690477e-12,1.0257401524888878e-12,6.457199800477388e-13,4.164373327802437e-13
0.0,5,5.0,0.0,30.0,0.0,0.0,0.0,0.0,-13.0,0.0,2.0,0.0,0.0,0.0,5.021622527019122e-11,4.519792049165936e-11,3.9924904685902814e-11,3.459332394730874e-11,2.9253761275014065e-11,2.419791380294034e-11,1.9540751566745403e-11,1.5307868583517483e-11,1.1645041274763434e-11,8.700651313371842e-12,6.439643000178529e-12,4.75826227206653e-12,3.551044273675077e-12,2.6762306201769297e-12,2.0291409712866527e-12,1.538126237908082e-12,1.1612780612921464e-12,8.65306729171094e-13,6.347750589031344e-13,4.56292050773835e-13,3.222465841821059e-13,2.241512914292449e-13,1.5329397487780842e-13,1.0282234045787817e-13,6.782600562397459e-14,4.384718435303718e-14,3.429959870848616e-09,1.569038138982779e-09,7.998331529138989e-10,4.5498107628378534e-10,2.8472909830529085e-10,1.907686221757524e-10,1.32844974756359e-10,9.303862027364403e-11,6.433032876624568e-11,4.289830382555411e-11,2.7160065059217542e-11,1.6453945108982204e-11,9.543662270539539e-12,5.386742193800999e-12,3.030051262397501e-12,1.7370432540940314e-12,1.0226271714903129e-12,6.209640159149562e-13,3.9042592125285244e-13
0.0,6,6.0,0.0,30.0,0.0,0.0,0.0,0.0,-13.0,0.0,2.0,0.0,0.0,0.0,5.250642376039572e-11,4.743142872070986e-11,4.209215950175528e-11,3.6677342243717407e-11,3.122498381771455e-11,2.601403394412507e-11,2.1148566186035164e-11,1.6644823368061115e-11,1.2664626181923497e-11,9.39838869389415e-12,6.846938398448746e-12,4.937018265186245e-12,3.577623874145435e-12,2.6180504526294573e-12,1.9362409891464045e-12,1.4411955833687927e-12,1.0752599943725203e-12,7.953442024358201e-13,5.81117889174392e-13,4.1680196672514883e-13,2.9424047634493937e-13,2.047429636929872e-13,1.402922509971888e-13,9.42605370998557e-14,6.240441546132163e-14,4.0457128400388825e-14,3.404534004680728e-09,1.5562895547189104e-09,7.966081890556972e-10,4.562020421028352e-10,2.8711968990077565e-10,1.929868257617217e-10,1.3474423455376598e-10,9.491982068820325e-11,6.643525062531732e-11,4.517140453303136e-11,2.930960036269167e-11,1.8192154893447706e-11,1.0739488693317969e-11,6.084385513614857e-12,3.3723758487705413e-12,1.868977954586981e-12,1.053440843129892e-12,6.140454325412783e-13,3.726405757285711e-13
0.0,7,7.0,0.0,30.0,0.0,0.0,0.0,0.0,-13.0,0.0,2.0,0.0,0.0,0.0,5.446235606824247e-11,4.9330975408647385e-11,4.3931349813962196e-11,3.8450040497560225e-11,3.2918622561868597e-11,2.760628787462236e-11,2.2603819012976166e-11,1.791155052595486e-11,1.3692148241102174e-11,1.0161172264469063e-11,7.34839961178859e-12,5.2127527252416926e-12,3.686835339968184e-12,2.6215305092291178e-12,1.885336298941932e-12,1.3716453791439617e-12,1.0070089997444533e-12,7.372440874193844e-13,5.354309991748535e-13,3.8273061165384707e-13,2.698216763633508e-13,1.8768401317740762e-13,1.2878836237617589e-13,8.66470637497237e-14,5.755849240349921e-14,3.7379973309916255e-14,3.3786849851782094e-09,1.5438186431187181e-09,7.938257753573825e-10,4.577865694839621e-10,2.8977148038458103e-10,1.9534782336889073e-10,1.3656511103580314e-10,9.641501528439991e-11,6.791102844208421e-11,4.6770030252577896e-11,3.0936579962129256e-11,1.9637985887150612e-11,1.1837491856632505e-11,6.7953306197216186e-12,3.764772315654294e-12,2.047606992236837e-12,1.1153066033111148e-12,6.244683902137397e-13,3.633801785924734e-13
0.0,8,8.0,0.0,30.0,0.0,0.0,0.0,0.0,-13.0,0.0,2.0,0.0,0.0,0.0,5.616011896285853e-11,5.096830624696163e-11,4.550620132326189e-11,3.9961262751022477e-11,3.436352027110174e-11,2.8977209284483327e-11,2.3881989517254668e-11,1.9061321424447556e-11,1.466955480949963e-11,1.0932494323489797e-11,7.898675644442278e-12,5.555189372347431e-12,3.861787142635262e-12,2.678887749625236e-12,1.8732860566230022e-12,1.3279210001476578e-12,9.553216470100847e-13,6.898674420866129e-13,4.967754675211629e-13,3.533794257623841e-13,2.4851859525394954e-13,1.7267288280366706e-13,1.1858837369599217e-13,7.986947016992647e-14,5.321335087160023e-14,3.457940662990073e-14,3.3524387649439778e-09,1.531658194199526e-09,7.915043509551345e-10,4.597390991214255e-10,2.9268003593361075e-10,1.9788673435527125e-10,1.3845659253783708e-10,9.779571376819056e-11,6.906234222544229e-11,4.791912488724195e-11,3.213566622527181e-11,2.0785525220071226e-11,1.2788746460160375e-11,7.470464052811662e-12,4.175298903468381e-12,2.2578561648953026e-12,1.203041963355769e-12,6.508997929058591e-13,3.627739018064534e-13
0.0,9,9.0,0.0,30.0,0.0,0.0,0.0,0.0,-13.0,0.0,2.0,0.0,0.0,0.0,5.766642991346713e-11,5.2408433933626346e-11,4.6878349809971515e-11,4.126597472419697e-11,3.5602904923191396e-11,3.015280778894532e-11,2.498809872226543e-11,2.0077807042263547e-11,1.556436601976722e-11,1.1673130444303812e-11,8.461086491274658e-12,5.936273259970968e-12,4.0845423122856076e-12,2.7805931580509935e-12,1.895853736216644e-12,1.3082269212546506e-12,9.192156578812354e-13,6.523852346632087e-13,4.644452703798566e-13,3.281871907177668e-13,2.299426744352154e-13,1.59455882492946e-13,1.0952808964014664e-13,7.382945952554357e-14,4.930444256028519e-14,3.202974883488881e-14,3.3258265466923297e-09,1.5198436408469815e-09,7.896610445436051e-10,4.620649982293463e-10,2.958419042867066e-10,2.0060427259528957e-10,1.4046673639154737e-10,9.919382978961856e-11,7.008308849994326e-11,4.8803700085412485e-11,3.302124383177369e-11,2.1669585844592843e-11,1.3577784309828421e-11,8.078530750331665e-12,4.577812402374366e-12,2.484509514145346e-12,1.3100358386644548e-12,6.911535131509742e-13,3.7055685347544346e-13
0.0,10,10.0,0.0,30.0,0.0,0.0,0.0,0.0,-13.0,0.0,2.0,0.0,0.0,0.0,5.90366900354978e-11,5.370618422645886e-11,4.81014114868362e-11,4.241500935434624e-11,3.668180439901281e-11,3.1168086312529277e-11,2.5942830312796612e-11,2.0964430677310684e-11,1.6363750988680055e-11,1.2359587826547158e-11,9.008909251500217e-12,6.332476700856847e-12,4.338081253171462e-12,2.9164030498833826e-12,1.9479068367548114e-12,1.3103284606221072e-12,8.976945036566847e-13,6.241469693891131e-13,4.379123926759336e-13,3.067112951009945e-13,2.137757747256776e-13,1.4781942387458515e-13,1.0146898708525554e-13,6.844047969751815e-14,4.5777827700868193e-14,2.971067085893671e-14,3.298884511391673e-09,1.508413155970937e-09,7.883129168690785e-10,4.6476869551792603e-10,2.992557761165061e-10,2.0349551685447175e-10,1.4260488160335298e-10,1.0066417411958675e-10,7.108285372350167e-11,4.9556335801585614e-11,3.369944372807844e-11,2.2343558360657228e-11,1.421228830102225e-11,8.604290761907927e-12,4.95359505483476e-12,2.7141586785301438e-12,1.4292745289408797e-12,7.424318806081365e-13,3.8602462081370344e-13
0.0,11,11.0,0.0,30.0,0.0,0.0,0.0,0.0,-13.0,0.0,2.0,0.0,0.0,0.0,6.031519276252158e-11,5.4905789576691595e-11,4.921938078486674e-11,4.3451498536205235e-11,3.7640936944993856e-11,3.2058612347836424e-11,2.6773004064626985e-11,2.1735623601468777e-11,1.7068281674577582e-11,1.2980956625562005e-11,9.524805966931124e-12,6.725695816667614e-12,4.607569540197463e-12,3.0763116209456396e-12,2.023832769324963e-12,1.3315666930321842e-12,8.896146960598257e-13,6.045668801005337e-13,4.167686426480483e-13,2.886072115011988e-13,1.9976005803097947e-13,1.3758415402260464e-13,9.429455935625051e-14,6.362620028263123e-14,4.258926026830731e-14,2.7604651693765164e-14,3.2716539815327023e-09,1.49740742676294e-09,7.874776428020068e-10,4.67853912972098e-10,3.029208916919707e-10,2.0655647052863135e-10,1.4486868479456413e-10,1.0222449875666518e-10,7.211658835166594e-11,5.026245564170266e-11,3.425559115695625e-11,2.286407730260963e-11,1.4713432549959034e-11,9.044941299658674e-12,5.291214085794008e-12,2.9362063585710084e-12,1.5541719968759335e-12,8.016622819282717e-13,4.08100867037457e-13
0.0,12,12.0,0.0,30.0,0.0,0.0,0.0,0.0,-13.0,0.0,2.0,0.0,0.0,0.0,6.153628302886614e-11,5.604179255473844e-11,5.026699549176239e-11,4.441020366906504e-11,3.8514419628287984e-11,3.285631298940444e-11,2.750581257342399e-11,2.2410555234790584e-11,1.7686567836824926e-11,1.3535411591517244e-11,9.999314272701228e-12,7.1031881108187125e-12,4.880969678644674e-12,3.251237756715855e-12,2.117975652021837e-12,1.3689956987298943e-12,8.936479667474734e-13,5.930447163991173e-13,4.0067176816133665e-13,2.736056574064186e-13,1.8768863499978465e-13,1.2860038534554832e-13,8.790711876286961e-14,5.931962271518892e-14,3.970249192988557e-14,2.5696043422637083e-14,3.244181776274408e-09,1.4868695345960101e-09,7.871736802676092e-10,4.713243067295885e-10,3.0683642276802263e-10,2.0978441399514592e-10,1.4725381726418953e-10,1.0387721901498971e-10,7.320790327001252e-11,5.0971975599333864e-11,3.475163891825919e-11,2.328207471778285e-11,1.5108224681449075e-11,9.406216775787357e-12,5.5854610622608415e-12,3.1431398565752512e-12,1.6790962402972559e-12,8.658101446293988e-13,4.35461599179285e-13
0.0,13,13.0,0.0,30.0,0.0,0.0,0.0,0.0,-13.0,0.0,2.0,0.0,0.0,0.0,6.272589535059795e-11,5.714045377310809e-11,5.1270898663085876e-11,4.531816751444227e-11,3.9329490604428355e-11,3.3587871060681016e-11,2.8165802084959825e-11,2.300911892080911e-11,1.8231184859148474e-11,1.4027032621123148e-11,1.042901882760289e-11,7.456961050519217e-12,5.149167159379318e-12,3.433424686682446e-12,2.2249916837315222e-12,1.4195609662392126e-12,9.083092652079193e-13,5.889244013556142e-13,3.893025880836154e-13,2.6148941284612994e-13,1.7739605903777896e-13,1.2074415086188602e-13,8.222503581264023e-14,5.546251078604145e-14,3.708740428297941e-14,2.397056330896228e-14,3.216520586913756e-09,1.476844951721025e-09,7.874202448190094e-10,4.751838954286184e-10,3.1100159335235484e-10,2.1317735338659294e-10,1.4975658802362053e-10,1.056196558590117e-10,7.436435590548745e-11,5.171107964737722e-11,3.5228874028787805e-11,2.3638763511193462e-11,1.5424172902924276e-11,9.698885883278579e-12,5.835935834276245e-12,3.3303457235582906e-12,1.7996172705238216e-12,9.321117044675863e-13,4.666744152675481e-13
0.0,14,14.0,0.0,30.0,0.0,0.0,0.0,0.0,-13.0,0.0,2.0,0.0,0.0,0.0,6.390316423958264e-11,5.822127843900227e-11,5.225104006823602e-11,4.619586872455167e-11,4.010716755975677e-11,3.427455824510662e-11,2.87736357130156e-11,2.3549665954247558e-11,1.871587926450795e-11,1.446323418515361e-11,1.081476962990936e-11,7.782908902859215e-12,5.405786072012037e-12,3.6166038041178137e-12,2.340091367443341e-12,1.4802668266716667e-12,9.32018756137478e-13,5.914841709913e-13,3.8233627258536834e-13,2.520723800727058e-13,1.6874866733266063e-13,1.1391341105484672e-13,7.718032949743529e-14,5.2004884580450023e-14,3.471841497731275e-14,2.2414724089743875e-14,3.1887293018726945e-09,1.467381568818067e-09,7.88237253865751e-10,4.794372461985479e-10,3.1541598452713603e-10,2.1673374631656532e-10,1.5237425577635674e-10,1.0744819845410196e-10,7.558628447315832e-11,5.249156581016768e-11,3.57126055816079e-11,2.3964886067385994e-11,1.5686070296888986e-11,9.935956520530822e-12,6.045604434190959e-12,3.4956821718295907e-12,1.9125500615452853e-12,9.982158972615354e-13,5.003250449328602e-13
0.0,15,15.0,0.0,30.0,0.0,0.0,0.0,0.0,-13.0,0.0,2.0,0.0,0.0,0.0,6.508193243978164e-11,5.929846655988468e-11,5.322205443261774e-11,4.705847817302346e-11,4.0863252185610985e-11,3.493276509333202e-11,2.934590063559726e-11,2.404795369176157e-11,1.9153842812954768e-11,1.4852867683061593e-11,1.1160138137393584e-11,8.079891317538925e-12,5.646832353910637e-12,3.795990598823088e-12,2.459175419276555e-12,1.5483082979280007e-12,9.631730704400875e-13,5.999479060893331e-13,3.7942736378005914e-13,2.4518281336014377e-13,1.6163532170478987e-13,1.08024226351814e-13,7.27165089881613e-14,4.890442681786866e-14,3.2573337268922297e-14,2.1015241659886868e-14,3.1608732685863905e-09,1.4585296941329515e-09,7.8964527922529e-10,4.840895249593803e-10,3.2007977047782967e-10,2.204525010342049e-10,1.5510484236975891e-10,1.0935967919656239e-10,7.687137891701073e-11,5.331730130855635e-11,3.6216925718561724e-11,2.428178689093662e-11,1.59144484759194e-11,1.0130663851310892e-11,6.2195078482631e-12,3.638955170357937e-12,2.0158670412678047e-12,1.0622483391467994e-12,5.351157715320133e-13
0.0,16,16.0,0.0,30.0,0.0,0.0,0.0,0.0,-13.0,0.0,2.0,0.0,0.0,0.0,6.62720642441396e-11,6.038218943903422e-11,5.419449528819222e-11,4.791703141174618e-11,4.16093804588999e-11,3.557479705263792e-11,2.9895455829402686e-11,2.4516859306512486e-11,1.955678875435269e-11,1.5204938559725436e-11,1.1470188226579214e-11,8.34886987044701e-12,5.870261982385539e-12,3.96817304762771e-12,2.5788860606061517e-12,1.6211612247403247e-12,1.0002105702526438e-12,6.135076665968866e-13,3.8020588717310336e-13,2.4065154482512414e-13,1.5595921939816218e-13,1.0300694460490229e-13,6.878659417982325e-14,4.612575147660653e-14,3.063266743532797e-14,1.9758628585210906e-14,3.1330244994538335e-09,1.450342003241666e-09,7.916655010749005e-10,4.891464931592655e-10,3.2499384206793403e-10,2.2433307378709247e-10,1.579469720862014e-10,1.1135165923078297e-10,7.821678573626265e-11,5.418824638196687e-11,3.674866996423731e-11,2.4603258675587265e-11,1.612519456883606e-11,1.0295181855748876e-11,6.363705336465705e-12,3.761388407907656e-12,2.1085389178203162e-12,1.122817845988235e-12,5.699302506240783e-13
0.0,17,17.0,0.0,30.0,0.0,0.0,0.0,0.0,-13.0,0.0,2.0,0.0,0.0,0.0,6.748052742347467e-11,6.147965284699765e-11,5.517587575675304e-11,4.8779440207562975e-11,4.235397933585511e-11,3.620970567096471e-11,3.043200645720696e-11,2.4966526929627455e-11,1.993457849498831e-11,1.5527825215891566e-11,1.1750568668572998e-11,8.592164815066454e-12,6.075538647084086e-12,4.130938863097407e-12,2.696597352361448e-12,1.6966343056552938e-12,1.0416634038434692e-12,6.313497639452462e-13,3.842810800308412e-13,2.3830504767192363e-13,1.5163127159443215e-13,9.88025772294844e-14,6.535128442875415e-14,4.363955380208026e-14,2.887917565478032e-14,1.8631113302036517e-14,3.105261829778241e-09,1.4428734394489373e-09,7.943196519068681e-10,4.946144898430524e-10,3.301598483987401e-10,2.2837555724563612e-10,1.6089980698973648e-10,1.1342237906764609e-10,7.961993824443242e-11,5.510274710273908e-11,3.7310341771451046e-11,2.4937503809719595e-11,1.6329875829000826e-11,1.04399291906381e-11,6.484477624573301e-12,3.8651395217076345e-12,2.1903449671051445e-12,1.1789850552341721e-12,6.038663121232693e-13
0.0,18,18.0,0.0,30.0,0.0,0.0,0.0,0.0,-13.0,0.0,2.0,0.0,0.0,0.0,6.871224488339215e-11,6.259594366337647e-11,5.617150765630714e-11,4.965132146324853e-11,4.310307599665755e-11,3.684404395173499e-11,3.096272523510937e-11,2.540472357204637e-11,2.0295192789099815e-11,1.582887354319554e-11,1.2006893945281073e-11,8.812857497421563e-12,6.263221352010329e-12,4.283075011731359e-12,2.810364961712192e-12,1.7728902863313603e-12,1.0861944639676692e-12,6.526794503196429e-13,3.9124944293582073e-13,2.3796254689832724e-13,1.4856526477404177e-13,9.535955825395853e-14,6.237728029173296e-14,4.142169490746103e-14,2.7297662467554273e-14,1.7618883920844605e-14,3.077671032434053e-09,1.4361810721234335e-09,7.976299460750687e-10,5.005004120997938e-10,3.355801941013464e-10,2.325807258009601e-10,1.6396303705865037e-10,1.1557065539525857e-10,8.107880023869237e-11,5.60587263750454e-11,3.7902090071034275e-11,2.5288866553009778e-11,1.653641734505726e-11,1.0573316352163595e-11,6.58777827420812e-12,3.9528901625093735e-12,2.261679617988364e-12,1.2302088142561846e-12,6.362424772428831e-13
0.0,19,19.0,0.0,30.0,0.0,0.0,0.0,0.0,-13.0,0.0,2.0,0.0,0.0,0.0,6.997073939944955e-11,6.373467858444881e-11,5.7185152823618325e-11,5.0536650190141234e-11,4.3860949747033115e-11,3.748250252673642e-11,3.149282835082811e-11,2.5837264179919747e-11,2.064489478087692e-11,1.6114250988300734e-11,1.2244361573832079e-11,9.014339654483027e-12,6.4346049792273935e-12,4.424162683612849e-12,2.9188513094972106e-12,1.8484440343330543e-12,1.1326202801213818e-12,6.76741626101184e-13,4.00704509156295e-13,2.394361198761862e-13,1.466747554240357e-13,9.263103429345839e-14,5.983578254386266e-14,3.945228146707794e-14,2.587477521604723e-14,1.67085469233287e-14,3.0503448920351097e-09,1.430323921516845e-09,8.016189970871447e-10,5.068116968899387e-10,3.41258018092421e-10,2.369500406048696e-10,1.671368832983727e-10,1.1779580131743296e-10,8.259187702014689e-11,5.705423492528411e-11,3.8522948889703346e-11,2.565920388971433e-11,1.674988935918234e-11,1.0701787708297556e-11,6.678899587190427e-12,4.02752085223468e-12,2.3233718840040297e-12,1.2762817976017977e-12,6.665855548043593e-13
0.0,20,20.0,0.0,30.0,0.0,0.0,0.0,0.0,-13.0,0.0,2.0,0.0,0.0,0.0,7.125860514584427e-11,6.489848443384347e-11,5.821951200675937e-11,5.143825701053626e-11,4.463063811595761e-11,3.8128419337068087e-11,3.202606641685396e-11,2.6268426864848595e-11,2.098848061138131e-11,1.638896481803291e-11,1.2467549548613415e-11,9.199996024060794e-12,6.591424278205201e-12,4.554383180300252e-12,3.021238043981962e-12,1.9221442833126354e-12,1.179922108597052e-12,7.028365982401812e-13,4.1224654473501e-13,2.425327316649723e-13,1.4587146386261688e-13,9.057275958470153e-14,5.770119607390961e-14,3.771479252410634e-14,2.4598823942554695e-14,1.588764962785354e-14,3.023383240203362e-09,1.4253627577743453e-09,8.063097282752116e-10,5.135563051535741e-10,3.4719716750460863e-10,2.414856282966121e-10,1.7042209286571455e-10,1.2009757520089465e-10,8.415815541592399e-11,5.808766174549161e-11,3.9171558245405863e-11,2.6048887370164468e-11,1.6973257711501055e-11,1.083003563597904e-11,6.76230904376747e-12,4.091870356899576e-12,2.3765270523542446e-12,1.317263296789717e-12,6.946065236218709e-13
0.0,21,21.0,0.0,30.0,0.0,0.0,0.0,0.0,-13.0,0.0,2.0,0.0,0.0,0.0,7.257784191180634e-11,6.608934287219566e-11,5.927658079098613e-11,5.2358196081271374e-11,4.541431786263679e-11,3.8784173100125514e-11,3.2565120842675487e-11,2.670131946168221e-11,2.132955200395168e-11,1.6656972714025372e-11,1.2680341493045912e-11,9.372999012591267e-12,6.735622872911683e-12,4.674344341640244e-12,3.1171345897859737e-12,1.9931445652480414e-12,1.2272477480885124e-12,7.303309071474124e-13,4.254911224582052e-13,2.470573076949309e-13,1.4606483970727616e-13,8.914159740550279e-14,5.5950058155790726e-14,3.619529038124504e-14,2.3459574982157755e-14,1.5145131786493085e-14,2.9968929521789067e-09,1.4213598803653868e-09,8.117252833464821e-10,5.207427095451293e-10,3.534021729755367e-10,2.4619024660134134e-10,1.73819921159577e-10,1.22476146283054e-10,8.577703602979145e-11,5.915778048380055e-11,3.9846548400619643e-11,2.645748816982287e-11,1.720802417861251e-11,1.0961294175439373e-11,6.841610573763011e-12,4.148572005034905e-12,2.4223950969589366e-12,1.3534144463050875e-12,7.201707246475214e-13
0.0,22,22.0,0.0,30.0,0.0,0.0,0.0,0.0,-13.0,0.0,2.0,0.0,0.0,0.0,7.393008518800147e-11,6.730883071253007e-11,6.035790144289946e-11,5.3298009790899476e-11,4.621358409692275e-11,3.945147804951869e-11,3.311191140714458e-11,2.7138183202889672e-11,2.1670773536698374e-11,1.6921335465190094e-11,1.2885935447113146e-11,9.53619161647344e-12,6.869182980185699e-12,4.784932661089015e-12,3.2064890295323603e-12,2.0608676691623495e-12,1.273906414772893e-12,7.586637415647272e-13,4.4007606682782424e-13,2.528161650466211e-13,1.471624538081562e-13,8.829457306476073e-14,5.4560196921793257e-14,3.488173688400734e-14,2.2448025727479872e-14,1.4471619936170013e-14,2.970987903504549e-09,1.4183788827238458e-09,8.178889427291265e-10,5.283798877200772e-10,3.5987822773581597e-10,2.5106724589544113e-10,1.773321035455706e-10,1.2493206660548046e-10,8.74482763835368e-11,6.026372709232877e-11,4.054672066846718e-11,2.6884217048175684e-11,1.7454732413590086e-11,1.1097649109850449e-11,6.919589023001949e-12,4.199955209443587e-12,2.4622668560876187e-12,1.385139177468595e-12,7.43266810777504e-13
0.0,23,23.0,0.0,30.0,0.0,0.0,0.0,0.0,-13.0,0.0,2.0,0.0,0.0,0.0,7.531676023337658e-11,6.855828289731371e-11,6.146473634253551e-11,5.425891427615861e-11,4.7029649662388356e-11,4.0131599026434056e-11,3.3667827544931496e-11,2.7580633202044245e-11,2.2014096493338394e-11,1.7184379302868078e-11,1.3086901983545166e-11,9.69203564836096e-12,6.994008049064527e-12,4.887192858402503e-12,3.289505603474698e-12,2.1249669879856554e-12,1.3193586613275565e-12,7.87349653721385e-13,4.556666373713178e-13,2.596203408969512e-13,1.490709038112675e-13,8.798838923428892e-14,5.3510111482985096e-14,3.3763423202547555e-14,2.1556175943649784e-14,1.3859533003975893e-14,2.945788884284163e-09,1.4164844058943453e-09,8.248240505699273e-10,5.364773231886588e-10,3.6663117136926587e-10,2.5612053199483003e-10,1.8096082156405582e-10,1.2746624385368248e-10,8.917194650431134e-11,6.140495556955295e-11,4.127111391112424e-11,2.732818848409213e-11,1.7713343939144763e-11,1.1240326243460467e-11,6.9983033727681145e-12,4.2479987402832464e-12,2.4973966939227117e-12,1.4129327546715913e-12,7.639773593174824e-13
0.0,24,24.0,0.0,30.0,0.0,0.0,0.0,0.0,-13.0,0.0,2.0,0.0,0.0,0.0,7.673918249882119e-11,6.983890010696006e-11,6.259818431593743e-11,5.524192618970026e-11,4.786348416755535e-11,4.082550474972207e-11,3.423389771288625e-11,2.8029842376236854e-11,2.2360943246505347e-11,1.7447848843760976e-11,1.3285266729677605e-11,9.84260515136597e-12,7.111848937656068e-12,4.9822342273512325e-12,3.3665715207701178e-12,2.1852873256587867e-12,1.3632029661334357e-12,8.159783084811674e-13,4.719590356634054e-13,2.6728854033762737e-13,1.5169697858677996e-13,8.817930011389898e-14,5.277855318206266e-14,3.283051151064005e-14,2.0776813058480604e-14,1.3303012658883905e-14,2.921423467748221e-09,1.4157418845481747e-09,8.325539562587133e-10,5.450450154359616e-10,3.7366747854764564e-10,2.613545327781936e-10,1.8470866801004126e-10,1.3007991357701087e-10,9.094839375969516e-11,6.258119215050882e-11,4.201901217915957e-11,2.7788566382086016e-11,1.7983502755249786e-11,1.1389938440105888e-11,7.079202511254542e-12,4.294322405264713e-12,2.528948893643473e-12,1.4373387076376755e-12,7.824527697707837e-13
0.0,25,25.0,0.0,30.0,0.0,0.0,0.0,0.0,-13.0,0.0,2.0,0.0,0.0,0.0,7.819862137659132e-11,7.115181796031682e-11,6.37592566655652e-11,5.624794718204944e-11,4.871590867062322e-11,4.153397459363793e-11,3.481091051864742e-11,2.8486678136578352e-11,2.271235306391888e-11,1.7713041029459198e-11,1.3482600419067539e-11,9.989608598331382e-12,7.224264031886307e-12,5.071161433961673e-12,3.4381944909907633e-12,2.241827086369278e-12,1.4051603055142047e-12,8.442119416737965e-13,4.886824302700564e-13,2.7564956450749534e-13,1.5494889210569684e-13,8.882324203982045e-14,5.2344279380942736e-14,3.207368064206815e-14,2.0103325174946956e-14,1.2797719976883749e-14,2.898025829498274e-09,1.4162172887419288e-09,8.411019736162075e-10,5.540935005024838e-10,3.809942528352204e-10,2.667741697114085e-10,1.8857861397624875e-10,1.3277461130709882e-10,9.277821366180229e-11,6.379239511517132e-11,4.2789925691710895e-11,2.8264634577461313e-11,1.8264711791003974e-11,1.154668485288787e-11,7.163245224436662e-12,4.3402050956309654e-12,2.5579642240031647e-12,1.4589142321312603e-12,7.988891262198472e-13
0.0,26,26.0,0.0,30.0,0.0,0.0,0.0,0.0,-13.0,0.0,2.0,0.0,0.0,0.0,7.96963396361354e-11,7.249815036747832e-11,6.494892558565722e-11,5.7277818805741353e-11,4.95876586577909e-11,4.2257671351511284e-11,3.539949947068551e-11,2.8951801486362025e-11,2.306909371980093e-11,1.7980916609447144e-11,1.3680105955537845e-11,1.0134427314867484e-11,7.332604410125817e-12,5.155026484106508e-12,3.5049513722524137e-12,2.294703218060961e-12,1.4450577606959692e-12,8.717811170118027e-13,5.055997330350214e-13,2.845441753330026e-13,1.5873745828616292e-13,8.987612918783351e-14,5.21859471867598e-14,3.148386425492996e-14,1.9529549593766792e-14,1.2340551162741394e-14,2.875736513730016e-09,1.417976865071105e-09,8.504913603488217e-10,5.636338826731787e-10,3.8861922554211216e-10,2.7238483453942927e-10,1.9257397967565127e-10,1.3555214577593678e-10,9.466222450869142e-11,6.503872155327089e-11,4.358356252219504e-11,2.8755822479389262e-11,1.855644372548937e-11,1.1710503699598909e-11,7.251012774963423e-12,4.386619108591946e-12,2.585342827496707e-12,1.4782036225151979e-12,8.135100845523116e-13
0.0,27,27.0,0.0,30.0,0.0,0.0,0.0,0.0,-13.0,0.0,2.0,0.0,0.0,0.0,8.123361723883058e-11,7.387901600801359e-11,6.61681542011629e-11,5.833235729888114e-11,5.047942493828213e-11,4.299718973570587e-11,3.600020103691092e-11,2.942573727166985e-11,2.343174462589065e-11,1.8252189415261646e-11,1.3878696664370646e-11,1.0278161074041764e-11,7.438016373470944e-12,5.234798171700373e-12,3.567447573963333e-12,2.3441198119869778e-12,1.4828119927105167e-12,8.984792835572852e-13,5.225073600543644e-13,2.9382641270964234e-13,1.629771289248001e-13,9.129423913119207e-14,5.228211405538013e-14,3.105206851000524e-14,1.9049658712231414e-14,1.1929323220721505e-14,2.85470214291627e-09,1.4210868813050113e-09,8.607453199613526e-10,5.736778774083458e-10,3.96550759491174e-10,2.7819237104116123e-10,1.9669840989679198e-10,1.3841457437872e-10,9.660144481201259e-11,6.632050029586528e-11,4.4399799518754776e-11,2.9261705916342895e-11,1.885820544176488e-11,1.188118415659878e-11,7.342807662536983e-12,4.434272830218488e-12,2.6118396565993056e-12,1.4957189727402139e-12,8.265524897018899e-13
0.0,28,28.0,0.0,30.0,0.0,0.0,0.0,0.0,-13.0,0.0,2.0,0.0,0.0,0.0,8.28117654506296e-11,7.529555413958235e-11,6.741791474083629e-11,5.941237506119451e-11,5.139187955216117e-11,4.375308798284473e-11,3.661349359507887e-11,2.990892294456461e-11,2.3800757278899756e-11,1.8527395648564907e-11,1.4079063149059386e-11,1.0421674757983153e-11,7.541455088561978e-12,5.311345319225351e-12,3.6262863270780495e-12,2.3903408616321754e-12,1.5184132310649143e-12,9.241565562607113e-13,5.392341917446012e-13,3.033644129498577e-13,1.675868552431651e-13,9.303463051794793e-14,5.2611314381880855e-14,3.076925609737327e-14,1.8658080528897456e-14,1.1562470682234931e-14,2.8350750679066663e-09,1.4256133791339795e-09,8.718870279655786e-10,5.84237865198765e-10,4.047978574430098e-10,2.8420306159057846e-10,2.0095585431673572e-10,1.4136418167982756e-10,9.85970731455042e-11,6.763820975984454e-11,4.523865607962122e-11,2.978199573072432e-11,1.9169571312049386e-11,1.2058444634218021e-11,7.438735921596611e-12,4.483655960497129e-12,2.638069010929205e-12,1.5119271976258363e-12,8.382552632085807e-13
0.0,29,29.0,0.0,30.0,0.0,0.0,0.0,0.0,-13.0,0.0,2.0,0.0,0.0,0.0,8.443213516036603e-11,7.674893389758828e-11,6.86991992944282e-11,6.051869358581526e-11,5.232569177417457e-11,4.452590797492267e-11,3.7239823015980076e-11,3.040174172787536e-11,2.4176498260224412e-11,1.8806946247084868e-11,1.4281728260462861e-11,1.0565642298412305e-11,7.643704515893789e-12,5.385430397846454e-12,3.682046614686673e-12,2.4336673568481945e-12,1.5519102574947587e-12,9.487130722526594e-13,5.556399207853994e-13,3.1304079234093413e-13,1.724907604807908e-13,9.505555162476378e-14,5.315218503617425e-14,3.062628410012049e-14,1.834944806961774e-14,1.1238781417435839e-14,2.817012956233682e-09,1.431621940303262e-09,8.839396838967471e-10,5.953269556551127e-10,4.133701748175053e-10,2.9042361821575675e-10,2.0535055252982612e-10,1.444034613718403e-10,1.0065047037373736e-10,6.899245960905314e-11,4.610027188743901e-11,3.031652151750129e-11,1.9490196601528215e-11,1.2241984824143368e-11,7.53877280457826e-12,4.535083307124944e-12,2.6645151976177155e-12,1.5272423499871256e-12,8.488510586808286e-13
0.0,30,30.0,0.0,30.0,0.0,0.0,0.0,0.0,-13.0,0.0,2.0,0.0,0.0,0.0,8.609612190463904e-11,7.824035979193929e-11,7.00130261063326e-11,6.165215108275616e-11,5.328153775698235e-11,4.5316187746034874e-11,3.787961910499413e-11,3.0904544718451635e-11,2.45592791977361e-11,1.9091165542087233e-11,1.448709091288004e-11,1.0710585824893878e-11,7.745400090662853e-12,5.457710550558557e-12,3.73526840559437e-12,2.474418632397677e-12,1.5833967206160405e-12,9.720922138768666e-13,5.716129507194307e-13,3.22752663548528e-13,1.7761862826084364e-13,9.731681269608433e-14,5.388361748134006e-14,3.061388428730693e-14,1.811857077693566e-14,1.095718658924418e-14,2.8006783176530523e-09,1.4391774721298905e-09,8.969265903284265e-10,6.06959060853112e-10,4.222780362795598e-10,2.968611778404193e-10,2.0988702346060129e-10,1.4753510177645645e-10,1.0276314430981954e-10,7.038397543820667e-11,4.6984888552679233e-11,3.086521456429001e-11,1.9819818961118125e-11,1.2431518185855294e-11,7.642813186493565e-12,4.5887346848262985e-12,2.6915468668980967e-12,1.542022212579473e-12,8.585602083805243e-13
0.0,31,31.0,0.0,30.0,0.0,0.0,0.0,0.0,-13.0,0.0,2.0,0.0,0.0,0.0,8.780516914801293e-11,7.977107510599982e-11,7.136044330607386e-11,6.281360693051869e-11,5.426010621888834e-11,4.6124469074402304e-11,3.853330593517241e-11,3.141766531901031e-11,2.4949377228114736e-11,1.9380319189050105e-11,1.4695460106277417e-11,1.0856909149224794e-11,7.847051718670074e-12,5.528743548331662e-12,3.786443814678438e-12,2.512917701890959e-12,1.6129989899300312e-12,9.942739339829325e-13,5.870679842379586e-13,3.324113502876999e-13,1.829062214329165e-13,9.978010627042773e-14,5.478491896457794e-14,3.072267573386985e-14,1.7960420925173605e-14,1.0716608984971708e-14,2.7862379676144892e-09,1.4483440191601409e-09,9.108712597357351e-10,6.191489767463984e-10,4.3153245573381145e-10,3.035233014068485e-10,2.1457005874785467e-10,1.5076197475199664e-10,1.0493673681944688e-10,7.181358594997946e-11,4.789283468183351e-11,3.1428092002244586e-11,2.0158253381522706e-11,1.2626790446140338e-11,7.750708777859779e-12,4.644689617985288e-12,2.719433104673429e-12,1.5565682028177644e-12,8.675865405294019e-13
0.0,32,32.0,0.0,30.0,0.0,0.0,0.0,0.0,-13.0,0.0,2.0,0.0,0.0,0.0,8.956077074284427e-11,8.134236423531341e-11,7.274253125993903e-11,6.400394432510101e-11,5.5262101765136945e-11,4.695130199756199e-11,3.9201308198729215e-11,3.1941428466456336e-11,2.5347048696337387e-11,1.9674633943484766e-11,1.490708074228535e-11,1.100492549894383e-11,7.94906552598407e-12,5.598996720843975e-12,3.836012888387594e-12,2.549480182715035e-12,1.6408656489819323e-12,1.0152683684175142e-12,6.01943419274601e-13,3.419418603962915e-13,1.882954509318153e-13,1.0240926814375027e-13,5.5835969839041236e-14,3.094320101750681e-14,1.7870129002306376e-14,1.0515866148143869e-14,2.7738624314622796e-09,1.4591846084683855e-09,9.25797549673422e-10,6.31912471319888e-10,4.4114515929896626e-10,3.1041797660503776e-10,2.194047196672114e-10,1.5408712773754265e-10,1.0717301331443176e-10,7.32822122752733e-11,4.8824513796715796e-11,3.200524299102379e-11,2.050538406262589e-11,1.2827588519684283e-11,7.862294484003995e-12,4.702956383431574e-12,2.7483598536805847e-12,1.5711277228597337e-12,8.761147108287495e-13
0.0,33,33.0,0.0,30.0,0.0,0.0,0.0,0.0,-13.0,0.0,2.0,0.0,0.0,0.0,9.136447309649345e-11,8.29555545722684e-11,7.416040425529479e-11,6.522407197596684e-11,5.6288246863189874e-11,4.7797247470948464e-11,3.9884055034665844e-11,3.2476156411329193e-11,2.575253814623929e-11,1.9974311391827107e-11,1.512215280839361e-11,1.1154879883560361e-11,8.051763466851728e-12,5.668857377616086e-12,3.884362847841691e-12,2.584406346661823e-12,1.6671586382402396e-12,1.0351098744184356e-12,6.161986526600823e-13,3.5128217110385036e-13,1.9373441568736055e-13,1.0517047754707519e-13,5.701736808750616e-14,3.126597855617074e-14,1.7842983328370977e-14,1.0353619970749358e-14,2.7637252947010153e-09,1.4717611367557093e-09,9.417298262880957e-10,6.452663780783109e-10,4.511286109007198e-10,3.175536239664758e-10,2.2439633717253844e-10,1.5751377859821573e-10,1.0947385450476686e-10,7.479085919012893e-11,4.978039458379169e-11,3.259681712100804e-11,2.0861155303090264e-11,1.30337431827387e-11,7.977406187530226e-12,4.76349549602044e-12,2.778445661898072e-12,1.5858982020481932e-12,8.843087508215713e-13
0.0,34,34.0,0.0,30.0,0.0,0.0,0.0,0.0,-13.0,0.0,2.0,0.0,0.0,0.0,9.321787733037718e-11,8.461201827311112e-11,7.561521192663525e-11,6.647492535671762e-11,5.7339283106871786e-11,4.8662878958654835e-11,4.0581982308692816e-11,3.3022172268406453e-11,2.616608410436057e-11,2.0279537303846452e-11,1.5340845359363746e-11,1.1306966722914384e-11,8.155400375068768e-12,5.738643648326373e-12,3.931829787504483e-12,2.617975804551251e-12,1.692045988548638e-12,1.053851591785878e-12,6.298113746992964e-13,3.603823739102965e-13,1.9917733414661098e-13,1.0803239897976442e-13,5.831055544816993e-14,3.168156487744016e-14,1.7874430630193782e-14,1.0228362247552673e-14,2.7560025076171476e-09,1.4861343079096332e-09,9.586931556625535e-10,6.592286934418093e-10,4.614960402222999e-10,3.2493910611751006e-10,2.2955051466488752e-10,1.610453129184667e-10,1.118412502234705e-10,7.634060803361908e-11,5.076100304612799e-11,3.3203014903671814e-11,2.122556260690504e-11,1.3245127919745227e-11,8.095891996406821e-12,4.8262380881751445e-12,2.8097561110993604e-12,1.6010322006462962e-12,8.923115852943821e-13
0.0,35,35.0,0.0,30.0,0.0,0.0,0.0,0.0,-13.0,0.0,2.0,0.0,0.0,0.0,9.512264157179361e-11,8.631317408113191e-11,7.710814064533075e-11,6.775746780020389e-11,5.841597215005641e-11,4.954878345124524e-11,4.129553398320015e-11,3.357980216823579e-11,2.6587922730373137e-11,2.0590487882875288e-11,1.5563306520068683e-11,1.1461343460859894e-11,8.26017837206383e-12,5.8086150129728326e-12,3.9787020027947225e-12,2.6504443407329072e-12,1.7156960350150624e-12,1.0715605866340601e-12,6.427749231242079e-13,3.6920372051197867e-13,2.0458438648069768e-13,1.1096627042593444e-13,5.969792216826976e-14,3.218062173331078e-14,1.7960075635894568e-14,1.0138425485788285e-14,2.7508716558951286e-09,1.502363629962713e-09,9.76713521895696e-10,6.738186766535579e-10,4.722614728731084e-10,3.3258374002359514e-10,2.3487313313215534e-10,1.6468528340275018e-10,1.1427729510749065e-10,7.793261115189208e-11,5.176691622124915e-11,3.3824080094325986e-11,2.159864461842922e-11,1.3461655633861384e-11,8.217618688689186e-12,4.891099819986828e-12,2.842316559226441e-12,1.6166430643121154e-12,9.002453104335866e-13
0.0,36,36.0,0.0,30.0,0.0,0.0,0.0,0.0,-13.0,0.0,2.0,0.0,0.0,0.0,9.708048343881208e-11,8.80604892861666e-11,7.864041498383981e-11,6.907269159342358e-11,5.951909652777217e-11,5.0455562210293626e-11,4.202516298262074e-11,3.4149376561170244e-11,2.7018290084098143e-11,2.090733386592643e-11,1.578967051525539e-11,1.1618140885144858e-11,8.366258753502006e-12,5.878982063165884e-12,4.0252242900102784e-12,2.6820424449521424e-12,1.7382729672988184e-12,1.0883136056130369e-12,6.550957511447216e-13,3.777176057600291e-13,2.099214846562098e-13,1.1394594383199235e-13,6.116288937945453e-14,3.275398398343988e-14,1.8095678856922463e-14,1.0082009327360647e-14,2.748511212556405e-09,1.5205074803674796e-09,9.958180701674727e-10,6.890569508968942e-10,4.834397627681582e-10,3.4049731208828536e-10,2.403703583386804e-10,1.6843741107271662e-10,1.1678418590839213e-10,7.956808770064646e-11,5.2798757201101405e-11,3.446029356234676e-11,2.198047613787783e-11,1.3683274355859065e-11,8.34247475791575e-12,4.9579910263115225e-12,2.876123042741023e-12,1.6328107316323796e-12,9.082120555860898e-13
0.0,37,37.0,0.0,30.0,0.0,0.0,0.0,0.0,-13.0,0.0,2.0,0.0,0.0,0.0,9.909318273610567e-11,8.98554818496952e-11,8.021329930224058e-11,7.042161914796286e-11,6.064946048169878e-11,5.138383141313955e-11,4.277133180360634e-11,3.473123103155301e-11,2.7457423521798284e-11,2.1230243167241372e-11,1.602006252512578e-11,1.1777470816693168e-11,8.473771595649486e-12,5.949915240995769e-12,4.071602716827065e-12,2.7129751358867943e-12,1.7599335531619451e-12,1.1041934419871678e-12,6.667910516406318e-13,3.8590451867390083e-13,2.1515998561010887e-13,1.1694788410699183e-13,6.268996948522383e-14,3.3392725066843395e-14,1.8277152534406263e-14,1.0057214690360643e-14,2.749099790495982e-09,1.540623248116839e-09,1.0160353723493923e-09,7.04965604477891e-10,4.950466268452879e-10,3.4869009599765873e-10,2.4604864977981546e-10,1.723055879882245e-10,1.1936422021309162e-10,8.12483206416697e-11,5.385719124405747e-11,3.5111968440965016e-11,2.2371162260750084e-11,1.3909962677193984e-11,8.470371156662968e-12,5.026823800412249e-12,2.911151337879414e-12,1.6495873983816023e-12,9.162952765099487e-13
0.0,38,38.0,0.0,30.0,0.0,0.0,0.0,0.0,-13.0,0.0,2.0,0.0,0.0,0.0,1.0116258435951714e-10,9.169972269962432e-11,8.182809947173738e-11,7.180530427692811e-11,6.180789084682863e-11,5.233422279219714e-11,4.353451301736299e-11,3.532570684744128e-11,2.79055625642508e-11,2.1559382559302937e-11,1.625460198410557e-11,1.1939431746698836e-11,8.582823378873428e-12,6.02155245056128e-12,4.118009496081899e-12,2.7434227254398266e-12,1.7808248652397317e-12,1.1192858938929817e-12,6.778865679210892e-13,3.937529879799014e-13,2.2027636095392213e-13,1.1995113281178852e-13,6.426480587743854e-14,3.4088217670740946e-14,1.85005552414292e-14,1.0062079718713013e-14,2.7528154189647432e-09,1.5627675604176289e-09,1.0373957120345467e-09,7.215682911588853e-10,5.070986823736721e-10,3.5717287322005307e-10,2.5191477115221096e-10,1.7629388126076877e-10,1.2201979637206053e-10,8.297465477372578e-11,5.494292280707895e-11,3.577944632335761e-11,2.2770833573457327e-11,1.414172534342044e-11,8.60124056778598e-12,5.097516660063028e-12,2.9473642827297925e-12,1.667002829896868e-12,9.24561349065175e-13
0.0,39,39.0,0.0,30.0,0.0,0.0,0.0,0.0,-13.0,0.0,2.0,0.0,0.0,0.0,1.032906013994899e-10,9.359483818837346e-11,8.348616473413529e-11,7.322483358581644e-11,6.299523802183799e-11,5.330738431521068e-11,4.43151897464591e-11,3.593315138308001e-11,2.8362949459752302e-11,2.1894918735538788e-11,1.6493404788390026e-11,1.210411290647189e-11,8.693502939195072e-12,6.0940055394530405e-12,4.164587707567129e-12,2.773542229998888e-12,1.8010828435468256e-12,1.133677279262546e-12,6.884146110063837e-13,4.0125854442135054e-13,2.2525183501081505e-13,1.22937242335988e-13,6.587419385635418e-14,3.483218788947927e-14,1.8762085889559436e-14,1.0094613533915568e-14,2.7598348713668477e-09,1.5869966003134354e-09,1.0599313852237293e-09,7.388903290320333e-10,5.196134872173295e-10,3.6595695608234776e-10,2.5797580212656077e-10,1.8040653816883563e-10,1.247534144553463e-10,8.474849564597519e-11,5.6056693353481736e-11,3.646309430977542e-11,2.317964228601544e-11,1.4378589246011356e-11,8.735035810037718e-12,5.169997363646943e-12,2.9847175253447356e-12,1.685069186374522e-12,9.33061350973414e-13
0.0,40,40.0,0.0,30.0,0.0,0.0,0.0,0.0,-13.0,0.0,2.0,0.0,0.0,0.0,1.054792184323478e-10,9.554251270542793e-11,8.518888969044957e-11,7.468132797378696e-11,6.421237702751051e-11,5.430398092508319e-11,4.511385615827939e-11,3.655391849395163e-11,2.882982958328203e-11,2.2237018989128062e-11,1.673658475558279e-11,1.2271597164062377e-11,8.805886045609094e-12,6.167365713146976e-12,4.2114557024801e-12,2.803469190303053e-12,1.8208315356903244e-12,1.1474524608675634e-12,6.984122941588731e-13,4.0842271814444734e-13,2.3007200155870336e-13,1.2589018586649695e-13,6.750608491119446e-14,3.561676175270151e-14,1.905807794123044e-14,1.015282542790351e-14,2.7703330754720886e-09,1.6133665198139423e-09,1.083677012373974e-09,7.569587976967928e-10,5.326095835013974e-10,3.750542133477595e-10,2.642391512470506e-10,1.8464799222353805e-10,1.2756767808180785e-10,8.657130921328107e-11,5.719927981216655e-11,3.7163302745380674e-11,2.3597759166274473e-11,1.462059992025226e-11,8.871727806574195e-12,5.244204355924768e-12,3.0231638960237735e-12,1.7037852853017662e-12,9.418329365481265e-13
0.0,41,41.0,0.0,30.0,0.0,0.0,0.0,0.0,-13.0,0.0,2.0,0.0,0.0,0.0,1.077304949903884e-10,9.754449143707804e-11,8.693771641109784e-11,7.617594423774948e-11,6.5460208648839e-11,5.5324695342778455e-11,4.593101799348315e-11,3.7188368887909607e-11,2.9306451758066105e-11,2.2585851663606308e-11,1.698425458416371e-11,1.2441963059498522e-11,8.920038872520343e-12,6.241707983320413e-12,4.258711094754523e-12,2.833319712611104e-12,1.8401828708075025e-12,1.160693328143102e-12,7.079199874832956e-13,4.15252085778636e-13,2.3472642838297984e-13,1.2879624791786823e-13,6.914957660493628e-14,3.643450349543136e-14,1.93849945396587e-14,1.0234748436846975e-14,2.7844826402871033e-09,1.641933950712952e-09,1.108669857159702e-09,7.758026339427541e-10,5.461065451779959e-10,3.8447709821780345e-10,2.707125698214307e-10,1.8902287006835345e-10,1.304652969915583e-10,8.844462210652559e-11,5.837149358061253e-11,3.7880483518175214e-11,2.4025371142881146e-11,1.4867818574954177e-11,9.011303407039662e-12,5.3200872358000265e-12,3.0626566126156723e-12,1.7231402716198218e-12,9.509022256340366e-13
0.0,42,42.0,0.0,30.0,0.0,0.0,0.0,0.0,-13.0,0.0,2.0,0.0,0.0,0.0,1.1004656920504705e-10,9.96025832693712e-11,8.873413666172047e-11,7.770987677119012e-11,6.673966065305067e-11,5.637022892932801e-11,4.6767193134422626e-11,3.783687051364964e-11,2.979306854974546e-11,2.2941586475736953e-11,1.7236526487700627e-11,1.2615286219767313e-11,9.036020601217223e-12,6.317094769174691e-12,4.306434295333263e-12,2.8631925889944964e-12,1.8592368399358226e-12,1.1734776792255577e-12,7.169799888667475e-13,4.217573784086247e-13,2.3920825759748817e-13,1.3164389967487413e-13,7.07948902622483e-14,3.727844535014041e-14,1.9739425090890224e-14,1.0338457177961184e-14,2.802453536034517e-09,1.6727566123964354e-09,1.1349501471853576e-09,7.954527266224783e-10,5.601250299950235e-10,3.9423867867529686e-10,2.774041667080678e-10,1.9353599912816818e-10,1.3344909025398945e-10,9.037002240636972e-11,5.957417997816e-11,3.861506881075513e-11,2.4462679456244373e-11,1.5120319631405598e-11,9.153763250550833e-12,5.397606557574955e-12,3.1031515230104935e-12,1.7431167009651189e-12,9.602856434853388e-13
0.0,43,43.0,0.0,30.0,0.0,0.0,0.0,0.0,-13.0,0.0,2.0,0.0,0.0,0.0,1.1242966162108216e-10,1.017186638341289e-10,9.057969424102268e-11,7.928435935071953e-11,6.805168907521738e-11,5.744130259996039e-11,4.762291221153883e-11,3.84997989747232e-11,3.028993656037548e-11,2.330439477321622e-11,1.7493512624499026e-11,1.2791640336047905e-11,9.153885347155086e-12,6.393578775120805e-12,4.354691582399638e-12,2.8931713930994355e-12,1.8780819733065068e-12,1.185878446302679e-12,7.256354023188401e-13,4.27952658493097e-13,2.435138086361847e-13,1.3442366291609393e-13,7.243333853294098e-14,3.814210896835813e-14,2.011808361650097e-14,1.0462080447498025e-14,2.8244129645594784e-09,1.705894012642124e-09,1.1625613920947536e-09,8.159420119017267e-10,5.746868363296278e-10,4.0435267007989666e-10,2.843224239516036e-10,1.9819241594949273e-10,1.3652199002311226e-10,9.234916082482884e-11,6.080821806910942e-11,3.9367510219302026e-11,2.490989825250205e-11,1.5378188723212944e-11,9.299119781645922e-12,5.476733206014397e-12,3.1446085743710405e-12,1.7636930660593694e-12,9.699916628337112e-13
0.0,44,44.0,0.0,30.0,0.0,0.0,0.0,0.0,-13.0,0.0,2.0,0.0,0.0,0.0,1.1488207918340227e-10,1.0389467870156097e-10,9.247598742927365e-11,8.090066700486649e-11,6.939727956383082e-11,5.853865778280124e-11,4.8498719242659395e-11,3.9177537970080445e-11,3.079731673530641e-11,2.3674449764365383e-11,1.775532540387894e-11,1.2971097838542253e-11,9.273683574279516e-12,6.471205263498458e-12,4.403537725538126e-12,2.9233264795781913e-12,1.8967960227473597e-12,1.1979632092481094e-12,7.339292108379502e-13,4.3385457094871385e-13,2.4764218982693554e-13,1.3712796585317914e-13,7.405728473193972e-14,3.901951883458929e-14,2.051780897707561e-14,1.0603809420693894e-14,2.8505254565978046e-09,1.7414082338400264e-09,1.1915506951084014e-09,8.373055705621749e-10,5.898149652573708e-10,4.1483346992723096e-10,2.914762132663822e-10,2.0299737519523925e-10,1.396870457678167e-10,9.438375221482467e-11,6.207452078737496e-11,4.0138278169124176e-11,2.536725353172497e-11,1.5641521097502664e-11,9.447395478210178e-12,5.55744752521643e-12,3.1869926783003003e-12,1.7848458126641148e-12,9.800224127250166e-13
0.0,45,45.0,0.0,30.0,0.0,0.0,0.0,0.0,-13.0,0.0,2.0,0.0,0.0,0.0,1.1740621940160948e-10,1.0613264672620692e-10,9.442467154783597e-11,8.25601179611041e-11,7.07774487799297e-11,5.966305741527087e-11,4.939517229921963e-11,3.9870479758510184e-11,3.131547468761512e-11,2.4051926740376648e-11,1.802207772209474e-11,1.315373036723967e-11,9.395463125522917e-12,6.550013830977399e-12,4.453018197385738e-12,2.9537168409512094e-12,1.915446774156105e-12,1.2097939459887695e-12,7.419035281658677e-13,4.3948167110727766e-13,2.5159492351737903e-13,1.3975099383162088e-13,7.566009566619714e-14,3.9905208225722156e-14,2.0935566871553398e-14,1.076190242808671e-14,2.8809532292932414e-09,1.779364793444386e-09,1.2219690550305433e-09,8.595807294599706e-10,6.055336880920966e-10,4.2569619469260665e-10,2.9887481341512946e-10,2.0795635927333046e-10,1.4294742891722648e-10,9.64755773430106e-11,6.337403530589564e-11,4.0927861568974977e-11,2.5834982376760513e-11,1.5910420355815127e-11,9.598621314348008e-12,5.639738331775008e-12,3.230274118162993e-12,1.8065509010919916e-12,9.9037513061021e-13
0.0,46,46.0,0.0,30.0,0.0,0.0,0.0,0.0,-13.0,0.0,2.0,0.0,0.0,0.0,1.2000457470046785e-10,1.0843466355544412e-10,9.64274616311665e-11,8.426407566827079e-11,7.219324584466033e-11,6.081528697253892e-11,5.0312844193686356e-11,4.057902564284762e-11,3.184468104010008e-11,2.443700330019053e-11,1.829388316125644e-11,1.3339609108559232e-11,9.519269970801878e-12,6.6300397845599115e-12,4.503171014881861e-12,2.9843917955520546e-12,1.934092930315804e-12,1.2214269725854833e-12,7.495990120675967e-13,4.448538300858509e-13,2.553755888251433e-13,1.4228853748884708e-13,7.723608946556523e-14,4.079421840185644e-14,2.136845336099354e-14,1.0934687268922712e-14,2.915856831796646e-09,1.8198335641002628e-09,1.2538716572144561e-09,8.828071695635366e-10,6.218686194609365e-10,4.3695671870531156e-10,3.0652792857729206e-10,2.1307508858870996e-10,1.4630643787108962e-10,9.862648487529176e-11,6.47077436046248e-11,4.17367676569639e-11,2.6313332402547424e-11,1.6184997476125204e-11,9.752835457802235e-12,5.723601903211671e-12,3.2744286213874585e-12,1.8287849735505112e-12,1.0010434444923929e-12
0.0,47,47.0,0.0,30.0,0.0,0.0,0.0,0.0,-13.0,0.0,2.0,0.0,0.0,0.0,1.226797369671909e-10,1.1080290531146418e-10,9.84861352131172e-11,8.601395089240087e-11,7.364575383137006e-11,6.199615552379685e-11,5.125232318325946e-11,4.1303586469508773e-11,3.238521178251344e-11,2.482985958173221e-11,1.8570856171226775e-11,1.3528805046481725e-11,9.645148750511932e-12,6.711315199467484e-12,4.5540282556649944e-12,3.015392495182551e-12,1.9527850178689435e-12,1.2329130311457974e-12,7.570544209336989e-13,4.4999171628696544e-13,2.5898948523274257e-13,1.4473784064819477e-13,7.878047974967608e-14,4.168209179847056e-14,2.1813699555159856e-14,1.1120561914223603e-14,2.955396098507584e-09,1.8628897361446216e-09,1.2873181538228153e-09,9.070270431544553e-10,6.388467957927192e-10,4.4863171504378755e-10,3.1444570784344e-10,2.1835953241293867e-10,1.4976750333285528e-10,1.0083839353742531e-10,6.607666320050524e-11,4.256552199961997e-11,2.6802561377269955e-11,1.64653700632886e-11,9.910082187353144e-12,5.809041001961906e-12,3.3194371972315354e-12,1.851526187898341e-12,1.0120184805590559e-12
0.0,48,48.0,0.0,30.0,0.0,0.0,0.0,0.0,-13.0,0.0,2.0,0.0,0.0,0.0,1.2543440230853306e-10,1.1323963245830842e-10,1.0060253522915342e-10,8.781120388457972e-11,7.513609129945164e-11,6.32064968134888e-11,5.221421368591306e-11,4.204458313919529e-11,3.293734864074461e-11,2.5230678499618318e-11,1.8853112245601648e-11,1.372138916107787e-11,9.773143173451894e-12,6.793869727840361e-12,4.605617295075604e-12,3.046753251953449e-12,1.971566283918841e-12,1.2442974890648034e-12,7.643062953971017e-13,4.549163502662665e-13,2.6244331944573406e-13,1.470974499338031e-13,8.028931729165776e-14,4.2564860031959525e-14,2.226867703552739e-14,1.1317994295318443e-14,2.9997314185335987e-09,1.9086148034847096e-09,1.3223729358751652e-09,9.322851027319217e-10,6.564967589227103e-10,4.607386985068163e-10,3.226387660051708e-10,2.2381592036527924e-10,1.5333419392980523e-10,1.0311329442477367e-10,6.748184801117131e-11,4.341466861288666e-11,2.7302936976428042e-11,1.675166178222729e-11,1.0070411007937907e-11,5.896063972009545e-12,3.365285820114314e-12,1.874754775850717e-12,1.0232897986702703e-12
0.0,49,49.0,0.0,30.0,0.0,0.0,0.0,0.0,-13.0,0.0,2.0,0.0,0.0,0.0,1.282713760319551e-10,1.1574719386513298e-10,1.0277857303546104e-10,8.965734661991002e-11,7.666541386821105e-11,6.44471703658903e-11,5.319913700583258e-11,4.280244712516799e-11,3.3501379454504445e-11,2.5639645987603762e-11,1.914076809720592e-11,1.3917432596009143e-11,9.90329631287832e-12,6.8777312148155216e-12,4.657961806835408e-12,3.078502691277435e-12,1.9904735575069647e-12,1.2556206184290265e-12,7.713887471281363e-13,4.596487290499507e-13,2.657449171891729e-13,1.4936706781800575e-13,8.17594301837692e-14,4.3439027538632826e-14,2.2730903566645402e-14,1.1525521699651091e-14,3.049025316567885e-09,1.957097553643669e-09,1.3591054018707313e-09,9.586288438846058e-10,6.748486443861908e-10,4.732960707995087e-10,3.311182058291492e-10,2.2945075449499866e-10,1.5701022209133973e-10,1.0545325344560078e-10,6.892438933106803e-11,4.4284770179828666e-11,2.781473663900229e-11,1.7044001935367325e-11,1.0233875937949206e-11,5.984683928234457e-12,3.4119650206718728e-12,1.8984533792175106e-12,1.0348461634016044e-12
0.0,50,50.0,0.0,30.0,0.0,0.0,0.0,0.0,-13.0,0.0,2.0,0.0,0.0,0.0,1.3119357786538796e-10,1.183280310752398e-10,1.050162315450377e-10,9.155394510713411e-11,7.823491583006667e-11,6.571906261249024e-11,5.4207732066225517e-11,4.357762099610856e-11,3.4077598560285757e-11,2.6056951243299712e-11,1.9433941835057997e-11,1.4117006808578645e-11,1.003565083247379e-11,6.962926167559011e-12,4.7110825667192e-12,3.1106647428111796e-12,2.0095380592160284e-12,1.2669179295111165e-12,7.783333378816092e-13,4.642095151339115e-13,2.68902960939746e-13,1.5154741055459693e-13,8.318836337159772e-14,4.430155164858422e-14,2.3198048661152582e-14,1.1741750128441646e-14,3.103444325358257e-09,2.0084350444261144e-09,1.3975902299721107e-09,9.861086638821423e-10,6.939342739260911e-10,4.863231681689675e-10,3.3989564200479945e-10,2.352708219483542e-10,1.6079945016429728e-10,1.0786041389110698e-10,7.040541690408986e-11,4.51764083447775e-11,2.8338247501619787e-11,1.7342525152657005e-11,1.0400534942767166e-11,6.074918046462746e-12,3.4594694313686898e-12,1.922607212160014e-12,1.046676162208356e-12
0.0,51,51.0,0.0,30.0,0.0,0.0,0.0,0.0,-13.0,0.0,2.0,0.0,0.0,0.0,1.342040474291678e-10,1.2098468278751873e-10,1.073175684800566e-10,9.35026217690263e-11,7.984583180344251e-11,6.702308804246628e-11,5.5240656148321257e-11,4.437055894120572e-11,3.46663071767784e-11,2.6482786972635652e-11,1.973275314276281e-11,1.4320183710393253e-11,1.0170249164858817e-11,7.049480113349326e-12,4.764998094096311e-12,3.1432594839336885e-12,2.028786148545513e-12,1.2782205369963899e-12,7.851690330873538e-13,4.686187848182313e-13,2.719267539850793e-13,1.536400722066471e-13,8.457431829954547e-14,4.514981985620434e-14,2.3667938604716196e-14,1.1965353824129135e-14,3.1631611144903932e-09,2.062733553460836e-09,1.4379076625300419e-09,1.0147780370294907e-09,7.137872518126447e-10,4.998403118210253e-10,3.489832269341786e-10,2.4128320819783447e-10,1.6470589675374587e-10,1.1033699913251582e-10,7.192610008076115e-11,4.60901840677636e-11,2.8873766392173523e-11,1.7647371168617546e-11,1.0570449489938945e-11,6.1667869540023866e-12,3.507797320748153e-12,1.94720409130017e-12,1.0587686848678885e-12
0.0,52,52.0,0.0,30.0,0.0,0.0,0.0,0.0,-13.0,0.0,2.0,0.0,0.0,0.0,1.3730594997144398e-10,1.2371978955281836e-10,1.0968471973933507e-10,9.550505789438805e-11,8.14994384267785e-11,6.83601903771138e-11,5.6298585636167903e-11,4.5181727295690794e-11,3.526781379033781e-11,2.6917349631862697e-11,2.003732345725698e-11,1.4527035802993691e-11,1.0307133658385029e-11,7.137417874843736e-12,4.819725161580605e-12,3.1763038516177426e-12,2.048240003678096e-12,1.2895555418273922e-12,7.919222156919028e-13,4.728958301949166e-13,2.748260106729867e-13,1.5564739574602568e-13,8.591609330068098e-14,4.5981624994599055e-14,2.4138560607267702e-14,1.2195075057304837e-14,3.2283568260926763e-09,2.120109492860776e-09,1.4801438127805586e-09,1.0446937070073224e-09,7.344430647946865e-10,5.138688615300819e-10,3.5839367848872426e-10,2.4749531080859704e-10,1.6873374328925528e-10,1.1288531545064397e-10,7.348764905044552e-11,4.7026718026531873e-11,2.942159986894136e-11,1.795868466618303e-11,1.0743684203754509e-11,6.260314215189417e-12,3.556950140074104e-12,1.9722343692599575e-12,1.0711132798970497e-12
0.0,53,53.0,0.0,30.0,0.0,0.0,0.0,0.0,-13.0,0.0,2.0,0.0,0.0,0.0,1.4050258237488853e-10,1.265360986825632e-10,1.1211990287997821e-10,9.756299616334413e-11,8.319705609609335e-11,6.973134376933947e-11,5.7382216767642575e-11,4.601160506562798e-11,3.588243453846374e-11,2.7360839665436297e-11,2.034777614640311e-11,1.4737636310400305e-11,1.0446346702845937e-11,7.2267637840965754e-12,4.875279198506495e-12,3.209812238734385e-12,2.067918232015101e-12,1.300946415292117e-12,7.986167474788727e-13,4.770590089740578e-13,2.776106722628775e-13,1.5757235198342065e-13,8.72130252668839e-14,4.679513895735756e-14,2.4608065818390506e-14,1.2429724174630903e-14,3.2992235575140462e-09,2.180690289105042e-09,1.5243910035291378e-09,1.0759158956303385e-09,7.559391858822294e-10,5.28431272898367e-10,3.681403097935333e-10,2.5391485372073393e-10,1.7288734082979975e-10,1.1550775500622593e-10,7.509131614035082e-11,4.798665105639447e-11,2.998206429500332e-11,1.8276615171549635e-11,1.0920306599759688e-11,6.355525903407601e-12,3.6069320979482773e-12,1.9976908011691832e-12,1.0837004043384609e-12
0.0,54,54.0,0.0,30.0,0.0,0.0,0.0,0.0,-13.0,0.0,2.0,0.0,0.0,0.0,1.4379737943817034e-10,1.2943646936093066e-10,1.1462542071343574e-10,9.967824324852759e-11,8.494005074940193e-11,7.113755402925984e-11,5.849226639302132e-11,4.6860684451383466e-11,3.651049358947411e-11,2.7813461738755212e-11,2.0664236683855217e-11,1.495205930901565e-11,1.058793084104379e-11,7.317541851595072e-12,4.931674609750161e-12,3.243796990273131e-12,2.087836412599553e-12,1.312413375205372e-12,8.052740666461852e-13,4.811256363731641e-13,2.8029074742030477e-13,1.594184268835152e-13,8.846493304781719e-14,4.758888554089345e-14,2.5074771020481764e-14,1.2668179851042842e-14,3.3759669265343106e-09,2.244615237268632e-09,1.5707481463193184e-09,1.108508526877892e-09,7.783151826779616e-10,5.43551158708692e-10,3.782370610235556e-10,2.605499020387869e-10,1.771712171338372e-10,1.1820679895958578e-10,7.673839717354348e-11,4.897064462079263e-11,3.0555485940793476e-11,1.8601316987894874e-11,1.1100386882623489e-11,6.452450249559214e-12,3.657749772203092e-12,2.0235683680748975e-12,1.0965215833741036e-12
