Line_number,Fiducial,Easting,Northing,Height,Elevation,tx_pitch,tx_roll,tx_yaw,txrx_dx,txrx_dy,txrx_dz,rx_pitch,rx_roll,rx_yaw,S0Z_time_3.834e-04,S0Z_time_3.924e-04,S0Z_time_4.039e-04,S0Z_time_4.184e-04,S0Z_time_4.364e-04,S0Z_time_4.589e-04,S0Z_time_4.869e-04,S0Z_time_5.224e-04,S0Z_time_5.679e-04,S0Z_time_6.249e-04,S0Z_time_6.969e-04,S0Z_time_7.879e-04,S0Z_time_9.019e-04,S0Z_time_1.046e-03,S0Z_time_1.227e-03,S0Z_time_1.456e-03,S0Z_time_1.744e-03,S0Z_time_2.109e-03,S0Z_time_2.567e-03,S0Z_time_3.145e-03,S0Z_time_3.864e-03,S0Z_time_4.745e-03,S0Z_time_5.821e-03,S0Z_time_7.140e-03,S0Z_time_8.754e-03,S0Z_time_1.073e-02,S1Z_time_2.057e-05,S1Z_time_2.607e-05,S1Z_time_3.307e-05,S1Z_time_4.206e-05,S1Z_time_5.356e-05,S1Z_time_6.807e-05,S1Z_time_8.607e-05,S1Z_time_1.086e-04,S1Z_time_1.366e-04,S1Z_time_1.721e-04,S1Z_time_2.176e-04,S1Z_time_2.746e-04,S1Z_time_3.466e-04,S1Z_time_4.376e-04,S1Z_time_5.516e-04,S1Z_time_6.956e-04,S1Z_time_8.771e-04,S1Z_time_1.106e-03,S1Z_time_1.394e-03
0.0,0,0.0,0.0,30.0,0.0,0.0,0.0,0.0,-13.0,0.0,2.0,0.0,0.0,0.0,6.600852721878642e-10,6.17107998405559e-10,5.703948813212632e-10,5.202742590782035e-10,4.675051027087142e-10,4.1440741131510484e-10,3.619641645691457e-10,3.0963397447420494e-10,2.5891417758229267e-10,2.1239538545888786e-10,1.7054447014208018e-10,1.340088970343154e-10,1.0350870510090152e-10,7.848037417750456e-11,5.83349306911268e-11,4.2383087018155715e-11,2.9985728907256537e-11,2.0497025049838112e-11,1.345414185556675e-11,8.451377330343196e-12,5.094948701999483e-12,2.9695326803219412e-12,1.6740971306839349e-12,9.10047294250969e-13,4.822396046422687e-13,2.4592975526137937e-13,5.4452138001086845e-09,4.246565606683303e-09,3.3195382955841883e-09,2.599164289845939e-09,2.0236737446626885e-09,1.5676837485436363e-09,1.2092691521893542e-09,9.238949453743958e-10,6.973227809881268e-10,5.168531300704809e-10,3.73526699429303e-10,2.647333905366296e-10,1.829251291274548e-10,1.2290405379942283e-10,8.067554490052488e-11,5.172304612787081e-11,3.2624217991904976e-11,2.036465202433184e-11,1.2518497244898767e-11
0.0,1,1.0,0.0,30.0,0.0,0.0,0.0,0.0,-13.0,0.0,2.0,0.0,0.0,0.0,6.601228251563522e-10,6.171464418317497e-10,5.70434632893336e-10,5.203160167243082e-10,4.675499844085073e-10,4.144570766235651e-10,3.6202117626892874e-10,3.097028697369542e-10,2.5900248257962945e-10,2.1251362617083217e-10,1.7070495008439524e-10,1.3421876835667768e-10,1.0376010244381306e-10,7.874723509565311e-11,5.857956711631765e-11,4.2571904232167434e-11,3.010418375788591e-11,2.055146461420997e-11,1.3464061133460149e-11,8.437868527356121e-12,5.073963377755921e-12,2.9496336916789386e-12,1.6582971518008605e-12,8.989964098961712e-13,4.750857849680395e-13,2.4194482278342777e-13,5.445100422083919e-09,4.246450741524585e-09,3.3194215526265187e-09,2.599045066105327e-09,2.023551354854723e-09,1.5675576176577499e-09,1.2091381782211657e-09,9.237574871584744e-10,6.971779906947026e-10,5.167002731826973e-10,3.733624793368651e-10,2.645558948386907e-10,1.8274701566655713e-10,1.2276017213870306e-10,8.060543660447997e-11,5.174114836002113e-11,3.270579599727517e-11,2.0463948992271853e-11,1.2599172472076162e-11
0.0,2,2.0,0.0,30.0,0.0,0.0,0.0,0.0,-13.0,0.0,2.0,0.0,0.0,0.0,6.601621308528915e-10,6.171868271515228e-10,5.70476589574748e-10,5.20360355708124e-10,4.675979845072134e-10,4.1451060747803765e-10,3.6208309691261165e-10,3.097782009676511e-10,2.5909940246214066e-10,2.1264318650688412e-10,1.7087935349893722e-10,1.344437513634648e-10,1.0402507858696628e-10,7.902326826055212e-11,5.882753254943887e-11,4.275899983879462e-11,3.0218221934259105e-11,2.0601152166681254e-11,1.3470280304258747e-11,8.42202560522882e-12,5.05171386131356e-12,2.9291337140769186e-12,1.6422506403374342e-12,8.878934961709742e-13,4.679277075104115e-13,2.3798579174950577e-13,5.444979885503063e-09,4.24632865599413e-09,3.319297505928743e-09,2.59891842729132e-09,2.023421442832965e-09,1.5674238374478106e-09,1.208999331759546e-09,9.236119376793283e-10,6.970250428771296e-10,5.165391103736897e-10,3.731895378978202e-10,2.6437018978268136e-10,1.8256434529202798e-10,1.226188096291209e-10,8.054496958430589e-11,5.177189171660503e-11,3.279776252033845e-11,2.056878490547786e-11,1.2681522720038598e-11
0.0,3,3.0,0.0,30.0,0.0,0.0,0.0,0.0,-13.0,0.0,2.0,0.0,0.0,0.0,6.602035809528688e-10,6.172295809287817e-10,5.705212243683014e-10,5.20407811808325e-10,4.676497230367139e-10,4.145687345444615e-10,3.6215080379853345e-10,3.0986104582617404e-10,2.5920626768030485e-10,2.12785647603501e-10,1.7106940676166945e-10,1.3468549718706683e-10,1.0430496372517595e-10,7.930934205678854e-11,5.907925753908786e-11,4.294450058180775e-11,3.03278059929102e-11,2.0645972167299976e-11,1.3472650598867724e-11,8.4036993848001e-12,5.028073877385018e-12,2.9079411617786384e-12,1.6258984450079005e-12,8.767035364922267e-13,4.607470701418257e-13,2.340421028998275e-13,5.444851263253929e-09,4.2461984184278064e-09,3.3191652164600256e-09,2.5987834269178297e-09,2.023283056778386e-09,1.5672814417896919e-09,1.2088516252091612e-09,9.23457306177544e-10,6.968629497040752e-10,5.163686114250933e-10,3.730068241947828e-10,2.6417547573573126e-10,1.8237697952692826e-10,1.2248062106280298e-10,8.049524513865088e-11,5.181630245332276e-11,3.290077730674876e-11,2.0679482752958118e-11,1.2765702943445574e-11
0.0,4,4.0,0.0,30.0,0.0,0.0,0.0,0.0,-13.0,0.0,2.0,0.0,0.0,0.0,6.60247592392324e-10,6.172751596109238e-10,5.705690458518976e-10,5.204589632999831e-10,4.677058706706354e-10,4.146322483268641e-10,3.6222524407853725e-10,3.09952560903923e-10,2.5932448812081717e-10,2.1294264780220852e-10,1.7127683528864702e-10,1.3494556597567838e-10,1.046009064861618e-10,7.960609232578957e-11,5.933495086294877e-11,4.312837244416203e-11,3.043281437701422e-11,2.0685787474261978e-11,1.3471037085484e-11,8.382766696759302e-12,5.002941412188657e-12,2.885982294866748e-12,1.6091931163459875e-12,8.653981477629645e-13,4.5352929314522837e-13,2.301044376684877e-13,5.444713650460321e-09,4.246059120735443e-09,3.3190237703118893e-09,2.5986391463792325e-09,2.0231352760390913e-09,1.5671294978251898e-09,1.2086941089028043e-09,9.232926496769496e-10,6.966907774602451e-10,5.161878011411716e-10,3.728133684400487e-10,2.639711144716146e-10,1.8218503709390094e-10,1.2234653752469145e-10,8.045754309555618e-11,5.187543251509697e-11,3.301541529689363e-11,2.0796253676785814e-11,1.2851784593844126e-11
0.0,5,5.0,0.0,30.0,0.0,0.0,0.0,0.0,-13.0,0.0,2.0,0.0,0.0,0.0,6.602946223745377e-10,6.173240650813138e-10,5.70620614390322e-10,5.2051444797553e-10,4.677671667717761e-10,4.147020185469448e-10,3.6230745582211956e-10,3.100540046630114e-10,2.5945557754887743e-10,2.1311590793178229e-10,1.7150338999815056e-10,1.352254565668149e-10,1.0491390864683276e-10,7.991396037144939e-11,5.95946344735461e-11,4.331044508493166e-11,3.05330518641963e-11,2.0720437992643257e-11,1.3465311145379995e-11,8.35912199952888e-12,4.976232302999001e-12,2.863197139816134e-12,1.5920965111995843e-12,8.539543617715805e-13,4.4626287886759327e-13,2.261645465898911e-13,5.444566145369268e-09,4.245909859026532e-09,3.3188722590559022e-09,2.5984846750412426e-09,2.0229771905823977e-09,1.566967084639058e-09,1.2085258495651585e-09,9.23117050766122e-10,6.965076219087119e-10,5.159957335194335e-10,3.726082611821139e-10,2.6375661710304415e-10,1.8198888578177145e-10,1.222177565795189e-10,8.043331418749245e-11,5.19503633052107e-11,3.314218357638181e-11,2.0919218488252266e-11,1.2939771427636796e-11
0.0,6,6.0,0.0,30.0,0.0,0.0,0.0,0.0,-13.0,0.0,2.0,0.0,0.0,0.0,6.60345183091591e-10,6.173768599085423e-10,5.706765579981179e-10,5.205749797247309e-10,4.678344368345437e-10,4.147790126422459e-10,3.6239858771344483e-10,3.101667580836236e-10,2.596011740794703e-10,2.1330725004161438e-10,1.7175086397487486e-10,1.355266233151271e-10,1.0524484545554006e-10,8.023321748072509e-11,5.985816834904491e-11,4.34904309315805e-11,3.062825906153673e-11,2.0749741195128496e-11,1.3455345799603522e-11,8.33267154058481e-12,4.947875570385872e-12,2.8395364273931823e-12,1.5745779483990812e-12,8.423536586865167e-13,4.3893889801151755e-13,2.222151111071801e-13,5.444407835775857e-09,4.2457497198525945e-09,3.318709765836281e-09,2.5983190962112037e-09,2.022807886456566e-09,1.5667932781658852e-09,1.2083459153739479e-09,9.229296022351239e-10,6.963125906587085e-10,5.157914737683854e-10,3.7239064241029987e-10,2.6353164372752894e-10,1.8178914512800487e-10,1.220957386485813e-10,8.042417193836823e-11,5.204220326406931e-11,3.328152980514701e-11,2.1048421889183422e-11,1.3029610906898784e-11
0.0,7,7.0,0.0,30.0,0.0,0.0,0.0,0.0,-13.0,0.0,2.0,0.0,0.0,0.0,6.603998563484698e-10,6.174341825018646e-10,5.707375880945625e-10,5.206413649641002e-10,4.679086096914806e-10,4.1486431387000143e-10,3.6249991803639926e-10,3.102923439250969e-10,2.5976305798940954e-10,2.1351861156647503e-10,1.7202110231019084e-10,1.3585048417381158e-10,1.0559447639163242e-10,8.056398056351599e-11,6.012526848589783e-11,4.366794015908596e-11,3.0718120510905177e-11,2.0773493382020273e-11,1.3441012864859758e-11,8.303329362577623e-12,4.917810040041908e-12,2.814959275924526e-12,1.5566127799479842e-12,8.305811943659957e-13,4.315505820915421e-13,2.1824962190020585e-13,5.444237789180593e-09,4.245577770234915e-09,3.318535355336968e-09,2.5981414770780588e-09,2.0226264352895165e-09,1.5666071403138134e-09,1.2081533655337207e-09,9.22729396317465e-10,6.961047901821455e-10,5.155740859315184e-10,3.721596984050722e-10,2.6329601236051923e-10,1.8158669730379481e-10,1.2198220782786515e-10,8.043188432531063e-11,5.2152081519455106e-11,3.343384511452895e-11,2.1183841737628016e-11,1.3121202403726413e-11
0.0,8,8.0,0.0,30.0,0.0,0.0,0.0,0.0,-13.0,0.0,2.0,0.0,0.0,0.0,6.60459308901906e-10,6.174967629746986e-10,5.708045159416364e-10,5.20714519698064e-10,4.679907352648227e-10,4.149591398055734e-10,3.6261287375055856e-10,3.1043244542827485e-10,2.599431677781395e-10,2.1375205605961386e-10,1.7231600669387184e-10,1.3619842212702895e-10,1.0596344874132427e-10,8.090622108798765e-11,6.039551961127192e-11,4.384249244059088e-11,3.080227166242054e-11,2.0791471378148586e-11,1.3422181294097245e-11,8.271014540958901e-12,4.8859818884168025e-12,2.789431448485331e-12,1.538181285977249e-12,8.186251860697049e-13,4.2409299190635464e-13,2.1426228483609742e-13,5.444055045534119e-09,4.245393050315376e-09,3.318348066442598e-09,2.5979508614045153e-09,2.0224318865623275e-09,1.5664077110254032e-09,1.2079472430321656e-09,9.225155170704097e-10,6.958833159551789e-10,5.153426247766777e-10,3.7191466514427975e-10,2.630497157008113e-10,1.813827043811453e-10,1.2187915568304473e-10,8.045836503311332e-11,5.2281138861199976e-11,3.3599463378582116e-11,2.1325394959410115e-11,1.3214403096906371e-11
0.0,9,9.0,0.0,30.0,0.0,0.0,0.0,0.0,-13.0,0.0,2.0,0.0,0.0,0.0,6.605243088654211e-10,6.175654400629135e-10,5.708782701071713e-10,5.207954875525163e-10,4.680820032085677e-10,4.1506486159099635e-10,3.6273905002142934e-10,3.1058892482821147e-10,2.6014361489082293e-10,2.1400978108377834e-10,1.7263753573294627e-10,1.3657178147721527e-10,1.0635229590716739e-10,8.125976925346059e-11,6.066838411461723e-11,4.4013526248849356e-11,3.088030482199474e-11,2.080343436015463e-11,1.3398716273689298e-11,8.2356492858766e-12,4.852342866905361e-12,2.762924043810966e-12,1.5192678193393411e-12,8.064764240959229e-13,4.1656274576301345e-13,2.102479517885511e-13,5.443858611828133e-09,4.245194567878288e-09,3.318146906830133e-09,2.5977462641793883e-09,2.022223261834847e-09,1.5661940024525611e-09,1.2077265697144971e-09,9.222870349078138e-10,6.956472447333923e-10,5.150961312126126e-10,3.716548377151183e-10,2.6279294489191827e-10,1.8117863067321902e-10,1.2178884679912652e-10,8.050566393882151e-11,5.24305167313338e-11,3.377865809221346e-11,2.147294120473394e-11,1.3309032208501904e-11
0.0,10,10.0,0.0,30.0,0.0,0.0,0.0,0.0,-13.0,0.0,2.0,0.0,0.0,0.0,6.605957434832157e-10,6.176411793916898e-10,5.709599152369885e-10,5.208854590555894e-10,4.681837627092773e-10,4.151830241929143e-10,3.628802304406816e-10,3.1076384186958283e-10,2.60366697271979e-10,2.1429412351734605e-10,1.7298770153420218e-10,1.3697185994188206e-10,1.0676143175574712e-10,8.162431477364912e-11,6.094320829552789e-11,4.418040631845107e-11,3.0951774210138756e-11,2.0809125644897153e-11,1.3370478799191715e-11,8.197157654315344e-12,4.816849027546755e-12,2.7354125165518624e-12,1.499860143495819e-12,7.941278837615363e-13,4.0895779498195733e-13,2.0620207379583953e-13,5.443647458044877e-09,4.244981294249321e-09,3.3179308489904122e-09,2.597526667703622e-09,2.0219995503767767e-09,1.5659649947126146e-09,1.207490343102663e-09,9.220430025995546e-10,6.953956283234615e-10,5.148336309222112e-10,3.713795856257417e-10,2.6252611983774936e-10,1.8097626915547996e-10,1.2171382504043038e-10,8.057595640526543e-11,5.260134461079792e-11,3.3971637669422195e-11,2.1626285008486064e-11,1.3404874051232001e-11
0.0,11,11.0,0.0,30.0,0.0,0.0,0.0,0.0,-13.0,0.0,2.0,0.0,0.0,0.0,6.60674638540923e-10,6.177250933467539e-10,5.710506723778758e-10,5.209857923934342e-10,4.682975436590536e-10,4.153153678606225e-10,3.630384080798497e-10,3.1095947238939355e-10,2.606149117462686e-10,2.1460756231282474e-10,1.7336856280974998e-10,1.3739989717124207e-10,1.0719114191509973e-10,8.199940525991063e-11,6.121922673562669e-11,4.434242973855132e-11,3.101620026864638e-11,2.0808274350766442e-11,1.333732555008626e-11,8.15546469659273e-12,4.779459821961996e-12,2.7068759488287162e-12,1.479948920685463e-12,7.815744175100487e-13,4.0127723707824997e-13,2.0212067417859172e-13,5.443420514139594e-09,4.2447521612426895e-09,3.3176988273463547e-09,2.5972910187527322e-09,2.0217597058365717e-09,1.56571963288225e-09,1.207237534569349e-09,9.217824522400242e-10,6.951274884645894e-10,5.145541362287478e-10,3.71088374233792e-10,2.6224992587810043e-10,1.8077777115533793e-10,1.216569195949948e-10,8.067153095864587e-11,5.279472601718025e-11,3.417853971356245e-11,2.1785176981706075e-11,1.3501680229634438e-11
0.0,12,12.0,0.0,30.0,0.0,0.0,0.0,0.0,-13.0,0.0,2.0,0.0,0.0,0.0,6.607621796552256e-10,6.178184627768634e-10,5.71151941061099e-10,5.210980358328591e-10,4.684250793721907e-10,4.1546385092142e-10,3.63215807447279e-10,3.1117832692966584e-10,2.608909650924147e-10,2.149527185913097e-10,1.7378221458682304e-10,1.3785706008345762e-10,1.0764157268086178e-10,8.238444293507209e-11,6.14955653937462e-11,4.449883103348514e-11,3.1073073337273633e-11,2.0800596891038772e-11,1.329910894869268e-11,8.110495915415534e-12,4.74013748024072e-12,2.677296514493943e-12,1.4595273174117662e-12,7.68812511125787e-13,3.9352115919729424e-13,1.9800033933064703e-13,5.443176667835576e-09,4.2445060589357805e-09,3.317449736243765e-09,2.597038226567219e-09,2.0215026436986275e-09,1.5654568250124103e-09,1.2069670885903284e-09,9.21504392808103e-10,6.948418126261714e-10,5.142566514835408e-10,3.7078079275622364e-10,2.6196535677516523e-10,1.8058567858201503e-10,1.216212499482739e-10,8.07947749459272e-11,5.301172324403452e-11,3.439942464852612e-11,2.1949314403817023e-11,1.3599171246069126e-11
0.0,13,13.0,0.0,30.0,0.0,0.0,0.0,0.0,-13.0,0.0,2.0,0.0,0.0,0.0,6.608597356628583e-10,6.1792276073014e-10,5.712653233290746e-10,5.212239519725405e-10,4.685683309816175e-10,4.1563067400415137e-10,3.6341490735270755e-10,3.1142316925326984e-10,2.611977835683877e-10,2.1533235284332794e-10,1.7423077448758745e-10,1.3834442528246928e-10,1.081127180290777e-10,8.277868023212939e-11,6.177124387254344e-11,4.464878650005152e-11,3.112185680326894e-11,2.078579828572216e-11,1.3255677331242559e-11,8.062176953277592e-12,4.698846601650152e-12,2.6466590919181742e-12,1.4385907018931127e-12,7.558400913167212e-13,3.85690506069287e-13,1.9383822492914511e-13,5.442914763081794e-09,4.244241834122934e-09,3.3171824286623817e-09,2.596767161492565e-09,2.0212272393593455e-09,1.5651754410332114e-09,1.2066779228666172e-09,9.212078080196608e-10,6.945375506948424e-10,5.139401825096591e-10,3.7045658952110734e-10,2.6167376403291705e-10,1.8040295798222059e-10,1.2161022896644889e-10,8.09481577995564e-11,5.325334093697886e-11,3.4634268998174344e-11,2.2118341476296942e-11,1.3697037696711383e-11
0.0,14,14.0,0.0,30.0,0.0,0.0,0.0,0.0,-13.0,0.0,2.0,0.0,0.0,0.0,6.609688843099657e-10,6.180396784046356e-10,5.713926498631524e-10,5.213655439571573e-10,4.68729513618738e-10,4.1581830573782563e-10,3.6363846462050327e-10,3.116970345508511e-10,2.6153852055034527e-10,2.1574935891912836e-10,1.747163654710065e-10,1.3886295874624426e-10,1.0860440513269353e-10,8.318121471123785e-11,6.204517719379196e-11,4.47914180007745e-11,3.116198980709925e-11,2.0763573293870184e-11,1.3206875187533128e-11,8.010433450173186e-12,4.65555390720054e-12,2.6149509918510496e-12,1.4171364139036416e-12,7.426563745058573e-13,3.777869680516848e-13,1.8963207527777328e-13,5.442633599068653e-09,4.243958289347417e-09,3.316895715541216e-09,2.596476654136159e-09,2.020932326710516e-09,1.5648743124777506e-09,1.2063689291432866e-09,9.208916542285897e-10,6.942136126859296e-10,5.136037508760263e-10,3.7011571528211326e-10,2.6137691258192824e-10,1.802330356681723e-10,1.2162756328046137e-10,8.11342115749315e-11,5.352050859552374e-11,3.488295853814253e-11,2.2291849422160805e-11,1.3794941195470946e-11
0.0,15,15.0,0.0,30.0,0.0,0.0,0.0,0.0,-13.0,0.0,2.0,0.0,0.0,0.0,6.61091440422789e-10,6.181711534709501e-10,5.715360083457154e-10,5.215250837616457e-10,4.689111244476167e-10,4.1602950992683727e-10,3.638895385266892e-10,3.1200324704071624e-10,2.61916561858324e-10,2.1620675442175856e-10,1.7524109488457336e-10,1.394134929337406e-10,1.0911627871799866e-10,8.359098364452238e-11,6.231617733675643e-11,4.4925796357875456e-11,3.119288957007094e-11,2.073360737708197e-11,1.3152543444567925e-11,7.955191031898813e-12,4.6102281172350625e-12,2.582161774916658e-12,1.3951635918451498e-12,7.292617486966716e-13,3.698128858529492e-13,1.853802534049481e-13,5.442331929729262e-09,4.243654182444746e-09,3.316588365643105e-09,2.5961654949374503e-09,2.0206166971608094e-09,1.5645522329942014e-09,1.206038974563977e-09,9.205548581776908e-10,6.938688677878298e-10,5.13246414021466e-10,3.6975837554661845e-10,2.610770428205365e-10,1.8007983308394546e-10,1.2167725015693218e-10,8.13555084689099e-11,5.381406210115581e-11,3.514528150476308e-11,2.2469376560995484e-11,1.3892515129893753e-11
0.0,16,16.0,0.0,30.0,0.0,0.0,0.0,0.0,-13.0,0.0,2.0,0.0,0.0,0.0,6.612294867185203e-10,6.183194009002454e-10,5.716977741635117e-10,5.217051426242048e-10,4.691159725896144e-10,4.1626737415484376e-10,3.641715157632102e-10,3.123454365731447e-10,2.623355282549094e-10,2.1670766705979582e-10,1.7580702965186164e-10,1.3999670144610673e-10,1.0964778456343148e-10,8.400675855885731e-11,6.258295473063705e-11,4.505094444962925e-11,3.121395339459546e-11,2.0695577509860145e-11,1.3092519782339415e-11,7.896375402024618e-12,4.562839926739336e-12,2.5482831393190387e-12,1.3726730452709771e-12,7.156576818758571e-13,3.617711693322442e-13,1.8108177938378056e-13,5.442008463673682e-09,4.243328226552179e-09,3.3162591059013203e-09,2.595832434065882e-09,2.0202790990610856e-09,1.5642079596427359e-09,1.2056869033942898e-09,9.201963144471388e-10,6.935021452472467e-10,5.128672925072845e-10,3.6938509296994096e-10,2.607769389118893e-10,1.7994780146202083e-10,1.2176357002895322e-10,8.161463507621417e-11,5.4134724395014497e-11,3.542092202095607e-11,2.2650408449051074e-11,1.3989365328688212e-11
0.0,17,17.0,0.0,30.0,0.0,0.0,0.0,0.0,-13.0,0.0,2.0,0.0,0.0,0.0,6.613854073893249e-10,6.184869464030761e-10,5.718806435298202e-10,5.219086236751188e-10,4.693472109355876e-10,4.165353397132702e-10,3.644881356526399e-10,3.127275537535178e-10,2.6279927451737215e-10,2.172553164714197e-10,1.7641616741840668e-10,1.4061307138476287e-10,1.1019815242735745e-10,8.442713998326955e-11,6.284411984197575e-11,4.516584007656296e-11,3.122456037584399e-11,2.0649152855481818e-11,1.3026638978528512e-11,7.833912519573656e-12,4.513362057991455e-12,2.513308863860993e-12,1.349667163682271e-12,7.018466516766557e-13,3.536652283953329e-13,1.7673637413935428e-13,5.441661864516816e-09,4.242979090554497e-09,3.315906622201373e-09,2.5954761815731864e-09,2.01991823752938e-09,1.5638402149883956e-09,1.2053115389272025e-09,9.198148825069869e-10,6.931122378411262e-10,5.124656059541765e-10,3.6899678093851214e-10,2.6048000309521257e-10,1.7984195468031495e-10,1.2189107384496944e-10,8.191416319610646e-11,5.44830854583532e-11,3.570945388242676e-11,2.283437814311617e-11,1.4085070702788601e-11
0.0,18,18.0,0.0,30.0,0.0,0.0,0.0,0.0,-13.0,0.0,2.0,0.0,0.0,0.0,6.615619245617025e-10,6.186766625520602e-10,5.720876690697438e-10,5.221387967727891e-10,4.696083697979777e-10,4.1683723268548937e-10,3.64843515245372e-10,3.131538829933432e-10,2.6331188439858553e-10,2.1785299099724247e-10,1.770704034913792e-10,1.41262873571465e-10,1.1076637868739492e-10,8.485055261394747e-11,6.309818495683762e-11,4.526941863763168e-11,3.122407285442952e-11,2.0593995328112376e-11,1.2954733284738228e-11,7.767728850687525e-12,4.461769375212549e-12,2.4772347948105466e-12,1.326149854422163e-12,6.878320920259469e-13,3.4549891449487117e-13,1.7234450576522766e-13,5.441290751569343e-09,4.2426053999466744e-09,3.315529560554498e-09,2.5950954077340002e-09,2.0195327746997744e-09,1.5634476900044422e-09,1.2049116853532736e-09,9.194093833627459e-10,6.926979089697626e-10,5.120407195161187e-10,3.685948294970369e-10,2.601903355763315e-10,1.7976789906600834e-10,1.2206456438352548e-10,8.225661706571781e-11,5.4859581783148666e-11,3.601033483526182e-11,2.3020666622393345e-11,1.4179183908776694e-11
0.0,19,19.0,0.0,30.0,0.0,0.0,0.0,0.0,-13.0,0.0,2.0,0.0,0.0,0.0,6.617621376963741e-10,6.188918076234463e-10,5.723222978746571e-10,5.223993355174023e-10,4.699033923028177e-10,4.1717729594166866e-10,3.652421738271412e-10,3.1362905278376e-10,2.638776607079825e-10,2.1850401885669687e-10,1.7777149343696984e-10,1.419461308299932e-10,1.1135120897700708e-10,8.527524108164883e-11,6.334356622255397e-11,4.536057563468864e-11,3.121183763339421e-11,2.052976006367563e-11,1.2876632840839821e-11,7.697751686865139e-12,4.408039049561396e-12,2.4400588677586793e-12,1.3021265040432857e-12,6.736183532929756e-13,3.372764716117886e-13,1.6790743511059982e-13,5.440893700865678e-09,4.2422057380996274e-09,3.315126528617364e-09,2.594688743515828e-09,2.0191213304481175e-09,1.5630290477916743e-09,1.2044861293409287e-09,9.189785959027864e-10,6.922579047571587e-10,5.115922030589908e-10,3.6818120475983266e-10,2.5991281931379974e-10,1.7973185871124547e-10,1.2228907068138048e-10,8.264443697029076e-11,5.526447555661725e-11,3.6322901465198006e-11,2.3208603382140303e-11,1.4271232073548517e-11
0.0,20,20.0,0.0,30.0,0.0,0.0,0.0,0.0,-13.0,0.0,2.0,0.0,0.0,0.0,6.619895659498442e-10,6.191360671484701e-10,5.725884119879559e-10,5.226943563653884e-10,4.702366713601267e-10,4.175602217097801e-10,3.656890562455095e-10,3.1415804236202146e-10,2.645011096621619e-10,2.192117331733272e-10,1.785210112431559e-10,1.4266258457331035e-10,1.1195112111183196e-10,8.569926648039584e-11,6.3578585982779e-11,4.543816900629749e-11,3.1187186978982274e-11,2.0456095823818803e-11,1.2792166136656272e-11,7.623909525285751e-12,4.3521507655084044e-12,2.4017811576109556e-12,1.277603958724923e-12,6.592106730915989e-13,3.2900249586790966e-13,1.6342725714074786e-13,5.440469246506269e-09,4.24177864791942e-09,3.3146960975071383e-09,2.5942547811269827e-09,2.0186824836764487e-09,1.5625829280956996e-09,1.2040336410330968e-09,9.185212532296586e-10,6.917909729714213e-10,5.111199055396532e-10,3.677585628716389e-10,2.596532087090909e-10,1.797406946727766e-10,1.2256981473801877e-10,8.307993926543282e-11,5.569783382017428e-11,3.664636480742133e-11,2.3397467195093607e-11,1.4360717611188734e-11
0.0,21,21.0,0.0,30.0,0.0,0.0,0.0,0.0,-13.0,0.0,2.0,0.0,0.0,0.0,6.622481934669078e-10,6.194135981144236e-10,5.728903712341501e-10,5.230284597131616e-10,4.706130879783597e-10,4.1799118428277736e-10,3.6618955432788425e-10,3.147461838079696e-10,2.651869185777149e-10,2.1997943030023724e-10,1.7932030301475386e-10,1.4341165999174373e-10,1.1256430860557859e-10,8.612050379035506e-11,6.380147541125654e-11,4.550102127864846e-11,3.1149439423278727e-11,2.03726453593245e-11,1.2701160531908122e-11,7.546132508651653e-12,4.294086961613028e-12,2.3624039513938805e-12,1.2525905202459867e-12,6.446151553981006e-13,3.2068190310679697e-13,1.589069343442492e-13,5.44001588229436e-09,4.241322633891801e-09,3.3142368038516757e-09,2.5937920746021255e-09,2.018214774267894e-09,1.5621079525643011e-09,1.2035529741333012e-09,9.180360395035832e-10,6.912958910910644e-10,5.106240474131758e-10,3.6733037943328403e-10,2.5941822083880514e-10,1.798019162294644e-10,1.2291216969669853e-10,8.356527294292266e-11,5.615950789876278e-11,3.6979806772185996e-11,2.358648702075788e-11,1.4447119156259525e-11
0.0,22,22.0,0.0,30.0,0.0,0.0,0.0,0.0,-13.0,0.0,2.0,0.0,0.0,0.0,6.625425175132262e-10,6.197290756973167e-10,5.732330582466052e-10,5.234067727554456e-10,4.710380506024115e-10,4.184758722978968e-10,3.6674952550919016e-10,3.153991584655947e-10,2.6593992590934833e-10,2.208103209208363e-10,1.8017043624254588e-10,1.4419243019485332e-10,1.1318866508063066e-10,8.653664029994322e-11,6.401037742325074e-11,4.554792151172175e-11,3.109790038761189e-11,2.027904576156626e-11,1.2603442846331529e-11,7.464352923186066e-12,4.233833100203943e-12,2.3219318397505773e-12,1.227095954738485e-12,6.298387560579169e-13,3.123199038951747e-13,1.5435031829667695e-13,5.439532063649823e-09,4.240836164503173e-09,3.3137471520033574e-09,2.59329914040247e-09,2.017716705852982e-09,1.561602730627056e-09,1.2030428647374494e-09,9.175215881690771e-10,6.907715064534728e-10,5.101053342174565e-10,3.669010950643122e-10,2.5921562743089586e-10,1.7992368217622714e-10,1.2332160876665613e-10,8.410237297978217e-11,5.664911342854115e-11,3.732217746473178e-11,2.377484302805403e-11,1.4529892631397293e-11
0.0,23,23.0,0.0,30.0,0.0,0.0,0.0,0.0,-13.0,0.0,2.0,0.0,0.0,0.0,6.628775992885033e-10,6.200877423429171e-10,5.73621925485524e-10,5.238349938504763e-10,4.715175350525165e-10,4.190205198784241e-10,3.6737530761307384e-10,3.16122986435995e-10,2.667650825782323e-10,2.2170747344489693e-10,1.8107214477896317e-10,1.450035797199017e-10,1.1382176987927511e-10,8.694517510115445e-11,6.420334981874511e-11,4.557762701281952e-11,3.103186264851514e-11,2.017492883303535e-11,1.2498840032294162e-11,7.378505754095256e-12,4.171377961583668e-12,2.2803718239303942e-12,1.201131511996034e-12,6.148892730884269e-13,3.039219854467433e-13,1.4976215542682687e-13,5.439016209787724e-09,4.240317675027396e-09,3.3132256163320484e-09,2.592774458032749e-09,2.017186749554212e-09,1.5610658657972199e-09,1.202502028583444e-09,9.169764829033645e-10,6.902167921374979e-10,5.095650947756148e-10,3.6647627741747325e-10,2.590543452846074e-10,1.801147899501894e-10,1.2380364424879759e-10,8.469291082959995e-11,5.7166011337506356e-11,3.767229345698641e-11,2.3961667683374045e-11,1.4608472460727758e-11
0.0,24,24.0,0.0,30.0,0.0,0.0,0.0,0.0,-13.0,0.0,2.0,0.0,0.0,0.0,6.632591171840066e-10,6.204954589410411e-10,5.740630439668185e-10,5.243194380399674e-10,4.720581245203363e-10,4.196319357581578e-10,3.6807372853568354e-10,3.169240077351357e-10,2.676674034932894e-10,2.226737492889611e-10,1.820257697589921e-10,1.4584336788063312e-10,1.144608751753584e-10,8.734341969701792e-11,6.437836858833952e-11,4.558886478722453e-11,3.095060667284115e-11,2.0059921510487448e-11,1.2387179942169307e-11,7.288529298101956e-12,4.106713959250734e-12,2.237733435803231e-12,1.1747099535300736e-12,5.99775340458307e-13,2.9549389996464526e-13,1.451480731120463e-13,5.4384667061556104e-09,4.239765570663555e-09,3.3126706435001232e-09,2.592216470713713e-09,2.0166233488942207e-09,1.560495962089035e-09,1.2019291564613515e-09,9.163992632510604e-10,6.896309230578573e-10,5.090054476896232e-10,3.66062799465905e-10,2.5894452226652514e-10,1.803846502264894e-10,1.2436375616387463e-10,8.533824254396013e-11,5.770929015232398e-11,3.802883704279649e-11,2.4146046843796885e-11,1.4682272933685775e-11
0.0,25,25.0,0.0,30.0,0.0,0.0,0.0,0.0,-13.0,0.0,2.0,0.0,0.0,0.0,6.636934221640127e-10,6.209587577599732e-10,5.74563153344123e-10,5.248670832739949e-10,4.726670489350082e-10,4.203175293108147e-10,3.688521093652406e-10,3.178088535564233e-10,2.686519081473852e-10,2.2371172972655218e-10,1.830311968258493e-10,1.4670959248830004e-10,1.1510289487078832e-10,8.772849972042835e-11,6.453333129168915e-11,4.558033269724719e-11,3.085340085515703e-11,1.9933646376739792e-11,1.2268292202245705e-11,7.1943658326893665e-12,4.039837473341526e-12,2.1940288689990787e-12,1.1478455878747167e-12,5.845064242472876e-13,2.870416588437431e-13,1.405145424974752e-13,5.437881907132619e-09,4.239178230001913e-09,3.312080654610727e-09,2.591623586198777e-09,2.016024926057928e-09,1.5598916301128155e-09,1.2013229076838776e-09,9.157884377321863e-10,6.890133776836942e-10,5.084294999380143e-10,3.656690332285737e-10,2.588976153877043e-10,1.8074324450129366e-10,1.2500731016302383e-10,8.603935514781627e-11,5.827775001276594e-11,3.8390356477491277e-11,2.4327020784308556e-11,1.475068971603859e-11
0.0,26,26.0,0.0,30.0,0.0,0.0,0.0,0.0,-13.0,0.0,2.0,0.0,0.0,0.0,6.64187594860457e-10,6.214848967246782e-10,5.751297128999243e-10,5.254856167773306e-10,4.733522228417676e-10,4.210853321775315e-10,3.6971825923437527e-10,3.1878440592936625e-10,2.6972354917736647e-10,2.248236341204634e-10,1.8408779015493815e-10,1.4759955452898588e-10,1.1574439553448007e-10,8.809735771933968e-11,6.466606040006033e-11,4.5550700306527005e-11,3.0739501698590816e-11,1.9795722299431967e-11,1.2142009204093976e-11,7.095962341557201e-12,3.970749200094814e-12,2.1492731197095786e-12,1.1205543118591947e-12,5.690928202735798e-13,2.785715320815117e-13,1.358688149334914e-13,5.437260139005144e-09,4.238554008784525e-09,3.3114540471140204e-09,2.5909941778886814e-09,2.015389889681377e-09,1.5592514922591268e-09,1.2006819018029301e-09,9.151425082727825e-10,6.883640718269924e-10,5.078415813899589e-10,3.653050572579251e-10,2.589264567887877e-10,1.8120106311485623e-10,1.2573946463031137e-10,8.679681203192627e-11,5.886988876972905e-11,3.875526716636811e-11,2.450358507867281e-11,1.481310149601155e-11
0.0,27,27.0,0.0,30.0,0.0,0.0,0.0,0.0,-13.0,0.0,2.0,0.0,0.0,0.0,6.647495038757258e-10,6.220819145353969e-10,5.757709529070624e-10,5.261834808609842e-10,4.741222807340531e-10,4.21944013922074e-10,3.706804599471125e-10,3.198577439280377e-10,2.7088712781871347e-10,2.2601122950922004e-10,1.8519432391397551e-10,1.4851002442295577e-10,1.1638158960093322e-10,8.84467569148597e-11,6.477430648015147e-11,4.5498609396447017e-11,3.0608153989580056e-11,1.9645765236970116e-11,1.2008167223131352e-11,6.9932712955554565e-12,3.899454515677535e-12,2.1034841360196648e-12,1.0928536567110171e-12,5.535456524263842e-13,2.700900521224423e-13,1.3121882969791708e-13,5.436599703246158e-09,4.23789124390958e-09,3.310789196356958e-09,2.5903265864801608e-09,2.014716644289279e-09,1.5585741862230466e-09,1.200004709230205e-09,9.144600111559085e-10,6.876835320572365e-10,5.072475188511857e-10,3.649828751616538e-10,2.5904530274652517e-10,1.8176902117673014e-10,1.265650671688885e-10,8.761069826283529e-11,5.948389052072614e-11,3.912185372533136e-11,2.467469124665774e-11,1.4868871743320916e-11
0.0,28,28.0,0.0,30.0,0.0,0.0,0.0,0.0,-13.0,0.0,2.0,0.0,0.0,0.0,6.653878646927187e-10,6.227586860335691e-10,5.764959257173526e-10,5.269699173262558e-10,4.74986608540811e-10,4.229028898422196e-10,3.7174743815147033e-10,3.210360744649154e-10,2.7214719526985847e-10,2.272757317143732e-10,1.8634891194811267e-10,1.4943721051828566e-10,1.1701033098990859e-10,8.877328578711034e-11,6.485575108700942e-11,4.5422674156135e-11,3.0458591027177353e-11,1.94833892532279e-11,1.186660767266451e-11,6.886251488090849e-12,3.825963853206923e-12,2.056682974868318e-12,1.0647628379335289e-12,5.378768710599929e-13,2.6160402122029393e-13,1.2657309174585548e-13,5.435898880138805e-09,4.23718825760561e-09,3.3100844566764237e-09,2.5896191224821943e-09,2.0140036014047543e-09,1.5578583659710363e-09,1.1992898421526304e-09,9.137395813729387e-10,6.869731174472081e-10,5.066549527946876e-10,3.6471664114662885e-10,2.592698600887277e-10,1.8245834995975244e-10,1.2748854099806437e-10,8.848056683952854e-11,6.01176168947697e-11,3.948827279102584e-11,2.4839247076244106e-11,1.4917350547654777e-11
0.0,29,29.0,0.0,30.0,0.0,0.0,0.0,0.0,-13.0,0.0,2.0,0.0,0.0,0.0,6.661122984974962e-10,6.235249771312964e-10,5.773145558177899e-10,5.278550094227431e-10,4.759553696873969e-10,4.239719187245527e-10,3.7292832254685125e-10,3.2232664561717916e-10,2.7350793911610597e-10,2.2861769836518828e-10,1.8754893663088457e-10,1.5037673047686e-10,1.176261132362043e-10,8.907336329042177e-11,6.490800923116605e-11,4.5321481066914227e-11,3.029003497826107e-11,1.9308207783195656e-11,1.171717850002755e-11,6.774868923752932e-12,3.750293092272582e-12,2.0088939658819293e-12,1.0363028079254306e-12,5.220992509016945e-13,2.531205212548829e-13,1.2194051963195268e-13,5.4351559327947545e-09,4.236443361670787e-09,3.3093381619700875e-09,2.5888700700437373e-09,2.013249192193521e-09,1.5571026991523828e-09,1.1985357482224296e-09,9.129800493158043e-10,6.862352994813926e-10,5.060736991200827e-10,3.6452288704129163e-10,2.596172836964069e-10,1.8328046155196652e-10,1.2851376217694972e-10,8.940538703716984e-11,6.07686013336294e-11,3.985255640835431e-11,2.4996116529030894e-11,1.4957876490974637e-11
0.0,30,30.0,0.0,30.0,0.0,0.0,0.0,0.0,-13.0,0.0,2.0,0.0,0.0,0.0,6.669333901316989e-10,6.243914985294829e-10,5.782376879629333e-10,5.28849720098584e-10,4.770395238130658e-10,4.251616879466826e-10,3.742325833298291e-10,3.2373664038568747e-10,2.7497305415653855e-10,2.3003691450134316e-10,1.8879097796778412e-10,1.5132358619023426e-10,1.1822407012870428e-10,8.934324444677826e-11,6.492863129066272e-11,4.519358852624378e-11,3.010169744073934e-11,1.9119835191503443e-11,1.1559735729642695e-11,6.659097758720982e-12,3.672463960699788e-12,1.9601448813788313e-12,1.0074963102901587e-12,5.062263879942447e-13,2.4464692480150746e-13,1.1733026547171846e-13,5.434369111625187e-09,4.235654861635576e-09,3.3085486257423446e-09,2.5880776926511584e-09,2.0124518812641778e-09,1.5563058599644475e-09,1.197740811065665e-09,9.121805812259171e-10,6.854740109736148e-10,5.055161570358938e-10,3.644207434664175e-10,2.601061381228698e-10,1.8424678492015643e-10,1.2964392900679262e-10,9.03834960617946e-11,6.143404652574321e-11,4.021261577182661e-11,2.514411914116674e-11,1.4989778495384833e-11
0.0,31,31.0,0.0,30.0,0.0,0.0,0.0,0.0,-13.0,0.0,2.0,0.0,0.0,0.0,6.678627443137461e-10,6.25369957358398e-10,5.792771323389881e-10,5.299659250107672e-10,4.782508358319309e-10,4.264833829054674e-10,3.756699508027135e-10,3.2527304879584195e-10,2.7654559723689476e-10,2.315322717089676e-10,1.9007074417002334e-10,1.522721428096712e-10,1.1879897875086874e-10,8.957902601750593e-11,6.491510425416895e-11,4.503752628494105e-11,2.989278030703536e-11,1.89178886644593e-11,1.1394145156025036e-11,6.538921291433076e-12,3.592504448694125e-12,1.9104671118136695e-12,9.783679347217122e-13,4.902726952409034e-13,2.3619090613588456e-13,1.1275151082591398e-13,5.433536659321155e-09,4.23482106066578e-09,3.307714140725834e-09,2.587240241357616e-09,2.0116101809126886e-09,1.555466516685536e-09,1.196903363837089e-09,9.113408777238928e-10,6.846950756207724e-10,5.049977623653179e-10,3.644321457891459e-10,2.607563158221979e-10,1.8536857206844667e-10,1.3088142543946108e-10,9.141255528320766e-11,6.211082503056326e-11,4.056624504590095e-11,2.5282028841759826e-11,1.50123775759993e-11
0.0,32,32.0,0.0,30.0,0.0,0.0,0.0,0.0,-13.0,0.0,2.0,0.0,0.0,0.0,6.689130392032028e-10,6.264731057806404e-10,5.804457055318664e-10,5.312164384325469e-10,4.796018725577947e-10,4.2794873728377464e-10,3.7725030980971837e-10,3.2694251633027765e-10,2.782278260234313e-10,2.3310164206430885e-10,1.9138300502044052e-10,1.5321611238291852e-10,1.1934526469218338e-10,8.977665191184615e-11,6.486485220863398e-11,4.485179480438636e-11,2.9662477029235606e-11,1.8701990473878447e-11,1.1220284188055543e-11,6.414333002034136e-12,3.5104492358396185e-12,1.8598958458121928e-12,9.48944171260302e-13,4.742533961452128e-13,2.2776045077860964e-13,1.0821324464035395e-13,5.432656816390909e-09,4.2339402629839505e-09,3.3068329783336114e-09,2.586355966277065e-09,2.0107226646673953e-09,1.5545833136258843e-09,1.1960217250241178e-09,9.104614480749889e-10,6.839067301978137e-10,5.045374831263708e-10,3.6458201323660203e-10,2.6158890411858426e-10,1.8665667369195263e-10,1.322276808189663e-10,9.248951230263387e-11,6.279548298377307e-11,4.091112494123046e-11,2.5408572126919073e-11,1.5024988417242623e-11
0.0,33,33.0,0.0,30.0,0.0,0.0,0.0,0.0,-13.0,0.0,2.0,0.0,0.0,0.0,6.700980763342843e-10,6.277147854952746e-10,5.81757265845021e-10,5.326150297873864e-10,4.811059835664675e-10,4.2956996016630996e-10,3.789835664430267e-10,3.287511668532927e-10,2.800210220613283e-10,2.347417484922887e-10,1.9272152941831408e-10,1.5414854245458484e-10,1.1985700906487545e-10,8.993191796195773e-11,6.477523602535637e-11,4.4634864676641175e-11,2.9409974394605525e-11,1.8471770647515868e-11,1.1038043844397586e-11,6.285337639293959e-12,3.4263401316557543e-12,1.8084702537425894e-12,9.192534625935521e-13,4.581845163419911e-13,2.1936386216074437e-13,1.0372403174327927e-13,5.431727827281237e-09,4.23301077655892e-09,3.3059033884140283e-09,2.585423132076446e-09,2.0097879784712437e-09,1.5536548483059372e-09,1.1950942696624998e-09,9.095439815426123e-10,6.831202511592308e-10,5.041583510190958e-10,3.6489838711288837e-10,2.6262599294058063e-10,1.8812128464540264e-10,1.3368302878456118e-10,9.361057003177165e-11,6.348424659825153e-11,4.1244825682108576e-11,2.5522425551336102e-11,1.50269206827684e-11
0.0,34,34.0,0.0,30.0,0.0,0.0,0.0,0.0,-13.0,0.0,2.0,0.0,0.0,0.0,6.714328259123169e-10,6.29109966963674e-10,5.832267412245334e-10,5.341764280341589e-10,4.82777262332227e-10,4.313596354857198e-10,3.808794832973248e-10,3.307043984646114e-10,2.8192529894703964e-10,2.364480334796443e-10,1.940790284998596e-10,1.5506180980303362e-10,1.2032795681750086e-10,9.00404756824606e-11,6.464355225323449e-11,4.438517628889264e-11,2.913445492513333e-11,1.822687007644217e-11,1.0847330898882003e-11,6.1519523539702315e-12,3.3402265305107825e-12,1.7562336734773234e-12,8.89326252943582e-13,4.4208287249846044e-13,2.1100976403127776e-13,9.929178275092735e-14,5.430747947076153e-09,4.232030914812769e-09,3.3049236000687475e-09,2.5844400380812e-09,2.0088048472733396e-09,1.5526796465185105e-09,1.1941195542805007e-09,9.085918411230849e-10,6.823506962807108e-10,5.038880183594472e-10,3.6541251153872303e-10,2.638904155799008e-10,1.8977166067883056e-10,1.3524656863782753e-10,9.477116379508804e-11,6.417303097461673e-11,4.156480896980207e-11,2.562221253164276e-11,1.5017479965343642e-11
0.0,35,35.0,0.0,30.0,0.0,0.0,0.0,0.0,-13.0,0.0,2.0,0.0,0.0,0.0,6.729334664465803e-10,6.306747820256172e-10,5.848701476728036e-10,5.35916310501784e-10,4.84630482939224e-10,4.333305887374097e-10,3.829474794729372e-10,3.3280665112371626e-10,2.839393970029531e-10,2.382145283943665e-10,1.9544710566980362e-10,1.5594761925241224e-10,1.2075152569425426e-10,9.009783464487221e-11,6.446703129787223e-11,4.410113995280393e-11,2.8835100016781856e-11,1.796694408439646e-11,1.0648070174174293e-11,6.014207877963336e-12,3.2521658815887366e-12,1.7032337966263144e-12,8.591950319361846e-13,4.2596605813255755e-13,2.0270709734612777e-13,9.492353834684672e-14,5.429715448718002e-09,4.2309989971396786e-09,3.3038918246524092e-09,2.5834050433079256e-09,2.007772074285832e-09,1.5516561409238559e-09,1.1930965204467906e-09,9.076107089246715e-10,6.816177696178609e-10,5.037593249451106e-10,3.661588376379976e-10,2.6540541541229004e-10,1.9161580923392958e-10,1.3691603288330054e-10,9.596594720233396e-11,6.485745051425289e-11,4.186842853199654e-11,2.5706499497360143e-11,1.4995968285696185e-11
0.0,36,36.0,0.0,30.0,0.0,0.0,0.0,0.0,-13.0,0.0,2.0,0.0,0.0,0.0,6.74617417672755e-10,6.324265483625161e-10,5.867045955335058e-10,5.378512719943066e-10,4.866810068278098e-10,4.3549571536606633e-10,3.851963915660399e-10,3.3506114543246213e-10,2.86060466464198e-10,2.4003372592930174e-10,1.968162147292869e-10,1.5679700721456957e-10,1.2112081505607538e-10,9.009936313950714e-11,6.424283505006278e-11,4.3781136757369186e-11,2.851109393280434e-11,1.7691666478294084e-11,1.0440206982188404e-11,5.872149748998235e-12,3.1622241742677604e-12,1.6495228530764015e-12,8.288943717035715e-13,4.0985242584764475e-13,1.9446511057240945e-13,9.062528254717209e-14,5.428628630631347e-09,4.2299133481535825e-09,3.3028062624858647e-09,2.5823165961729153e-09,2.006688529872447e-09,1.5505826634360174e-09,1.1920248099430229e-09,9.066094161112292e-10,6.809468140826961e-10,5.038108532736614e-10,3.671749297999016e-10,2.6719423274396976e-10,1.9366015862516474e-10,1.386876649435173e-10,9.718878716046069e-11,6.553282999597984e-11,4.215292885590027e-11,2.5773791476475167e-11,1.4961684060739057e-11
0.0,37,37.0,0.0,30.0,0.0,0.0,0.0,0.0,-13.0,0.0,2.0,0.0,0.0,0.0,6.765033656754859e-10,6.343837839541615e-10,5.887482803635476e-10,5.399987690267814e-10,4.889446530884942e-10,4.3786776472791954e-10,3.876341920755906e-10,3.3746959266611924e-10,2.882838418520698e-10,2.418964583763735e-10,1.981756270294862e-10,1.5760034928732045e-10,1.2142861366978154e-10,9.004028687588133e-11,6.396805422577395e-11,4.342352043850803e-11,2.8161628760592595e-11,1.7400734093071167e-11,1.022370971060187e-11,5.725839580889198e-12,3.070476438628339e-12,1.595157791163572e-12,7.984609553372421e-13,3.937610654276807e-13,1.8629334261829282e-13,8.64018004509267e-14,5.427485824546127e-09,4.228772295811778e-09,3.3016651152426614e-09,2.581173267717118e-09,2.005553127276543e-09,1.5494574684817501e-09,1.1909052344328514e-09,9.056009931750843e-10,6.803699298942274e-10,5.040874434677939e-10,3.685012507736028e-10,2.6927960782677603e-10,1.959092116064999e-10,1.4055611116659556e-10,9.843276789460084e-11,6.6194215148194e-11,4.2415441737761463e-11,2.5822527263274198e-11,1.4913921484220375e-11
0.0,38,38.0,0.0,30.0,0.0,0.0,0.0,0.0,-13.0,0.0,2.0,0.0,0.0,0.0,6.786112790178505e-10,6.36566209210137e-10,5.910204542146117e-10,5.423770328730049e-10,4.914375247684753e-10,4.404590731097367e-10,3.9026766204036724e-10,3.4003187700825286e-10,2.9060281088643313e-10,2.4379178451142534e-10,1.995134082040471e-10,1.5834737087344534e-10,1.2166740550027273e-10,8.991568559298463e-11,6.363970578975907e-11,4.3026620587531545e-11,2.7785910433177258e-11,1.7093871838395024e-11,9.998572556458092e-12,5.575356379573446e-12,2.977007259838286e-12,1.5402004502594127e-12,7.679335946896177e-13,3.777117771802932e-13,1.782015979369459e-13,8.225659580439786e-14,5.4262854032174555e-09,4.22757416894323e-09,3.3004666063338365e-09,2.5799737858674696e-09,2.004364783662073e-09,1.5482788139855574e-09,1.1897404540439098e-09,9.046039776298026e-10,6.799272085617095e-10,5.046406312954163e-10,3.7018080119059275e-10,2.716831987136635e-10,1.983651910748634e-10,1.425143311202492e-10,9.969020322492151e-11,6.683638133915711e-11,4.265298035060546e-11,2.5851074384983182e-11,1.4851969299123953e-11
0.0,39,39.0,0.0,30.0,0.0,0.0,0.0,0.0,-13.0,0.0,2.0,0.0,0.0,0.0,6.809624144590632e-10,6.389947337598486e-10,5.935413719561054e-10,5.45004943672847e-10,4.941757825246841e-10,4.432812389897983e-10,3.931020153376798e-10,3.42745711969752e-10,2.9300838193768116e-10,2.4570688778542737e-10,2.00816404526409e-10,1.5902715940664857e-10,1.2182937252669672e-10,8.972048761724821e-11,6.325473095252638e-11,4.258874754132771e-11,2.738316590515755e-11,1.6770838250039086e-11,9.764818410132114e-12,5.420797904894609e-12,2.8819113038146086e-12,1.484717721988327e-12,7.373532354304057e-13,3.6172503986456614e-13,1.701999137424284e-13,7.819188219001734e-14,5.4250257876319414e-09,4.226317295286082e-09,3.2992090117909773e-09,2.5787170665085095e-09,2.003122367987087e-09,1.5470451405188995e-09,1.1885359322949898e-09,9.036440150755878e-10,6.796680604157161e-10,5.055289640271975e-10,3.722585890059721e-10,2.7442491607505396e-10,2.0102768737649492e-10,1.445535297276861e-10,1.0095265560839869e-10,6.745383884181649e-11,4.28624306403048e-11,2.5857724158838278e-11,1.477510899321544e-11
0.0,40,40.0,0.0,30.0,0.0,0.0,0.0,0.0,-13.0,0.0,2.0,0.0,0.0,0.0,6.835793104041814e-10,6.416914238527799e-10,5.963322056983132e-10,5.479018561284205e-10,4.971753557759564e-10,4.463447336221932e-10,3.961404729687085e-10,3.456062741393547e-10,2.9548905457972955e-10,2.476269882296733e-10,2.020702382976928e-10,1.5962817640242042e-10,1.2190639366653666e-10,8.944946262073989e-11,6.28099943503927e-11,4.210819930746741e-11,2.6952651559413967e-11,1.643143154548695e-11,9.522501895657736e-12,5.262282077411973e-12,2.7852938498371144e-12,1.4287816957434175e-12,7.067629472027155e-13,3.4582197250758876e-13,1.6229851967692896e-13,7.420865853792176e-14,5.4237054532031096e-09,4.225000001945404e-09,3.2978907039383747e-09,2.577402235077035e-09,2.0018246431791475e-09,1.54575540740436e-09,1.1873012487342714e-09,9.027557847634829e-10,6.796525985651489e-10,5.068181399394336e-10,3.7478090571116974e-10,2.775221813929601e-10,2.0389331821010178e-10,1.466631139740005e-10,1.0221095962447215e-10,6.804083303327558e-11,4.304054001168786e-11,2.584068720898981e-11,1.468261251848927e-11
0.0,41,41.0,0.0,30.0,0.0,0.0,0.0,0.0,-13.0,0.0,2.0,0.0,0.0,0.0,6.864857654509675e-10,6.44679444820421e-10,5.994149183237292e-10,5.510873652940318e-10,5.004515803299415e-10,4.496584401921243e-10,3.993837868594962e-10,3.486058186848905e-10,2.980305982052078e-10,2.4953526994421243e-10,2.03259310905653e-10,1.6013826722876012e-10,1.218900390528509e-10,8.909721309401208e-11,6.230228513410401e-11,4.158327087578981e-11,2.649366290685456e-11,1.6075496182145057e-11,9.271712576204892e-12,5.0999484281281166e-12,2.6872713236989823e-12,1.3724697836666946e-12,6.762078966971249e-13,3.3002428940843385e-13,1.5450779064806794e-13,7.030687480769906e-14,5.422322934445674e-09,4.223620621242019e-09,3.296510209287956e-09,2.5760286303531025e-09,2.000470220528178e-09,1.5444096686504013e-09,1.1860518644733339e-09,9.019852707488451e-10,6.799530231995123e-10,5.085809086458658e-10,3.777943894487946e-10,2.8098912005278874e-10,2.0695541326178114e-10,1.4883067562889368e-10,1.034552467014308e-10,6.859133789362558e-11,4.318390346306968e-11,2.5798089888238335e-11,1.4573739722366468e-11
0.0,42,42.0,0.0,30.0,0.0,0.0,0.0,0.0,-13.0,0.0,2.0,0.0,0.0,0.0,6.897067981030472e-10,6.479829709187568e-10,6.028120845048456e-10,5.545809986340056e-10,5.040187503703583e-10,4.532291153180245e-10,4.02829714244919e-10,3.517332823381821e-10,3.006158438122718e-10,2.514128252082167e-10,2.043668113295557e-10,1.6054466625922123e-10,1.2177155918915616e-10,8.865816535199601e-11,6.172832079538408e-11,4.1012266253686845e-11,2.6005545628501836e-11,1.570292991778571e-11,9.012578335815352e-12,4.933959586797235e-12,2.587971822574388e-12,1.3158648198343108e-12,6.457353014680465e-13,3.143542476622032e-13,1.4683819385992563e-13,6.648568710887433e-14,5.420876827778715e-09,4.2221775062001604e-09,3.295066280249091e-09,2.5745957808490926e-09,1.999057561346956e-09,1.5430100022299239e-09,1.1848114478070077e-09,9.013923826705569e-10,6.806549272733291e-10,5.10896661984547e-10,3.8134486082493305e-10,2.848357066207366e-10,2.102037362120799e-10,1.510419996426158e-10,1.0467496700815821e-10,6.909904130701665e-11,4.3288947567807765e-11,2.5727972116755193e-11,1.4447735782101704e-11
0.0,43,43.0,0.0,30.0,0.0,0.0,0.0,0.0,-13.0,0.0,2.0,0.0,0.0,0.0,6.932685816725139e-10,6.516270519102443e-10,6.065466442817902e-10,5.58401817917248e-10,5.078895718051052e-10,4.57060767667676e-10,4.06472445578216e-10,3.549738808568536e-10,3.0322449386432825e-10,2.5323861509774393e-10,2.0537472694453318e-10,1.6083399498338477e-10,1.2154186891998226e-10,8.812656122733609e-11,6.108475464463922e-11,4.0393513535937945e-11,2.548770799964701e-11,1.531369137664257e-11,8.745268949646453e-12,4.764502801252215e-12,2.4875356201593314e-12,1.2590551280760455e-12,6.153943623516103e-13,2.9883458662058304e-13,1.3930023124215052e-13,6.274379344440599e-14,5.4193657925901305e-09,4.220669061292474e-09,3.2935579770643787e-09,2.573103345096486e-09,1.9975850876550023e-09,1.5415619438258656e-09,1.183614874719745e-09,9.010539040815125e-10,6.818584180722837e-10,5.138506400485861e-10,3.854759257057868e-10,2.890668857495006e-10,2.1362425633147204e-10,1.5328109555857667e-10,1.0585890365955488e-10,6.955732097119422e-11,4.335191297941201e-11,2.562828720133787e-11,1.4303829050519017e-11
0.0,44,44.0,0.0,30.0,0.0,0.0,0.0,0.0,-13.0,0.0,2.0,0.0,0.0,0.0,6.971983453049555e-10,6.556374217387299e-10,6.106415702185255e-10,5.625679117196107e-10,5.120745034551839e-10,4.6115395001553277e-10,4.103019910909275e-10,3.583087090294885e-10,3.058329544442079e-10,2.5498944501046717e-10,2.062638525718583e-10,1.6099225076976042e-10,1.2119152671253652e-10,8.749645195820409e-11,6.036818790926477e-11,3.972538328394778e-11,2.493963473191516e-11,1.490780813067503e-11,8.469999854082278e-12,4.5917914758750075e-12,2.386115637924312e-12,1.2021345526734183e-12,5.8523617239553e-13,2.8348845884669615e-13,1.319043784863967e-13,5.907983216665567e-14,5.41778855170088e-09,4.21909379522574e-09,3.2919847515802263e-09,2.571551012626746e-09,1.9960515035473157e-09,1.540076620379426e-09,1.1825120186004633e-09,9.010667089512663e-10,6.836789197912625e-10,5.175326756060374e-10,3.9022735094388607e-10,2.936816982411498e-10,2.1719898020168167e-10,1.5553024648004598e-10,1.0699517381423047e-10,6.995921021667331e-11,4.336883644126327e-11,2.5496904226762507e-11,1.414122984453112e-11
0.0,45,45.0,0.0,30.0,0.0,0.0,0.0,0.0,-13.0,0.0,2.0,0.0,0.0,0.0,7.015242275700947e-10,6.600402293750756e-10,6.151194243243911e-10,5.670957564673655e-10,5.165809726146456e-10,4.6550496329489237e-10,4.1430353353984143e-10,3.617143519996026e-10,3.084141926560062e-10,2.5663995170083196e-10,2.0701379292756064e-10,1.6100478436900724e-10,1.2071071044550224e-10,8.676169612631207e-11,5.957518744474672e-11,3.9006310448088286e-11,2.4360902273035183e-11,1.448538531308906e-11,8.18703612418751e-12,4.416066711910221e-12,2.283877865675835e-12,1.1452024461340196e-12,5.553136002632813e-13,2.6833935232422543e-13,1.2466102168932482e-13,5.5492815938775776e-14,5.4161438941186795e-09,4.217450402955785e-09,3.290346518075269e-09,2.5699383764908345e-09,1.9944564863086917e-09,1.5385738278578288e-09,1.1815724299000133e-09,9.015511364714441e-10,6.862474916529343e-10,5.220354043892947e-10,3.9563323393936363e-10,2.986724471411162e-10,2.2090585083574293e-10,1.5777006693321492e-10,1.0807121101261828e-10,7.029735373920207e-11,4.333553359637484e-11,2.5331613608713804e-11,1.395913082806885e-11
0.0,46,46.0,0.0,30.0,0.0,0.0,0.0,0.0,-13.0,0.0,2.0,0.0,0.0,0.0,7.062750627662827e-10,6.648616651639418e-10,6.200017753744103e-10,5.719994213244055e-10,5.21412452385603e-10,4.701049741634099e-10,4.1845675717514157e-10,3.6516251680601336e-10,3.1093762026589143e-10,2.581625963915282e-10,2.0760295307052635e-10,1.608562649745832e-10,1.2008919173025353e-10,8.591596382082915e-11,5.870231003751169e-11,3.823482002708801e-11,2.3751195617368276e-11,1.4046614788814143e-11,7.89669665813634e-12,4.2375988258659625e-12,2.1810017122539375e-12,1.0883636083199727e-12,5.256811461073194e-13,2.534110039433725e-13,1.175803921548633e-13,5.198256559917459e-14,5.414430685645728e-09,4.215737882853994e-09,3.2886436891870908e-09,2.568264816875015e-09,1.9928019858917835e-09,1.5370863477345942e-09,1.1808909732818312e-09,9.026543491569747e-10,6.897104668894824e-10,5.274518805813059e-10,4.0172000499448085e-10,3.040239424221478e-10,2.2471871632714622e-10,1.5997955758209808e-10,1.0907372335921771e-10,7.05639541582415e-11,4.324758419468801e-11,2.5130136361460598e-11,1.3756709744498506e-11
0.0,47,47.0,0.0,30.0,0.0,0.0,0.0,0.0,-13.0,0.0,2.0,0.0,0.0,0.0,7.114800445819897e-10,6.701274214525632e-10,6.253084159659115e-10,5.772895662478568e-10,5.265673679253118e-10,4.749390311855692e-10,4.22735147919218e-10,3.6861967863265275e-10,3.1336899320180576e-10,2.595276543149706e-10,2.0800851819151658e-10,1.6053065197682995e-10,1.1931634505963743e-10,8.495279120162592e-11,5.774616711175585e-11,3.740956307311067e-11,2.3110310138889528e-11,1.3591768839308095e-11,7.599357454146153e-12,4.056694322586056e-12,2.0776820138982414e-12,1.0317269908270147e-12,4.9639433924734e-13,2.387269037818999e-13,1.1067306170324916e-13,4.8549050936809275e-14,5.412647896521457e-09,4.213955690703976e-09,3.28687714932006e-09,2.5665294877737884e-09,1.9910944774396768e-09,1.5356658407106451e-09,1.1805944291102831e-09,9.045534191038869e-10,6.942281940118453e-10,5.338725584153528e-10,4.0850432182994023e-10,3.0971286366516267e-10,2.2860736294802598e-10,1.621361414837149e-10,1.0998862304101196e-10,7.075071140585737e-11,4.310032155915456e-11,2.4890137563765346e-11,1.3533135323229771e-11
0.0,48,48.0,0.0,30.0,0.0,0.0,0.0,0.0,-13.0,0.0,2.0,0.0,0.0,0.0,7.171683519482825e-10,6.758620633268256e-10,6.310564538167259e-10,5.829723157500653e-10,5.320379270062676e-10,4.799850821075881e-10,4.271053592167452e-10,3.7204681110286795e-10,3.156703615238963e-10,2.6070320057476813e-10,2.0820638588348307e-10,1.6001108638612178e-10,1.183810420261448e-10,8.386549572681713e-11,5.670337914007725e-11,3.6529333479197586e-11,2.2438214897226217e-11,1.3121252479435629e-11,7.295459029155395e-12,3.8736828980680964e-12,1.974124616931123e-12,9.754086024519735e-13,4.675106514954707e-13,2.243112382771229e-13,1.0394840554681001e-13,4.519544152118776e-14,5.410794659489197e-09,4.212103923391685e-09,3.2850481389253893e-09,2.564731587462574e-09,1.989348646857783e-09,1.534390682785304e-09,1.1808489688464622e-09,9.074577937090501e-10,6.999726486083754e-10,5.413816340899334e-10,4.159909369251669e-10,3.157072767517924e-10,2.3253759833952042e-10,1.6421566386236356e-10,1.108009243198637e-10,7.084875817197955e-11,4.2888828370547177e-11,2.4609244411528283e-11,1.3287577201472203e-11
0.0,49,49.0,0.0,30.0,0.0,0.0,0.0,0.0,-13.0,0.0,2.0,0.0,0.0,0.0,7.233684644301711e-10,6.820880404627117e-10,6.372590251305741e-10,5.890477871314426e-10,5.378086920655045e-10,4.852128431992867e-10,4.3152651742720697e-10,3.7539909250594547e-10,3.177999901985487e-10,2.616550642242031e-10,2.081711028724125e-10,1.5927986119396024e-10,1.1727170617780194e-10,8.2647293593039e-11,5.5570687530405e-11,3.55931180884078e-11,2.173504309265496e-11,1.2635583924260241e-11,6.985508967887675e-12,3.688929140298109e-12,1.8705497131004994e-12,9.195290268171384e-13,4.3908844310450106e-13,2.101880193400365e-13,9.74155951886022e-14,4.192628529677077e-14,5.408870346267133e-09,4.210183480749672e-09,3.2831580105958336e-09,2.5628712049244364e-09,1.987593121745968e-09,1.5333760686780882e-09,1.181868237784698e-09,9.11610656090424e-10,7.071236541116954e-10,5.500527535671234e-10,4.241706036583495e-10,3.219662997601495e-10,2.3647133259366694e-10,1.661923167354298e-10,1.1149460581287969e-10,7.084861671070991e-11,4.2607981514428133e-11,2.428509914822225e-11,1.301920703952537e-11
0.0,50,50.0,0.0,30.0,0.0,0.0,0.0,0.0,-13.0,0.0,2.0,0.0,0.0,0.0,7.301072694430351e-10,6.888244397108039e-10,6.439237396953257e-10,5.955084026954317e-10,5.438550412168709e-10,4.905826690719184e-10,4.3594959275265903e-10,3.7862567351111376e-10,3.197122919963126e-10,2.623467516751956e-10,2.0787576041935756e-10,1.583183535248342e-10,1.1597632081150256e-10,8.129135490013866e-11,5.4345014155896484e-11,3.4600139022085675e-11,2.1001115860990107e-11,1.2135406126864996e-11,6.670086590928939e-12,3.5028336139480075e-12,1.7671917033925797e-12,8.642131034597166e-13,4.111866841142875e-13,1.9638096656604562e-13,9.108352094817855e-14,3.8747522203352694e-14,5.406874766616827e-09,4.208196249448872e-09,3.281207987947367e-09,2.560951370851774e-09,1.9858791666596912e-09,1.5327867670411277e-09,1.1839217107194812e-09,9.172887251750599e-10,7.15863615524758e-10,5.599442884461591e-10,4.3301823700563533e-10,3.2844002120123193e-10,2.403666982664974e-10,1.6803852478202673e-10,1.1205245112264958e-10,7.074012177126318e-11,4.225242934151241e-11,2.391535917442335e-11,1.2727231296852717e-11
0.0,51,51.0,0.0,30.0,0.0,0.0,0.0,0.0,-13.0,0.0,2.0,0.0,0.0,0.0,7.374088286444816e-10,6.960853571312637e-10,6.510507643766235e-10,6.023369309280473e-10,5.50141496665398e-10,4.960444146381191e-10,4.4031681968491226e-10,3.816694756827581e-10,3.213577399788269e-10,2.6273932431857916e-10,2.0729186074999683e-10,1.5710695724298917e-10,1.1448244893728246e-10,7.9790865292468e-11,5.302352138018528e-11,3.3549898789578115e-11,2.023697336352806e-11,1.1621503877179753e-11,6.3498478678849095e-12,3.315831993942935e-12,1.6642983428613436e-12,8.095898971148769e-13,3.838647686377865e-13,1.8291350922670632e-13,8.496053013292251e-14,3.566664571914784e-14,5.404808511470465e-09,4.206145250293266e-09,3.2791990930186723e-09,2.5589821732469765e-09,1.984293361662422e-09,1.5328526688628695e-09,1.1873426422060838e-09,9.247998622493285e-10,7.26370644064011e-10,5.710943585777198e-10,4.424914566629427e-10,3.350696639782618e-10,2.441781665521902e-10,1.6972478027554956e-10,1.1245587554732567e-10,7.051231114135309e-11,4.1816493405814785e-11,2.3497637171973685e-11,1.2410959502409424e-11
0.0,52,52.0,0.0,30.0,0.0,0.0,0.0,0.0,-13.0,0.0,2.0,0.0,0.0,0.0,7.452926765978901e-10,7.038777845157102e-10,6.5863047918966e-10,6.095042357585544e-10,5.566199309460335e-10,5.015363029694885e-10,4.4456116191435956e-10,3.8446699478513453e-10,3.2268273144487564e-10,2.627912194547369e-10,2.0638916456657e-10,1.5562503863910063e-10,1.1277729262068968e-10,7.813912202027427e-11,5.1603693412889866e-11,3.244223253031341e-11,1.9443403242814926e-11,1.1094816578104997e-11,6.025529755019014e-12,3.1283955391929113e-12,1.562130210921106e-12,7.557922290434777e-13,3.571821578669047e-13,1.698086654121778e-13,7.905432081503807e-14,3.269237742931306e-14,5.402673140101153e-09,4.20403436664301e-09,3.2771323170802806e-09,2.55698790870383e-09,1.9829751007803165e-09,1.5338866482423714e-09,1.192534277384426e-09,9.344774463621472e-10,7.388097011564023e-10,5.835154894376081e-10,4.5252926810239183e-10,3.4178762340170413e-10,2.4785632639355183e-10,1.7121922109484413e-10,1.1268471134822552e-10,7.0153504200622e-11,4.129441174362522e-11,2.30296883920737e-11,1.206976879549051e-11
0.0,53,53.0,0.0,30.0,0.0,0.0,0.0,0.0,-13.0,0.0,2.0,0.0,0.0,0.0,7.537715297416866e-10,7.121989248936831e-10,6.666406723983061e-10,6.169667501473037e-10,5.632276922661064e-10,5.069838302196005e-10,4.486058225047397e-10,3.8694808519674557e-10,3.2362938055227337e-10,2.624580099657067e-10,2.0513552883204922e-10,1.5385092283808179e-10,1.1084778875126046e-10,7.632965428461547e-11,5.008343007054506e-11,3.1277365999498204e-11,1.8621471546024555e-11,1.0556451380292196e-11,5.697954104496979e-12,2.9410311770858146e-12,1.4609599600413509e-12,7.029561185277081e-13,3.3119797776844834e-13,1.5708892080849792e-13,7.337181934158668e-14,2.9834201323088805e-14,5.4004716143840035e-09,4.201868041136272e-09,3.2750102656486263e-09,2.5550195712339517e-09,1.9821405761200465e-09,1.5363046049445304e-09,1.199973468894154e-09,9.466713407493847e-10,7.533224140556746e-10,5.97189741187982e-10,4.63051467827066e-10,3.485177626114988e-10,2.51347662125351e-10,1.7248723398714733e-10,1.1271702381179496e-10,6.965126565388409e-11,4.068032019080934e-11,2.250939794032695e-11,1.1703167432534314e-11
0.0,54,54.0,0.0,30.0,0.0,0.0,0.0,0.0,-13.0,0.0,2.0,0.0,0.0,0.0,7.628482604489622e-10,7.210328475036066e-10,6.750432511502053e-10,6.246637026916371e-10,5.698856925265477e-10,5.122987264812742e-10,4.5236378039161523e-10,3.8903568701809957e-10,3.2413521446206027e-10,2.6169210473302443e-10,2.03496752324429e-10,1.5176192651749832e-10,1.0868074836136623e-10,7.435637038322133e-11,4.846115422647492e-11,3.005597995429577e-11,1.7772556112020733e-11,1.000769642277295e-11,5.368030929229297e-12,2.7542811254279053e-12,1.3610713226230684e-12,6.512201256039882e-13,3.0597056831608105e-13,1.4477610874561367e-13,6.79190406105966e-14,2.7101811436964468e-14,5.398208638357875e-09,4.199650747926002e-09,3.2728414601178835e-09,2.553174927111025e-09,1.982114011848055e-09,1.5406461301080767e-09,1.2102097144682308e-09,9.617345904694818e-10,7.700156114635536e-10,6.1206436667584e-10,4.739584786665314e-10,3.5517555308382164e-10,2.545940321307745e-10,1.7349092594750843e-10,1.1252894399269933e-10,6.899244485932776e-11,3.996833004875108e-11,2.1934832588204886e-11,1.1310837014154468e-11
