Line_number,Fiducial,Easting,Northing,Height,Elevation,tx_pitch,tx_roll,tx_yaw,txrx_dx,txrx_dy,txrx_dz,rx_pitch,rx_roll,rx_yaw,S0Z_time_3.834e-04,S0Z_time_3.924e-04,S0Z_time_4.039e-04,S0Z_time_4.184e-04,S0Z_time_4.364e-04,S0Z_time_4.589e-04,S0Z_time_4.869e-04,S0Z_time_5.224e-04,S0Z_time_5.679e-04,S0Z_time_6.249e-04,S0Z_time_6.969e-04,S0Z_time_7.879e-04,S0Z_time_9.019e-04,S0Z_time_1.046e-03,S0Z_time_1.227e-03,S0Z_time_1.456e-03,S0Z_time_1.744e-03,S0Z_time_2.109e-03,S0Z_time_2.567e-03,S0Z_time_3.145e-03,S0Z_time_3.864e-03,S0Z_time_4.745e-03,S0Z_time_5.821e-03,S0Z_time_7.140e-03,S0Z_time_8.754e-03,S0Z_time_1.073e-02,S1Z_time_2.057e-05,S1Z_time_2.607e-05,S1Z_time_3.307e-05,S1Z_time_4.206e-05,S1Z_time_5.356e-05,S1Z_time_6.807e-05,S1Z_time_8.607e-05,S1Z_time_1.086e-04,S1Z_time_1.366e-04,S1Z_time_1.721e-04,S1Z_time_2.176e-04,S1Z_time_2.746e-04,S1Z_time_3.466e-04,S1Z_time_4.376e-04,S1Z_time_5.516e-04,S1Z_time_6.956e-04,S1Z_time_8.771e-04,S1Z_time_1.106e-03,S1Z_time_1.394e-03
0.0,0,0.0,0.0,30.0,0.0,0.0,0.0,0.0,-13.0,0.0,2.0,0.0,0.0,0.0,6.263307765914027e-11,5.7126846181492896e-11,5.1129670786160874e-11,4.480982013510238e-11,3.824203622846613e-11,3.180588657432101e-11,2.5692030186341946e-11,1.9955241542133883e-11,1.4825775919708166e-11,1.0572895752271278e-11,7.212015956471501e-12,4.6877316362716804e-12,2.918935346625778e-12,1.735271765445689e-12,9.839917498072826e-13,5.319831379569724e-13,2.774059741566933e-13,1.3788421771232517e-13,6.65382021990404e-14,3.0417468924501675e-14,1.3721705032076624e-14,5.881140758269769e-15,2.7732315464283317e-15,1.1416263881521614e-15,7.117630100386906e-16,1.921325620187384e-16,3.5389891580073202e-09,1.6250719767428653e-09,8.136371302340352e-10,4.52885551295331e-10,2.863940480860053e-10,2.0242319405503176e-10,1.5134228196546588e-10,1.130869244704446e-10,8.2240554869632e-11,5.716266387379413e-11,3.7634445335010847e-11,2.3634866636511295e-11,1.4085581379181612e-11,7.963579169890647e-12,4.282322880035544e-12,2.1919011669682033e-12,1.0626645348789745e-12,4.918207202185116e-13,2.2104650163663856e-13
0.0,1,1.0,0.0,30.0,0.0,0.0,0.0,0.0,-13.0,0.0,2.0,0.0,0.0,0.0,6.216498266947159e-11,5.712693853759546e-11,5.165709264549291e-11,4.5883255330227515e-11,3.981235995589605e-11,3.375028268536051e-11,2.7850173792879358e-11,2.2155724161027283e-11,1.6902289249347545e-11,1.2398019060768466e-11,8.709030712936564e-12,5.835796382795067e-12,3.7461801271513095e-12,2.295287656728371e-12,1.3403908091179236e-12,7.458401750177036e-13,3.9882075074843885e-13,2.033639496676319e-13,1.0004711441391894e-13,4.6884680379597464e-14,2.150844239712856e-14,9.416887426648753e-15,4.360086497699907e-15,1.8917275796209998e-15,1.066311689845648e-15,3.08111907763074e-16,3.517252019302561e-09,1.6124274372711222e-09,8.07350382680696e-10,4.4597385670292357e-10,2.7489690502942273e-10,1.8820219503117226e-10,1.3861782419822992e-10,1.044845123653981e-10,7.797125723811818e-11,5.609785790561176e-11,3.83840238710602e-11,2.508662215217672e-11,1.5573723907107325e-11,9.170395318956342e-12,5.135744501874771e-12,2.731804360202801e-12,1.3748568405245248e-12,6.602205058979935e-13,3.0325842369009726e-13
0.0,2,2.0,0.0,30.0,0.0,0.0,0.0,0.0,-13.0,0.0,2.0,0.0,0.0,0.0,6.116280485421997e-11,5.637222132107702e-11,5.123317477690617e-11,4.5864508020537966e-11,4.0232540690088266e-11,3.4575703932225435e-11,2.8993928084068383e-11,2.3500192882148545e-11,1.8309760189639078e-11,1.3739303391210233e-11,9.887747570675886e-12,6.796971261489432e-12,4.47854308836998e-12,2.8171869543145546e-12,1.6887099557820603e-12,9.643717627214052e-13,5.27975991264995e-13,2.7568564564367125e-13,1.3825961528056618e-13,6.624338985613232e-14,3.0884753963179866e-14,1.3820606828018685e-14,6.347865913247097e-15,2.8447219918633445e-15,1.485298656777865e-15,4.690352611570701e-16,3.494945596428768e-09,1.6001082066723509e-09,8.035171325641979e-10,4.452784299238932e-10,2.7242193055065904e-10,1.822739355309917e-10,1.308647838649201e-10,9.745719941505447e-11,7.32152522467282e-11,5.377635963603415e-11,3.785480331690741e-11,2.5528456445176377e-11,1.637250768447971e-11,9.967412756493912e-12,5.774509141337936e-12,3.17412371930893e-12,1.6506198993624928e-12,8.185147584736436e-13,3.8506380048809603e-13
0.0,3,3.0,0.0,30.0,0.0,0.0,0.0,0.0,-13.0,0.0,2.0,0.0,0.0,0.0,6.018555150662119e-11,5.547969197965861e-11,5.049301032213517e-11,4.535817080354614e-11,4.00326704442099e-11,3.47136648734697e-11,2.945164103463853e-11,2.4219297987723787e-11,1.9192852230365185e-11,1.4673187660096637e-11,1.0775106379630205e-11,7.568323960069681e-12,5.099877272310416e-12,3.2826017766261587e-12,2.0138538453400063e-12,1.1771788547720613e-12,6.587028761504946e-13,3.515550635414575e-13,1.796492472669473e-13,8.782553307581835e-14,4.160148372029831e-14,1.8999638071441276e-14,8.72242464543282e-15,3.989589287442864e-15,1.9761625749347408e-15,6.8087147856794795e-16,3.4720696045166207e-09,1.5878507354405822e-09,8.001890635352944e-10,4.4630599200363685e-10,2.7372346115003527e-10,1.8138253547140356e-10,1.27518489873487e-10,9.298261380818263e-11,6.921668618018327e-11,5.115208436724396e-11,3.6660663539036764e-11,2.5325113745198905e-11,1.6676507450757836e-11,1.0437313436251039e-11,6.220573819589372e-12,3.516991340117727e-12,1.8820445633081685e-12,9.599117006865212e-13,4.623617127840527e-13
0.0,4,4.0,0.0,30.0,0.0,0.0,0.0,0.0,-13.0,0.0,2.0,0.0,0.0,0.0,5.945496464387896e-11,5.47387953787002e-11,4.978176935558765e-11,4.4738124493299874e-11,3.9577914359470514e-11,3.448650991047568e-11,2.948346238384815e-11,2.450571336701813e-11,1.968282754754758e-11,1.5281253716662718e-11,1.1414103508064502e-11,8.165764110894735e-12,5.609962314661374e-12,3.684277954176385e-12,2.307340104164545e-12,1.377258695704212e-12,7.862833544409798e-13,4.281731835048785e-13,2.227784172797535e-13,1.1094928147561831e-13,5.3374673606431736e-14,2.4835940412921838e-14,1.145245548258419e-14,5.311436324758829e-15,2.5432765160758584e-15,9.439743952912814e-16,3.448610182021141e-09,1.5756879639309916e-09,7.971505450939361e-10,4.478133656100721e-10,2.7631674345221785e-10,1.8293014111465249e-10,1.2711905047996075e-10,9.09203549425313e-11,6.652752680168746e-11,4.8850504684105e-11,3.5246292793704703e-11,2.474673567220643e-11,1.6641322086563893e-11,1.0659815351497099e-11,6.50701874034313e-12,3.769379477284171e-12,2.068213221972175e-12,1.0813174669630076e-12,5.326092763719831e-13
0.0,5,5.0,0.0,30.0,0.0,0.0,0.0,0.0,-13.0,0.0,2.0,0.0,0.0,0.0,5.902710751437428e-11,5.425292383996835e-11,4.9254808130535034e-11,4.4206060760959404e-11,3.9097017222924926e-11,3.412176818514059e-11,2.929021786337228e-11,2.4517646536246394e-11,1.9892570562013097e-11,1.5638010616464816e-11,1.1849469561741033e-11,8.612206832568725e-12,6.016918034369044e-12,4.021954104651909e-12,2.565433247968983e-12,1.5603823947183626e-12,9.073893688802774e-13,5.033305848553151e-13,2.663976573328284e-13,1.3497363899068095e-13,6.591341976095694e-14,3.119979100464385e-14,1.449473039983769e-14,6.792433502094057e-15,3.1871028177467552e-15,1.250853697367982e-15,3.4245734675182665e-09,1.5636384881889963e-09,7.944229530640395e-10,4.495839551904302e-10,2.7932755648960243e-10,1.8547338087046893e-10,1.2834485463705759e-10,9.062977002423741e-11,6.517185168892334e-11,4.7198294190784626e-11,3.393185022658458e-11,2.4005899675566475e-11,1.6389744455361488e-11,1.0701419882831483e-11,6.667042954325329e-12,3.9444639743821985e-12,2.2121351316892314e-12,1.1820609526938026e-12,5.946337910307279e-13
0.0,6,6.0,0.0,30.0,0.0,0.0,0.0,0.0,-13.0,0.0,2.0,0.0,0.0,0.0,5.889043833207642e-11,5.4036165673024595e-11,4.896067865317696e-11,4.385035190379505e-11,3.8714502782418686e-11,3.376500889352139e-11,2.901760362266522e-11,2.4381444673875266e-11,1.9918201872925183e-11,1.5809489780215498e-11,1.2122898746258978e-11,8.931602996672457e-12,6.332375618524557e-12,4.299340292443493e-12,2.7875830610093134e-12,1.7244169000631471e-12,1.0198591244752536e-12,5.753876879087671e-13,3.094857526262476e-13,1.5933087791336461e-13,7.893953286037193e-14,3.795957763601339e-14,1.7798955486620376e-14,8.412517206006589e-15,3.904884277168483e-15,1.5910360677470314e-15,3.3999815283314204e-09,1.5517263113601753e-09,7.920260325757023e-10,4.51613913061222e-10,2.8253095137072637e-10,1.8838577126725816e-10,1.3034518283095715e-10,9.14390276469437e-11,6.48898736954903e-11,4.6270867490252024e-11,3.291238173154686e-11,2.326838573923006e-11,1.6023482379753055e-11,1.0617270148084176e-11,6.729823723354575e-12,4.0558320335309395e-12,2.318669124999515e-12,1.2630091161986357e-12,6.482040621096046e-13
0.0,7,7.0,0.0,30.0,0.0,0.0,0.0,0.0,-13.0,0.0,2.0,0.0,0.0,0.0,5.901097921177887e-11,5.406638269017187e-11,4.8896140720545685e-11,4.369430223658238e-11,3.848443394969839e-11,3.349717899766911e-11,2.87615780189131e-11,2.4192013889573843e-11,1.9839339928392082e-11,1.5853852492839026e-11,1.2272463364542235e-11,9.146795046274427e-12,6.568826193126374e-12,4.522044368711015e-12,2.9752100147524574e-12,1.8687344361773636e-12,1.1224488584004637e-12,6.432028205475106e-13,3.512484684460139e-13,1.8354173509053313e-13,9.220052457223415e-14,4.498869797394043e-14,2.1311746275530025e-14,1.0150135588418244e-14,4.691523099688693e-15,1.958943453838946e-15,3.374863485125025e-09,1.539986532685786e-09,7.899752635860493e-10,4.539170778065104e-10,2.8589484533069854e-10,1.9145101808317081e-10,1.3267840826469918e-10,9.284964348444422e-11,6.535033465310999e-11,4.598423553094397e-11,3.2266776067489293e-11,2.264884730292375e-11,1.5626780608576536e-11,1.0455119234598283e-11,6.720480155277408e-12,4.115874054843199e-12,2.393193104580593e-12,1.3259221082248209e-12,6.935736256799217e-13
0.0,8,8.0,0.0,30.0,0.0,0.0,0.0,0.0,-13.0,0.0,2.0,0.0,0.0,0.0,5.934995935457221e-11,5.4309828088916e-11,4.90366392538955e-11,4.372857068631164e-11,3.8418742863126126e-11,3.335376163108035e-11,2.8577275577607514e-11,2.401444798094175e-11,1.9718272012195533e-11,1.5821052636123226e-11,1.2332768805310737e-11,9.279187175110756e-12,6.738532244198117e-12,4.696333859656835e-12,3.130807686810575e-12,1.9937196065037696e-12,1.2146106841591942e-12,7.060474786622705e-13,3.9109565642316785e-13,2.0721785374098901e-13,1.0547664828144802e-13,5.217030596582411e-14,2.497971735241479e-14,1.1983076162784253e-14,5.540201501933814e-15,2.3569287180081223e-15,3.3492531006601666e-09,1.5284605407397456e-09,7.882902379535264e-10,4.565020775846749e-10,2.8942504179659455e-10,1.94614393888884e-10,1.3515308255998721e-10,9.455846041593301e-11,6.626896363167081e-11,4.618815277995905e-11,3.1987724814888026e-11,2.2209685863212434e-11,1.5264124921667664e-11,1.0256732967006061e-11,6.661281403811065e-12,4.1355996171644695e-12,2.4409103193136678e-12,1.3729598473698178e-12,7.311728729292292e-13
0.0,9,9.0,0.0,30.0,0.0,0.0,0.0,0.0,-13.0,0.0,2.0,0.0,0.0,0.0,5.987011697173394e-11,5.473137875835078e-11,4.9351223977169083e-11,4.393007770705119e-11,3.850725733543809e-11,3.334174282121265e-11,2.8489772054235064e-11,2.388811793706775e-11,1.9599891256327275e-11,1.5751858145153066e-11,1.233459902395886e-11,9.348782556023386e-12,6.85327180513101e-12,4.828555719655858e-12,3.257352855189338e-12,2.1003743488322616e-12,1.2963013249853638e-12,7.635243042340384e-13,4.2861191386669374e-13,2.300564243134186e-13,1.1858300431756776e-13,5.940023717649928e-14,2.875177984374162e-14,1.3889267885379622e-14,6.4429055048362045e-15,2.791785545838864e-15,3.3231889989068515e-09,1.5171927824390967e-09,7.869946436578854e-10,4.5937667269206124e-10,2.931286368493031e-10,1.978707579971295e-10,1.3770129198434227e-10,9.640714407648033e-11,6.744589623461066e-11,4.6730108913021075e-11,3.2019255287831e-11,2.1968977902748987e-11,1.4978025108744388e-11,1.0056883328721518e-11,6.5723244419013006e-12,4.125002907504918e-12,2.4666334324716752e-12,1.4063501489593345e-12,7.614834514006304e-13
0.0,10,10.0,0.0,30.0,0.0,0.0,0.0,0.0,-13.0,0.0,2.0,0.0,0.0,0.0,6.053803210138129e-11,5.5298593803847736e-11,4.9809289348974805e-11,4.427198163883624e-11,3.873022606288318e-11,3.345242569902603e-11,2.85043416656938e-11,2.383241455985269e-11,1.9513205731735787e-11,1.5677240067989387e-11,1.2304173690131856e-11,9.373980216201947e-12,6.924315603491468e-12,4.9249519620959815e-12,3.357984911762191e-12,2.1900308969996938e-12,1.3678204338658482e-12,8.154909576854334e-13,4.635279376034788e-13,2.518312219853199e-13,1.3136835419045877e-13,6.658835105268782e-14,3.2580711501055975e-14,1.5847446362360732e-14,7.391006864125513e-15,3.2686928325450895e-15,3.2967150928691765e-09,1.5062298684953578e-09,7.861142089749329e-10,4.625503061731391e-10,2.9701058909969195e-10,2.0122519037759718e-10,1.403060002803398e-10,9.8324265993087e-11,6.875886537142838e-11,4.748631012321028e-11,3.228835355739252e-11,2.1914099641099745e-11,1.4789967840061713e-11,9.88182667671807e-12,6.4713326798969835e-12,4.093355986618233e-12,2.474818689736479e-12,1.4282203332220534e-12,7.85029518408457e-13
0.0,11,11.0,0.0,30.0,0.0,0.0,0.0,0.0,-13.0,0.0,2.0,0.0,0.0,0.0,6.132508210830466e-11,5.598330098691525e-11,5.038343134224992e-11,4.472852649892839e-11,3.906543161313256e-11,3.367002718920692e-11,2.8614767837299572e-11,2.3852778754359798e-11,1.947412464861806e-11,1.5618668017662197e-11,1.2262517721598892e-11,9.371129019579168e-12,6.9623299604403904e-12,4.991624445456743e-12,3.4358726943373775e-12,2.264172370497758e-12,1.4296821019487966e-12,8.619911564089467e-13,4.956940541261672e-13,2.7238255448879546e-13,1.437123325927984e-13,7.365864434241638e-14,3.642407202416719e-14,1.7837641376604624e-14,8.375838905915248e-15,3.786946803235607e-15,3.269880788278575e-09,1.4956205596304679e-09,7.856754185650439e-10,4.660339799860863e-10,3.0107553426129625e-10,2.046829393465994e-10,1.429672430260612e-10,1.0028313393819842e-10,7.014148910875736e-11,4.8369312809705414e-11,3.272523094340282e-11,2.20158179984229e-11,1.4704365454698185e-11,9.748677057910562e-12,6.373015208938796e-12,4.0492116384989935e-12,2.46965145356506e-12,1.4405496483055972e-12,8.024067201909412e-13
0.0,12,12.0,0.0,30.0,0.0,0.0,0.0,0.0,-13.0,0.0,2.0,0.0,0.0,0.0,6.22077428734324e-11,5.676211227873609e-11,5.1050502318416546e-11,4.5277154814873706e-11,3.9491854760733764e-11,3.397688906834725e-11,2.88093036596212e-11,2.3945994408129906e-11,1.9488790658259292e-11,1.5589271173632145e-11,1.2225280685451364e-11,9.35406199057112e-12,6.9771529192052776e-12,5.0344956264419445e-12,3.494174907710277e-12,2.3243407363553183e-12,1.482522940091429e-12,9.031955516758748e-13,5.250556026516329e-13,2.9160715707087894e-13,1.5552221137412607e-13,8.054857147558255e-14,4.0244582890912486e-14,1.9841506668752453e-14,9.389108085753012e-15,4.3392039578433435e-15,3.2427410753589664e-09,1.4854158424766736e-09,7.857050589457759e-10,4.698394918604014e-10,3.053288130481688e-10,2.08248394407306e-10,1.4568916794130634e-10,1.0227707124000902e-10,7.156201663603734e-11,4.932363574834585e-11,3.327300785137715e-11,2.2239464671828936e-11,1.4713908410631146e-11,9.666052580899165e-12,6.288519000281931e-12,4.000182386364907e-12,2.4550763232105696e-12,1.4451816046417955e-12,8.143000631037581e-13
0.0,13,13.0,0.0,30.0,0.0,0.0,0.0,0.0,-13.0,0.0,2.0,0.0,0.0,0.0,6.316743961761624e-11,5.761636990793263e-11,5.179178724321742e-11,4.589920606703065e-11,3.9991304901531534e-11,3.4356310239055456e-11,2.9074517054683414e-11,2.410426995332339e-11,1.9556793294861242e-11,1.559552034824855e-11,1.2203067748059391e-11,9.333807372401444e-12,6.977519153609177e-12,5.059213275679783e-12,3.536022170633562e-12,2.372100048360397e-12,1.5270446272330261e-12,9.393552353542941e-13,5.516302436881801e-13,3.094483432246544e-13,1.6672971949695467e-13,8.720796092343519e-14,4.4010125906779224e-14,2.1842531354705257e-14,1.0423052780461813e-14,4.913510658377431e-15,3.2153566126382714e-09,1.475668901874632e-09,7.862301250910391e-10,4.739788938050521e-10,3.0977655595543496e-10,2.1192576355063452e-10,1.484761927946904e-10,1.043070310630784e-10,7.300777957257183e-11,5.0317389036147385e-11,3.389010897530357e-11,2.2552129562915755e-11,1.480477962985002e-11,9.635678048173506e-12,6.2252706822685e-12,3.952659651834173e-12,2.4347517885185297e-12,1.4438475269523382e-12,8.214755078389019e-13
0.0,14,14.0,0.0,30.0,0.0,0.0,0.0,0.0,-13.0,0.0,2.0,0.0,0.0,0.0,6.419007643781754e-11,5.853174700761887e-11,5.2592722319818395e-11,4.65798930641879e-11,4.054891768986048e-11,3.4793855556509325e-11,2.939750840674633e-11,2.431806294338377e-11,1.967385860487572e-11,1.5639046502956857e-11,1.2202157687351221e-11,9.318558870597041e-12,6.9708293391069766e-12,5.071012814985317e-12,3.5644836129855722e-12,2.409023956245454e-12,1.563983197374037e-12,9.707689158179457e-13,5.754879640046092e-13,3.258865973941626e-13,1.7728799255200296e-13,9.359778726852478e-14,4.769351196422285e-14,2.3826162408179548e-14,1.1470383595110709e-14,5.496432791692362e-15,3.187793835588888e-09,1.4664350100710187e-09,7.872777967619213e-10,4.78464248632546e-10,3.1442543656116144e-10,2.1571955470445906e-10,1.5133238800032047e-10,1.0637624920143498e-10,7.447553061832145e-11,5.1334175385452354e-11,3.4548722633225634e-11,2.292630450622596e-11,1.4960816022176255e-11,9.654402843554569e-12,6.187246793713201e-12,3.911609422377129e-12,2.4119580920946723e-12,1.4381759667055788e-12,8.247504305109437e-13
0.0,15,15.0,0.0,30.0,0.0,0.0,0.0,0.0,-13.0,0.0,2.0,0.0,0.0,0.0,6.526537944337689e-11,5.949765399443164e-11,5.344237937551754e-11,4.730792344171689e-11,4.11530593757601e-11,3.5277763235804785e-11,2.976700488612589e-11,2.457783551536462e-11,1.9833865144545685e-11,1.5718309105965896e-11,1.222541842139794e-11,9.313886666057994e-12,6.9630257203395825e-12,5.074575417180116e-12,3.5825105620094033e-12,2.4366859271979884e-12,1.5940948707070626e-12,9.977624682995012e-13,5.967346748866977e-13,3.409309029375709e-13,1.8716857728249275e-13,9.968892651330383e-14,5.127213795100643e-14,2.577985091085617e-14,1.2524118974131771e-14,6.075844733137393e-15,3.160125083499863e-09,1.4577713793469165e-09,7.888753876907401e-10,4.833075554217359e-10,3.192824317511719e-10,2.1963469250085718e-10,1.5426166402818884e-10,1.0848832344225867e-10,7.596613373151439e-11,5.236686019823547e-11,3.523175017800783e-11,2.334100009111546e-11,1.516632529985349e-11,9.716167127441436e-12,6.17555667759681e-12,3.8805099452904875e-12,2.389499389743108e-12,1.4296823271041166e-12,8.249547333047859e-13
0.0,16,16.0,0.0,30.0,0.0,0.0,0.0,0.0,-13.0,0.0,2.0,0.0,0.0,0.0,6.638617749933519e-11,6.050657079115398e-11,5.433285577072385e-11,4.807497056755261e-11,4.179495102594064e-11,3.579886373724667e-11,3.0173747652257946e-11,2.4875008473165576e-11,2.0030210468911117e-11,1.5829958921770212e-11,1.2273247936886896e-11,9.323115999437419e-12,6.958591054127511e-12,5.073916797505907e-12,3.5928668083230222e-12,2.4566419246208268e-12,1.6181491381415854e-12,1.0206778794257071e-12,6.154998672412171e-13,3.546111608893688e-13,1.9635845089758154e-13,1.0546093488424771e-13,5.47276055216612e-14,2.7693025278707503e-14,1.3577438011219956e-14,6.6426498705408935e-15,3.1324287281708005e-09,1.4497370032754107e-09,7.910502614445334e-10,4.885207370870632e-10,3.24354677179215e-10,2.236764492117891e-10,1.5726798305250384e-10,1.1064671596877285e-10,7.748195791924969e-11,5.3413381643556184e-11,3.59296474640176e-11,2.378137326634088e-11,1.5407670659569604e-11,9.813631605941474e-12,6.189174532692054e-12,3.861433817793324e-12,2.3696324946178905e-12,1.419744327203908e-12,8.228929034512568e-13
0.0,17,17.0,0.0,30.0,0.0,0.0,0.0,0.0,-13.0,0.0,2.0,0.0,0.0,0.0,6.75477130011185e-11,6.155339362952698e-11,5.525866211243324e-11,4.887511192616186e-11,4.24681907359007e-11,3.6350266969374266e-11,3.061047506172007e-11,2.5202371719804617e-11,2.0256640647846136e-11,1.5969849015189034e-11,1.2344421683900758e-11,9.347787149567276e-12,6.960654749709358e-12,5.0723266576613135e-12,3.598060177248039e-12,2.4704041645246033e-12,1.63692265979907e-12,1.0398680368644928e-12,6.319281527907791e-13,3.669719834575292e-13,2.0485710565015612e-13,1.1090085586607507e-13,5.8045337327607e-14,2.955699499109308e-14,1.462363003524208e-14,7.191345733307507e-15,3.1047892934623385e-09,1.442392494918756e-09,7.93829732041162e-10,4.94115640378505e-10,3.2964940355652866e-10,2.278503339377964e-10,1.6035544555046965e-10,1.1285473084326791e-10,7.902574990642864e-11,5.447420067166017e-11,3.66377909314774e-11,2.4237665449665447e-11,1.567391758723692e-11,9.939360706542964e-12,6.225676905608592e-12,3.855239397773565e-12,2.354038601844857e-12,1.4095728144967648e-12,8.193130681122999e-13
0.0,18,18.0,0.0,30.0,0.0,0.0,0.0,0.0,-13.0,0.0,2.0,0.0,0.0,0.0,6.874703783223187e-11,6.2634851920637e-11,5.621616459507786e-11,4.970430214083543e-11,4.3168271881045633e-11,3.692696854170976e-11,3.107170390629549e-11,2.5554159631639738e-11,2.050768153167882e-11,1.613371803886075e-11,1.2436784353100691e-11,9.388123158453686e-12,6.971173217057787e-12,5.072362990126873e-12,3.600287975710665e-12,2.4794095965242226e-12,1.6511907659591912e-12,1.0556941973419822e-12,6.46174002904659e-13,3.78067976993442e-13,2.126738144000791e-13,1.1600205967030137e-13,6.121420182765473e-14,3.1364794542621785e-14,1.5656162807144034e-14,7.71971196580377e-15,3.0772975612796315e-09,1.4357999236714608e-09,7.972409664808361e-10,5.001040358672652e-10,3.351739206488211e-10,2.321620038222377e-10,1.6352828545577203e-10,1.151155880408618e-10,8.060022602288774e-11,5.5550879298258105e-11,3.735453597459321e-11,2.4703965553592054e-11,1.5956866100068235e-11,1.0086570468668095e-11,6.281889099788241e-12,3.861823475677807e-12,2.343839925136427e-12,1.4001866813861155e-12,8.148852040498998e-13
0.0,19,19.0,0.0,30.0,0.0,0.0,0.0,0.0,-13.0,0.0,2.0,0.0,0.0,0.0,6.998251784034111e-11,6.374902157479082e-11,5.7203110874005645e-11,5.0559914912704587e-11,4.389214753918492e-11,3.7525457607365856e-11,3.1553433332998605e-11,2.5925942521629592e-11,2.0778800926075228e-11,1.6317604577720406e-11,1.254776892943701e-11,9.443454465244828e-12,6.991148244695257e-12,5.075894065492659e-12,3.601403650480234e-12,2.484988388524707e-12,1.6617159452984987e-12,1.0685238694015679e-12,6.583987396709283e-13,3.879604387831099e-13,2.1982520510620997e-13,1.2076313242234853e-13,6.422614674877383e-14,3.31109842414277e-14,1.6668844437667773e-14,8.22800813318883e-15,3.050050661371199e-09,1.430022650308344e-09,8.013108997039071e-10,5.064976208839376e-10,3.4093562516903013e-10,2.366172116383401e-10,1.6679082881208737e-10,1.1743247786086693e-10,8.22079698393127e-11,5.664535570205179e-11,3.8079906437031794e-11,2.5177075258748744e-11,1.625074197738833e-11,1.0249517123659271e-11,6.354392600080592e-12,3.880390419774113e-12,2.3396535409797805e-12,1.392397741361976e-12,8.101882092301787e-13
0.0,20,20.0,0.0,30.0,0.0,0.0,0.0,0.0,-13.0,0.0,2.0,0.0,0.0,0.0,7.12534470528421e-11,6.48949398593585e-11,5.821824801770873e-11,5.1440366486496355e-11,4.4637862433488834e-11,3.8143366800595016e-11,3.205284220932599e-11,2.6314434511807552e-11,2.1066405727909346e-11,1.6518060865704717e-11,1.2674754922326715e-11,9.512572726397621e-12,7.020852339364981e-12,5.0841750032974834e-12,3.602906607166463e-12,2.4883371184023984e-12,1.6692343015752199e-12,1.0787278598808042e-12,6.687688321344754e-13,3.9671524211093503e-13,2.2633323971023587e-13,1.2518684363557803e-13,6.707583950140402e-14,3.479142860161008e-14,1.7656029731572582e-14,8.71802076417341e-15,3.023152141014011e-09,1.4251251587865678e-09,8.060661665673302e-10,5.133080312648249e-10,3.4694202056505126e-10,2.412217842493184e-10,1.7014745117429475e-10,1.1980858057474275e-10,8.385143634582449e-11,5.775961246163217e-11,3.88147725953366e-11,2.5655591225828268e-11,1.6551744530558956e-11,1.0423623846940955e-11,6.439883446304156e-12,3.909704165861676e-12,2.3416701943697222e-12,1.386808078872731e-12,8.057044297646692e-13
0.0,21,21.0,0.0,30.0,0.0,0.0,0.0,0.0,-13.0,0.0,2.0,0.0,0.0,0.0,7.255976014567609e-11,6.607231379041231e-11,5.926102801107923e-11,5.234481966533533e-11,4.540425682307779e-11,3.877917991284505e-11,3.2568015711909674e-11,2.671727898763252e-11,2.136774986295285e-11,1.6732229117770273e-11,1.2815292539496466e-11,9.594004622182647e-12,7.060038614759633e-12,5.0979444124318805e-12,3.605953052838748e-12,2.490499767276984e-12,1.6744416226651838e-12,1.0866760879419638e-12,6.774547220213677e-13,4.0440160312650945e-13,2.322236379781876e-13,1.2927922315272155e-13,6.976031557315697e-14,3.640307324206526e-14,1.8612818766610335e-14,9.192190172201187e-15,2.996712009119431e-09,1.4211728830493041e-09,8.115330518428396e-10,5.205468658666014e-10,3.532007440589842e-10,2.4598162224114055e-10,1.736025487248075e-10,1.2224706463329364e-10,8.5532979670083e-11,5.88955478199108e-11,3.956037016051284e-11,2.613922335432e-11,1.685757566438713e-11,1.0605438335306619e-11,6.535395510886568e-12,3.948302451903533e-12,2.349745212429821e-12,1.3838195651536477e-12,8.018199686952002e-13
0.0,22,22.0,0.0,30.0,0.0,0.0,0.0,0.0,-13.0,0.0,2.0,0.0,0.0,0.0,7.390182615441019e-11,6.728130765527939e-11,6.033138927735098e-11,5.327295981299895e-11,4.619073744251426e-11,3.9431999036863275e-11,3.3097715607656785e-11,2.7132845325071084e-11,2.1680803826461936e-11,1.695783204382278e-11,1.296722424022183e-11,9.686208984624543e-12,7.108121791691516e-12,5.117528088967018e-12,3.6113833301689707e-12,2.4923578142086123e-12,1.6779806987443922e-12,1.0927323538390554e-12,6.846296512551712e-13,4.1109141052535153e-13,2.3752473091011e-13,1.330487724275887e-13,7.22786394417583e-14,3.79437379543454e-14,1.953520710965208e-14,9.652937539523359e-15,2.970846748572041e-09,1.4182320274718862e-09,8.177374577684488e-10,5.282257252483166e-10,3.5971959950334075e-10,2.5090271261299413e-10,1.7716052586767637e-10,1.2475107815569767e-10,8.725487698092655e-11,6.005494171273915e-11,4.031803939962754e-11,2.662832122525823e-11,1.7167017777995187e-11,1.0792496481875197e-11,6.638414543311224e-12,3.994664184479329e-12,2.363490489959283e-12,1.3836533349114122e-12,7.988292309962092e-13
0.0,23,23.0,0.0,30.0,0.0,0.0,0.0,0.0,-13.0,0.0,2.0,0.0,0.0,0.0,7.528030554922858e-11,6.852239348304854e-11,6.142960007924707e-11,5.42248309550866e-11,4.69971061503627e-11,4.01013658055731e-11,3.3641196615388705e-11,2.7560052696976808e-11,2.2004117051859184e-11,1.7193115920443416e-11,1.3128733536053987e-11,9.787707648555813e-12,7.164324437409512e-12,5.142939699940364e-12,3.619760313915688e-12,2.494629227655241e-12,1.6804311426149184e-12,1.0972485580334397e-12,6.904682117984324e-13,4.1685883758183675e-13,2.422666851853512e-13,1.365058230197465e-13,7.463158480424817e-14,3.9411938312844234e-14,2.0420164964180052e-14,1.0102228243035447e-14,2.9456792904313404e-09,1.4163693803308456e-09,8.247048884854942e-10,5.363562641186615e-10,3.6650659549013795e-10,2.55991149079248e-10,1.808257966994598e-10,1.273237427994344e-10,8.901934409405429e-11,6.123946027463174e-11,4.108909697313562e-11,2.7123564234792524e-11,1.7479588741647464e-11,1.0983146665972185e-11,6.7469120226239975e-12,4.0473293507385886e-12,2.3823594342644023e-12,1.3863760798824289e-12,7.969424045822884e-13
0.0,24,24.0,0.0,30.0,0.0,0.0,0.0,0.0,-13.0,0.0,2.0,0.0,0.0,0.0,7.669605449172413e-11,6.979624923022871e-11,6.255614983148867e-11,5.5200719530764035e-11,4.7823435551897905e-11,4.078712836145795e-11,3.4198065049003126e-11,2.7998225966024155e-11,2.233669033490315e-11,1.7436772616262883e-11,1.3298346225947836e-11,9.89716332174698e-12,7.227788090705218e-12,5.173971681836876e-12,3.6314136182265575e-12,2.497875120799188e-12,1.6823024423182798e-12,1.1005589550122118e-12,6.951445412357562e-13,4.2178002310656036e-13,2.464810153886765e-13,1.39662041521696e-13,7.682134125644516e-14,4.080674233518966e-14,2.1265640236123897e-14,1.0541353835259646e-14,2.921338943624106e-09,1.4156521204495219e-09,8.324604509930995e-10,5.449502562016156e-10,3.7356998806721246e-10,2.612531566684918e-10,1.8460279634043238e-10,1.2996815372978318e-10,9.08285454996195e-11,6.24506724365831e-11,4.1874782595681866e-11,2.7625770676578378e-11,1.7795278264498863e-11,1.11763701330444e-11,6.85932571354493e-12,4.104976290185182e-12,2.405719846137903e-12,1.391929861048203e-12,7.962948179212293e-13
0.0,25,25.0,0.0,30.0,0.0,0.0,0.0,0.0,-13.0,0.0,2.0,0.0,0.0,0.0,7.815006288255943e-11,7.110369171337975e-11,6.371167601301017e-11,5.6201074375365124e-11,4.866998123598466e-11,4.148934506901951e-11,3.4768173327288064e-11,2.8446982716068196e-11,2.2677866262444274e-11,1.768785732016058e-11,1.3474903567056639e-11,1.0013417894833347e-11,7.297652417092137e-12,5.210272587724748e-12,3.646485174574779e-12,2.5025122892679436e-12,1.6840304711096362e-12,1.1029749689844733e-12,6.988302270323379e-13,4.2593268328286746e-13,2.502002938595648e-13,1.425300681043617e-13,7.885125321659096e-14,4.212766339637105e-14,2.2070494171125836e-14,1.0970887760395678e-14,2.8979612738994393e-09,1.4161476179282832e-09,8.410288726411865e-10,5.540196698057581e-10,3.8091832711695324e-10,2.6669511864668547e-10,1.8849599845255837e-10,1.326873860164615e-10,9.26846023251767e-11,6.36900678973196e-11,4.267624481800087e-11,2.8135788023728388e-11,1.811435739797207e-11,1.1371617786493259e-11,6.97450906355303e-12,4.166463889133484e-12,2.4329124147021193e-12,1.4001625166056831e-12,7.969573193633533e-13
0.0,26,26.0,0.0,30.0,0.0,0.0,0.0,0.0,-13.0,0.0,2.0,0.0,0.0,0.0,7.96434157937823e-11,7.244563397641939e-11,6.489691660734896e-11,5.7226453283170264e-11,4.9537121541786114e-11,4.220821661629924e-11,3.535154335212423e-11,2.8906147620701422e-11,2.3027239900390455e-11,1.7945711589590988e-11,1.365752142828387e-11,1.0135503156744343e-11,7.3731073629859e-12,5.25140951443634e-12,3.664972825123885e-12,2.5088296925744632e-12,1.68597727573613e-12,1.1047809638797149e-12,7.016920595846645e-13,4.29395585718256e-13,2.5345797485535083e-13,1.451232673624892e-13,8.072559451856424e-14,4.3374586522100475e-14,2.2834386464821775e-14,1.1390761150083363e-14,2.8756879262379144e-09,1.4179232306998154e-09,8.504345355466113e-10,5.635767523401633e-10,3.885605052412519e-10,2.723236045387035e-10,1.9250993614997718e-10,1.3548450617814333e-10,9.45896005630702e-11,6.49590731261311e-11,4.3494545320106324e-11,2.8654435640906412e-11,1.8437247807265196e-11,1.1568672854343283e-11,7.091666062339684e-12,4.2308470602284354e-12,2.4632945682147294e-12,1.4108563972600957e-12,7.989469958351498e-13
0.0,27,27.0,0.0,30.0,0.0,0.0,0.0,0.0,-13.0,0.0,2.0,0.0,0.0,0.0,8.117727058219882e-11,7.382305930379356e-11,6.611268027301189e-11,5.827748845939637e-11,5.042531738447778e-11,4.2944039351917976e-11,3.594831222973759e-11,2.937568935361288e-11,2.3384588816908096e-11,1.8209896431709574e-11,1.3845544850808919e-11,1.026263372081299e-11,7.453423879039164e-12,5.296915950410901e-12,3.6867696844364646e-12,2.5170070568413793e-12,1.6884336897079329e-12,1.10623120007995e-12,7.038898004133907e-13,4.322478723735712e-13,2.562882651024924e-13,1.4745556576224713e-13,8.244937940234227e-14,4.454772256564831e-14,2.355762987933277e-14,1.1800407802064662e-14,2.854666385680318e-09,1.4210460996301807e-09,8.607015286494034e-10,5.736341221489199e-10,3.9650580795891556e-10,2.7814539843044914e-10,1.96649224381697e-10,1.38362587132848e-10,9.654560055037281e-11,6.625906504154433e-11,4.433067061135561e-11,2.9182479523012025e-11,1.8764436708504193e-11,1.176754182952926e-11,7.2102830085220795e-12,4.2973734144799726e-12,2.4962708111884558e-12,1.423753894827373e-12,8.02237699485025e-13
0.0,28,28.0,0.0,30.0,0.0,0.0,0.0,0.0,-13.0,0.0,2.0,0.0,0.0,0.0,8.275284420604105e-11,7.523700623789172e-11,6.735982846480826e-11,5.935486500655209e-11,5.1335086284728815e-11,4.369717406315415e-11,3.6558694746720654e-11,2.985567527737237e-11,2.3749819988411182e-11,1.848013699153418e-11,1.4038503839173343e-11,1.0394189671381498e-11,7.537968587130407e-12,5.3463264608387086e-12,3.711698004713959e-12,2.527134053829177e-12,1.6916241689944509e-12,1.1075480593658427e-12,7.055741221861381e-13,4.34568256460721e-13,2.5872599188360267e-13,1.4954134938405976e-13,8.402820815843591e-14,4.5647583525151425e-14,2.4241033607817958e-14,1.2198936252105367e-14,2.835049672658959e-09,1.4255829459927705e-09,8.718537184150253e-10,5.842048662407153e-10,4.0476396414140595e-10,2.8416752698610537e-10,2.0091858256085713e-10,1.413247249398863e-10,9.855464775796116e-11,6.759138290804318e-11,4.518554562636136e-11,2.9720625407000805e-11,1.9096424857762298e-11,1.196837197233386e-11,7.330064322499875e-12,4.36546789664595e-12,2.5313114697867743e-12,1.4385789118182668e-12,8.067699859993732e-13
0.0,29,29.0,0.0,30.0,0.0,0.0,0.0,0.0,-13.0,0.0,2.0,0.0,0.0,0.0,8.437140698580641e-11,7.668856065955917e-11,6.863926537971009e-11,6.0459308154681e-11,5.2266986188177246e-11,4.446802569455572e-11,3.718295807416546e-11,3.034623967859274e-11,2.4122930617132596e-11,1.8756278577484582e-11,1.4236073587864804e-11,1.0529694337343472e-11,7.626207120401061e-12,5.3992001881595275e-12,3.739537066098478e-12,2.5392288596583862e-12,1.6957132011335998e-12,1.108921496312081e-12,7.068848462298025e-13,4.364341406527415e-13,2.608064388492421e-13,1.513953979305973e-13,8.546814377807213e-14,4.6674972118546545e-14,2.488575137091182e-14,1.2585297963409229e-14,2.81699597032461e-09,1.4315998762987948e-09,8.839148393948589e-10,5.953026427001732e-10,4.133451958331999e-10,2.903972868100491e-10,2.053228567159067e-10,1.4437405607823283e-10,1.0061878446785535e-10,6.895733903991118e-11,4.606004678097464e-11,3.0269521586435664e-11,1.943369733198966e-11,1.2171391643420669e-11,7.450876267152237e-12,4.4347107535789704e-12,2.567962093888152e-12,1.4550539775350358e-12,8.124601884184587e-13
0.0,30,30.0,0.0,30.0,0.0,0.0,0.0,0.0,-13.0,0.0,2.0,0.0,0.0,0.0,8.603428031375146e-11,7.817885226797664e-11,6.995193287709801e-11,6.159157619469067e-11,5.322160585689388e-11,4.525703062941956e-11,3.782140518027442e-11,3.084756203412057e-11,2.4503979937908004e-11,1.903825279868069e-11,1.4438040562447818e-11,1.0668790840467393e-11,7.71770002508305e-12,5.455135328191869e-12,3.7700451879043864e-12,2.553255251775053e-12,1.7008126669803505e-12,1.110509585902262e-12,7.07949562678623e-13,4.3792071274789127e-13,2.6256513634658184e-13,1.530328350813948e-13,8.677561476143579e-14,4.763097937017636e-14,2.549314583070817e-14,1.2958431705884799e-14,2.800668183035453e-09,1.4391622005907324e-09,8.969086059365691e-10,6.069417867388682e-10,4.222602668640035e-10,2.9684227095600496e-10,2.0986704078266231e-10,1.4751377440152553e-10,1.0274006177212663e-10,7.035822869507798e-11,4.695501361798365e-11,3.082976620430685e-11,1.9776709291161458e-11,1.2376869069786931e-11,7.572700133001158e-12,4.5048128098817565e-12,2.605845765104837e-12,1.4729131262418291e-12,8.192084538592371e-13
0.0,31,31.0,0.0,30.0,0.0,0.0,0.0,0.0,-13.0,0.0,2.0,0.0,0.0,0.0,8.77428367087682e-11,7.97090537159238e-11,7.12988084653446e-11,6.275245702483409e-11,5.4199559555916e-11,4.6064649073225565e-11,3.847436430281162e-11,3.135985252139425e-11,2.4893069421075252e-11,1.9326052203077362e-11,1.464427471855118e-11,1.0811219693351606e-11,7.812094244704957e-12,5.513776670882318e-12,3.8029763353838825e-12,2.5691377245805435e-12,1.7069896100018818e-12,1.112439982965003e-12,7.088826769691656e-13,4.3910007377393134e-13,2.6403760600203553e-13,1.5446908023963735e-13,8.795733872564737e-14,4.851698505333217e-14,2.606467637638057e-14,1.3317373817779077e-14,2.786233427119956e-09,1.4483342713350386e-09,9.108588462623282e-10,6.191374194556073e-10,4.315205299163436e-10,3.035103945413982e-10,2.145562968843051e-10,1.5074714725305875e-10,1.0492055137278237e-10,7.179533933132106e-11,4.787125889227548e-11,3.140191605682763e-11,2.0125881079039198e-11,1.2585085273157136e-11,7.695594952502662e-12,4.575590788276365e-12,2.644660358904515e-12,1.4919109215853633e-12,8.269056562667395e-13
0.0,32,32.0,0.0,30.0,0.0,0.0,0.0,0.0,-13.0,0.0,2.0,0.0,0.0,0.0,8.949850125595933e-11,8.128038130132759e-11,7.268090510079706e-11,6.394276690422501e-11,5.5201484465905827e-11,4.689136079792361e-11,3.9142182544951137e-11,3.188334264053865e-11,2.5290329212107808e-11,1.9619711760433228e-11,1.485470748216743e-11,1.0956798711204196e-11,7.90911241055973e-12,5.574818073340137e-12,3.838092012421264e-12,2.586774371904254e-12,1.7142739682571288e-12,1.1148120844488653e-12,7.09784889454987e-13,4.4004044587836436e-13,2.652590682621987e-13,1.5571979175014554e-13,8.902026152329971e-14,4.933465710911434e-14,2.6601813319245903e-14,1.366133158578567e-14,2.7738624572773594e-09,1.459179350944904e-09,9.257896599014775e-10,6.319055584326287e-10,4.41137971940422e-10,3.1040991955636057e-10,2.1939597459227626e-10,1.5407753048690486e-10,1.0716235679344462e-10,7.32699592588456e-11,4.880957722646767e-11,3.198649534736685e-11,2.048159876915874e-11,1.2796317419428367e-11,7.81966893983158e-12,4.646944400639717e-12,2.684172502967894e-12,1.5118281611215596e-12,8.354391661065003e-13
0.0,33,33.0,0.0,30.0,0.0,0.0,0.0,0.0,-13.0,0.0,2.0,0.0,0.0,0.0,9.130275377502693e-11,8.289409652665585e-11,7.409927204746542e-11,6.51633505303346e-11,5.622803977805756e-11,4.773766303263957e-11,3.982522220692803e-11,3.241827936421671e-11,2.5695909091964066e-11,1.9919295672133663e-11,1.506931478143343e-11,1.1105405798693798e-11,8.008541486238076e-12,5.6380014396652176e-12,3.875169221189257e-12,2.6060474910757503e-12,1.7226659316334332e-12,1.1176996840331463e-12,7.107430853110757e-13,4.408054962077508e-13,2.662641268672285e-13,1.56800796230321e-13,8.997150707790993e-14,5.008594742773332e-14,2.7105978364518377e-14,1.3989722272817497e-14,2.7637290345765765e-09,1.4717595166902219e-09,9.417255990858395e-10,6.452632293151688e-10,4.511252580017879e-10,3.1754947905960014e-10,2.2439162924972427e-10,1.5750838232535034e-10,1.0946762376343766e-10,7.478338565957062e-11,4.977075254236137e-11,3.258400366251636e-11,2.0844217585991096e-11,1.3010829526826617e-11,7.945058428668983e-12,4.718836161449604e-12,2.7242096324484928e-12,1.5324748536788813e-12,8.446975090753911e-13
0.0,34,34.0,0.0,30.0,0.0,0.0,0.0,0.0,-13.0,0.0,2.0,0.0,0.0,0.0,9.315713115373689e-11,8.455150808581188e-11,7.555499642393132e-11,6.641508194789245e-11,5.727990680547326e-11,4.8604069659106374e-11,4.052385887480428e-11,3.2964921668883303e-11,2.6109972643745726e-11,2.022488820951773e-11,1.5288104298660537e-11,1.1256964714193103e-11,8.110221773464279e-12,5.70311347107912e-12,3.914005271645167e-12,2.62683201079199e-12,1.7321426896458506e-12,1.1211539233385487e-12,7.11830590582933e-13,4.414538006486467e-13,2.670864464123594e-13,1.577280024313457e-13,9.081833390666639e-14,5.07730825079016e-14,2.7578508995124304e-14,1.430218352544925e-14,2.756009244978216e-09,1.4861356122693887e-09,9.586918742094779e-10,6.592285775324171e-10,4.614957738100531e-10,3.249381010260629e-10,2.2954903948811938e-10,1.6104327610176798e-10,1.1183854966838898e-10,7.633693193278451e-11,5.075556446392495e-11,3.31949229076639e-11,2.1214066583049197e-11,1.3228868151577034e-11,8.071912950915649e-12,4.791274318330832e-12,2.7646512108457464e-12,1.5536910576629935e-12,8.545739826134788e-13
0.0,35,35.0,0.0,30.0,0.0,0.0,0.0,0.0,-13.0,0.0,2.0,0.0,0.0,0.0,9.506323046625299e-11,8.625397420416089e-11,7.704920480592183e-11,6.769886567836128e-11,5.835778962077422e-11,4.949111127659233e-11,4.123848065667171e-11,3.3523538627365666e-11,2.6532693619674095e-11,2.0536587520101134e-11,1.551110612948215e-11,1.1411433640651526e-11,8.214036872514282e-12,5.769981153549813e-12,3.954420168618477e-12,2.6490019409815705e-12,1.7426644258610523e-12,1.1252063688340258e-12,7.131077368860378e-13,4.4203845943073737e-13,2.6775843899634203e-13,1.5851730090202904e-13,9.156809518910608e-14,5.139854843512241e-14,2.8020643050845384e-14,1.4598562433571105e-14,2.7508807806304465e-09,1.5023672555772663e-09,9.767145828426946e-10,6.738209793420591e-10,4.722636673143571e-10,3.3258523215597925e-10,2.3487422409004016e-10,1.6468591200829375e-10,1.142773920648234e-10,7.79319343452972e-11,5.1764793853322045e-11,3.381972318063622e-11,2.159145361498147e-11,1.3450661276903705e-11,8.200385148350982e-12,4.864298919383499e-12,2.8054198885230406e-12,1.5753461235079475e-12,8.649693237110955e-13
0.0,36,36.0,0.0,30.0,0.0,0.0,0.0,0.0,-13.0,0.0,2.0,0.0,0.0,0.0,9.702271179818286e-11,8.800290503011599e-11,7.858306516988612e-11,6.901563819878714e-11,5.946241602975491e-11,5.039933567152385e-11,4.196948806851551e-11,3.409440850754904e-11,2.6964253814878397e-11,2.085450157102938e-11,1.5738366095847817e-11,1.156879624189929e-11,8.319904898372107e-12,5.8384666926834255e-12,3.99625721542226e-12,2.672435095187075e-12,1.7541794902987365e-12,1.1298720737397446e-12,7.146226709036065e-13,4.4260686613685115e-13,2.683109741691188e-13,1.5918445268018234e-13,9.22282001471333e-14,5.196507032457633e-14,2.843351915861879e-14,1.487889054051142e-14,2.7485221998386462e-09,1.5205129121459117e-09,9.9582096109857e-10,6.890611514398482e-10,4.834438898687088e-10,3.405007619746405e-10,2.403734583562041e-10,1.6844012800413429e-10,1.1678647632789804e-10,7.956975799362458e-11,5.279922760771403e-11,3.44588676732507e-11,2.1976670073464203e-11,1.3676419133654753e-11,8.330624354033837e-12,4.937970804795685e-12,2.846473121357666e-12,1.5973368163292746e-12,8.757935365915978e-13
0.0,37,37.0,0.0,30.0,0.0,0.0,0.0,0.0,-13.0,0.0,2.0,0.0,0.0,0.0,9.903730128764187e-11,8.979976512456688e-11,8.015778885664282e-11,7.036636947802049e-11,6.059453868644013e-11,5.132930854770106e-11,4.271729431789727e-11,3.467781849044602e-11,2.7404841922882992e-11,2.117874559346735e-11,1.5969941082385695e-11,1.1729054828563645e-11,8.427771045749983e-12,5.9084623871250265e-12,4.039382371404127e-12,2.6970163571987704e-12,1.766628739868846e-12,1.1351525154791052e-12,7.164123440109017e-13,4.4320062324740227e-13,2.687731236622056e-13,1.5974497135847042e-13,9.28060753378132e-14,5.2475586860839534e-14,2.8818188604652583e-14,1.5143351466442638e-14,2.7491121855014153e-09,1.5406300432963766e-09,1.0160396554122014e-09,7.049712584858584e-10,4.95052237569185e-10,3.4869504755066875e-10,2.46053290129491e-10,1.7230991005469841e-10,1.1936820254536608e-10,8.125180211472939e-11,5.385966281905322e-11,3.511281673099788e-11,2.236999513048742e-11,1.3906336075172741e-11,8.46277286495748e-12,5.012363183886455e-12,2.8877955722895276e-12,1.6195847184219497e-12,8.869669963408454e-13
0.0,38,38.0,0.0,30.0,0.0,0.0,0.0,0.0,-13.0,0.0,2.0,0.0,0.0,0.0,1.011087942527673e-10,9.164607600494487e-11,8.177463257282264e-11,7.175206455440168e-11,6.175493627280741e-11,5.228161437564495e-11,4.348232579831374e-11,3.527406475551034e-11,2.7854653019588332e-11,2.150944055586167e-11,1.6205895873801404e-11,1.1892225252617796e-11,8.537601467162547e-12,5.979885760322659e-12,4.083682797189485e-12,2.7226397605788077e-12,1.7799490799419075e-12,1.1410383293116882e-12,7.185036207105114e-13,4.4385559105403175e-13,2.6917194920774966e-13,1.6021400331955665e-13,9.330912518294104e-14,5.293322086851381e-14,2.9175634550606395e-14,1.5392246514484658e-14,2.7528288258177474e-09,1.56277533715943e-09,1.0374010120488897e-09,7.215750180724711e-10,5.071053934442969e-10,3.5717893914094407e-10,2.5192055561798983e-10,1.7629940187263086e-10,1.2202505179307382e-10,8.297950480466988e-11,5.494691038220418e-11,3.5782031205769974e-11,2.2771699397447807e-11,1.4140592925548309e-11,8.59696411738936e-12,5.087555406529317e-12,2.9293924657563973e-12,1.6420332342880452e-12,8.98420946121592e-13
0.0,39,39.0,0.0,30.0,0.0,0.0,0.0,0.0,-13.0,0.0,2.0,0.0,0.0,0.0,1.032390584072883e-10,9.354341874108704e-11,8.343490041979682e-11,7.317376513147731e-11,6.294441469963222e-11,5.3256857288865074e-11,4.426502268416642e-11,3.5883452769752835e-11,2.8313888433233557e-11,2.1846712323148972e-11,1.64463010800743e-11,1.2058333178226062e-11,8.649378351293785e-12,6.052675139010598e-12,4.129064924903213e-12,2.7492096314962116e-12,1.7940762692487815e-12,1.1475117857403054e-12,7.20914450712607e-13,4.446020525773188e-13,2.695323385395061e-13,1.6060621085427418e-13,9.374469163843245e-14,5.3341246995944465e-14,2.9506795040780014e-14,1.5625962195303696e-14,2.759848945025088e-09,1.5870050293484421e-09,1.0599373809593038e-09,7.388978029026315e-10,5.196209712361482e-10,3.6596380703653623e-10,2.579823951469297e-10,1.804129143249046e-10,1.2475959193364072e-10,8.475434721922394e-11,5.6061798126237076e-11,3.6466975225426533e-11,2.3182048001535978e-11,1.4379359435237364e-11,8.733322151814351e-12,5.163628534537349e-12,2.9712839534132692e-12,1.6646444487920378e-12,9.100975025871343e-13
0.0,40,40.0,0.0,30.0,0.0,0.0,0.0,0.0,-13.0,0.0,2.0,0.0,0.0,0.0,1.0543003717193405e-10,9.549343660943026e-11,8.513994595240234e-11,7.463255118572028e-11,6.4163808309463e-11,5.425566198880728e-11,4.506583956195173e-11,3.650629767832428e-11,2.8782755839177827e-11,2.2190691258524968e-11,1.6691231830866583e-11,1.2227411420704606e-11,8.763096050776074e-12,6.1267857708498e-12,4.17545230554981e-12,2.7766410179003003e-12,1.8089470677813564e-12,1.1545489822869195e-12,7.236550572926396e-13,4.454649747724233e-13,2.698768916896459e-13,1.609356624218008e-13,9.412001333784243e-14,5.370305762675414e-14,2.9812586903817196e-14,1.5844942194873902e-14,2.7703475155929684e-09,1.6133753181651038e-09,1.0836834300082357e-09,7.569667402617424e-10,5.32617561538203e-10,3.7506156983948613e-10,2.642462689587351e-10,1.8465493465923446e-10,1.2757448307550462e-10,8.657785733745295e-11,5.720517353706637e-11,3.716811848752744e-11,2.360130312857512e-11,1.462279662833576e-11,8.871961906094107e-12,5.240662344897145e-12,3.013500472208779e-12,1.6873960248094837e-12,9.219492775874677e-13
0.0,41,41.0,0.0,30.0,0.0,0.0,0.0,0.0,-13.0,0.0,2.0,0.0,0.0,0.0,1.076837530919174e-10,9.749783781660356e-11,8.689117427589954e-11,7.612954258916608e-11,6.541398107640741e-11,5.5278674640638336e-11,4.5885246062326784e-11,3.7142924734981894e-11,2.9261469475356554e-11,2.2541512098997138e-11,1.6940766999607214e-11,1.239949809495556e-11,8.878758096354043e-12,6.202186506891152e-12,4.222783413988408e-12,2.8048595963782337e-12,1.8245008156206518e-12,1.162121738932056e-12,7.267291030745136e-13,4.464643455031573e-13,2.7022585711976813e-13,1.6121573361786108e-13,9.444218483415121e-14,5.402212808381724e-14,3.0093928333873786e-14,1.6049665076888722e-14,2.7844971863784967e-09,1.6419428767829457e-09,1.1086764651888174e-09,7.758108092467928e-10,5.461147810502812e-10,3.8448472434995335e-10,2.707199731739025e-10,1.8903013569027012e-10,1.3047248281802167e-10,8.845161336967818e-11,5.837790613482024e-11,3.7885938167823895e-11,2.4029726101662918e-11,1.4871058927297384e-11,9.01299000046541e-12,5.3187334389275476e-12,3.056079025909973e-12,1.710278271706309e-12,9.339387151682648e-13
0.0,42,42.0,0.0,30.0,0.0,0.0,0.0,0.0,-13.0,0.0,2.0,0.0,0.0,0.0,1.1000231137164645e-10,9.955839830567766e-11,8.869004419217086e-11,7.766590075392941e-11,6.669582780447828e-11,5.6326563753774525e-11,4.672372747565337e-11,3.7793669737429885e-11,2.9750250413415826e-11,2.2899313990569257e-11,1.7194988781342487e-11,1.2574635363314671e-11,8.996374938712314e-12,6.278857030727987e-12,4.271009533744979e-12,2.833801215533246e-12,1.840680531942122e-12,1.1701992009903442e-12,7.301348029139289e-13,4.4761556617457224e-13,2.705971151371939e-13,1.6145902159878245e-13,9.471811672900859e-14,5.430198208639946e-14,3.035175858236414e-14,1.6240628030171364e-14,2.8024679633994465e-09,1.6727654619183924e-09,1.1349567522699904e-09,7.954609366472868e-10,5.601333256672002e-10,3.942463771915918e-10,2.774116560247e-10,1.9354338507265801e-10,1.334564513927257e-10,9.037724688715449e-11,5.95808895650804e-11,3.86209205191021e-11,2.446757906946113e-11,1.5124296006738352e-11,9.156505777226423e-12,5.397914180072014e-12,3.099060292156843e-12,1.7332914703971684e-12,9.46037231998855e-13
0.0,43,43.0,0.0,30.0,0.0,0.0,0.0,0.0,-13.0,0.0,2.0,0.0,0.0,0.0,1.1238790353834404e-10,1.0167696465951538e-10,9.053807040687107e-11,7.92428303069127e-11,6.801027532944446e-11,5.740002104745849e-11,4.758178534432383e-11,3.845887944940052e-11,3.024932684681611e-11,2.326424060803137e-11,1.745398249816419e-11,1.2752868616878116e-11,9.115962273050758e-12,6.356785589803313e-12,4.320092798365217e-12,2.8634112037094116e-12,1.857433619858977e-12,1.1787491637939776e-12,7.338659615948718e-13,4.4892988121756584e-13,2.710062044728198e-13,1.616772748560901e-13,9.495449753873599e-14,5.454615828645063e-14,3.058705376661277e-14,1.6418336266107996e-14,2.8244270807024738e-09,1.7059026151511305e-09,1.162567835484518e-09,8.159500928295227e-10,5.746950280311008e-10,4.043602782559298e-10,2.8432983447981427e-10,1.9819975477444477e-10,1.3652935679319921e-10,9.235644574369595e-11,6.081504345883302e-11,3.9373562223281706e-11,2.491512637414309e-11,1.538265436866271e-11,9.302602434253476e-12,5.4782722320222225e-12,3.1424864436070553e-12,1.7564435041675665e-12,9.582242374483755e-13
0.0,44,44.0,0.0,30.0,0.0,0.0,0.0,0.0,-13.0,0.0,2.0,0.0,0.0,0.0,1.1484281124695731e-10,1.0385545711650072e-10,9.243682580899752e-11,8.086158080296568e-11,6.935828373018723e-11,5.849976230490198e-11,4.845993803126143e-11,3.913891200172525e-11,3.075893437443221e-11,2.3636440311756445e-11,1.7717836543898274e-11,1.2934245962447935e-11,9.237539819947083e-12,6.435967170602069e-12,4.3700044316327044e-12,2.8936435407866222e-12,1.8747122559598358e-12,1.1877391407669297e-12,7.379129212819488e-13,4.504148275243783e-13,2.7146638681345275e-13,1.6188133941406461e-13,9.515775812479033e-14,5.4758178562158214e-14,3.08008382882821e-14,1.6583297224859743e-14,2.8505390978791855e-09,1.7414164494439544e-09,1.191556849411882e-09,8.373133894244886e-10,5.898229200479745e-10,4.14840856009365e-10,2.9148341139111095e-10,2.0300453085057244e-10,1.3969427996774006e-10,9.439095685099992e-11,6.208131511134522e-11,4.0144371549110466e-11,2.5372635661333767e-11,1.5646278654921173e-11,9.451368148482881e-12,5.5598705145764e-12,3.1863995691546793e-12,1.779747816084412e-12,9.704860971906394e-13
0.0,45,45.0,0.0,30.0,0.0,0.0,0.0,0.0,-13.0,0.0,2.0,0.0,0.0,0.0,1.1736941023976927e-10,1.0609587271461357e-10,9.438794383359432e-11,8.25234484840337e-11,7.074084755552235e-11,5.962652822092861e-11,4.935872126723236e-11,3.983413727077423e-11,3.1279316269159285e-11,2.4016066312705264e-11,1.7986642407923238e-11,1.311881791885341e-11,9.361130455922898e-12,6.516402054532515e-12,4.420723204010966e-12,2.924459969309071e-12,1.8924735347378504e-12,1.1971372008542077e-12,7.422634099119731e-13,4.520746891939171e-13,2.7198874344059605e-13,1.620811217760426e-13,9.533403943336577e-14,5.49415185977077e-14,3.099419174487285e-14,1.6736018524690712e-14,2.880966257702926e-09,1.779372509760881e-09,1.2219748211888066e-09,8.595881810158887e-10,6.055413007006445e-10,4.2570325468500633e-10,2.9888169331233453e-10,2.0796322360197821e-10,1.4295442013129574e-10,9.648258886074532e-11,6.338068102527075e-11,4.0933869359012934e-11,2.5840378785432358e-11,1.5915312724798943e-11,9.602887126859272e-12,5.642767435141973e-12,3.2308405859640128e-12,1.8032216926675878e-12,9.828150920020028e-13
0.0,46,46.0,0.0,30.0,0.0,0.0,0.0,0.0,-13.0,0.0,2.0,0.0,0.0,0.0,1.1997017447545536e-10,1.0840028858035117e-10,9.639312091725127e-11,8.422977809086577e-11,7.215899707194323e-11,6.078108524851672e-11,5.0278688681140905e-11,4.054493723603101e-11,3.181072372777781e-11,2.4403276829416135e-11,1.8260494738506907e-11,1.3306637251871173e-11,9.486759606422159e-12,6.5980946921922685e-12,4.472234105358615e-12,2.955829099623226e-12,1.9106794286268693e-12,1.2069126033808102e-12,7.469032868955363e-13,4.5391094535971485e-13,2.7258229786564097e-13,1.622855683029732e-13,9.548916416558659e-14,5.509958113682074e-14,3.116825151696e-14,1.6877008538117054e-14,2.915869131779364e-09,1.8198406932888651e-09,1.2538769616009544e-09,8.828141733190372e-10,6.218758092937604e-10,4.369633733807451e-10,3.0653440916159204e-10,2.1308157819082635e-10,1.4631310023678698e-10,9.863321479842716e-11,6.471414835817734e-11,4.17425900012424e-11,2.6318632554858607e-11,1.61899005304557e-11,9.757240551394987e-12,5.727017288338291e-12,3.275848542357233e-12,1.8268848584728005e-12,9.95208411776586e-13
0.0,47,47.0,0.0,30.0,0.0,0.0,0.0,0.0,-13.0,0.0,2.0,0.0,0.0,0.0,1.2264768044373224e-10,1.1077086537919484e-10,9.845411905477193e-11,8.5981964732859e-11,7.361379953712945e-11,6.196422644966564e-11,5.1220412318039433e-11,4.127170632024844e-11,3.2353416102267755e-11,2.4798235228937182e-11,1.85394914206648e-11,1.3497758896949953e-11,9.614454831471512e-12,6.681052838153788e-12,4.524527222664736e-12,2.987725546895294e-12,1.929296614815816e-12,1.2170362587803163e-12,7.518171866417235e-13,4.559227012846892e-13,2.73254158396452e-13,1.6250266018243777e-13,9.562861285239521e-14,5.52356721690448e-14,3.1324211427878204e-14,1.70067785498377e-14,2.95540757381126e-09,1.8628962120054995e-09,1.287322945437908e-09,9.070335404815573e-10,6.388535040592353e-10,4.4863790710815596e-10,3.144517299210689e-10,2.183655857663365e-10,1.4977377263180779e-10,1.0084477468694269e-10,6.608275630953502e-11,4.2571082117118945e-11,2.6807679353696158e-11,1.6470186823366686e-11,9.914507404806548e-12,5.8126707447078165e-12,3.321460223345787e-12,1.8507583562883554e-12,1.0076672140710497e-12
0.0,48,48.0,0.0,30.0,0.0,0.0,0.0,0.0,-13.0,0.0,2.0,0.0,0.0,0.0,1.2540461168296468e-10,1.1320985094396259e-10,1.0057276846392387e-10,8.778145582074495e-11,7.510636050356307e-11,6.317677235587359e-11,5.218448314962174e-11,4.201485171627409e-11,3.290766111487928e-11,2.5201110148798818e-11,1.882373365370233e-11,1.369223993425423e-11,9.744245549577846e-12,6.7652868947619155e-12,4.577596804820919e-12,3.0201291245520787e-12,1.948296210919957e-12,1.2274810427219283e-12,7.569890635890651e-13,4.581070952034544e-13,2.7400967485373335e-13,1.6273942274153184e-13,9.575750465131451e-14,5.5352980194449914e-14,3.1463317014043007e-14,1.712584560142773e-14,2.9997419890775685e-09,1.908620578622115e-09,1.3223771836328323e-09,9.322910540776962e-10,6.56502945859099e-10,4.607443898851437e-10,3.226442895840322e-10,2.2382149513865992e-10,1.5334002491544678e-10,1.0311927819235443e-10,6.748757747705699e-11,4.3419909387594614e-11,2.7307807669180848e-11,1.6756317722848757e-11,1.0074765176093204e-11,5.8997753725116055e-12,3.3677099833019134e-12,1.874863681778755e-12,1.0201957669623076e-12
0.0,49,49.0,0.0,30.0,0.0,0.0,0.0,0.0,-13.0,0.0,2.0,0.0,0.0,0.0,1.2824376351878183e-10,1.1571958409622809e-10,1.0275097036360874e-10,8.962975306614092e-11,7.663782515628836e-11,6.441957184333053e-11,5.317151158174722e-11,4.2774793704670756e-11,3.347373506023278e-11,2.561207560021236e-11,1.9113326020482378e-11,1.389013959201046e-11,9.87616285827385e-12,6.850809420571087e-12,4.631440493065171e-12,3.0530241084289266e-12,1.9676534532717146e-12,1.2382219893729692e-12,7.624026447195927e-13,4.60459675495586e-13,2.748526041102268e-13,1.6300194756773476e-13,9.588058302689764e-14,5.54545586157672e-14,3.158685802304676e-14,1.7234735315272463e-14,3.0490349153405757e-09,1.957102596707826e-09,1.3591090919932347e-09,9.586342260795414e-10,6.748542865799069e-10,4.733012400360584e-10,3.3112320756546913e-10,2.294558250208735e-10,1.5701558600234282e-10,1.0545880732000888e-10,6.89297192072145e-11,4.428965123851476e-11,2.781931254854211e-11,1.7048441174432452e-11,1.0238090453295048e-11,5.988376154587386e-12,3.4146297428833025e-12,1.899222138712266e-12,1.032800687816315e-12
0.0,50,50.0,0.0,30.0,0.0,0.0,0.0,0.0,-13.0,0.0,2.0,0.0,0.0,0.0,1.3116804804157256e-10,1.18302498673809e-10,1.0499069986923304e-10,9.152841455157716e-11,7.82093796887986e-11,6.569350302774971e-11,5.4182127963231364e-11,4.355196596597286e-11,3.405192299798524e-11,2.60313110544257e-11,1.9408376544965044e-11,1.4091519262534141e-11,1.0010239420231943e-11,6.93763476620989e-12,4.686058694714353e-12,3.0863985782611416e-12,1.9873473442349095e-12,1.2492363871922494e-12,7.680417970738514e-13,4.629747446374274e-13,2.757852796949812e-13,1.6329542571803738e-13,9.60022063308956e-14,5.5543311226988294e-14,3.169615878654293e-14,1.7333984188159216e-14,3.1034528953583705e-09,2.0084393374538857e-09,1.3975933635176038e-09,9.861134675680486e-10,6.939393617562368e-10,4.863278079492646e-10,3.399001127836492e-10,2.352753768426884e-10,1.6080433239755411e-10,1.0786551918605192e-10,7.041032495975189e-11,4.5180903519687184e-11,2.8342496003812917e-11,1.7346707322038026e-11,1.0404559414993679e-11,6.0785159760042234e-12,3.462249099178328e-12,1.9238543805995235e-12,1.0454902828051018e-12
0.0,51,51.0,0.0,30.0,0.0,0.0,0.0,0.0,-13.0,0.0,2.0,0.0,0.0,0.0,1.3418049933941648e-10,1.2096112777400127e-10,1.0729400900770665e-10,9.347905687448338e-11,7.982225272120684e-11,6.699947418354097e-11,5.5216983099840074e-11,4.4346815891000276e-11,3.464251893944555e-11,2.6459001515060323e-11,1.9708996737390113e-11,1.4296442521309206e-11,1.0146509392247183e-11,7.025778807177678e-12,4.741454078365684e-12,3.1202438376634867e-12,2.007360288610392e-12,1.2605037980147751e-12,7.738908186937568e-13,4.65645667980472e-13,2.7680878133827685e-13,1.6362419020528282e-13,9.612634316772335e-14,5.562198070242548e-14,3.1792567105373845e-14,1.7424141031502844e-14,3.163168605723365e-09,2.0627370893366126e-09,1.4379102530815778e-09,1.0147822642312766e-09,7.137917870269065e-10,4.998444266315722e-10,3.4898716959140556e-10,2.4128724812575566e-10,1.6471029468670668e-10,1.1034164888689857e-10,7.193057570106848e-11,4.609427916919044e-11,2.8877667379254516e-11,1.765126881408903e-11,1.057424823401085e-11,6.170236068480177e-12,3.5105955087308855e-12,1.94878010595963e-12,1.0582739866743635e-12
0.0,52,52.0,0.0,30.0,0.0,0.0,0.0,0.0,-13.0,0.0,2.0,0.0,0.0,0.0,1.3728427900041624e-10,1.2369810821774153e-10,1.096630298536051e-10,9.548335736878867e-11,8.147771676521223e-11,6.833842469172128e-11,5.6276748777211836e-11,4.5159804892211684e-11,3.524582603111958e-11,2.6895337579630117e-11,2.0015301628124165e-11,1.4504975143648477e-11,1.0285008380925679e-11,7.1152587490985494e-12,4.797631170301514e-12,3.1545539099828352e-12,2.0276777338793545e-12,1.27200601745709e-12,7.79934661819286e-13,4.68465146738536e-13,2.779231009907667e-13,1.6399176593703627e-13,9.625657231975811e-14,5.569313994075784e-14,3.1877442246492324e-14,1.7505767396712972e-14,3.2283631926268172e-09,2.120112272915978e-09,1.4801458843243912e-09,1.0446973688728438e-09,7.344470582443778e-10,5.138724654744031e-10,3.583971056866384e-10,2.474988464020961e-10,1.687376642509339e-10,1.1288951248685952e-10,7.349169133651851e-11,4.703040887130906e-11,2.942514369289346e-11,1.796228106009436e-11,1.074723340703726e-11,6.263576404899578e-12,3.5596945124283337e-12,1.9740178769624255e-12,1.0711618983027467e-12
0.0,53,53.0,0.0,30.0,0.0,0.0,0.0,0.0,-13.0,0.0,2.0,0.0,0.0,0.0,1.4048268224179823e-10,1.265161852992709e-10,1.1209997763422821e-10,9.754305629269261e-11,8.317708971507653e-11,6.971132606353965e-11,5.736211831728857e-11,4.5991408715804284e-11,3.5862156728934416e-11,2.734051549286672e-11,2.0327409795432263e-11,1.4717185117130638e-11,1.0425773412913442e-11,7.206092985702742e-12,4.854596034077905e-12,3.1893251051572563e-12,2.0482878246573896e-12,1.2837269919634015e-12,7.861590971629892e-13,4.714254556481983e-13,2.79127302503067e-13,1.6440092533067415e-13,9.63960869152414e-14,5.5759186079714964e-14,3.195214259386998e-14,1.757943698117676e-14,3.299228754589965e-09,2.180692320869279e-09,1.5243925885472838e-09,1.0759190103592911e-09,7.559426554346431e-10,5.284343876873983e-10,3.681432420637045e-10,2.5391790365675207e-10,1.7289080022452254e-10,1.1551151014126876e-10,7.509493218703498e-11,4.798994171406114e-11,2.998524996119006e-11,1.8279902450975667e-11,1.0923592023206961e-11,6.358576042389031e-12,3.6095699791454394e-12,1.9995850344068998e-12,1.084164404897425e-12
0.0,54,54.0,0.0,30.0,0.0,0.0,0.0,0.0,-13.0,0.0,2.0,0.0,0.0,0.0,1.4377914302904792e-10,1.2941821750756635e-10,1.1460715453252457e-10,9.965995953329619e-11,8.492173649147797e-11,7.111918283934487e-11,5.84738070732409e-11,4.684211777077198e-11,3.649183300602118e-11,2.7794737198294563e-11,2.0645443373430685e-11,1.4933142644693905e-11,1.056884291682778e-11,7.298300996801683e-12,4.912356016810876e-12,3.2245556504748106e-12,2.069181078280864e-12,1.2956527054394478e-12,7.925508278174927e-13,4.745186465744042e-13,2.804196727594079e-13,1.6485374793201282e-13,9.654770245494842e-14,5.582233697368901e-14,3.201801342007986e-14,1.7645733971600323e-14,3.3759709077069635e-09,2.2446165323791502e-09,1.5707492841176723e-09,1.108511117855869e-09,7.78318151320954e-10,5.435538118406895e-10,3.7823952498846557e-10,2.605524912857281e-10,1.771742367232796e-10,1.1821012936859668e-10,7.674160051131837e-11,4.897354585054425e-11,3.055831951391484e-11,1.8604294553551886e-11,1.1103401983333918e-11,6.455273415787373e-12,3.6602443515633534e-12,2.0254976855376607e-12,1.0972918860937543e-12
