Line_number,Fiducial,Easting,Northing,Height,Elevation,tx_pitch,tx_roll,tx_yaw,txrx_dx,txrx_dy,txrx_dz,rx_pitch,rx_roll,rx_yaw,S0Z_time_3.834e-04,S0Z_time_3.924e-04,S0Z_time_4.039e-04,S0Z_time_4.184e-04,S0Z_time_4.364e-04,S0Z_time_4.589e-04,S0Z_time_4.869e-04,S0Z_time_5.224e-04,S0Z_time_5.679e-04,S0Z_time_6.249e-04,S0Z_time_6.969e-04,S0Z_time_7.879e-04,S0Z_time_9.019e-04,S0Z_time_1.046e-03,S0Z_time_1.227e-03,S0Z_time_1.456e-03,S0Z_time_1.744e-03,S0Z_time_2.109e-03,S0Z_time_2.567e-03,S0Z_time_3.145e-03,S0Z_time_3.864e-03,S0Z_time_4.745e-03,S0Z_time_5.821e-03,S0Z_time_7.140e-03,S0Z_time_8.754e-03,S0Z_time_1.073e-02,S1Z_time_2.057e-05,S1Z_time_2.607e-05,S1Z_time_3.307e-05,S1Z_time_4.206e-05,S1Z_time_5.356e-05,S1Z_time_6.807e-05,S1Z_time_8.607e-05,S1Z_time_1.086e-04,S1Z_time_1.366e-04,S1Z_time_1.721e-04,S1Z_time_2.176e-04,S1Z_time_2.746e-04,S1Z_time_3.466e-04,S1Z_time_4.376e-04,S1Z_time_5.516e-04,S1Z_time_6.956e-04,S1Z_time_8.771e-04,S1Z_time_1.106e-03,S1Z_time_1.394e-03
0.0,0,0.0,0.0,30.0,0.0,0.0,0.0,0.0,-13.0,0.0,2.0,0.0,0.0,0.0,1.3946775553622456e-11,1.3336843644364113e-11,1.2660114773205442e-11,1.1920151596338753e-11,1.1118971178930014e-11,1.0285399355483987e-11,9.428037223738623e-12,8.52998043797842e-12,7.607226070190605e-12,6.699852990566845e-12,5.814536524405203e-12,4.965496284827443e-12,4.177765903809529e-12,3.4539711464573663e-12,2.8012781446923872e-12,2.2256076422963467e-12,1.731688896472709e-12,1.3163294087329264e-12,9.75701252087256e-13,7.04736055546936e-13,4.969238549844375e-13,3.4365651265156563e-13,2.327887959055675e-13,1.5444869483330678e-13,1.0038578369449351e-13,6.384684502758685e-14,1.4286755292865955e-10,7.07337273522726e-11,4.8026224565441576e-11,3.6434747291328214e-11,2.842512191519622e-11,2.244544508526573e-11,1.787395404793853e-11,1.4226576045114899e-11,1.129274471713698e-11,8.889527603560607e-12,6.896939345749513e-12,5.3023762077377355e-12,4.0189382334871974e-12,2.9981215925408446e-12,2.20343139392562e-12,1.5876267754534567e-12,1.120503987944579e-12,7.752953999282583e-13,5.260565867226671e-13
0.0,1,1.0,0.0,30.0,0.0,0.0,0.0,0.0,-13.0,0.0,2.0,0.0,0.0,0.0,1.1810951906226191e-11,1.1287387492253416e-11,1.0707970753904421e-11,1.00777741472324e-11,9.398122997674375e-12,8.692908857649967e-12,7.969526612874624e-12,7.213379800637629e-12,6.43766893705905e-12,5.675348981301103e-12,4.932039966404058e-12,4.219028011917916e-12,3.557022508202932e-12,2.947969211925911e-12,2.3977420459249894e-12,1.9112395549540933e-12,1.492579552917157e-12,1.1392164777199125e-12,8.482163293527671e-13,6.156301110511955e-13,4.363243433765698e-13,3.0334590363185126e-13,2.0659618075202946e-13,1.37826962820695e-13,9.008329286733956e-14,5.761760426362602e-14,2.1354883995377364e-10,8.95468229145421e-11,4.8885182838728134e-11,3.330785401496348e-11,2.4977283821076924e-11,1.938461895760379e-11,1.5281051960047194e-11,1.2076437392058095e-11,9.548509189081727e-12,7.491348026444414e-12,5.800868208239099e-12,4.455364617993455e-12,3.3753791960100043e-12,2.519263114043194e-12,1.8531319331699354e-12,1.3374649588464816e-12,9.459745418574466e-13,6.564028990473564e-13,4.4696652670005026e-13
0.0,2,2.0,0.0,30.0,0.0,0.0,0.0,0.0,-13.0,0.0,2.0,0.0,0.0,0.0,1.0108783730444433e-11,9.649839956601295e-12,9.144880114836735e-12,8.599500257837044e-12,8.014675793670538e-12,7.410320210160507e-12,6.7924851128975825e-12,6.148702185406382e-12,5.489625147877005e-12,4.842776139548242e-12,4.212792724354235e-12,3.608713629880055e-12,3.047686664668339e-12,2.5311392372822427e-12,2.0638582743612634e-12,1.6498729695844199e-12,1.2927310271316288e-12,9.903387467593074e-13,7.40393489821255e-13,5.39776226209958e-13,3.843863771113031e-13,2.68559553142607e-13,1.8383481640853514e-13,1.2328243161820843e-13,8.100491185614145e-14,5.209126835668984e-14,3.0377838324661843e-10,1.2796872105500496e-10,5.948979338224038e-11,3.37647026756831e-11,2.2953079670603396e-11,1.7154577517064548e-11,1.329369157659999e-11,1.0402075156096153e-11,8.177461571503537e-12,6.384667401773436e-12,4.931424193169373e-12,3.780364127309693e-12,2.8610388119805405e-12,2.135303655329991e-12,1.5711868533479712e-12,1.1353769704253291e-12,8.043344225113662e-13,5.594695292835807e-13,3.8211166431114146e-13
0.0,3,3.0,0.0,30.0,0.0,0.0,0.0,0.0,-13.0,0.0,2.0,0.0,0.0,0.0,8.74725515141563e-12,8.333563007656198e-12,7.884089230647681e-12,7.403963707093562e-12,6.893077017569189e-12,6.368494213280661e-12,5.834425460454173e-12,5.2804983347923986e-12,4.714807922458703e-12,4.1607804360410725e-12,3.622059020067598e-12,3.1060333914678353e-12,2.626821005757596e-12,2.185484019802679e-12,1.7858776284061156e-12,1.4313102069639415e-12,1.1247990044633069e-12,8.64580543014109e-13,6.487930761865144e-13,4.749445528314158e-13,3.3971240301651145e-13,2.3844507882401653e-13,1.6399975568675636e-13,1.1052410225953618e-13,7.298790763447149e-14,4.7179468479710856e-14,3.929753386462888e-10,1.7836516858375845e-10,8.031056075718922e-11,3.9380066110105446e-11,2.2957394296738914e-11,1.5773636955453406e-11,1.1807523845146049e-11,9.100749450578832e-12,7.091934803827349e-12,5.50156182817413e-12,4.2352777494547474e-12,3.2370912307947792e-12,2.446300047028271e-12,1.824580671632083e-12,1.3423023065133663e-12,9.70783080141416e-13,6.884927361519765e-13,4.798761003669973e-13,3.2856270215885513e-13
0.0,4,4.0,0.0,30.0,0.0,0.0,0.0,0.0,-13.0,0.0,2.0,0.0,0.0,0.0,7.666998238070624e-12,7.27618405480442e-12,6.863246746126207e-12,6.431349261470499e-12,5.977459269660275e-12,5.5159482568027806e-12,5.048660431077271e-12,4.567056384798209e-12,4.076782579430691e-12,3.5980169656770298e-12,3.133405704389988e-12,2.6891577600056576e-12,2.2767691090204826e-12,1.897063434779175e-12,1.553077926414673e-12,1.2475391127062447e-12,9.829662399661538e-13,7.578547616910291e-13,5.706419117574253e-13,4.193200514002081e-13,3.0115364172151607e-13,2.1229488776254976e-13,1.4666769012421436e-13,9.930567906415323e-14,6.589321621199772e-14,4.2806022931220006e-14,4.690258417130613e-10,2.3103372642380208e-10,1.0811466440911181e-10,5.034237340531859e-11,2.5640617621907286e-11,1.549571086496133e-11,1.0824588032385577e-11,8.107604958608004e-12,6.231088284675355e-12,4.7937376513532776e-12,3.673158768518556e-12,2.796042199241554e-12,2.1091706877529682e-12,1.5709606230283643e-12,1.1550355705948845e-12,8.356870929063508e-13,5.930622528058798e-13,4.140832528133983e-13,2.8406333809361615e-13
0.0,5,5.0,0.0,30.0,0.0,0.0,0.0,0.0,-13.0,0.0,2.0,0.0,0.0,0.0,6.835932061359401e-12,6.439461664035497e-12,6.0403058948378e-12,5.638620528275653e-12,5.2263610086896524e-12,4.813981357900538e-12,4.399947260608126e-12,3.976726109794262e-12,3.5477711691028345e-12,3.130466186448367e-12,2.7265161201298955e-12,2.341222846095742e-12,1.983824109987382e-12,1.6549900311242728e-12,1.3570328536063438e-12,1.09221997609346e-12,8.625958919870646e-13,6.668772332839212e-13,5.036926252217249e-13,3.7141855931001136e-13,2.677620373042247e-13,1.8951954282250006e-13,1.3148268597258808e-13,8.941816054051276e-14,5.96017343177933e-14,3.8905067187194055e-14,5.284672087028442e-10,2.79164226237082e-10,1.3855297824839596e-10,6.536108108208174e-11,3.112073481536118e-11,1.659763497461453e-11,1.0445439810357068e-11,7.408568792166644e-12,5.556184955741429e-12,4.225627210222227e-12,3.216334805670555e-12,2.435527937392376e-12,1.833018869023322e-12,1.3623072320210742e-12,1.0007314625548893e-12,7.239902321842403e-13,5.139134438679099e-13,3.5935351568701975e-13,2.4685621377188537e-13
0.0,6,6.0,0.0,30.0,0.0,0.0,0.0,0.0,-13.0,0.0,2.0,0.0,0.0,0.0,6.237451590288077e-12,5.802332795814102e-12,5.389573780231222e-12,4.996757188615484e-12,4.609811581942116e-12,4.233563873899756e-12,3.861433733981318e-12,3.4852853622792786e-12,3.1064117578876204e-12,2.739564424655335e-12,2.3856241769560637e-12,2.0490821844898446e-12,1.7372591646316494e-12,1.450696255791911e-12,1.191073168785481e-12,9.603023018189096e-13,7.599694598847921e-13,5.889943959147226e-13,4.4611499017676495e-13,3.300210941488284e-13,2.3875213294435987e-13,1.6962636014388147e-13,1.1814457803075794e-13,8.068373635665216e-14,5.401123243886464e-14,3.541943464160463e-14,5.728516800065589e-10,3.195960866345369e-10,1.6808409060568447e-10,8.253478051293565e-11,3.892408029682721e-11,1.9165519344998892e-11,1.0787460939093231e-11,7.035668229595209e-12,5.0527434354286134e-12,3.772224635392329e-12,2.843603448664502e-12,2.1394008707484747e-12,1.6052120287291943e-12,1.1894172900191253e-12,8.727485375614012e-13,6.310037098335403e-13,4.478559175762697e-13,3.1355297127274497e-13,2.155645303322042e-13
0.0,7,7.0,0.0,30.0,0.0,0.0,0.0,0.0,-13.0,0.0,2.0,0.0,0.0,0.0,5.858685511940057e-12,5.352018314063737e-12,4.8959860389622224e-12,4.487512895002062e-12,4.107260196566198e-12,3.7534670598497974e-12,3.4127148973964518e-12,3.0740633317573865e-12,2.736132309428236e-12,2.4108623896930528e-12,2.098396178321014e-12,1.8024034034018954e-12,1.5286107581946945e-12,1.2773911646437413e-12,1.0498857624401468e-12,8.477371960402741e-13,6.720874721291215e-13,5.220507283887955e-13,3.9641144191852165e-13,2.9412220393481716e-13,2.1347072377018457e-13,1.5220215212275924e-13,1.0639949769768592e-13,7.295074783693604e-14,4.9033779800763505e-14,3.229941935834462e-14,6.056621850996437e-10,3.5182459074765816e-10,1.9455573374567945e-10,1.0010055997230885e-10,4.825556976544253e-11,2.3047496400813697e-11,1.1903622887112878e-11,7.036459944161112e-12,4.727712511413319e-12,3.419862983385837e-12,2.5396844915065475e-12,1.895340884669006e-12,1.4161446804766719e-12,1.0452775228455509e-12,7.659271090525718e-13,5.530934974815712e-13,3.9240370228227395e-13,2.750075331696761e-13,1.8910297464345978e-13
0.0,8,8.0,0.0,30.0,0.0,0.0,0.0,0.0,-13.0,0.0,2.0,0.0,0.0,0.0,5.683544327489995e-12,5.0769147735424815e-12,4.54922847624246e-12,4.099438506060318e-12,3.705251239126934e-12,3.3587824814905952e-12,3.0385925603843028e-12,2.7286877646562483e-12,2.423985023544279e-12,2.1330280485319094e-12,1.855115419289423e-12,1.5930118839964416e-12,1.3511498302371756e-12,1.1296535222123758e-12,9.29210977143642e-13,7.512595942985271e-13,5.965172214104281e-13,4.642862682365561e-13,3.5335097021201e-13,2.628891449178035e-13,1.91372609949766e-13,1.3689927280103774e-13,9.603212117240319e-14,6.608951876185046e-14,4.459358328430762e-14,2.95017880649928e-14,6.305263013676209e-10,3.7681487309145493e-10,2.17050331901973e-10,1.1677138825564808e-10,5.828211868704227e-11,2.7928651821230493e-11,1.3753197093723148e-11,7.441287287548664e-12,4.598518965345701e-12,3.165469822913284e-12,2.2948096190168445e-12,1.6939315898635312e-12,1.2584541400299777e-12,9.2450097344957e-13,6.762341057067125e-13,4.874230892944529e-13,3.456010201116327e-13,2.423945366251613e-13,1.6660959131415944e-13
0.0,9,9.0,0.0,30.0,0.0,0.0,0.0,0.0,-13.0,0.0,2.0,0.0,0.0,0.0,5.690776891582157e-12,4.962926910764221e-12,4.339521448888196e-12,3.824213127019711e-12,3.39488498890214e-12,3.0393732279169697e-12,2.7280830253142312e-12,2.4382420455464506e-12,2.1598443537747934e-12,1.8971109247283987e-12,1.6480718496236218e-12,1.4144022915470973e-12,1.199491338134191e-12,1.0031267174079733e-12,8.256121022586726e-13,6.682215454700791e-13,5.312755565666752e-13,4.142570293760939e-13,3.159171664276147e-13,2.356294521391767e-13,1.720011320319304e-13,1.2342429843379266e-13,8.685930938706069e-14,5.998889875351782e-14,4.0625170118657496e-14,2.698887925277673e-14,6.504302605030066e-10,3.9611412250711556e-10,2.3551030113591527e-10,1.3178144621419868e-10,6.83025390107266e-11,3.3434007453928745e-11,1.621799882004386e-11,8.2461720911741e-12,4.680210950341535e-12,3.0129068818710385e-12,2.1042755383697108e-12,1.5283487464498241e-12,1.1264729934314065e-12,8.228898786325958e-13,6.005080653119194e-13,4.3176641778582314e-13,3.0589528168444243e-13,2.1465998926271167e-13,1.4739599974876751e-13
0.0,10,10.0,0.0,30.0,0.0,0.0,0.0,0.0,-13.0,0.0,2.0,0.0,0.0,0.0,5.855051343092555e-12,4.99269201852697e-12,4.255542570889669e-12,3.6540853667430076e-12,3.1695696193861756e-12,2.7882943631516355e-12,2.4734439629667527e-12,2.194609571274422e-12,1.9358531932800056e-12,1.6960172682646252e-12,1.4711050147745844e-12,1.2613657533188339e-12,1.0693015312507173e-12,8.942892851808436e-13,7.362995292567399e-13,5.964636310109656e-13,4.747377900391836e-13,3.707728240707126e-13,2.8326724447585224e-13,2.1176507148319556e-13,1.5497247379532434e-13,1.115288118995032e-13,7.872487557747129e-14,5.4553389617192435e-14,3.7071862488159087e-14,2.472777724704622e-14,6.675266450175945e-10,4.113110798002489e-10,2.503759975407135e-10,1.4479899145341443e-10,7.781042607671711e-11,3.92068821297852e-11,1.9137105660481318e-11,9.412639637721694e-12,4.976718388492227e-12,2.968004311707753e-12,1.967254110644099e-12,1.3942003414199746e-12,1.0159205468927212e-12,7.371271057443044e-13,5.362595379890751e-13,3.843670951872332e-13,2.7204535009719946e-13,1.9095679239732952e-13,1.3091119937262494e-13
0.0,11,11.0,0.0,30.0,0.0,0.0,0.0,0.0,-13.0,0.0,2.0,0.0,0.0,0.0,6.149119161751311e-12,5.146414446600372e-12,4.283998465277045e-12,3.5805559873917403e-12,3.0234165706771195e-12,2.6004038281049096e-12,2.269216432527032e-12,1.991875903915986e-12,1.7460039220515994e-12,1.5241400299412034e-12,1.319268819940931e-12,1.1297039564983289e-12,9.57073696973297e-13,8.002801809456271e-13,6.589963703138135e-13,5.342154850402254e-13,4.25566359506329e-13,3.3284833597938504e-13,2.546995609802035e-13,1.9081165204308925e-13,1.3996295740648203e-13,1.0100187160420717e-13,7.149526733964768e-14,4.970074945624201e-14,3.3884498017038614e-14,2.2689624823152674e-14,6.832273056039277e-10,4.23767922913957e-10,2.6230909173956416e-10,1.558029081057151e-10,8.649251991772987e-11,4.4951680074913106e-11,2.233978454215908e-11,1.0877420675479447e-11,5.47798218823417e-12,3.0343520257869786e-12,1.885034329855764e-12,1.289188259564763e-12,9.237306316577551e-13,6.645875792919888e-13,4.815148639579325e-13,3.438290864007314e-13,2.4305397069836555e-13,1.7059966887633395e-13,1.1671369071093982e-13
0.0,12,12.0,0.0,30.0,0.0,0.0,0.0,0.0,-13.0,0.0,2.0,0.0,0.0,0.0,6.54591210037977e-12,5.40324374440886e-12,4.410110661098398e-12,3.5940114619184335e-12,2.9503312698442074e-12,2.471323923800756e-12,2.111370192303007e-12,1.825759341615005e-12,1.5857784198977382e-12,1.3770858059275714e-12,1.1885892308959964e-12,1.0160131321189559e-12,8.59954286175715e-13,7.187634918316463e-13,5.918350123463921e-13,4.800186227797493e-13,3.8265473471485677e-13,2.996643745690374e-13,2.2962771451862634e-13,1.7236190550385595e-13,1.266987297960427e-13,9.166383607532243e-14,6.505599208300698e-14,4.5359990018346144e-14,3.102035323424175e-14,2.084910224737141e-14,6.983905966662484e-10,4.34531414561059e-10,2.7200948214195673e-10,1.649663196726667e-10,9.419764154815767e-11,5.044892625918576e-11,2.5668396551097204e-11,1.2564796916151632e-11,6.161590272732771e-12,3.2109055700499965e-12,1.859247999126282e-12,1.2125356553694088e-12,8.478978532261585e-13,6.032329374145742e-13,4.347019682889612e-13,3.0903209157584355e-13,2.181161797370565e-13,1.5303214787531103e-13,1.0444838850441668e-13
0.0,13,13.0,0.0,30.0,0.0,0.0,0.0,0.0,-13.0,0.0,2.0,0.0,0.0,0.0,7.020112697375662e-12,5.742587406325188e-12,4.618432746219798e-12,3.683916927118526e-12,2.9436588261472572e-12,2.3967871898838084e-12,1.996628217203024e-12,1.6930941163365927e-12,1.4518158029342344e-12,1.251453757024233e-12,1.075886050866128e-12,9.175237243574085e-13,7.756084656821787e-13,6.478223925413219e-13,5.33276512642769e-13,4.3266622606972907e-13,3.4508322564129456e-13,2.7053704815708707e-13,2.0755976441233706e-13,1.560721741307813e-13,1.1494736448726686e-13,8.336128532751691e-14,5.93086491557502e-14,4.1469699082645116e-14,2.844223289251391e-14,1.918403800592513e-14,7.135053285293186e-10,4.443442572131014e-10,2.8011111252744603e-10,1.7256297792954158e-10,1.0089671525992684e-10,5.555357038911465e-11,2.8990842148053988e-11,1.4397280423175356e-11,6.996657833529436e-12,3.4914097006644185e-12,1.890526587169888e-12,1.1643025582920852e-12,7.872790087240764e-13,5.515431985037165e-13,3.9457281606154963e-13,2.7906851640398774e-13,1.965789166522052e-13,1.3780153441927497e-13,9.382700537383547e-14
0.0,14,14.0,0.0,30.0,0.0,0.0,0.0,0.0,-13.0,0.0,2.0,0.0,0.0,0.0,7.549131579099148e-12,6.145112399476471e-12,4.893657686379718e-12,3.8392504028693175e-12,2.9961880050097915e-12,2.3723094734793517e-12,1.921997013993782e-12,1.5913990759815224e-12,1.3416070626774156e-12,1.144640888431829e-12,9.786341616724702e-13,8.319816751959765e-13,7.021172734850616e-13,5.858758018963988e-13,4.820470302132622e-13,3.911557136383011e-13,3.120840801829482e-13,2.4489315234772834e-13,1.8808147439512654e-13,1.4165153682402866e-13,1.045109984696292e-13,7.596283281196096e-14,5.4168459157670927e-14,3.797663227319766e-14,2.6117695675589594e-14,1.7675087817564917e-14,7.28834229893539e-10,4.537005276297323e-10,2.8713559932690297e-10,1.7889970312227703e-10,1.0664400103164909e-10,6.018499633387303e-11,3.220514315349858e-11,1.63030745670012e-11,7.948117573634248e-12,3.86509287283483e-12,1.9777633712577563e-12,1.1447482791350748e-12,7.413480970157857e-13,5.084506980605948e-13,3.6015151214848893e-13,2.5319887652032674e-13,1.7790940828643815e-13,1.2453907939930916e-13,8.46118969668409e-14
0.0,15,15.0,0.0,30.0,0.0,0.0,0.0,0.0,-13.0,0.0,2.0,0.0,0.0,0.0,8.113586620347986e-12,6.5933950643083846e-12,5.221264957018139e-12,4.048977751535461e-12,3.100341498189662e-12,2.3930966730748753e-12,1.884486058565365e-12,1.5185504110561797e-12,1.253227841623177e-12,1.054664625058821e-12,8.948472404758902e-13,7.575583284376246e-13,6.378995504112586e-13,5.316132217650541e-13,4.370873222478999e-13,3.546509769945788e-13,2.83013788406955e-13,2.2225045437251581e-13,1.7084275526676802e-13,1.288529330514551e-13,9.522070063735837e-14,6.935566203325788e-14,4.956220213894168e-14,3.483452849321221e-14,2.4018393921575624e-14,1.630542947550194e-14,7.445119228705116e-10,4.6291114105188693e-10,2.9348316216379883e-10,1.8427267490328889e-10,1.1154395640787837e-10,6.431392831814035e-11,3.523907646687913e-11,1.8220384208440937e-11,8.980380580166476e-12,4.317992677816667e-12,2.1179299378805096e-12,1.1538496404876744e-12,7.099378990895533e-13,4.732609153298973e-13,3.3069582268569567e-13,2.3082136460648126e-13,1.6167089657787577e-13,1.1294381714376742e-13,7.660358854648395e-14
0.0,16,16.0,0.0,30.0,0.0,0.0,0.0,0.0,-13.0,0.0,2.0,0.0,0.0,0.0,8.697417054930853e-12,7.0722671671921934e-12,5.587970053519627e-12,4.3024664378437395e-12,3.2484324846275555e-12,2.4540938178912493e-12,1.880976356552618e-12,1.4725583982741878e-12,1.1851198920292838e-12,9.800033078225858e-13,8.229748227181676e-13,6.927785977494129e-13,5.816523647859572e-13,4.839441648805807e-13,3.9751257087562795e-13,3.2245204346379296e-13,2.573309519417552e-13,2.0220183203444375e-13,1.5554666960168993e-13,1.1746590164417607e-13,8.693183155351276e-14,6.344265364958253e-14,4.5426492888342673e-14,3.20031111009977e-14,2.2119510134343203e-14,1.5060450127373428e-14,7.606056915829362e-10,4.721622512760658e-10,2.994441810055701e-10,1.8894304274009207e-10,1.157252562490852e-10,6.794908870052608e-11,3.8047105170906684e-11,2.0099283359652515e-11,1.0059988106780529e-11,4.834415235537088e-12,2.3062851834445042e-12,1.1910138269481725e-12,6.930065448181942e-13,4.4556082157882354e-13,3.056628477281715e-13,2.1145081091190204e-13,1.475044479050885e-13,1.0276934310465607e-13,6.963183884896601e-14
0.0,17,17.0,0.0,30.0,0.0,0.0,0.0,0.0,-13.0,0.0,2.0,0.0,0.0,0.0,9.287753303236812e-12,7.56892991651385e-12,5.981992259933426e-12,4.589800022989258e-12,3.432916691542382e-12,2.550104926596741e-12,1.9081925093850454e-12,1.4514345196628934e-12,1.1359255683024081e-12,9.194585636302276e-13,7.618094680130853e-13,6.364604001707152e-13,5.323044935251e-13,4.419590204938744e-13,3.625805250560749e-13,2.939705852905967e-13,2.345784598701881e-13,1.8440244399606768e-13,1.4194049465473107e-13,1.073106202583957e-13,7.952020545820653e-14,5.813999454426939e-14,4.170633459793454e-14,2.944724353763303e-14,2.0399276248037525e-14,1.3927428946030312e-14,7.771502496565862e-10,4.815604494354654e-10,3.0521955450524e-10,1.9312667221105906e-10,1.1932199888151225e-10,7.11250700502078e-11,4.060607847285447e-11,2.1901930534381523e-11,1.1157268457605693e-11,5.398232369450582e-12,2.536798055208061e-12,1.2549703861887883e-12,6.904559121545832e-13,4.251237502924115e-13,2.8467409085757717e-13,1.9470280057325653e-13,1.3511549221125451e-13,9.381315302057464e-14,6.354966798133698e-14
0.0,18,18.0,0.0,30.0,0.0,0.0,0.0,0.0,-13.0,0.0,2.0,0.0,0.0,0.0,9.874637534650608e-12,8.072904198579365e-12,6.393175121382598e-12,4.9019898530032445e-12,3.646605083976726e-12,2.6759352198045825e-12,1.962737695646198e-12,1.453128785604264e-12,1.1043730639252833e-12,8.720428272987662e-13,7.104040784109234e-13,5.876614411320751e-13,4.889787213340454e-13,4.0489857076042876e-13,3.316663332766201e-13,2.6871013331904104e-13,2.1436903001845307e-13,1.6855928728460885e-13,1.2980843793614904e-13,9.823299774787838e-14,7.287890563441162e-14,5.337518133831192e-14,3.835390277530431e-14,2.7136213641501258e-14,1.8838563541190128e-14,1.2895232134782271e-14,7.941661708602333e-10,4.911645787989528e-10,3.109425315643431e-10,1.9699319154811138e-10,1.2246132099058037e-10,7.389210287408608e-11,4.291058679288928e-11,2.3601777955457804e-11,1.2247185133661798e-11,5.993888282579848e-12,2.8026392979798305e-12,1.3437985885013867e-12,7.020124556124776e-13,4.1182132607683266e-13,2.674790857840499e-13,1.802799191618911e-13,1.242637320017149e-13,8.59082301164158e-14,5.822955217349826e-14
0.0,19,19.0,0.0,30.0,0.0,0.0,0.0,0.0,-13.0,0.0,2.0,0.0,0.0,0.0,1.0450665091464155e-11,8.575873225577121e-12,6.812996093392708e-12,5.231095886282842e-12,3.8828246947145115e-12,2.82652686836333e-12,2.0411603460953193e-12,1.4755162663453345e-12,1.0892054056328493e-12,8.368929607353336e-13,6.68000555896236e-13,5.456316884768986e-13,4.5096002144180216e-13,3.721298105211555e-13,3.042426787299236e-13,2.462501244174749e-13,1.9637341975004523e-13,1.544226452018994e-13,1.189656775236359e-13,9.010062170569256e-14,6.69156350433957e-14,4.908534787997213e-14,3.532751995557406e-14,2.504312548625402e-14,1.7420532479016838e-14,1.1954038930289887e-14,8.116688994211493e-10,5.010065343065824e-10,3.1669817210016553e-10,2.006703851354649e-10,1.2525624697921481e-10,7.630795047002718e-11,4.4968482645037565e-11,2.5182233908037288e-11,1.3309598901136612e-11,6.6070963448531816e-12,3.096647078879917e-12,1.4550396049278352e-12,7.271675441118684e-13,4.0555046454086166e-13,2.53919105504746e-13,1.679584529736947e-13,1.1475522581305877e-13,7.891652635278158e-14,5.356099846593546e-14
0.0,20,20.0,0.0,30.0,0.0,0.0,0.0,0.0,-13.0,0.0,2.0,0.0,0.0,0.0,1.101059657847371e-11,9.071461109633358e-12,7.234497614209336e-12,5.570273677544473e-12,4.135527361976832e-12,2.9970735749206855e-12,2.1400310131696426e-12,1.5164144212094413e-12,1.0891439605853017e-12,8.132084943684259e-13,6.339707824207406e-13,5.097711847409445e-13,4.1766783408841184e-13,3.4312623273159015e-13,2.798640197459289e-13,2.2623307493052205e-13,1.8031078702092257e-13,1.4177904647119042e-13,1.0925346337847768e-13,8.279940191785315e-14,6.155050747497286e-14,4.521585996672107e-14,3.259078891413955e-14,2.314438135840177e-14,1.6130333035405945e-14,1.1095111386425767e-14,8.296727439858137e-10,5.111040153057292e-10,3.225389348707736e-10,2.0425103908419753e-10,1.2780248243716186e-10,7.843188871152662e-11,4.6796850702134757e-11,2.6635081282899965e-11,1.4329139513251204e-11,7.225262906457269e-12,3.4117164103401554e-12,1.5858491897268868e-12,7.651662317258761e-13,4.0617951199557675e-13,2.43893310041555e-13,1.575749920360966e-13,1.0643573813379487e-13,7.27239469467157e-14,4.9448870404828455e-14
0.0,21,21.0,0.0,30.0,0.0,0.0,0.0,0.0,-13.0,0.0,2.0,0.0,0.0,0.0,1.1550974621590555e-11,9.554979967332753e-12,7.652166120653773e-12,5.9137647131937835e-12,4.399351965123483e-12,3.183108356177452e-12,2.2560161064514895e-12,1.5736168256157074e-12,1.1028769521730983e-12,8.002112671462737e-13,6.077701124727415e-13,4.795933899655098e-13,3.886315217511359e-13,3.1745125406819576e-13,2.581539311180043e-13,2.0835427956642736e-13,1.659408032925746e-13,1.3044544663771643e-13,1.005350697998429e-13,7.623078090508249e-14,5.671420223735485e-14,4.171913145291658e-14,3.0111857949600015e-14,2.1419239558069865e-14,1.4954847363063926e-14,1.0310612344762185e-14,8.481924168315051e-10,5.21467878928972e-10,3.2849625810255323e-10,2.0780033764693615e-10,1.301779363461962e-10,8.032056103483437e-11,4.841857092062928e-11,2.7958844828963708e-11,1.5294836850249603e-11,7.837695419284965e-12,3.741095031058019e-12,1.7331581488175776e-12,8.150302863355599e-13,4.135139451779606e-13,2.3732945203142133e-13,1.4901311210716796e-13,9.918476924773062e-14,6.723645503069682e-14,4.581204145274122e-14
0.0,22,22.0,0.0,30.0,0.0,0.0,0.0,0.0,-13.0,0.0,2.0,0.0,0.0,0.0,1.206976715440921e-11,1.0023169271719703e-11,8.061780064336454e-12,6.256845544582358e-12,4.6696479388246256e-12,3.3805641742985002e-12,2.385941232416811e-12,1.6449330288764558e-12,1.129064488520378e-12,7.971223504115368e-13,5.889026998564293e-13,4.546942888381089e-13,3.634686267363279e-13,2.947439050872534e-13,2.387947420716137e-13,1.923535196171359e-13,1.5305720097844738e-13,1.2026440921735084e-13,9.269243379157269e-14,7.030940733549856e-14,5.2346419237686214e-14,3.855362448931246e-14,2.7862796587830977e-14,1.9849436175306577e-14,1.3882468011906117e-14,9.59346865230684e-15,8.672434910992962e-10,5.321061145412543e-10,3.345886647535268e-10,2.113627133862885e-10,1.3244394363416956e-10,8.202540707733275e-11,4.9859527853122426e-11,2.915722698028633e-11,1.6199617704661814e-11,8.435652394934011e-12,4.07858838310156e-12,1.8938198821364063e-12,8.75601761148672e-13,4.272794716762894e-13,2.341604930391942e-13,1.4219065605068153e-13,9.290996241352737e-14,6.2376963522085e-14,4.2582138492874355e-14
0.0,23,23.0,0.0,30.0,0.0,0.0,0.0,0.0,-13.0,0.0,2.0,0.0,0.0,0.0,1.2566049845093388e-11,1.0473943999871323e-11,8.46024322441371e-12,6.5957488639875436e-12,4.942468181010804e-12,3.5858098242856527e-12,2.526840987402983e-12,1.7282278504930816e-12,1.166353219106719e-12,8.031519865611667e-13,5.768973079277587e-13,4.347272843823986e-13,3.418658352628581e-13,2.747062592834735e-13,2.2151886122852164e-13,1.78008342642691e-13,1.4148249402836364e-13,1.1110011172939152e-13,8.562335015565524e-14,6.496118820874196e-14,4.839458235735563e-14,3.5683003412847516e-14,2.5819063928252427e-14,1.841886098258246e-14,1.290290614922684e-14,8.937271982949142e-15,8.8684245107711e-10,5.430258349624692e-10,3.4082714945297504e-10,2.149676336477431e-10,1.346473922959755e-10,8.3591329662607e-11,5.1146457378263305e-11,3.023768489964669e-11,1.703974059873249e-11,9.012284114047997e-12,4.418686256675239e-12,2.0647342211940538e-12,9.455957902894452e-13,4.47118986896257e-13,2.343076036177595e-13,1.370481899924011e-13,8.754179497443681e-14,5.808275534571297e-14,3.9702274028762044e-14
0.0,24,24.0,0.0,30.0,0.0,0.0,0.0,0.0,-13.0,0.0,2.0,0.0,0.0,0.0,1.3039733397418887e-11,1.0906162365306803e-11,8.845415552365362e-12,6.927567353455717e-12,5.214538947020236e-12,3.7956647037811394e-12,2.6759946204162784e-12,1.8214561962900295e-12,1.2133954724006757e-12,8.174986230478347e-13,5.712918659068314e-13,4.193836163086323e-13,3.235626407206684e-13,2.57092317280379e-13,2.0610135264446107e-13,1.651285524505173e-13,1.310636519072571e-13,1.0283503559496144e-13,7.923912236841403e-14,6.012165215561081e-14,4.481274808800745e-14,3.307541717430653e-14,2.3959054970047654e-14,1.7113279193726e-14,1.2007025323086636e-14,8.336207715191606e-15,9.070066339234389e-10,5.542341777718353e-10,3.4721858951097857e-10,2.1863418057575067e-10,1.368231895447122e-10,8.505627376824007e-11,5.230538022255379e-11,3.121018960522401e-11,1.781421713257574e-11,9.562502149033561e-12,4.7566269543835204e-12,2.2429438733380115e-12,1.0236543580704998e-12,4.725994422018259e-13,2.376692735645736e-13,1.3353909131850742e-13,8.302858743741487e-14,5.43032515631299e-14,3.712574961419943e-14
0.0,25,25.0,0.0,30.0,0.0,0.0,0.0,0.0,-13.0,0.0,2.0,0.0,0.0,0.0,1.3491336558362881e-11,1.1319419369253757e-11,9.215950338924887e-12,7.250148982724147e-12,5.483213448975988e-12,4.007396438733859e-12,2.830948450741251e-12,1.922691457735547e-12,1.2688693094343477e-12,8.39353744630286e-13,5.716249157690817e-13,4.0837779230110593e-13,3.0833767525621046e-13,2.416982083999714e-13,1.9235346937644236e-13,1.5355162197896792e-13,1.2166854139905667e-13,9.536722335201961e-14,7.346258984482485e-14,5.573456953079267e-14,4.1560683952661497e-14,3.070288949695307e-14,2.2263712763415915e-14,1.5920092155610048e-14,1.118669719015732e-14,7.785002591685709e-15,9.2775417478493e-10,5.657386514963005e-10,3.537678016656343e-10,2.223744955569719e-10,1.3899670088120018e-10,8.64514278061803e-11,5.3360545806133766e-11,3.208618552718337e-11,1.8524252154321e-11,1.0082805857208113e-11,5.088414351830179e-12,2.425704213487672e-12,1.108395735003699e-12,5.032249398322714e-13,2.4411574804274693e-13,1.3162153307537223e-13,7.933192206612565e-14,5.0998016128901665e-14,3.4814754959441443e-14
0.0,26,26.0,0.0,30.0,0.0,0.0,0.0,0.0,-13.0,0.0,2.0,0.0,0.0,0.0,1.392180240141537e-11,1.1713868913334197e-11,9.571143602774496e-12,7.561990483554748e-12,5.746414893675394e-12,4.218705222925298e-12,2.989526666934892e-12,2.0301468743805346e-12,1.33149722586764e-12,8.679099211688469e-13,5.774321789773568e-13,4.014373525932613e-13,2.959976052189265e-13,2.283536441708582e-13,1.8011695834108222e-13,1.4313880918512234e-13,1.1318298086641317e-13,8.860800513488763e-14,6.822646832916797e-14,5.1750785653214365e-14,3.8603087578394066e-14,2.854079945759762e-14,2.0716196255539634e-14,1.4828131128802896e-14,1.0434676296883264e-14,7.278883467074789e-15,9.491039843268727e-10,5.775472264191728e-10,3.604787176094325e-10,2.261962596732606e-10,1.411859524305833e-10,8.780180862218286e-11,5.4333797390321744e-11,3.287775234226759e-11,1.917272398035234e-11,1.0571086130328416e-11,5.410801048076457e-12,2.610529514097882e-12,1.1984566939929993e-12,5.38452989615609e-13,2.53487737220029e-13,1.3125243159131743e-13,7.642256976156184e-14,4.813493927501782e-14,3.2739100813790966e-14
0.0,27,27.0,0.0,30.0,0.0,0.0,0.0,0.0,-13.0,0.0,2.0,0.0,0.0,0.0,1.4332353505535075e-11,1.2090074666787133e-11,9.910799232313727e-12,7.862133996450006e-12,6.002573701419688e-12,4.42769838712546e-12,3.1498324242196834e-12,2.1421900495480114e-12,1.4000622195671327e-12,9.023701757832501e-13,5.882466839273498e-13,3.9829621065394513e-13,2.8636840414140727e-13,2.1691458094430883e-13,1.6925902432227692e-13,1.3377181424950318e-13,1.0550827913321589e-13,8.24801112262469e-14,6.347195214321128e-14,4.81272319928649e-14,3.590892259667609e-14,2.6567438061036252e-14,1.9301595345892113e-14,1.382747922463723e-14,9.744491488104898e-15,6.813541558421595e-15,9.710757564396114e-10,5.896683260489939e-10,3.673550140662578e-10,2.301044111855723e-10,1.43403499526496e-10,8.912704654950415e-11,5.524426750396842e-11,3.3596958950294395e-11,1.9763718027465723e-11,1.102642086261248e-11,5.721248154020662e-12,2.7952196261643343e-12,1.2925263959883807e-12,5.777116084807206e-13,2.6559827873809574e-13,1.323832601549311e-13,7.427700102450542e-14,4.568857765767482e-14,3.087502135537178e-14
0.0,28,28.0,0.0,30.0,0.0,0.0,0.0,0.0,-13.0,0.0,2.0,0.0,0.0,0.0,1.47243807034287e-11,1.244888814417137e-11,1.023511154028113e-11,8.150070381297817e-12,6.250562702775114e-12,4.6328582731719275e-12,3.310241183815932e-12,2.257351261552645e-12,1.4734206391510244e-12,9.419573738436333e-13,6.03601166952897e-13,3.986908127320915e-13,2.7928875040905995e-13,2.072570426800732e-13,1.5966788718119945e-13,1.253498637134755e-13,9.855915616064076e-14,7.691610013121164e-14,5.914753600397176e-14,4.482608671270431e-14,3.3450851952778865e-14,2.4763628770813358e-14,1.800668601411728e-14,1.2909317334139644e-14,9.110351861192483e-15,6.3850986874889175e-15,9.936899958588928e-10,6.021107930802106e-10,3.7440042254065736e-10,2.341022907194511e-10,1.4565793885330823e-10,9.044223844420385e-11,5.610831826916793e-11,3.4255391257285006e-11,2.030212132400589e-11,1.1448872416598279e-11,6.017869802563497e-12,2.977871178570774e-12,1.3893720051480112e-12,6.204156657725282e-13,2.80236703280063e-13,1.3495751709491186e-13,7.287452013923147e-14,4.3638650369304956e-14,2.9204072331161464e-14
0.0,29,29.0,0.0,30.0,0.0,0.0,0.0,0.0,-13.0,0.0,2.0,0.0,0.0,0.0,1.5099359845497196e-11,1.279135138291283e-11,1.0544565481744459e-11,8.425651413958005e-12,6.48963323814581e-12,4.833006017777016e-12,3.4693881199382275e-12,2.37432642686863e-12,1.5505116927392824e-12,9.859228116211447e-13,6.230317428048436e-13,4.02358414871023e-13,2.7460525547341364e-13,1.9927203604921046e-13,1.5124889130880208e-13,1.177871433749916e-13,9.226196484121593e-14,7.185704279780575e-14,5.520802100125199e-14,4.181406111963189e-14,3.12047528186178e-14,2.311240195878705e-14,1.6819719500669968e-14,1.2065790534553752e-14,8.527065431288496e-15,5.990073728855146e-15,1.0169680562957598e-09,6.148838598879133e-10,3.816188620703989e-10,2.381923760401566e-10,1.4795508564463144e-10,9.175878080449178e-11,5.693965170964716e-11,3.486383051217606e-11,2.0793280783932253e-11,1.1839294350013187e-11,6.299368434734964e-12,3.15687696568988e-12,1.4878567730706822e-12,6.659814941267089e-13,2.9717380556378473e-13,1.3890957216083045e-13,7.219502309611449e-14,4.196869915658851e-14,2.7712140145562787e-14
0.0,30,30.0,0.0,30.0,0.0,0.0,0.0,0.0,-13.0,0.0,2.0,0.0,0.0,0.0,1.545879127394333e-11,1.3118621068538117e-11,1.083985378982102e-11,8.68901205775481e-12,6.71935430439947e-12,5.02726338682278e-12,3.626151230708222e-12,2.4919756366248073e-12,1.6303637816191484e-12,1.0335535442880317e-12,6.460821030639076e-13,4.0903686562534225e-13,2.7216921332575303e-13,1.9286146890984825e-13,1.4392113675042387e-13,1.1101052782163157e-13,8.655315220154598e-14,6.725141363452866e-14,5.16136747775538e-14,3.906179258935512e-14,2.9149300230037135e-14,2.1598714909433027e-14,1.5730240453324972e-14,1.1289892009796326e-14,7.989968861819333e-15,5.625348728898734e-15,1.0409321828722108e-09,6.279971322618834e-10,3.890144816612551e-10,2.423767341882631e-10,1.5029885984830552e-10,9.308513020652126e-11,5.77495279588987e-11,3.543205679331195e-11,2.1242724547013232e-11,1.2199152425876301e-11,6.564965355126839e-12,3.330916618228138e-12,1.5869516526196652e-12,7.138392660861844e-13,3.1616750943441466e-13,1.4416459299370834e-13,7.221734626152591e-14,4.066492236254696e-14,2.6388567412380157e-14
0.0,31,31.0,0.0,30.0,0.0,0.0,0.0,0.0,-13.0,0.0,2.0,0.0,0.0,0.0,1.5804157230005853e-11,1.3431910800609799e-11,1.1121809639006547e-11,8.940503194108446e-12,6.939556215412738e-12,5.2150143635879676e-12,3.779631570608724e-12,2.6093181650559527e-12,1.712097981666812e-12,1.0841782498988696e-12,6.723077261232319e-13,4.184653873149333e-13,2.7183456901550445e-13,1.8793496605861309e-13,1.3761460288741662e-13,1.0495757198424391e-13,8.137791393224534e-14,6.305414793924947e-14,4.8329520442538433e-14,3.654332768154716e-14,2.726560891364466e-14,2.0209210413435806e-14,1.4728929737911085e-14,1.0575361986692118e-14,7.494866771742771e-15,5.2881349447636866e-15,1.0656055556476712e-09,6.414605859941759e-10,3.965916619423873e-10,2.466572864188815e-10,1.526919330868103e-10,9.442746442445907e-11,5.854704259336641e-11,3.5968752282413416e-11,2.1655942974388016e-11,1.253036319281262e-11,6.814329891239336e-12,3.4989410605125643e-12,1.685741585546642e-12,7.634429813960321e-13,3.3696850345137033e-13,1.506392627645672e-13,7.291814780620993e-14,3.9715188478870366e-14,2.5225393292291456e-14
0.0,32,32.0,0.0,30.0,0.0,0.0,0.0,0.0,-13.0,0.0,2.0,0.0,0.0,0.0,1.6136893079843038e-11,1.3732448302159368e-11,1.1391353085625935e-11,9.180634602031651e-12,7.1502796750982074e-12,5.395867795676961e-12,3.929131798514661e-12,2.7255247783596173e-12,1.7949290675971657e-12,1.1371715982519174e-12,7.012797640803658e-13,4.3038595432453203e-13,2.734568272977137e-13,1.844074656803574e-13,1.3226773244382075e-13,9.957474091423312e-14,7.668900853511361e-14,5.922583324490582e-14,4.532473257850012e-14,3.4235681676712125e-14,2.553692463089361e-14,1.8932008149997303e-14,1.380746827559177e-14,9.916599580941569e-15,7.0379792752082815e-15,4.975939447658208e-15,1.091012333088946e-09,6.552845729945352e-10,4.0435500245458304e-10,2.510359540564973e-10,1.5513618737072154e-10,9.579023577308104e-11,5.933942679515795e-11,3.6481480597706766e-11,2.203822396592405e-11,1.2835152031272633e-11,7.047509637540703e-12,3.660152728769972e-12,1.7834275514280205e-12,8.142781366984367e-13,3.5932549234065026e-13,1.582430297173843e-13,7.427124823827449e-14,3.9108229306748185e-14,2.4216702307916046e-14
0.0,33,33.0,0.0,30.0,0.0,0.0,0.0,0.0,-13.0,0.0,2.0,0.0,0.0,0.0,1.645836893930234e-11,1.4021444649144496e-11,1.1649449391570178e-11,9.41002756608968e-12,7.351730702045097e-12,5.56962205235416e-12,4.074134020263816e-12,2.8399080799118965e-12,1.8781644926951417e-12,1.191957201038022e-12,7.325884109923408e-13,4.44544964640001e-13,2.768926558699042e-13,1.8219747659585057e-13,1.278254389481718e-13,9.481585994500702e-14,7.244570677140533e-14,5.5732008882731135e-14,4.2572122027250346e-14,3.211846281414654e-14,2.3948357840169473e-14,1.7756524022137096e-14,1.2958418831793232e-14,9.308585775319856e-15,6.615896549135017e-15,4.6865330452390464e-15,1.1171776955138428e-09,6.694798334158885e-10,4.123093073331092e-10,2.5551473191875675e-10,1.5763303097104806e-10,9.717661988591904e-11,6.01323449313033e-11,3.6976721116315454e-11,2.239453605981208e-11,1.3115931428288357e-11,7.264863624983603e-12,3.8139830882509984e-12,1.8793253383977474e-12,8.658672826874827e-13,3.829898499373977e-13,1.6687966992053393e-13,7.624734927010697e-14,3.883300638393938e-14,2.3358072828187872e-14
0.0,34,34.0,0.0,30.0,0.0,0.0,0.0,0.0,-13.0,0.0,2.0,0.0,0.0,0.0,1.676987893952426e-11,1.4300072956338585e-11,1.1897077349731884e-11,9.629376236387124e-12,7.544241488815959e-12,5.7362323400555634e-12,4.2142777055755915e-12,2.9519115279313837e-12,1.9612017218094173e-12,1.2480092802981415e-12,7.658456582658919e-13,4.60694985507067e-13,2.819999757626161e-13,1.8122587940698255e-13,1.2423749652764993e-13,9.064077008862434e-14,6.861285891932853e-14,5.254255376838328e-14,4.0047694086779006e-14,3.0173551215313965e-14,2.2486653643975386e-14,1.6673313405117085e-14,1.2175123158876841e-14,8.746816026749924e-15,6.225539363193519e-15,4.417920204849967e-15,1.144127889076308e-09,6.840575110669467e-10,4.204595745726459e-10,2.6009572002109613e-10,1.60183609365424e-10,9.858886986716886e-11,6.093017308211571e-11,3.7459940408100053e-11,2.2729452192109937e-11,1.3375199327933163e-11,7.466999759786913e-12,3.960068642282056e-12,1.9728618449139245e-12,9.177737386391161e-13,4.077195679381663e-13,1.764489887494413e-13,7.881405009544237e-14,3.887823868796427e-14,2.2646115439974172e-14
0.0,35,35.0,0.0,30.0,0.0,0.0,0.0,0.0,-13.0,0.0,2.0,0.0,0.0,0.0,1.7072635967221183e-11,1.4569454345778527e-11,1.2135205844896883e-11,9.839416730739099e-12,7.728237016485027e-12,5.895781069808063e-12,4.349338279802113e-12,3.0610976629242885e-12,2.0435242830089685e-12,1.304853220595044e-12,8.00687412977688e-13,4.785964238514498e-13,2.8863837014779027e-13,1.8141516250627308e-13,1.2145726806151783e-13,8.70141742297545e-14,6.516006707234288e-14,4.963114707793112e-14,3.7730267336370167e-14,2.8384823925409185e-14,2.1139992916940334e-14,1.5673934921544968e-14,1.1451612298779723e-14,8.227241227046304e-15,5.864124643607567e-15,4.168311488576331e-15,1.1718902710127248e-09,6.99029170347866e-10,4.288109901878764e-10,2.647811329607977e-10,1.6278894142310432e-10,1.0002858894052462e-10,6.173624902465828e-11,3.7935686241307666e-11,2.3047106922308345e-11,1.3615456687396057e-11,7.654717473492826e-12,4.098226360035202e-12,2.063569573640473e-12,9.69603752618581e-13,4.332824736037334e-13,1.8684852947997906e-13,8.193608509775347e-14,3.9232075285166836e-14,2.207809141985194e-14
0.0,36,36.0,0.0,30.0,0.0,0.0,0.0,0.0,-13.0,0.0,2.0,0.0,0.0,0.0,1.736777021909581e-11,1.4830649405597827e-11,1.2364777060061306e-11,1.0040902928419027e-11,7.904207063767121e-12,6.048451464600241e-12,4.47920683332725e-12,3.1671359891348327e-12,2.1246968629695113e-12,1.36206517774237e-12,8.367750004276156e-13,4.980190270304868e-13,2.966696792695066e-13,1.8268899504429356e-13,1.1944072665484624e-13,8.390465937280934e-14,6.206095280115244e-14,4.6974790184863693e-14,3.560114257557272e-14,2.6737918756903725e-14,1.9897820258499783e-14,1.4750831891699674e-14,1.0782528192436968e-14,7.746215930739136e-15,5.529135274446696e-15,3.936098805697897e-15,1.200493356824648e-09,7.144068137444492e-10,4.3736892684026984e-10,2.69573298674091e-10,1.6545000390489758e-10,1.0149693553526505e-10,6.255308933622431e-11,3.8407692825340373e-11,2.335118024952711e-11,1.3839142836554827e-11,7.828956190718102e-12,4.228429244478836e-12,2.1510798472944898e-12,1.0210073852260779e-12,4.594587426059974e-13,1.9797519578947076e-13,8.557571526497493e-14,3.9881893787432e-14,2.1651602037336878e-14
0.0,37,37.0,0.0,30.0,0.0,0.0,0.0,0.0,-13.0,0.0,2.0,0.0,0.0,0.0,1.7656330326368594e-11,1.5084653697674656e-11,1.258669494319346e-11,1.0234587930049241e-11,8.072683136419055e-12,6.1945044340898094e-12,4.603871255899382e-12,3.269790869002317e-12,2.2043597286348198e-12,1.4192709116321038e-12,8.737960994411179e-13,5.187431609535118e-13,3.059586816506039e-13,1.849720518463624e-13,1.1814572607872504e-13,8.128387953752984e-14,5.929251238916534e-14,4.455338108821798e-14,3.3643813321453836e-14,2.5220030710767752e-14,1.875069502622781e-14,1.3897229045601925e-14,1.0163055030003577e-14,7.300452920219791e-15,5.21829346457318e-15,3.719833589140167e-15,1.2299668699532576e-09,7.302028994759014e-10,4.461389459041492e-10,2.7447465321855316e-10,1.6816778134077983e-10,1.0299477410845908e-10,6.338257288726717e-11,3.88789888483133e-11,2.3644901734299598e-11,1.4048586877714482e-11,7.99074993626702e-12,4.3507826011469e-12,2.235115167027227e-12,1.0716783685869378e-12,4.860427655666632e-13,2.0972672738237544e-13,8.969321560300846e-14,4.08142041615714e-14,2.1364340161027057e-14
0.0,38,38.0,0.0,30.0,0.0,0.0,0.0,0.0,-13.0,0.0,2.0,0.0,0.0,0.0,1.793928613819908e-11,1.5332396180015986e-11,1.2801817760497141e-11,1.0421210226840106e-11,8.234219782817505e-12,6.334258623801e-12,4.723398989350732e-12,3.3689097132480987e-12,2.282222716254529e-12,1.4761439983490577e-12,9.114651731215768e-13,5.405608425823102e-13,3.1637378934405424e-13,1.881900187097252e-13,1.1753147799919557e-13,7.912588330974124e-14,5.6834552906036635e-14,4.234933470497035e-14,3.184371097498237e-14,2.3819735708045286e-14,1.769016221554165e-14,1.3107042442197925e-14,9.58885901636211e-15,6.886983308197462e-15,4.929537121851334e-15,3.5182078354841046e-15,1.2603417943713976e-09,7.464303592333382e-10,4.5512680190614215e-10,2.7948773507081284e-10,1.7094329351258236e-10,1.0452278356542922e-10,6.422609234018874e-11,3.935200235040021e-11,2.3931069396477683e-11,1.4245973153174488e-11,8.141188162383254e-12,4.465501438839205e-12,2.315481046374118e-12,1.1213531594708586e-12,5.128444435753195e-13,2.2200299393477397e-13,9.424741141728464e-14,4.20146374198591e-14,2.1213896423266658e-14
0.0,39,39.0,0.0,30.0,0.0,0.0,0.0,0.0,-13.0,0.0,2.0,0.0,0.0,0.0,1.8217532511735354e-11,1.5574739669959136e-11,1.3010953764110676e-11,1.0601483716540101e-11,8.389379742936991e-12,6.46807346079532e-12,4.8379214988902275e-12,3.464411681910906e-12,2.3580589902038317e-12,1.5324035610933829e-12,9.495234631131328e-13,5.632765244756586e-13,3.2778770760554955e-13,1.9226971957521966e-13,1.17558197109666e-13,7.74065697614709e-14,5.466920289930714e-14,4.034724395534253e-14,3.01879791603649e-14,2.2526837203128986e-14,1.6708640384152587e-14,1.2374800836543412e-14,9.056035427504407e-15,6.503121485465713e-15,4.660998777022612e-15,3.330037821857968e-15,1.2916504304112347e-09,7.631026161258466e-10,4.6433844846192635e-10,2.8461518054007003e-10,1.737776090408176e-10,1.0608153336412754e-10,6.508467665042304e-11,3.9828658515276834e-11,2.4212078691474725e-11,1.4433318728940226e-11,8.281382677144356e-12,4.57288932567573e-12,2.3920575852271925e-12,1.169809371710384e-12,5.396899936496342e-13,2.3470709234150146e-13,9.919622658823523e-14,4.346799972595144e-14,2.1197612933515217e-14
0.0,40,40.0,0.0,30.0,0.0,0.0,0.0,0.0,-13.0,0.0,2.0,0.0,0.0,0.0,1.8491893653163935e-11,1.5812482687969938e-11,1.3214859185819461e-11,1.0776090809504778e-11,8.538722389052818e-12,6.59633496204751e-12,4.947620488851416e-12,3.5562770532596964e-12,2.4316987387717033e-12,1.5878116427665469e-12,9.877386151435103e-13,5.867076424414905e-13,3.400780272097181e-13,1.9713931912710633e-13,1.181868793060275e-13,7.610325655747857e-14,5.278049168949581e-14,3.853357766135198e-14,2.8665272883661783e-14,2.133223198158052e-14,1.5799324192610823e-14,1.16955769808147e-14,8.561062001405452e-15,6.146434312684866e-15,4.410986686585884e-15,3.15425023005374e-15,1.3239264540691096e-09,7.802336030239223e-10,4.737800450816429e-10,2.8985972083642473e-10,1.766718508001285e-10,1.0767153556510075e-10,6.595908823880573e-11,4.0310468072482606e-11,2.4489957705565752e-11,1.4612460868299376e-11,8.412440395099892e-12,4.673318931930157e-12,2.464790994871153e-12,1.2168637417801953e-12,5.664223434871226e-13,2.47746246548032e-13,1.0449721633410958e-13,4.5158374189018314e-14,2.1312478186269533e-14
0.0,41,41.0,0.0,30.0,0.0,0.0,0.0,0.0,-13.0,0.0,2.0,0.0,0.0,0.0,1.8763127700049183e-11,1.604636219294486e-11,1.3414237929228376e-11,1.0945677976428488e-11,8.682794947811192e-12,6.719444039855796e-12,5.052715831489408e-12,3.644537367649774e-12,2.50302294256754e-12,1.6421703267579505e-12,1.0259039999854114e-12,6.10684945354721e-13,3.531277312302836e-13,2.02728565059981e-13,1.193791824401687e-13,7.519434456399003e-14,5.1153991312302424e-14,3.6896412018954764e-14,2.7265579076961593e-14,2.0227792078809687e-14,1.4956099458190626e-14,1.1064927549638031e-14,8.100757846856071e-15,5.814714031214256e-15,4.177967816941381e-15,2.9898703641630526e-15,1.35720497998331e-09,7.978377815007066e-10,4.834579644414538e-10,2.9522418078775336e-10,1.796271968881336e-10,1.0929327938872467e-10,6.684989868646322e-11,4.0798605222341806e-11,2.4766405506481023e-11,1.478505257385013e-11,8.535441509852069e-12,4.767214411212653e-12,2.5336852431612463e-12,1.2623697540533624e-12,5.929011888939948e-13,2.6103251893511083e-13,1.1010806510425959e-13,4.706925480862054e-14,2.1555057385550197e-14
0.0,42,42.0,0.0,30.0,0.0,0.0,0.0,0.0,-13.0,0.0,2.0,0.0,0.0,0.0,1.903193134109634e-11,1.6277056853885332e-11,1.3609742469575244e-11,1.1110853192914717e-11,8.822126037122313e-12,6.837807025384219e-12,5.153455135041401e-12,3.7292664115264705e-12,2.571957323269636e-12,1.6953186971864604e-12,1.0638377885832538e-12,6.350526303187375e-13,3.6682560808395317e-13,2.0896904339775093e-13,1.2109738366349617e-13,7.465906412166608e-14,4.977651517316021e-14,3.5425192885566917e-14,2.5980055819020638e-14,1.920626029820797e-14,1.4173468906236174e-14,1.0478840553121671e-14,7.67224717025246e-15,5.505954432980265e-15,3.960552471665651e-15,2.836012135516936e-15,1.3915226282595484e-09,8.159301615510978e-10,4.933787998953918e-10,3.0071147895979806e-10,1.8264487947475776e-10,1.1094725335222255e-10,6.775754666747648e-11,4.129397487593144e-11,2.5042831305740208e-11,1.4952564437002317e-11,8.651422603091752e-12,4.855035702018415e-12,2.598793955220033e-12,1.3062150293214807e-12,6.190027791167001e-13,2.7448334823141896e-13,1.1598703704916402e-13,4.9183699438614326e-14,2.192145291871083e-14
0.0,43,43.0,0.0,30.0,0.0,0.0,0.0,0.0,-13.0,0.0,2.0,0.0,0.0,0.0,1.9298944344484596e-11,1.6505190605509345e-11,1.3801975583702419e-11,1.1272184831128346e-11,8.957221101640575e-12,6.951828132226166e-12,5.250104847608089e-12,3.810572072298684e-12,2.638466555931534e-12,1.7471297159052882e-12,1.101381833987238e-12,6.596683078236217e-13,3.8106656965955824e-13,2.1579442783775284e-13,1.2330439169828694e-13,7.44772892588393e-14,4.8635867531237034e-14,3.4110526427005567e-14,2.4800888084437778e-14,1.8261157268078e-14,1.3446487057083225e-14,9.933689248419945e-15,7.272927217986461e-15,5.21832988547065e-15,3.757480371317719e-15,2.6918695005774357e-15,1.426917595316353e-09,8.345263222371118e-10,5.03549373125689e-10,3.0632462886527057e-10,1.857261829123364e-10,1.1263395881189071e-10,6.868238151072039e-11,4.179726960448412e-11,2.5320392716254312e-11,1.5116291228735925e-11,8.761364152331683e-12,4.937264771631428e-12,2.6602126771265484e-12,1.3483185614083104e-12,6.446194864303093e-13,2.8802193213621146e-13,1.2209337197327186e-13,5.1484491067846535e-14,2.2407290174408956e-14
0.0,44,44.0,0.0,30.0,0.0,0.0,0.0,0.0,-13.0,0.0,2.0,0.0,0.0,0.0,1.9564753917781688e-11,1.6731336312549693e-11,1.399149262462918e-11,1.1430201633148684e-11,9.088559382973768e-12,7.061903592719817e-12,5.3429427743588125e-12,3.888589067031625e-12,2.7025488067378766e-12,1.7975070810347418e-12,1.138400406554068e-12,6.844028213139306e-13,3.9575187803970137e-13,2.2314071020638228e-13,1.2596379639210173e-13,7.462940741726736e-14,4.7720638049353255e-14,3.294399585231303e-14,2.3721158297661875e-14,1.7386698361777995e-14,1.2770702911525887e-14,9.42619168790765e-15,6.900439913418267e-15,4.950176856229431e-15,3.567608032224605e-15,2.556709065480223e-15,1.4634297289319088e-09,8.536424333758296e-10,5.139767419093295e-10,3.1206674096488545e-10,1.8887244186677384e-10,1.1435391772778936e-10,6.962469536444368e-11,4.230901707317925e-11,2.560003191611366e-11,1.5277361876676877e-11,8.86618187602672e-12,5.0143937735769995e-12,2.7180715862243583e-12,1.3886278715758122e-12,6.696592077012237e-13,3.0157747400666935e-13,1.2838762388409225e-13,5.395429902607971e-14,2.300772432770296e-14
0.0,45,45.0,0.0,30.0,0.0,0.0,0.0,0.0,-13.0,0.0,2.0,0.0,0.0,0.0,1.9829898857326913e-11,1.6956019424373195e-11,1.4178804128289932e-11,1.1585393473559722e-11,9.216592112074997e-12,7.168417217317477e-12,5.432251875098799e-12,3.963472526130617e-12,2.7642306397163285e-12,1.8463821205955266e-12,1.1747788229774623e-12,7.091399443126769e-13,4.10789287232692e-13,2.3094640390014743e-13,1.2903994152112487e-13,7.509623365767555e-14,4.702003584403232e-14,3.191800207711071e-14,2.2734730282860093e-14,1.657771912426634e-14,1.2142109295874377e-14,8.953375152372388e-15,6.552646736321755e-15,4.6999776238466025e-15,3.3898973184307433e-15,2.429863608515937e-15,1.5011006076908403e-09,8.73295278359197e-10,5.24668208024359e-10,3.179410252165121e-10,1.9208503983979152e-10,1.1610767667705952e-10,7.058474648982147e-11,4.28296189459641e-11,2.588250895874409e-11,1.5436751687215425e-11,8.966721355202614e-12,5.086915048090082e-12,2.772528710749141e-12,1.427116138224415e-12,6.940446377848233e-13,3.150853127544204e-13,1.3483194236068663e-13,5.6575833826600096e-14,2.3717464119655174e-14
0.0,46,46.0,0.0,30.0,0.0,0.0,0.0,0.0,-13.0,0.0,2.0,0.0,0.0,0.0,2.0094873467692097e-11,1.7179721542682574e-11,1.436437859716279e-11,1.17382126804689e-11,9.341741659480074e-12,7.271737148967848e-12,5.5183152055441586e-12,4.035392396686874e-12,2.8235623202288427e-12,1.893710764871207e-12,1.210422004272297e-12,7.337759764313448e-13,4.2609310793473717e-13,2.391527158223654e-13,1.3249800996020358e-13,7.585895973378426e-14,4.652375774592896e-14,3.102562623192502e-14,2.18361454296664e-14,1.582960810841793e-14,1.1557097902328052e-14,8.512544814785832e-15,6.227606450778893e-15,4.466345899803051e-15,3.223405062139391e-15,2.310726314089995e-15,1.539973625050109e-09,8.935022781746038e-10,5.35631325342422e-10,3.2395079399071426e-10,1.953654082185805e-10,1.1789580853731118e-10,7.156277577432304e-11,4.3359382336070905e-11,2.6168431807731662e-11,1.559529587689915e-11,9.063755390209134e-12,5.155312862185347e-12,2.8237637028216987e-12,1.4637793494702238e-12,7.177124477854765e-13,3.2848695399751167e-13,1.4139029913600709e-13,5.933199118830586e-14,2.4530809044045497e-14
0.0,47,47.0,0.0,30.0,0.0,0.0,0.0,0.0,-13.0,0.0,2.0,0.0,0.0,0.0,2.036013124604125e-11,1.7402883854187028e-11,1.4548645349450472e-11,1.1889075735289966e-11,9.464401422927369e-12,7.37221360814423e-12,5.6014118671071116e-12,4.104528618211699e-12,2.8806135298555746e-12,1.939470632319389e-12,1.2452529929179446e-12,7.582192575538978e-13,4.415842040242647e-13,2.4770368500094576e-13,1.363041130218641e-13,7.68991298137209e-14,4.622188582199244e-14,3.0260511992145474e-14,2.1020530057794194e-14,1.5138246233808555e-14,1.1012419212112216e-14,8.101256065228061e-15,5.9235553370605895e-15,4.2480141186648105e-15,3.0672736627116206e-15,2.198745553962239e-15,1.5800940782663633e-09,9.14281516681178e-10,5.468739081622431e-10,3.30099465228176e-10,1.987150258587081e-10,1.1971891281047717e-10,7.255901815668448e-11,4.38985448785629e-11,2.6458282931776217e-11,1.575370366743579e-11,9.157983584965569e-12,5.2200567614347505e-12,2.871972192125054e-12,1.4986335179610345e-12,7.406123954604058e-13,3.417300189281995e-13,1.4802866370597893e-13,6.220598232748428e-14,2.544169672593842e-14
0.0,48,48.0,0.0,30.0,0.0,0.0,0.0,0.0,-13.0,0.0,2.0,0.0,0.0,0.0,2.062608833465138e-11,1.762591040032536e-11,1.4731997355734202e-11,1.203836521336417e-11,9.584936270856125e-12,7.470177448318823e-12,5.681813835222982e-12,4.171067015416047e-12,2.9354694963318554e-12,1.9836582560687207e-12,1.279211454960512e-12,7.823896174167232e-13,4.571899295513958e-13,2.5654628796393935e-13,1.40425377994558e-13,7.819863594023189e-14,4.610480960181063e-14,2.961676576823104e-14,2.0283513078676763e-14,1.449995194718293e-14,1.0505146620463693e-14,7.717290002846342e-15,5.638889625636402e-15,4.043822183653484e-15,2.9207225851345274e-15,2.0934200911057996e-15,1.6215092624513739e-09,9.356517671882944e-10,5.58404039838897e-10,3.3639056576127887e-10,2.0213541914112785e-10,1.2157761522899565e-10,7.357371030482002e-11,4.444729444619735e-11,2.675244248305346e-11,1.5912572368829856e-11,9.250033694660689e-12,5.281596388878373e-12,2.9173607326807957e-12,1.5317119903146354e-12,7.627063903207582e-13,3.547681255471221e-13,1.5471513259882673e-13,6.518144886487897e-14,2.6443757631506326e-14
0.0,49,49.0,0.0,30.0,0.0,0.0,0.0,0.0,-13.0,0.0,2.0,0.0,0.0,0.0,2.0893126749486084e-11,1.7849171169793996e-11,1.49147940098069e-11,1.2186431861046928e-11,9.703683394166499e-12,7.565939365239111e-12,5.7597835440814144e-12,4.2351958478428935e-12,2.9882275332888306e-12,2.0262864711896473e-12,1.3122521889407615e-12,8.062177758307162e-13,4.728440146531128e-13,2.6563051222448004e-13,1.4483002972193603e-13,7.973972752966682e-14,4.616316887382343e-14,2.9088872864436904e-14,1.9621153131936056e-14,1.3911431593716783e-14,1.0032644195489997e-14,7.358631667560837e-15,5.372149868355893e-15,3.852707480994968e-15,2.7830406865964165e-15,1.994294616494183e-15,1.6642685700476877e-09,9.576325203784266e-10,5.702300817597564e-10,3.428277347573526e-10,2.0562816241878167e-10,1.2347256705263247e-10,7.460709559018954e-11,4.500578444085558e-11,2.7051208212652127e-11,1.6072401023247933e-11,9.340464322425075e-12,5.340357616793718e-12,2.9601423420204234e-12,1.5630628774773428e-12,7.839675321514954e-13,3.675607150822575e-13,1.6142001731212944e-13,6.824256167873924e-14,2.753037459148054e-14
0.0,50,50.0,0.0,30.0,0.0,0.0,0.0,0.0,-13.0,0.0,2.0,0.0,0.0,0.0,2.1161597394934203e-11,1.80730050086404e-11,1.509736379859193e-11,1.233359673150356e-11,9.82095344760468e-12,7.659789625579493e-12,5.835572115112947e-12,4.297102953931528e-12,3.0389939774684063e-12,2.0673819769277314e-12,1.344343660002863e-12,8.296447069683921e-13,4.884864082682776e-13,2.74909400028219e-13,1.4948746349936777e-13,8.150503029192961e-14,4.638781335535743e-14,2.867162779819509e-14,1.902987443239655e-14,1.3369734509570351e-14,9.59253759869616e-15,7.023450642663113e-15,5.122007013726618e-15,3.6736959997425226e-15,2.6535793050815684e-15,1.900955558989386e-15,1.7084235960434836e-09,9.802440136155469e-10,5.823606827126211e-10,3.494147272657412e-10,2.0919487876542144e-10,1.2540444430254243e-10,7.565942715573408e-11,4.5574145486459825e-11,2.7354812360998066e-11,1.623360330765575e-11,9.42976860273732e-12,5.396739833409992e-12,3.0005326207659777e-12,1.5927466268900266e-12,8.043791385779127e-13,3.800728346664759e-13,1.6811589597682915e-13,7.137410378023789e-14,2.8694744945383026e-14
0.0,51,51.0,0.0,30.0,0.0,0.0,0.0,0.0,-13.0,0.0,2.0,0.0,0.0,0.0,2.143182287559375e-11,1.82977223484267e-11,1.52800068492124e-11,1.2480153322304487e-11,9.937031886549874e-12,7.751998200962325e-12,5.909418126975153e-12,4.3569734269519606e-12,3.0878815056389036e-12,2.106983082879975e-12,1.3754665743998587e-12,8.526209794856432e-13,5.040630848592946e-13,2.8433906496597893e-13,1.5436830767519707e-13,8.347757090503536e-14,4.676977597869686e-14,2.836007706820932e-14,1.850641060454288e-14,1.287221242249596e-14,9.182687775587283e-15,6.710083711462845e-15,4.887249981443754e-15,3.5058944147436374e-15,2.5317460479954556e-15,1.813027131884497e-15,1.7540282492734218e-09,1.0035072616817287e-09,5.948047886862499e-10,3.561554178669236e-10,2.128372409478842e-10,1.273739470703995e-10,7.673096967530853e-11,4.615249423758475e-11,2.766343580948325e-11,1.6396519496849767e-11,9.518378561668863e-12,5.451114228080759e-12,3.0387464311761304e-12,1.6208337524449296e-12,8.23933774803834e-13,3.92274885766794e-13,1.747776336366524e-13,7.456153781869909e-14,2.9929943423722186e-14
0.0,52,52.0,0.0,30.0,0.0,0.0,0.0,0.0,-13.0,0.0,2.0,0.0,0.0,0.0,2.1704100115936664e-11,1.8523607756482742e-11,1.546299734063989e-11,1.2626369674046957e-11,1.0052180425278916e-11,7.842815211730893e-12,5.981546835495812e-12,4.414987761708027e-12,3.135006809418484e-12,2.145137643608519e-12,1.4056125067945318e-12,8.75106082763695e-13,5.195258216498578e-13,2.9387868425218075e-13,1.5944447517997695e-13,8.564080459517573e-14,4.730025696176462e-14,2.8149472768611006e-14,1.8047755815249754e-14,1.2416482805565251e-14,8.801167091977943e-15,6.41701929671113e-15,4.666774556076494e-15,3.3484830090698937e-15,2.4169992220935707e-15,1.7301675979017991e-15,1.8011388701814228e-09,1.0274440889885913e-09,6.075716531388558e-10,3.630538044312227e-10,2.1655697255650813e-10,1.2938179896989937e-10,7.782200024476618e-11,4.674093990878141e-11,2.7977219800776555e-11,1.6561427371837443e-11,9.606669894507716e-12,5.503822923921859e-12,3.0749951055945877e-12,1.6474027337543448e-12,8.426322965902608e-13,4.041423464634647e-13,1.8138237572126672e-13,7.779105918588893e-14,3.1228984176868765e-14
0.0,53,53.0,0.0,30.0,0.0,0.0,0.0,0.0,-13.0,0.0,2.0,0.0,0.0,0.0,2.1978702798246877e-11,1.875092231430386e-11,1.5646585773910493e-11,1.2772490401586345e-11,1.0166638559471495e-11,7.93247160114152e-12,6.052169762637254e-12,4.471320413565685e-12,3.1804886034388187e-12,2.181901182379136e-12,1.4347825902274608e-12,8.970677482267954e-13,5.348319522055071e-13,3.034904694934502e-13,1.6468920381840734e-13,8.797864346427292e-14,4.797061623544979e-14,2.8035235563874373e-14,1.7651122544601873e-14,1.2000395872458246e-14,8.446237646826678e-15,6.1428834510396685e-15,4.4595734414580565e-15,3.2007093283967503e-15,2.308842848605409e-15,1.65206574723459e-15,1.8498143554505532e-09,1.0520771633165229e-09,6.206708477665725e-10,3.7011401199907024e-10,2.2035584924282208e-10,1.314287467542673e-10,7.893280872221091e-11,4.733958902793621e-11,2.8296275536933282e-11,1.6728552023706836e-11,9.694966948419013e-12,5.555178815508829e-12,3.1094841498733046e-12,1.6725380921822348e-12,8.604829158232292e-13,4.1565547447951455e-13,1.879095189046783e-13,8.10496359084892e-14,3.258488063240423e-14
0.0,54,54.0,0.0,30.0,0.0,0.0,0.0,0.0,-13.0,0.0,2.0,0.0,0.0,0.0,2.225588362862918e-11,1.8979905831225386e-11,1.5831001099399652e-11,1.2918738638809038e-11,1.028062510928094e-11,8.021179974845571e-12,6.121484583728175e-12,4.526138714858016e-12,3.224445940560133e-12,2.2173352015262863e-12,1.4629862763551315e-12,9.184812734980358e-13,5.49944101547042e-13,3.131396186833848e-13,1.7007708558693665e-13,9.047548397855044e-14,4.877237217499964e-14,2.8012925663962908e-14,1.731390536259403e-14,1.1622004934865526e-14,8.11633153765268e-15,5.886427201554095e-15,4.264727336979075e-15,3.061882474696168e-15,2.206822210290595e-15,1.5784375914756056e-15,1.9001162899342433e-09,1.0774300311430263e-09,6.341122738013562e-10,3.773402967957887e-10,2.2423570002703063e-10,1.3351556009810684e-10,8.006369774138569e-11,4.7948548825630413e-11,2.8620691952510035e-11,1.6898074552496372e-11,9.783547740670755e-12,5.6054659800416e-12,3.1424114026583377e-12,1.6963286474085196e-12,8.775002965376906e-13,4.2679899684313324e-13,1.943406631175301e-13,8.432503662831312e-14,3.399070211805875e-14
