Line_number,Fiducial,Easting,Northing,Height,Elevation,tx_pitch,tx_roll,tx_yaw,txrx_dx,txrx_dy,txrx_dz,rx_pitch,rx_roll,rx_yaw,S0Z_time_3.834e-04,S0Z_time_3.924e-04,S0Z_time_4.039e-04,S0Z_time_4.184e-04,S0Z_time_4.364e-04,S0Z_time_4.589e-04,S0Z_time_4.869e-04,S0Z_time_5.224e-04,S0Z_time_5.679e-04,S0Z_time_6.249e-04,S0Z_time_6.969e-04,S0Z_time_7.879e-04,S0Z_time_9.019e-04,S0Z_time_1.046e-03,S0Z_time_1.227e-03,S0Z_time_1.456e-03,S0Z_time_1.744e-03,S0Z_time_2.109e-03,S0Z_time_2.567e-03,S0Z_time_3.145e-03,S0Z_time_3.864e-03,S0Z_time_4.745e-03,S0Z_time_5.821e-03,S0Z_time_7.140e-03,S0Z_time_8.754e-03,S0Z_time_1.073e-02,S1Z_time_2.057e-05,S1Z_time_2.607e-05,S1Z_time_3.307e-05,S1Z_time_4.206e-05,S1Z_time_5.356e-05,S1Z_time_6.807e-05,S1Z_time_8.607e-05,S1Z_time_1.086e-04,S1Z_time_1.366e-04,S1Z_time_1.721e-04,S1Z_time_2.176e-04,S1Z_time_2.746e-04,S1Z_time_3.466e-04,S1Z_time_4.376e-04,S1Z_time_5.516e-04,S1Z_time_6.956e-04,S1Z_time_8.771e-04,S1Z_time_1.106e-03,S1Z_time_1.394e-03
0.0,0,0.0,0.0,30.0,0.0,0.0,0.0,0.0,-13.0,0.0,2.0,0.0,0.0,0.0,5.901322848299784e-11,5.300269798794208e-11,4.746117191053388e-11,4.296844122955196e-11,3.602461576892814e-11,2.9971232063997014e-11,2.5262163186091666e-11,2.042098577387467e-11,1.6749293338057794e-11,1.2875633783315158e-11,9.080816763825462e-12,6.4777525529901155e-12,4.067012000339913e-12,2.8528211438418336e-12,2.0535533797766516e-12,1.2604807390543508e-12,7.221004554160659e-13,4.1697215774453227e-13,2.631331236797063e-13,1.5421155515837902e-13,8.485433261476493e-14,4.672233741976178e-14,2.725847321500702e-14,1.4669153592923422e-14,8.96233766797173e-15,3.758784573010698e-15,3.4410935732255355e-09,1.6095878910905557e-09,8.066208004889342e-10,4.546834830230344e-10,2.809083184792194e-10,1.8391200077372043e-10,1.3507982910731046e-10,9.877662459642062e-11,6.475186481955305e-11,4.958713206003587e-11,3.253054534934341e-11,2.120919466233667e-11,1.3213388330364984e-11,8.328261428208069e-12,4.83704614510644e-12,2.7884111131642826e-12,1.5244339941201784e-12,8.368667231025936e-13,4.1881491285055335e-13
0.0,1,1.0,0.0,30.0,0.0,0.0,0.0,0.0,-13.0,0.0,2.0,0.0,0.0,0.0,5.291735104934993e-11,4.997161144367539e-11,4.820189716051451e-11,4.230139379228012e-11,3.766428633322315e-11,3.320744545542214e-11,2.647407133369286e-11,2.178526778082884e-11,1.691727478485256e-11,1.3859501304520299e-11,9.711322444677851e-12,6.919956464944613e-12,4.804983997369556e-12,3.3555941126064633e-12,2.1481254074417266e-12,1.319823962946757e-12,7.4807697818879e-13,4.886912570159114e-13,2.884645957890108e-13,1.64221105828048e-13,9.000350933559608e-14,5.092055039012018e-14,2.6127318043040227e-14,1.5894023462863092e-14,7.808244745176172e-15,3.836969888197949e-15,3.3534467164001047e-09,1.4379376370467408e-09,8.070186938994234e-10,4.419261120243262e-10,2.8106297129927317e-10,1.8649697733704804e-10,1.3104778692986914e-10,9.972819830870964e-11,6.856320680923712e-11,5.1222331727490925e-11,3.34070691462754e-11,2.1489961153314603e-11,1.4488486497140757e-11,9.143951609430371e-12,5.336295969061022e-12,3.0651142723859385e-12,1.7426404477362082e-12,9.06542877310271e-13,4.600617965680973e-13
0.0,2,2.0,0.0,30.0,0.0,0.0,0.0,0.0,-13.0,0.0,2.0,0.0,0.0,0.0,5.926492035973116e-11,5.166119682222391e-11,4.589171671142084e-11,4.1759425947431274e-11,3.800529910522226e-11,3.2826884563263593e-11,2.6505447685885853e-11,2.193366429994877e-11,1.7358451417528548e-11,1.3669633536651778e-11,9.722155247827055e-12,7.678488779553815e-12,5.133139078398517e-12,3.487670158346244e-12,2.2443549715696645e-12,1.4326426077917723e-12,9.31371179140811e-13,5.65567463372965e-13,3.2621988735303133e-13,1.8806581154637834e-13,9.921543421580855e-14,5.359913959429151e-14,2.96671765220013e-14,1.753916951796378e-14,9.010523688131611e-15,4.841788413364917e-15,3.573910213786565e-09,1.5397961149555005e-09,8.593148410089911e-10,4.382170400355764e-10,2.763148221374924e-10,1.7547576713034528e-10,1.255381065148787e-10,9.258418761497156e-11,6.420588246510509e-11,4.6976072419671134e-11,3.11258441651251e-11,2.300012193810735e-11,1.4232295506265379e-11,8.845539633383067e-12,5.67857971861037e-12,3.3101865407504495e-12,1.7711900725760103e-12,1.0424205311069545e-12,5.223675505027795e-13
0.0,3,3.0,0.0,30.0,0.0,0.0,0.0,0.0,-13.0,0.0,2.0,0.0,0.0,0.0,5.720109005343102e-11,5.2989463509019635e-11,4.7228618428016645e-11,4.262864849015329e-11,3.688525028228647e-11,3.1816408999407236e-11,2.7017540198535185e-11,2.2732463589862733e-11,1.8588677544628982e-11,1.4241887303755419e-11,1.0642831509119525e-11,7.929281337723959e-12,5.5754393098069975e-12,3.647388813785678e-12,2.5807543106754035e-12,1.5555056001988864e-12,9.51529184234426e-13,5.793086046577282e-13,3.4612838463495447e-13,1.9040310371860887e-13,1.1126041329470604e-13,6.230225982744085e-14,3.1245459728485306e-14,1.7401833499779546e-14,1.0564967934539113e-14,4.8226637248276705e-15,3.524595380318552e-09,1.6634009134728553e-09,7.964904338318341e-10,4.6065640952055916e-10,2.745640745591773e-10,1.8549669597940518e-10,1.2498596405840251e-10,8.660961153818542e-11,6.311741279591739e-11,4.4538431958090515e-11,3.2925544017437726e-11,2.270957325178752e-11,1.3929878825191548e-11,9.746295554251115e-12,5.808119205548151e-12,3.495190220079416e-12,2.0376864668563265e-12,1.1023854860891158e-12,5.869469542259182e-13
0.0,4,4.0,0.0,30.0,0.0,0.0,0.0,0.0,-13.0,0.0,2.0,0.0,0.0,0.0,5.6514776737938686e-11,5.291983149482989e-11,4.552749711208177e-11,4.1465657200610124e-11,3.75552974992915e-11,3.003496163922269e-11,2.8118695070146666e-11,2.3392614353264647e-11,1.9226339421711812e-11,1.422874011722792e-11,1.1415496599116231e-11,8.271648008521331e-12,5.782732992609402e-12,4.1175010549209035e-12,2.5912562299700293e-12,1.7456262949068828e-12,1.0542320491309373e-12,6.232453033726749e-13,3.6930096181952954e-13,2.2069760819176038e-13,1.1649656856541957e-13,6.036084931868582e-14,3.645032938236365e-14,2.0334313509060796e-14,1.0795928769934502e-14,6.423756982650739e-15,3.3396005563585027e-09,1.5793342654353907e-09,7.737897687259418e-10,4.701837891728314e-10,2.817355912412622e-10,1.7481546473804372e-10,1.238536747417765e-10,8.791126964553127e-11,6.651867663509085e-11,4.5469648237642925e-11,3.2694627240433746e-11,2.1307052949707018e-11,1.5906800509206638e-11,9.324522307715827e-12,5.6028513908778596e-12,3.6658580910745956e-12,2.0564496501588906e-12,1.1264479688503311e-12,6.211375987104463e-13
0.0,5,5.0,0.0,30.0,0.0,0.0,0.0,0.0,-13.0,0.0,2.0,0.0,0.0,0.0,5.793942546416135e-11,5.3307373398215374e-11,4.5171977694553964e-11,3.995254529394704e-11,3.822965966511528e-11,3.234251970254005e-11,2.6513702668041996e-11,2.3392191520723467e-11,1.9226042810217805e-11,1.5272373833002706e-11,1.1353639883091794e-11,8.437188330662631e-12,5.960046902717627e-12,3.932303624544865e-12,2.7649759613360764e-12,1.8205591555075745e-12,1.169297078062225e-12,6.788162460290174e-13,4.1278217943187886e-13,2.159907126674422e-13,1.2566455082550022e-13,6.810686316384982e-14,3.918563213871482e-14,2.2437725292115483e-14,1.0346116934356265e-14,5.145816626208006e-15,3.33020796897037e-09,1.5406852318874876e-09,8.135469293429821e-10,4.986356466434223e-10,2.9773843863276694e-10,1.8391321961298467e-10,1.277673219490064e-10,8.979164962549595e-11,6.60089547390758e-11,4.6713285835699024e-11,3.181359808717639e-11,2.1582335586788467e-11,1.5019382188655223e-11,9.397330443291992e-12,6.013549390414362e-12,3.6046285957385934e-12,2.2030379664523957e-12,1.118771042401182e-12,6.657852398643572e-13
0.0,6,6.0,0.0,30.0,0.0,0.0,0.0,0.0,-13.0,0.0,2.0,0.0,0.0,0.0,5.820494203101771e-11,5.341814066628604e-11,4.778792172299446e-11,4.174486754747862e-11,3.5711494581795114e-11,3.1009437222345305e-11,2.7834439467828923e-11,2.321612386825145e-11,1.7867891561050737e-11,1.4109432238048089e-11,1.0805887908899149e-11,9.073203258510183e-12,6.421155361690248e-12,4.308763709372033e-12,2.9598394009641195e-12,1.9107778107574326e-12,1.1276987534926458e-12,7.294846046754704e-13,4.025105874365487e-13,2.3853912937143245e-13,1.3442454603267399e-13,7.421748434914588e-14,3.987866487724822e-14,2.1354223626059018e-14,1.270072693502392e-14,6.541391681603566e-15,3.332053068153856e-09,1.547957165373794e-09,7.716538359110219e-10,4.4388764845699784e-10,2.872012455280065e-10,1.7995695680775734e-10,1.309068969694189e-10,9.110948169965603e-11,6.313008958577843e-11,4.297239163802568e-11,3.154989808693827e-11,2.1976497758967805e-11,1.4696550236800636e-11,9.490895888596848e-12,6.174197683670666e-12,3.5361272541840995e-12,2.1925966729623543e-12,1.292800836270374e-12,6.577184773341577e-13
0.0,7,7.0,0.0,30.0,0.0,0.0,0.0,0.0,-13.0,0.0,2.0,0.0,0.0,0.0,5.759642646030196e-11,5.363014631457175e-11,4.9535920178971144e-11,4.2564935215228135e-11,3.898753003425214e-11,3.1540752013131695e-11,2.578345509819747e-11,2.262170617804875e-11,1.8954530112243612e-11,1.5615076396581312e-11,1.1572353942751947e-11,8.80975636519937e-12,6.21863251646274e-12,4.5475550460336015e-12,2.9888316942794463e-12,2.080205040761123e-12,1.2372565058165446e-12,7.353266037313091e-13,4.601194230206136e-13,2.5799569169390673e-13,1.4598208206284073e-13,8.118573053607416e-14,4.280059793820592e-14,2.1190260500338724e-14,1.3793018514974173e-14,6.3970702369205525e-15,3.432775868309842e-09,1.508181360696372e-09,7.897047226959983e-10,4.3529952767975824e-10,2.85019092159544e-10,1.904924086013701e-10,1.35066183136841e-10,9.981339188361838e-11,6.725316508989924e-11,4.537155207808668e-11,2.9552974746950234e-11,2.1087636487848004e-11,1.4019125043726628e-11,9.453474567063141e-12,6.284995529869684e-12,3.896133802742369e-12,2.0996922459523734e-12,1.2442726598648694e-12,7.007424070719818e-13
0.0,8,8.0,0.0,30.0,0.0,0.0,0.0,0.0,-13.0,0.0,2.0,0.0,0.0,0.0,5.919190544960557e-11,5.583516132941061e-11,4.794004323553086e-11,4.2774430616202546e-11,3.9506196228422885e-11,3.230981354361555e-11,2.780071966902154e-11,2.3383852920265862e-11,1.861508173173501e-11,1.5349011405750616e-11,1.1437081810280492e-11,7.93454890216994e-12,6.347979666766433e-12,4.542477660360221e-12,3.0997644090729215e-12,1.966160356916923e-12,1.3509151251349155e-12,7.738899952435835e-13,4.938402138684992e-13,2.7046216741183334e-13,1.5361880029358002e-13,8.45787001473233e-14,4.6634127525900024e-14,2.3779111732513236e-14,1.3006222810589362e-14,7.6577141318461e-15,3.2114093345936105e-09,1.4756485339987088e-09,7.861128365097103e-10,4.5594631798571213e-10,2.853251899517272e-10,1.882164750179429e-10,1.3821442216123915e-10,9.222385176786357e-11,6.4784869937235e-11,4.630251176771426e-11,3.0414951016145276e-11,2.083781159476874e-11,1.4276531624792793e-11,9.33881437913818e-12,6.041437472425089e-12,3.552556424343129e-12,2.3735083648741557e-12,1.1792970947962582e-12,7.22542256356737e-13
0.0,9,9.0,0.0,30.0,0.0,0.0,0.0,0.0,-13.0,0.0,2.0,0.0,0.0,0.0,5.963700717340527e-11,5.400927557055305e-11,4.838006974406315e-11,4.3688616382487497e-11,3.746703761168417e-11,3.337511910831725e-11,2.735582097828301e-11,2.3117306212712043e-11,1.9278010491514367e-11,1.5063822943338142e-11,1.2057774447783858e-11,8.750294430668317e-12,6.308953573226813e-12,4.8832882549547675e-12,3.198955371611102e-12,2.0062455286770736e-12,1.3565853141898043e-12,8.308209782216914e-13,5.092816886426064e-13,2.9819335892212304e-13,1.6515383835214542e-13,9.058300065041286e-14,4.8387900594278e-14,2.6283792003059116e-14,1.2999526484522672e-14,7.97052680990856e-15,3.459205188932368e-09,1.5541058958995814e-09,8.040567501596562e-10,4.586960655881872e-10,2.8117444961136805e-10,2.0630108964867675e-10,1.4203654255292373e-10,9.662422716439585e-11,7.060841802781162e-11,4.446556829933562e-11,3.193095563068148e-11,2.2137557385118138e-11,1.4848326647024138e-11,9.860725536425618e-12,6.2815640683605e-12,3.752960476224862e-12,2.3892153027036046e-12,1.3012744390797854e-12,7.24141006927138e-13
0.0,10,10.0,0.0,30.0,0.0,0.0,0.0,0.0,-13.0,0.0,2.0,0.0,0.0,0.0,5.863174153268286e-11,5.7494006014428304e-11,4.9500950179953823e-11,4.398787600633569e-11,3.864563330590133e-11,3.425765513612008e-11,2.5232967924392345e-11,2.3429261409855198e-11,1.8812293129197705e-11,1.5200162180830066e-11,1.192216122212037e-11,8.886570508286311e-12,6.462205062014196e-12,4.726553645252897e-12,3.3755887201386085e-12,2.054122393895814e-12,1.4819084973764713e-12,8.79368718387752e-13,5.275734234570609e-13,2.8785252095238077e-13,1.6539426534910833e-13,8.791707856444789e-14,4.986848685276699e-14,2.661249909860481e-14,1.4124255268909174e-14,8.947408009751211e-15,3.388296749774586e-09,1.4460679426609545e-09,7.715326706573966e-10,4.5222319347873584e-10,2.915718610970441e-10,1.9611089860003842e-10,1.470322167340303e-10,9.6401002624488e-11,6.773137800216432e-11,4.7973582370215194e-11,3.2745329904420284e-11,2.3348349817113597e-11,1.461003759671177e-11,9.571668091952532e-12,5.862896740436184e-12,3.744780749633267e-12,2.346516772084778e-12,1.3720722488827075e-12,7.458637085609625e-13
0.0,11,11.0,0.0,30.0,0.0,0.0,0.0,0.0,-13.0,0.0,2.0,0.0,0.0,0.0,6.151894379938925e-11,5.966908505014218e-11,5.007726440120803e-11,4.408234973972384e-11,3.860453679322395e-11,3.55927975439158e-11,2.673290393749654e-11,2.1918939116958826e-11,1.8583124662665994e-11,1.5440454884436663e-11,1.1596265479532574e-11,8.461766232088994e-12,6.222570081736542e-12,4.746414992817138e-12,3.36886200072715e-12,2.1699651340974724e-12,1.4304187387017647e-12,8.427934315109046e-13,5.530068710318586e-13,2.97856635446857e-13,1.8575329245702211e-13,9.593142855372708e-14,5.731141785271031e-14,2.908407461663289e-14,1.2551090272967848e-14,9.605286829690477e-15,3.213831149190792e-09,1.4928619749092099e-09,7.6851796692581e-10,4.815447009474231e-10,3.0857243216061967e-10,2.062279773211002e-10,1.4099291131006023e-10,1.0645179016524541e-10,7.59210262067604e-11,4.995240580520382e-11,3.4266177782755177e-11,2.156868452561293e-11,1.4923608928576458e-11,9.335439909088887e-12,5.993570375621022e-12,3.7809304573506335e-12,2.2490218741630773e-12,1.3099995669124538e-12,7.851351953520253e-13
0.0,12,12.0,0.0,30.0,0.0,0.0,0.0,0.0,-13.0,0.0,2.0,0.0,0.0,0.0,6.309113556769318e-11,5.907613802295158e-11,5.330233773578442e-11,4.4584386904251584e-11,4.203783527748181e-11,3.3000766832300885e-11,2.8444623883195546e-11,2.3224634645063767e-11,1.9269928316313994e-11,1.4714959831324965e-11,1.1186123926976294e-11,9.081025346170727e-12,6.382311542062679e-12,5.007568049697697e-12,3.367187084671188e-12,2.2559364869616045e-12,1.434832023851611e-12,9.045796302555262e-13,5.49383984015826e-13,3.341695518377214e-13,1.8270451598534676e-13,1.0264113789529648e-13,5.3806683206638956e-14,3.135724523236212e-14,1.7352493453395157e-14,7.306679342340751e-15,3.19445045454205e-09,1.4838352073992156e-09,7.882176028792306e-10,4.5609321667766324e-10,3.008525174742274e-10,1.991667494397663e-10,1.4554536770839295e-10,1.0310713842217923e-10,7.08413395551075e-11,4.372967622348886e-11,3.485361935471324e-11,2.2084189604152483e-11,1.4079126584642508e-11,9.893566511217202e-12,6.079931758283645e-12,3.734496202253958e-12,2.2063158197504992e-12,1.3234367667335175e-12,7.582801533648251e-13
0.0,13,13.0,0.0,30.0,0.0,0.0,0.0,0.0,-13.0,0.0,2.0,0.0,0.0,0.0,6.404340302717618e-11,5.930715764688607e-11,4.792385785821962e-11,4.539618300567341e-11,4.066781073240298e-11,3.3284038508760846e-11,2.819596277139153e-11,2.261120957894863e-11,1.944688460868271e-11,1.529396046554657e-11,1.2252268449369495e-11,8.813755432701218e-12,6.7727887206523116e-12,4.726395330136391e-12,3.368332233782604e-12,2.3233372294393573e-12,1.5052096271766842e-12,9.505862955105982e-13,5.904230248554684e-13,3.210566758238794e-13,1.9218140748093482e-13,9.945540110199746e-14,5.741945593686561e-14,3.110558503071671e-14,1.7947244768602212e-14,8.102538238542504e-15,3.243666720757605e-09,1.4475452062773555e-09,7.906849095696502e-10,4.999387757852939e-10,3.1275015530850016e-10,2.0854134757898956e-10,1.471290769778108e-10,1.0563910343495311e-10,7.208170613223436e-11,4.805402717950119e-11,3.387234068410065e-11,2.226480642561487e-11,1.511032412668657e-11,9.353820422052398e-12,5.800090539784813e-12,3.774846520878566e-12,2.31883220689698e-12,1.3839501366968242e-12,7.454212220099498e-13
0.0,14,14.0,0.0,30.0,0.0,0.0,0.0,0.0,-13.0,0.0,2.0,0.0,0.0,0.0,6.471881253810531e-11,5.849218396396407e-11,5.101441301250546e-11,4.524945424345982e-11,3.927706605340449e-11,3.519286466870961e-11,3.069645546705803e-11,2.381766491017096e-11,1.8872840823986606e-11,1.4933075526939507e-11,1.1728066317392391e-11,8.710500196911895e-12,6.721593030526261e-12,4.861018007558517e-12,3.3416458658899356e-12,2.1063586778604677e-12,1.5363699573801626e-12,9.549147211163433e-13,5.740215922829459e-13,3.314817441493667e-13,1.9892426646387546e-13,1.0589142691053846e-13,5.75555220796434e-14,3.1043547151075527e-14,1.8519967932910415e-14,1.0019274392125344e-14,3.1972491449184016e-09,1.4274061932173307e-09,7.90627290421997e-10,4.658513080865052e-10,3.1543040247251217e-10,2.0612304211502339e-10,1.5270499634610368e-10,1.0591219064696893e-10,7.646962473465812e-11,4.944910344862822e-11,3.3863073384886186e-11,2.181530074006356e-11,1.4439891909442071e-11,9.662867704255539e-12,5.907011579132914e-12,3.844269972804349e-12,2.236567559984945e-12,1.3138632157967605e-12,7.662032040401864e-13
0.0,15,15.0,0.0,30.0,0.0,0.0,0.0,0.0,-13.0,0.0,2.0,0.0,0.0,0.0,6.489125342459517e-11,6.057832496687464e-11,5.3861714334154164e-11,4.8927219719428205e-11,4.087578812881623e-11,3.3945200837774526e-11,2.8674419038364945e-11,2.5155317515402105e-11,1.9617274762942838e-11,1.5752981127733937e-11,1.1783158403412738e-11,8.698567074352838e-12,6.996563557456945e-12,4.70580275519803e-12,3.303929981312738e-12,2.308249102923211e-12,1.542571489490758e-12,9.966383212693423e-13,6.212333148304492e-13,3.5216877898262065e-13,1.9484706057914727e-13,1.1570957248174228e-13,6.472123438537463e-14,3.4146766211064954e-14,1.8369693367622504e-14,8.70810604354706e-15,3.063590477808537e-09,1.5208873617020372e-09,8.032940256892706e-10,4.917501466827835e-10,3.133076875927471e-10,2.2057127968559962e-10,1.549758679740614e-10,1.0966871334581894e-10,7.30876124839239e-11,5.216365275209108e-11,3.4215924882236615e-11,2.3971947018665613e-11,1.5228743696037757e-11,9.545533290602154e-12,6.119174548850104e-12,3.759453645311981e-12,2.170243054347256e-12,1.4007687604254066e-12,7.99351025751942e-13
0.0,16,16.0,0.0,30.0,0.0,0.0,0.0,0.0,-13.0,0.0,2.0,0.0,0.0,0.0,6.702581435649366e-11,5.797795988673246e-11,5.6834793049562265e-11,4.8367790321998814e-11,4.054444221170641e-11,3.574565076895878e-11,3.082131573802228e-11,2.4169141565730903e-11,1.967085485309406e-11,1.5617208900674247e-11,1.2302865007876131e-11,8.906326298138608e-12,6.6569674376420156e-12,4.943983639374663e-12,3.4375535682652946e-12,2.3843441609746385e-12,1.523310714605833e-12,9.874315996580009e-13,6.204197750561956e-13,3.788065473727287e-13,1.9981356791967992e-13,1.1937615093538432e-13,6.344062801109367e-14,3.568417283014031e-14,1.8778549922774925e-14,8.369602033166419e-15,3.1565607983160037e-09,1.4210004771896977e-09,7.869805925615811e-10,4.801917221808334e-10,3.2405402435991324e-10,2.2323885728977804e-10,1.557915130399217e-10,1.1011884873156851e-10,7.703501691421646e-11,5.224487447643356e-11,3.73274894652673e-11,2.441000715363658e-11,1.5245738806359062e-11,9.74589281757204e-12,5.856102798935447e-12,3.608022542986694e-12,2.3811107580328505e-12,1.2773081237398556e-12,8.128052178348691e-13
0.0,17,17.0,0.0,30.0,0.0,0.0,0.0,0.0,-13.0,0.0,2.0,0.0,0.0,0.0,7.045991924828434e-11,6.084539610878029e-11,5.842696775855961e-11,4.587044594925826e-11,4.1916705684905425e-11,3.558192757421026e-11,3.067450890767245e-11,2.6523206405811343e-11,1.9287588192621464e-11,1.5806016936295076e-11,1.1995025294764846e-11,9.265685811702056e-12,6.68867943383222e-12,4.868974117637077e-12,3.420158745857596e-12,2.2640212124158745e-12,1.496068083393434e-12,9.914257722848305e-13,5.846522346090824e-13,3.917718774096963e-13,2.2333023583785289e-13,1.1898804831812456e-13,6.865847666919631e-14,3.507844449967764e-14,1.9413536933795985e-14,9.492107038120498e-15,3.0830730035719217e-09,1.4336464265257723e-09,8.105302256048888e-10,4.812996388284908e-10,3.4420623127827457e-10,2.1670222826310367e-10,1.6095880382809598e-10,1.100199531670923e-10,8.164553813222699e-11,5.88681170903159e-11,3.505189330918656e-11,2.4480051661811352e-11,1.6569858710873266e-11,1.0294113139588796e-11,6.092623793946664e-12,3.842248368238385e-12,2.2065416283078716e-12,1.3339310783291388e-12,7.252893888508982e-13
0.0,18,18.0,0.0,30.0,0.0,0.0,0.0,0.0,-13.0,0.0,2.0,0.0,0.0,0.0,6.989835685312425e-11,5.89215889455284e-11,5.827692634351548e-11,4.944670412787632e-11,4.579558968276631e-11,3.7156934104199203e-11,3.199275753673975e-11,2.4741617216155923e-11,1.9691558836471586e-11,1.6136418428214726e-11,1.2010330907802873e-11,9.251271721772577e-12,6.79054664533663e-12,4.856146656885724e-12,3.2983606560483152e-12,2.380595692660463e-12,1.5789901659050022e-12,1.0737693870197532e-12,6.179743506600069e-13,3.746215326016931e-13,2.0667862345855403e-13,1.276333262600188e-13,6.235222360392107e-14,3.682512840249624e-14,2.0905417380223943e-14,1.0751727470753775e-14,3.0741788340806224e-09,1.5013757604209913e-09,7.796955291550742e-10,4.923076641973877e-10,3.317008146241169e-10,2.440991599704498e-10,1.6941739012186043e-10,1.1535551008598264e-10,8.083014085387353e-11,5.5924811727786097e-11,3.653844012494384e-11,2.6027292971780165e-11,1.5238576120085857e-11,1.0416721109695148e-11,6.53265028421617e-12,3.701809533355119e-12,2.209020363131263e-12,1.2711914559430974e-12,7.269419230903856e-13
0.0,19,19.0,0.0,30.0,0.0,0.0,0.0,0.0,-13.0,0.0,2.0,0.0,0.0,0.0,7.264082179232747e-11,6.392554290961828e-11,5.471740517136436e-11,4.9693063742795126e-11,4.385344600058819e-11,3.8823427284598517e-11,3.121556436651477e-11,2.6284847585842043e-11,2.1194587407051817e-11,1.6456915664056405e-11,1.221228094491126e-11,1.0179212868068389e-11,7.154430136669132e-12,5.036859611942153e-12,3.4717893594091445e-12,2.3208839005539973e-12,1.6245805348217758e-12,1.000211777580044e-12,6.226200521264581e-13,4.0242052179467736e-13,2.1015140790336016e-13,1.2448411304330175e-13,7.038843068156525e-14,3.7719632105816564e-14,2.043959375061883e-14,1.0795690240709331e-14,3.0229354527750943e-09,1.4562437332159157e-09,8.24256983637804e-10,5.130130200161686e-10,3.5907208837120857e-10,2.2445882961572157e-10,1.7572222797129506e-10,1.2490140048299188e-10,8.039483888796786e-11,5.3303454546024924e-11,3.7888090772361066e-11,2.6553153075253334e-11,1.6436702617436156e-11,1.0209969235867362e-11,6.296973454028434e-12,3.790025560846936e-12,2.421246387002694e-12,1.2266012681645685e-12,7.689474506370543e-13
0.0,20,20.0,0.0,30.0,0.0,0.0,0.0,0.0,-13.0,0.0,2.0,0.0,0.0,0.0,7.120616294451897e-11,6.429016226395553e-11,6.073876799544791e-11,5.182505982434745e-11,4.6618235043158735e-11,3.998426218697625e-11,2.8678217441205075e-11,2.496725684053469e-11,2.0660664154060937e-11,1.692146470719648e-11,1.2088815811690069e-11,9.332246650331759e-12,7.333226553656688e-12,5.0323626154222175e-12,3.5837273896417126e-12,2.4082466230204155e-12,1.6430076758213206e-12,1.0584542694957413e-12,6.553387045156481e-13,3.8630094177518274e-13,2.2570157507962274e-13,1.233397555940575e-13,7.067531110901159e-14,3.846587973364015e-14,2.219753646798668e-14,9.299465926565033e-15,2.7924058437338113e-09,1.4199311650453065e-09,8.009835481924101e-10,5.135624907721688e-10,3.51123581825505e-10,2.43400513986606e-10,1.6689371603092232e-10,1.239184127658163e-10,8.076595088114753e-11,5.72017609172393e-11,3.902353251745261e-11,2.5990916428080634e-11,1.6529888757320434e-11,1.009638600159236e-11,6.239795886571377e-12,3.941413839030261e-12,2.291043971722151e-12,1.3001834197695397e-12,8.037183198632138e-13
0.0,21,21.0,0.0,30.0,0.0,0.0,0.0,0.0,-13.0,0.0,2.0,0.0,0.0,0.0,7.54766180971636e-11,6.671088207702847e-11,5.734207661718412e-11,5.4794858463122345e-11,4.5246103874927834e-11,3.940219320284856e-11,3.283008520463743e-11,2.6404963179322917e-11,2.157335249349949e-11,1.712511317049695e-11,1.2742593310426068e-11,9.588396619879411e-12,6.990706244725677e-12,5.200563730215492e-12,3.47001936118653e-12,2.3700090690396392e-12,1.5625636415898322e-12,9.890047912468657e-13,6.163832368009254e-13,3.9902513047651114e-13,2.358357509005956e-13,1.3368974197226233e-13,7.648002152424075e-14,4.135126669033435e-14,2.127498229938044e-14,1.0854383887209692e-14,3.1289219779989704e-09,1.36724051813e-09,7.798560241146176e-10,5.057887752427403e-10,3.7024509289016346e-10,2.4818189744037423e-10,1.7831490588567868e-10,1.221280362005385e-10,8.466418609612934e-11,6.033111694093097e-11,3.8213602913990686e-11,2.6051419378004536e-11,1.6577677023536173e-11,1.041061259613778e-11,6.850606255138117e-12,4.0801369326742524e-12,2.399268419892555e-12,1.362186753863637e-12,7.855093632037698e-13
0.0,22,22.0,0.0,30.0,0.0,0.0,0.0,0.0,-13.0,0.0,2.0,0.0,0.0,0.0,7.449096991523557e-11,6.75506103529565e-11,5.908902912886961e-11,5.205479469979619e-11,4.7824699457411195e-11,4.100445239852731e-11,3.381783523030066e-11,2.681789969405496e-11,2.160841059809515e-11,1.745962616720485e-11,1.3365135505428135e-11,9.574074641733088e-12,6.994789177310869e-12,4.852850919208518e-12,3.545844862989204e-12,2.331119614608473e-12,1.5499534138995716e-12,1.0067572993894027e-12,6.632296688459532e-13,4.183586730024193e-13,2.3963894428761335e-13,1.3348431543951522e-13,7.874648588342056e-14,4.154510678553014e-14,2.3329220001562454e-14,1.2123865244460407e-14,2.8596409469253537e-09,1.3784880251487294e-09,8.014971705307675e-10,5.39237404606516e-10,3.2188758686787237e-10,2.459933163507162e-10,1.7661508116223044e-10,1.2535389318297073e-10,9.061902821108673e-11,6.080489751946189e-11,4.08434144727297e-11,2.7674281255715376e-11,1.6451836137783955e-11,1.0986380562086964e-11,6.671149870058601e-12,3.996239381551682e-12,2.2915088239546294e-12,1.2945029131359067e-12,8.049343706582124e-13
0.0,23,23.0,0.0,30.0,0.0,0.0,0.0,0.0,-13.0,0.0,2.0,0.0,0.0,0.0,7.51493038804463e-11,6.492578284172789e-11,6.238934723155438e-11,5.3190980682270346e-11,4.5656781671336945e-11,3.96970024083562e-11,3.406380547513184e-11,2.6407468836522436e-11,2.2456142350590132e-11,1.6889564693742996e-11,1.3121283633679964e-11,9.179778692028153e-12,7.331774014853602e-12,4.974283620162627e-12,3.659466398700263e-12,2.3771509795038853e-12,1.5860692692549268e-12,1.0210698868850362e-12,6.38335751368474e-13,4.1271881857580493e-13,2.4192849343199025e-13,1.414180754615593e-13,7.85325663800576e-14,4.3463241012893946e-14,2.3839003183770928e-14,1.1784531416326459e-14,3.0277439236819573e-09,1.3986355792499622e-09,8.291569822143596e-10,5.36970780890802e-10,3.763180395279645e-10,2.554126237896463e-10,1.8615213227618251e-10,1.2639629005869236e-10,9.161737446469896e-11,5.83743684802137e-11,3.810509014425076e-11,2.7440868366331156e-11,1.7720678192326884e-11,1.1169828958780412e-11,6.55108717404089e-12,4.127421764932956e-12,2.313150810065958e-12,1.3831110041626676e-12,7.5838239657251e-13
0.0,24,24.0,0.0,30.0,0.0,0.0,0.0,0.0,-13.0,0.0,2.0,0.0,0.0,0.0,7.724090942241578e-11,6.848834652750037e-11,6.289658826367764e-11,5.261851694784876e-11,4.497378252016533e-11,4.1720222059449566e-11,3.451105464529651e-11,2.895562445961794e-11,2.309289075068284e-11,1.7227191295070814e-11,1.3349576614936857e-11,9.934512126222403e-12,6.890692094300299e-12,4.962042390629689e-12,3.539200648375161e-12,2.452749553134195e-12,1.6249954697065567e-12,1.0345435401615857e-12,6.616188180360672e-13,4.0746265857899005e-13,2.4327054442717157e-13,1.4009079432002722e-13,7.958717337014529e-14,4.383464373218231e-14,2.251378600365347e-14,1.1269798934283567e-14,2.9820404712390032e-09,1.4140829744036564e-09,8.296636238820704e-10,5.416314516499048e-10,3.7338964080504427e-10,2.771961623726472e-10,1.863957462540492e-10,1.337818033722069e-10,9.078913003779575e-11,5.940019257069374e-11,4.1224751001284305e-11,2.7571735359098815e-11,1.75780188424922e-11,1.1436470899103077e-11,6.923885556403581e-12,4.096852884281597e-12,2.3850386496094134e-12,1.3741403762327698e-12,7.724305368268452e-13
0.0,25,25.0,0.0,30.0,0.0,0.0,0.0,0.0,-13.0,0.0,2.0,0.0,0.0,0.0,7.911384507426663e-11,7.710360024579701e-11,6.503469527933674e-11,5.605901727972978e-11,4.955454123560836e-11,4.1172732411749033e-11,3.495098953505562e-11,2.6635101111367818e-11,2.3597274264514683e-11,1.8362642444080935e-11,1.335062884578899e-11,9.93739008389918e-12,7.358573161621409e-12,5.1161944404721286e-12,3.4747466543584817e-12,2.2922221267250194e-12,1.5961522257652191e-12,1.0515103903709388e-12,6.833629684551389e-13,4.0913194065161615e-13,2.395529798302451e-13,1.3398754256852382e-13,7.969515267293167e-14,4.408712122841301e-14,2.4696752880355154e-14,1.5116237628752533e-14,2.8764813543122447e-09,1.4718225201758574e-09,8.284080699119618e-10,5.695906246370094e-10,3.826098290128946e-10,2.628682620831252e-10,2.0592485412570519e-10,1.254760433117615e-10,8.808259305282258e-11,6.534242907797513e-11,4.215738238642086e-11,2.8314513523707353e-11,1.859950520662165e-11,1.1247451498533728e-11,6.780900243775401e-12,4.137819962602697e-12,2.4616665927238427e-12,1.349373441048317e-12,8.020819407793809e-13
0.0,26,26.0,0.0,30.0,0.0,0.0,0.0,0.0,-13.0,0.0,2.0,0.0,0.0,0.0,7.960778559393887e-11,7.147912713000965e-11,6.188798363238613e-11,6.012806384626655e-11,4.665699069024386e-11,4.139104322613732e-11,3.547373665680552e-11,2.8370011855049123e-11,2.3866704103436384e-11,1.8953080206447444e-11,1.3612359071403392e-11,1.0206719381342989e-11,7.327986594002755e-12,5.411336897317144e-12,3.4863987355606394e-12,2.5349877653014796e-12,1.5843927250003264e-12,1.0501700455434253e-12,6.535570956857472e-13,4.267299982640669e-13,2.4485003429201636e-13,1.4745151287672976e-13,7.8352015772169e-14,4.781460229718775e-14,2.071492407942126e-14,1.195363687472825e-14,2.996839191474765e-09,1.3997728322490772e-09,8.201598251484438e-10,5.708427625240132e-10,3.763495239270574e-10,2.6005324750904143e-10,1.9156541849057636e-10,1.3949272901237968e-10,9.470099711487723e-11,6.559428557941527e-11,4.320426989644006e-11,2.7446762497724273e-11,1.8510037974982028e-11,1.1363078249828809e-11,7.155999536236031e-12,4.3294343523140355e-12,2.4764412574776774e-12,1.3893692667620006e-12,8.250023866103557e-13
0.0,27,27.0,0.0,30.0,0.0,0.0,0.0,0.0,-13.0,0.0,2.0,0.0,0.0,0.0,7.859267999467758e-11,7.322704256903062e-11,6.450169501321345e-11,5.603131218315002e-11,5.145760253607712e-11,4.29323863991795e-11,3.720731751012935e-11,2.9392737046444044e-11,2.3029156276081783e-11,1.7846197568951964e-11,1.4704517194290478e-11,1.0547989923544822e-11,7.468500603396953e-12,5.504247727683974e-12,3.6018444858027345e-12,2.4900097196509777e-12,1.5568437331010016e-12,1.0600352636057956e-12,6.818402474784694e-13,4.514413837298203e-13,2.438720491280457e-13,1.465480217811624e-13,8.277019366979565e-14,4.6693193284095545e-14,2.3577497871273616e-14,1.35622047056887e-14,2.8950830887228e-09,1.3634952545278066e-09,8.524706261942836e-10,5.986926936748776e-10,3.8718040844122716e-10,2.6700171892691133e-10,2.0454678392499347e-10,1.4006369858763702e-10,1.0152065772408291e-10,6.691356376449787e-11,4.4693967631870415e-11,3.062208206528476e-11,1.901907229745474e-11,1.1882889185288868e-11,7.268867653804401e-12,4.572540949532428e-12,2.5185921499793077e-12,1.4144732811036522e-12,8.277497655781088e-13
0.0,28,28.0,0.0,30.0,0.0,0.0,0.0,0.0,-13.0,0.0,2.0,0.0,0.0,0.0,8.130674452063407e-11,7.87958062899741e-11,6.691551446862931e-11,5.903424982464344e-11,5.231403189860342e-11,4.4081446901987466e-11,3.4283324936899765e-11,3.046382228239217e-11,2.4951448487276758e-11,1.8229797312201112e-11,1.3883415044953465e-11,1.0266527261541243e-11,7.342119538994489e-12,5.239626700822947e-12,3.936523866329609e-12,2.4451944478554173e-12,1.6452867735364583e-12,1.1187163131574464e-12,6.882405545474218e-13,4.324731236077617e-13,2.426482136492032e-13,1.5274027449096943e-13,8.023494078045994e-14,4.6385685376114174e-14,2.3399704071212395e-14,1.2815945549030457e-14,2.762711156038321e-09,1.4245861559540239e-09,8.762040552560334e-10,6.024963452865884e-10,3.9583923060159257e-10,3.020008542947968e-10,1.9510484891951838e-10,1.4220227153207013e-10,9.946995509453607e-11,7.06031065493491e-11,4.7515459777176676e-11,3.0129262129720704e-11,1.9129850271218622e-11,1.2055038090391056e-11,7.214585731070918e-12,4.526794389521852e-12,2.4045764664049866e-12,1.4036077210632958e-12,8.037814860965945e-13
0.0,29,29.0,0.0,30.0,0.0,0.0,0.0,0.0,-13.0,0.0,2.0,0.0,0.0,0.0,8.342716838207906e-11,7.725401374095334e-11,6.59388896087887e-11,6.047266881166413e-11,5.5342394687885096e-11,4.4492199395113595e-11,3.681864361329816e-11,3.1130554605358454e-11,2.4077445205253302e-11,1.7780795117591462e-11,1.464601029872414e-11,1.0412398660661561e-11,7.738370686422769e-12,5.340161242722416e-12,3.686365224224679e-12,2.3781450385034047e-12,1.6397703484982865e-12,1.0891522095791634e-12,6.820761896486761e-13,4.3524678604119777e-13,2.417108948237627e-13,1.467328454105588e-13,8.59316041336402e-14,4.531695370149463e-14,2.360071373197641e-14,1.2381369719043596e-14,2.8524850788677886e-09,1.4462296339331196e-09,8.87961374610452e-10,5.828261011696029e-10,4.164696152127028e-10,2.765466327679575e-10,2.048571463960394e-10,1.455061045557339e-10,9.48091218494149e-11,7.006136079276306e-11,4.5405559409860765e-11,2.9504875587074183e-11,1.823499373264739e-11,1.2629448777471331e-11,7.616150768789462e-12,4.4507085485534995e-12,2.6344400774455246e-12,1.546839100831889e-12,8.355671530894849e-13
0.0,30,30.0,0.0,30.0,0.0,0.0,0.0,0.0,-13.0,0.0,2.0,0.0,0.0,0.0,8.584594253819154e-11,7.725259098658717e-11,7.038037399348496e-11,6.026760059323707e-11,5.3561682905669786e-11,4.622314255679639e-11,3.9220683878480036e-11,3.08307800887269e-11,2.296963280449681e-11,1.8938632064927914e-11,1.4271010479607274e-11,1.0350718887429007e-11,7.824827081307502e-12,5.576394147821159e-12,3.845921646554328e-12,2.4548446026675184e-12,1.5819972044911813e-12,1.1186110446412833e-12,7.080660816539124e-13,4.376575264272117e-13,2.532543544775325e-13,1.5364786370748287e-13,8.194713591740196e-14,4.70977444858866e-14,2.6805159027416222e-14,1.3155246390083547e-14,2.8152518915022453e-09,1.3745374394764344e-09,8.923977054221628e-10,6.257547298286746e-10,4.147113601285207e-10,2.952997264406486e-10,2.0515251178754787e-10,1.4302726169464558e-10,1.0296895394396574e-10,7.23358733284442e-11,4.780189354498671e-11,3.200630298763201e-11,2.006969591836964e-11,1.2613897244002307e-11,7.395671203330871e-12,4.593835586271421e-12,2.683868402939718e-12,1.5105664940152038e-12,8.321798646416501e-13
0.0,31,31.0,0.0,30.0,0.0,0.0,0.0,0.0,-13.0,0.0,2.0,0.0,0.0,0.0,8.819857668143588e-11,7.813438542139685e-11,6.832106300639345e-11,6.531967372004112e-11,5.504404737798402e-11,4.382822873243732e-11,4.110370626172343e-11,3.109285193230181e-11,2.561656036197254e-11,1.9806975150305958e-11,1.4848330938324588e-11,1.0970362787693022e-11,7.621187304377785e-12,5.6785132838769635e-12,3.5959361012534653e-12,2.4842609925794253e-12,1.6770003977616443e-12,1.1103554204431786e-12,6.761507877995038e-13,4.225009453440362e-13,2.7535300469963235e-13,1.4776507338542053e-13,8.483521292909264e-14,4.6319332112069605e-14,2.5173138890993034e-14,1.2667112695338621e-14,2.8042675870324086e-09,1.4773928999129867e-09,9.356922522930638e-10,5.935952029719886e-10,4.296290621282335e-10,2.91091867833106e-10,2.0850877043474947e-10,1.5333502801759877e-10,1.0737271064793714e-10,6.804850091435072e-11,4.378964670318202e-11,2.925573213962935e-11,2.066683428794872e-11,1.2101456938115836e-11,7.762288255680203e-12,4.5782253495647545e-12,2.7354938599883908e-12,1.4429409967872845e-12,8.600335717251375e-13
0.0,32,32.0,0.0,30.0,0.0,0.0,0.0,0.0,-13.0,0.0,2.0,0.0,0.0,0.0,8.825634665230699e-11,8.543191318496169e-11,7.475150304615269e-11,6.37737834696118e-11,5.476978833985571e-11,4.791539452062286e-11,3.8353430821625233e-11,3.209913470749485e-11,2.4920933076743412e-11,1.9533294426180313e-11,1.521476514428055e-11,1.103532112686452e-11,7.929822942473461e-12,5.543172963516956e-12,3.872805326394822e-12,2.62337228408275e-12,1.6715268318588203e-12,1.0522526255556077e-12,7.116163524947267e-13,4.2149576586339387e-13,2.4898541858133973e-13,1.5666835208443411e-13,8.738667704092102e-14,4.5035203500981714e-14,2.866089609147321e-14,1.4747666450278448e-14,2.8074902331376344e-09,1.455112898068238e-09,9.400404181853318e-10,6.224886907588175e-10,4.216782040801033e-10,3.1947329177694563e-10,2.228392389744302e-10,1.6431661439344634e-10,1.0692012153066945e-10,6.940037090058614e-11,4.8853018548008696e-11,2.8787009973755618e-11,2.0093529244005075e-11,1.2983092686554224e-11,7.957355147527388e-12,4.575145001632899e-12,2.7660049461408593e-12,1.5390750867346781e-12,8.203986915021809e-13
0.0,33,33.0,0.0,30.0,0.0,0.0,0.0,0.0,-13.0,0.0,2.0,0.0,0.0,0.0,9.469271671108031e-11,8.533109275628591e-11,7.071835497123092e-11,6.796734971354447e-11,5.6362301261120676e-11,4.772218186551674e-11,3.987148967770512e-11,3.23670092243523e-11,2.541451141974315e-11,1.864604128554994e-11,1.5199976110474694e-11,1.1406552457792162e-11,7.66416814152215e-12,5.4622680122111685e-12,3.80982839736104e-12,2.5721223971675372e-12,1.721943161742278e-12,1.0917227379098333e-12,7.204243083581318e-13,4.165185566528713e-13,2.62641265466174e-13,1.5023017593314993e-13,8.155044419322913e-14,4.9971558138108685e-14,2.4742564206661526e-14,1.6357687671091055e-14,2.7321779921899676e-09,1.5073901288737126e-09,9.470256578166676e-10,6.715867243769951e-10,4.671520417642061e-10,3.2177993958050103e-10,2.366379809907554e-10,1.5652134288721705e-10,1.117753983358007e-10,7.451926457134865e-11,5.047953319568457e-11,3.3550052194519794e-11,2.048767380799172e-11,1.3066596820025563e-11,7.963393883147467e-12,4.65636006718852e-12,2.659706139296287e-12,1.5812134361187536e-12,8.064589695110829e-13
0.0,34,34.0,0.0,30.0,0.0,0.0,0.0,0.0,-13.0,0.0,2.0,0.0,0.0,0.0,9.442521880662007e-11,8.533262492604628e-11,7.41745987381747e-11,6.197163854873316e-11,6.070030362091391e-11,4.7945679644690236e-11,4.025770858039434e-11,3.413867943358786e-11,2.7615355790475734e-11,2.0297955318134167e-11,1.5333127317933243e-11,1.0842395684774416e-11,7.792696275721224e-12,5.6675023476621145e-12,3.973129357528104e-12,2.6700112592931546e-12,1.7356956891255695e-12,1.0812734366514818e-12,6.671886878812442e-13,4.3816195291768755e-13,2.6941716561098226e-13,1.491055583698893e-13,9.562185794997295e-14,4.994837839082451e-14,2.7155132535445307e-14,1.4781386896775844e-14,2.7173025443047594e-09,1.4656841554673315e-09,9.463795934141208e-10,6.60077773077588e-10,4.5320795097652047e-10,3.225614845817348e-10,2.3088617726981013e-10,1.61484548778835e-10,1.1290332265430788e-10,7.992285788030138e-11,5.204681986571491e-11,3.154921702454269e-11,2.0696878746039233e-11,1.3151460052522486e-11,8.128102071979336e-12,4.762039714351108e-12,2.8678179362502026e-12,1.5583498776813284e-12,8.667010160748178e-13
0.0,35,35.0,0.0,30.0,0.0,0.0,0.0,0.0,-13.0,0.0,2.0,0.0,0.0,0.0,9.495949044078005e-11,8.55609385951583e-11,7.538998892236269e-11,6.904082225692222e-11,5.664539064412837e-11,4.676663074231931e-11,4.141712534116875e-11,3.357816490149154e-11,2.5213919915971562e-11,1.9712586246407423e-11,1.5556295640198118e-11,1.1993160766445549e-11,8.72532321518761e-12,6.002773676288931e-12,3.787076126698079e-12,2.654870688368783e-12,1.7290099282236045e-12,1.1242362565905863e-12,7.231308204131266e-13,4.0939710927743565e-13,2.639608499342448e-13,1.510022570073519e-13,8.579912373458601e-14,4.95728202443875e-14,2.5442787330230765e-14,1.4087702230401675e-14,2.822966233997749e-09,1.4097997943149607e-09,9.901436407692721e-10,6.583315428253422e-10,4.81166745661691e-10,3.2530890962891803e-10,2.2874242585508307e-10,1.6090378046135318e-10,1.160597134290879e-10,7.946131573588913e-11,5.354153916930939e-11,3.584484996912368e-11,2.2381065942838304e-11,1.2867673375649757e-11,7.547163575271087e-12,4.985869605363893e-12,2.990325229712115e-12,1.6180356132192755e-12,8.171735021789863e-13
0.0,36,36.0,0.0,30.0,0.0,0.0,0.0,0.0,-13.0,0.0,2.0,0.0,0.0,0.0,9.886099898053867e-11,8.904844500798044e-11,8.007546218996426e-11,6.81984643284135e-11,5.921042352893444e-11,5.1609042222561377e-11,4.184404642320401e-11,3.2994748947176455e-11,2.8043471762754495e-11,2.0466759528463545e-11,1.5898513195819128e-11,1.1372157746735823e-11,8.161064915538964e-12,5.6127341607277e-12,3.876241838229433e-12,2.7488726548473924e-12,1.7593658789763512e-12,1.0909701692360581e-12,7.277320392459957e-13,4.4871315767650136e-13,2.5607502005715984e-13,1.5207343886007422e-13,8.42563829967942e-14,5.0073389895533343e-14,2.7307764852403002e-14,1.4114551581024554e-14,2.855206356218579e-09,1.5237516239428218e-09,1.0415762774170642e-09,6.869691323550378e-10,5.010220472342476e-10,3.5000071885169116e-10,2.3784858023862645e-10,1.6017929490051971e-10,1.136030731734856e-10,8.00584483223142e-11,5.243893806732609e-11,3.450170329852327e-11,2.141415341710407e-11,1.3588674328525699e-11,8.216166854399776e-12,5.072488472217047e-12,2.861549876248838e-12,1.5055897144324146e-12,8.685454090371213e-13
0.0,37,37.0,0.0,30.0,0.0,0.0,0.0,0.0,-13.0,0.0,2.0,0.0,0.0,0.0,1.0246920784559326e-10,9.201117562335006e-11,8.045177213684215e-11,6.885049518167206e-11,6.045993071727832e-11,5.048214012264809e-11,4.066098855432066e-11,3.38685289229207e-11,2.753757496500515e-11,2.0604216469583496e-11,1.5609409919399004e-11,1.176337389233968e-11,8.10564047228474e-12,5.786505423184398e-12,3.758520422180913e-12,2.776040738190053e-12,1.820850242919381e-12,1.1657891297579781e-12,7.223329850823797e-13,4.3792862022838354e-13,2.5372035235569e-13,1.5021757294130768e-13,8.999956940003748e-14,5.27828996921258e-14,2.961743695958303e-14,1.713097730276001e-14,2.947350394202315e-09,1.6737515682993902e-09,1.0235455170589957e-09,7.357831094638695e-10,5.12727408431467e-10,3.582871460754959e-10,2.4651426136841943e-10,1.7610827410558035e-10,1.2331184545936135e-10,7.818893719370514e-11,4.914776992344043e-11,3.471669280532117e-11,2.2021072642400245e-11,1.417874700159963e-11,8.455798060906569e-12,5.172682350222274e-12,2.8834639348856264e-12,1.6391387822477033e-12,8.528797523241236e-13
0.0,38,38.0,0.0,30.0,0.0,0.0,0.0,0.0,-13.0,0.0,2.0,0.0,0.0,0.0,1.0126594299298845e-10,9.47152223283481e-11,8.310790719857927e-11,7.111730940050246e-11,6.286911249618361e-11,5.086619272260831e-11,4.322070319218064e-11,3.5693424171952956e-11,2.6717056265569986e-11,2.2238726516482156e-11,1.683363927661761e-11,1.1271743135634833e-11,8.377650120821787e-12,6.256497949367781e-12,4.253641641223882e-12,2.728606009596013e-12,1.7133661337931155e-12,1.171409265638619e-12,7.071868004473682e-13,4.3814750966956837e-13,2.619069063275644e-13,1.542558461483579e-13,8.981386265476366e-14,5.120443005097397e-14,2.9239560587554394e-14,1.3945978200842268e-14,2.6866364623725464e-09,1.5018475412657728e-09,1.0622279046194217e-09,6.787397534847309e-10,5.108278071792143e-10,3.6867797389334984e-10,2.499109987417926e-10,1.7195926132653668e-10,1.1721346855311695e-10,8.283831412500107e-11,5.5852574829346054e-11,3.6707072701694055e-11,2.2907381875468207e-11,1.427049639572886e-11,8.441724391002458e-12,4.9951530261503626e-12,2.920508951142348e-12,1.6848774167244167e-12,9.191546946161367e-13
0.0,39,39.0,0.0,30.0,0.0,0.0,0.0,0.0,-13.0,0.0,2.0,0.0,0.0,0.0,1.0575502044052721e-10,9.262428595703998e-11,8.927538609112306e-11,7.269247948550116e-11,6.47639151332271e-11,5.5023549971734794e-11,4.286513684619457e-11,3.371476100776977e-11,2.9029943156292234e-11,2.179838515102576e-11,1.6284740961981484e-11,1.1358012509596306e-11,7.992385897785614e-12,6.110027622251961e-12,4.088241448655293e-12,2.7636091268692853e-12,1.7847789419380948e-12,1.1029347518138467e-12,7.311337607252462e-13,4.240870731815329e-13,2.6195089783842426e-13,1.6094416093555884e-13,8.606130323236783e-14,5.3439553276832776e-14,2.936151145133598e-14,1.7812495943340016e-14,2.7669840287374766e-09,1.599718956103324e-09,9.84365674333199e-10,7.427380472343221e-10,5.281722034518163e-10,3.6005841688152784e-10,2.4993645280169746e-10,1.864382760949899e-10,1.2192116596817473e-10,8.62193043909242e-11,5.689637950455523e-11,3.7441357390316116e-11,2.3242669230264395e-11,1.405655710978521e-11,8.855895130744952e-12,5.1601983851560675e-12,3.091362988227095e-12,1.6677894347606175e-12,9.441763344537243e-13
0.0,40,40.0,0.0,30.0,0.0,0.0,0.0,0.0,-13.0,0.0,2.0,0.0,0.0,0.0,1.0164654270420363e-10,9.483525525920176e-11,8.659346271772282e-11,7.234036018777749e-11,6.233635048312157e-11,5.4024084113848936e-11,4.5716404156746044e-11,3.629160319093323e-11,2.872869222125959e-11,2.2058669920399467e-11,1.723935584438674e-11,1.2198719858273533e-11,8.814852732273251e-12,6.255956944867795e-12,4.123370125305721e-12,2.8617222582221237e-12,1.881869369091704e-12,1.1180833521930884e-12,7.221572682959863e-13,4.5267145177778366e-13,2.6253668166974626e-13,1.5583231364559804e-13,9.0580903593188e-14,5.1389119269773337e-14,2.6849753935808293e-14,1.3840963809377561e-14,2.6522878711216792e-09,1.616743176310941e-09,1.036602367743174e-09,7.582470478208933e-10,5.072967185955082e-10,3.83755400883184e-10,2.502359736223873e-10,1.8976310094031574e-10,1.2236306146764822e-10,8.540032728136174e-11,6.057200197551771e-11,3.5186030974432526e-11,2.247776748314508e-11,1.486108574622673e-11,8.682744504171314e-12,5.36708159614695e-12,3.059398801477131e-12,1.6298958931441995e-12,9.270992902597725e-13
0.0,41,41.0,0.0,30.0,0.0,0.0,0.0,0.0,-13.0,0.0,2.0,0.0,0.0,0.0,1.1125034283128195e-10,9.74769065781171e-11,8.50545509350474e-11,7.514101629950061e-11,6.400258132706132e-11,5.438821216329736e-11,4.467506686972166e-11,3.781792191323116e-11,2.991244928703367e-11,2.294208919800211e-11,1.6672858684783003e-11,1.2361578346762625e-11,8.804193029964081e-12,6.191748863146083e-12,4.355780554713685e-12,2.812109376086017e-12,1.8004130388612298e-12,1.1637187177152704e-12,7.018895096037901e-13,4.201285435096425e-13,2.5966347908558274e-13,1.4965655916225976e-13,8.826819705780537e-14,5.1957706063018964e-14,3.161694436812588e-14,1.5574119795922706e-14,2.788182577257703e-09,1.6237852689486796e-09,1.1013208447196236e-09,7.785296555894546e-10,5.309731881583406e-10,4.0064708499246547e-10,2.7262183485800653e-10,1.856263098204422e-10,1.3008635959920088e-10,8.68196108304872e-11,5.999639540666965e-11,4.0117446707298734e-11,2.4262603734144393e-11,1.4462009288351721e-11,9.281928512377773e-12,5.3428623005700355e-12,2.9967532728054773e-12,1.7112646278426924e-12,9.494078539590935e-13
0.0,42,42.0,0.0,30.0,0.0,0.0,0.0,0.0,-13.0,0.0,2.0,0.0,0.0,0.0,1.1535646369981887e-10,9.781856112487707e-11,9.114712035362268e-11,7.930258265713937e-11,6.689608916239845e-11,5.657162490537366e-11,4.5683027047411996e-11,3.96569163188448e-11,2.9893111091710606e-11,2.3223047035633612e-11,1.6967982957258834e-11,1.2764863801682716e-11,8.773139816331456e-12,6.503573357834366e-12,4.524848721740298e-12,2.98196113935824e-12,1.822582241203508e-12,1.0930004091227433e-12,7.516543322231372e-13,4.55781774722442e-13,2.7132277116303487e-13,1.5820664699210078e-13,9.383356798573674e-14,5.259381041238322e-14,3.223074754205759e-14,1.6691265807763668e-14,2.8294056472361463e-09,1.6233748199339644e-09,1.1899510867989737e-09,8.208769126368148e-10,5.830351730465505e-10,4.0315348409133756e-10,2.795423946544099e-10,1.8685867546089158e-10,1.3818857584355003e-10,8.998001145690355e-11,5.933748786639823e-11,3.9727388884518613e-11,2.45747764571825e-11,1.4751288346139186e-11,9.16569675813355e-12,5.5078697841140096e-12,3.1052616908603984e-12,1.6659932202754251e-12,9.741756561708551e-13
0.0,43,43.0,0.0,30.0,0.0,0.0,0.0,0.0,-13.0,0.0,2.0,0.0,0.0,0.0,1.105279525395098e-10,1.0584059604578909e-10,8.997718588097559e-11,7.939724950175182e-11,6.890891139924475e-11,5.989683026578794e-11,4.502699908242569e-11,4.123455300792e-11,3.0870534557760886e-11,2.183325058449002e-11,1.6629120638215636e-11,1.2597735425451128e-11,8.99473205079812e-12,6.540968681509069e-12,4.292257834653863e-12,2.7552622051250234e-12,1.92833528018824e-12,1.2165129925585513e-12,7.124501416094416e-13,4.55042577986529e-13,2.678604887069276e-13,1.5577023252893667e-13,9.154555591734392e-14,5.0806098850092064e-14,2.7216727260326004e-14,1.688272699686114e-14,2.7747101046005443e-09,1.6623168923799991e-09,1.094720677384174e-09,7.742859175388717e-10,5.988605732921771e-10,4.1050508366432415e-10,2.7253599258637436e-10,1.9970393134768779e-10,1.3390898584224903e-10,9.079001081317842e-11,5.893698435212613e-11,4.02015138286299e-11,2.4392337541578015e-11,1.513702139763248e-11,9.166589640539102e-12,5.491022529046377e-12,3.265194256643112e-12,1.804779010638377e-12,9.860430447807889e-13
0.0,44,44.0,0.0,30.0,0.0,0.0,0.0,0.0,-13.0,0.0,2.0,0.0,0.0,0.0,1.121463274654616e-10,1.0255455715262569e-10,9.458446007625615e-11,8.123329579278228e-11,7.239785784272708e-11,6.115903810914861e-11,4.8423159451166505e-11,3.910134318724898e-11,3.005250989110934e-11,2.3615229465074196e-11,1.7181093163466095e-11,1.270813285199289e-11,9.445145153229561e-12,6.4002078307352146e-12,4.397124965120369e-12,3.0532949654258197e-12,1.9120022732501592e-12,1.2460284052748397e-12,7.319165990633858e-13,4.590980442653381e-13,2.608527532870467e-13,1.5732313610555582e-13,9.215078748892674e-14,5.037620178054271e-14,3.1511762914041854e-14,1.576030672317718e-14,2.944942004722818e-09,1.7218477710303515e-09,1.2550869611396511e-09,7.928779510059006e-10,6.087454645187287e-10,4.069769108921926e-10,2.924918705332486e-10,2.0106431750880294e-10,1.4010586632004807e-10,9.084004456820545e-11,5.791474526354863e-11,4.204519122505829e-11,2.6104661175049274e-11,1.5814287245549186e-11,9.512336321295415e-12,5.496358106427967e-12,3.101085854305795e-12,1.7949780829969176e-12,1.0053019597315437e-12
0.0,45,45.0,0.0,30.0,0.0,0.0,0.0,0.0,-13.0,0.0,2.0,0.0,0.0,0.0,1.1531937899373294e-10,1.0554790294759189e-10,9.392063339376124e-11,7.795932606887735e-11,7.023386545168577e-11,5.900408931441342e-11,4.9062065152326815e-11,4.3240896664491664e-11,3.000068456336922e-11,2.451462754192688e-11,1.6869549541909022e-11,1.3377639633120043e-11,9.260533538297916e-12,6.8081313585166855e-12,4.454588622708635e-12,2.995527113587299e-12,1.88678215321415e-12,1.2601777597585279e-12,7.171219569820192e-13,4.536710193710746e-13,2.792919244862568e-13,1.515993955835852e-13,9.107987548500161e-14,5.3079779577114825e-14,3.152224829469746e-14,1.6478978984224483e-14,2.887936712733168e-09,1.8401238641683489e-09,1.2097649355307602e-09,8.654117662235988e-10,5.994087078507297e-10,4.324285391506008e-10,2.899343792954364e-10,2.039836509541711e-10,1.4145119942100848e-10,9.829559191069448e-11,6.913277075783944e-11,3.955940151829206e-11,2.5985106025149138e-11,1.603745034462046e-11,9.259483517630954e-12,5.760990767749607e-12,3.2910249112354746e-12,1.7889571341718193e-12,9.290838624012637e-13
0.0,46,46.0,0.0,30.0,0.0,0.0,0.0,0.0,-13.0,0.0,2.0,0.0,0.0,0.0,1.217274345822968e-10,1.0520862326351948e-10,9.723228996280129e-11,8.664558196801864e-11,7.524489445787837e-11,6.049110522995811e-11,4.839530820226217e-11,3.888485174271815e-11,3.2992719164677624e-11,2.2918559107203485e-11,1.769697803184163e-11,1.370685853057288e-11,9.435821116538943e-12,6.702369699213868e-12,4.307206917039981e-12,3.0254323893999387e-12,1.9797556351747993e-12,1.190516742268942e-12,8.019028399066804e-13,4.5394613468730853e-13,2.700672476402409e-13,1.5573186451942682e-13,9.356394937561935e-14,5.513563504344929e-14,2.943883702969067e-14,1.4460441579202873e-14,2.916640541595856e-09,1.849837814031279e-09,1.2015132198049783e-09,8.658518243905262e-10,6.135376395014346e-10,4.371350889946303e-10,3.2042247364533523e-10,2.1246372661279086e-10,1.449829388443365e-10,9.561737478762542e-11,6.485848184237935e-11,4.1943283436008854e-11,2.65831284259517e-11,1.4444402695301552e-11,9.546458649605858e-12,5.9882410585779705e-12,3.2739220131457795e-12,1.81956842217535e-12,1.0094015731131623e-12
0.0,47,47.0,0.0,30.0,0.0,0.0,0.0,0.0,-13.0,0.0,2.0,0.0,0.0,0.0,1.2087335258845677e-10,1.1537777675442804e-10,9.758779966192976e-11,8.731350998729738e-11,7.401571210498049e-11,6.046794264677928e-11,4.943255811978078e-11,4.1237219724810764e-11,3.167064870233703e-11,2.4271547940617795e-11,1.8147868137984425e-11,1.3229865107789152e-11,9.881600654132336e-12,6.591544471510648e-12,4.353482291648842e-12,3.071358319078593e-12,1.97553890122035e-12,1.2097512994651228e-12,7.287606477849742e-13,4.607298984564088e-13,2.7710233412538496e-13,1.5915896112792333e-13,9.451487577253703e-14,4.915293950885681e-14,2.8742649528150065e-14,1.6821585254493097e-14,2.991848601488503e-09,1.814589114149039e-09,1.309604571873061e-09,8.838058141577778e-10,6.438230145348944e-10,4.569824462233807e-10,3.1180512748996117e-10,2.2258948197097809e-10,1.5365229530269407e-10,1.0203975426769862e-10,6.642466610478695e-11,4.2975688964261664e-11,2.685495437004015e-11,1.6691475253182583e-11,9.714087065801286e-12,5.824536579683957e-12,3.2621261655349973e-12,1.8426160650806616e-12,9.875472947873172e-13
0.0,48,48.0,0.0,30.0,0.0,0.0,0.0,0.0,-13.0,0.0,2.0,0.0,0.0,0.0,1.2910136343374988e-10,1.1129348265021243e-10,1.0040318465579289e-10,8.79524242666962e-11,7.56034981435129e-11,6.371943305103007e-11,5.325307966381639e-11,4.1240298280329786e-11,3.2210529986388646e-11,2.397570512525479e-11,1.850315559884411e-11,1.3826891579745778e-11,9.90938032048458e-12,6.9922968868519515e-12,4.465383115955056e-12,3.131259553035368e-12,1.921874145160858e-12,1.2314232053882439e-12,7.808434679547977e-13,4.917695879058626e-13,2.7434428656006233e-13,1.6715708904099028e-13,9.307054174546714e-14,5.2996529899391944e-14,3.143952473453751e-14,1.690592445568567e-14,2.978230504001478e-09,1.9662670065949617e-09,1.3312821383658456e-09,9.301398333940613e-10,6.563190321881335e-10,4.696450588558604e-10,3.205024753309541e-10,2.3080960680834472e-10,1.48839610543243e-10,1.0222516462120326e-10,6.748833614051161e-11,4.202851124467886e-11,2.751030787608948e-11,1.6360186172007113e-11,1.0019605225466068e-11,5.86089900575607e-12,3.362603761204127e-12,1.8810871378462934e-12,1.0276378499331129e-12
0.0,49,49.0,0.0,30.0,0.0,0.0,0.0,0.0,-13.0,0.0,2.0,0.0,0.0,0.0,1.295475000925221e-10,1.153519222318839e-10,1.0265796817688339e-10,9.118031151644169e-11,8.138720975106729e-11,6.228630255537031e-11,5.240737020619798e-11,4.1003626931673144e-11,3.202768114428195e-11,2.598912271075483e-11,1.904299396436857e-11,1.362292875033683e-11,9.384653312758387e-12,6.7685179317910554e-12,4.4427555945132365e-12,3.0490060915939284e-12,1.9055226635062713e-12,1.246957620005567e-12,7.78203827390867e-13,4.4075266040791567e-13,2.6803338681572333e-13,1.629549059905373e-13,8.690472363005061e-14,5.007300088202394e-14,2.881557680010538e-14,1.6168439740199208e-14,3.1290429549494285e-09,1.8558016754966424e-09,1.3638974244347881e-09,9.56876332125657e-10,6.445717011445968e-10,4.760221608652317e-10,3.390997569271944e-10,2.4181196879241614e-10,1.61634531624787e-10,1.067205888544304e-10,7.063584080815701e-11,4.358752323578092e-11,2.71026484959714e-11,1.6758046127199067e-11,1.0485893231881289e-11,6.0513289315516905e-12,3.5190424928979264e-12,1.79275923855298e-12,1.0511809286821199e-12
0.0,50,50.0,0.0,30.0,0.0,0.0,0.0,0.0,-13.0,0.0,2.0,0.0,0.0,0.0,1.2844904149748642e-10,1.1564669639722117e-10,1.0517343491638866e-10,9.08407521904355e-11,8.436107833106774e-11,6.747660884818378e-11,5.487148652618621e-11,4.3370978061997417e-11,3.47030225145176e-11,2.621751601200643e-11,2.0573478089271113e-11,1.3769641407613787e-11,1.0461665194310051e-11,7.220321880916612e-12,4.66837874775283e-12,2.9815898313652323e-12,2.112133872146233e-12,1.3265271882537487e-12,7.92083389465039e-13,4.454483009557272e-13,2.628448675255452e-13,1.5943633253131958e-13,9.709279585326081e-14,5.470253256394913e-14,3.068084076031018e-14,1.7068196890881945e-14,3.1419109223215013e-09,2.0832550931934047e-09,1.3761147715366105e-09,9.41731770033015e-10,7.373120857123415e-10,4.864227322150094e-10,3.271662000856596e-10,2.4135624518989224e-10,1.5651708946696161e-10,1.1032423400354076e-10,6.986046501576439e-11,4.165700862386257e-11,2.8551747800194922e-11,1.778203868082558e-11,1.0109457268212887e-11,5.958902002799571e-12,3.547738422214202e-12,1.9470560114572695e-12,1.085592290459136e-12
0.0,51,51.0,0.0,30.0,0.0,0.0,0.0,0.0,-13.0,0.0,2.0,0.0,0.0,0.0,1.3645921065857857e-10,1.2051193645207068e-10,1.0747001199095506e-10,9.498247771474291e-11,7.924424160576313e-11,6.949664056054737e-11,5.429455380069497e-11,4.591209741577109e-11,3.462541013370144e-11,2.6282699932004768e-11,1.9515748755571763e-11,1.4165495511328982e-11,1.0470851365977967e-11,7.292500295590283e-12,4.4552231654940625e-12,3.182752589767121e-12,1.8941623777597555e-12,1.2611230465708001e-12,7.632964260104701e-13,4.4652832345218736e-13,2.6677797247280863e-13,1.630997233558141e-13,9.962008331273258e-14,5.2394897018058257e-14,3.1255707944878256e-14,1.8197423658202206e-14,3.2220570899676275e-09,2.1929854573143955e-09,1.4092612412938775e-09,9.794719527459527e-10,6.910379361134792e-10,5.077720062822309e-10,3.5029134124898985e-10,2.4594440918439783e-10,1.6261024688908686e-10,1.0665236324073239e-10,7.104274326158718e-11,4.7144046951783443e-11,2.8786357660506238e-11,1.7151073794726122e-11,1.0938234280750591e-11,6.071570035424725e-12,3.593661177141862e-12,1.878632414435475e-12,1.0897553394114782e-12
0.0,52,52.0,0.0,30.0,0.0,0.0,0.0,0.0,-13.0,0.0,2.0,0.0,0.0,0.0,1.4022307280517045e-10,1.2976549589830693e-10,1.0850154442131498e-10,9.714097763357173e-11,8.340925968178837e-11,7.051984157538703e-11,5.7421346746658886e-11,4.286383560987945e-11,3.454300657014095e-11,2.756023926975906e-11,2.068557249737783e-11,1.4188406008057908e-11,1.0571427379121828e-11,7.256921591817052e-12,5.019384797537834e-12,3.0568839335005672e-12,2.0589541609218628e-12,1.2277863369658938e-12,7.761548323223653e-13,4.546553886778134e-13,2.8440343117277245e-13,1.5473975773080967e-13,9.67938354426751e-14,5.457729040678227e-14,3.086447943266524e-14,1.5945448072600283e-14,3.1786151733450887e-09,2.0767409528448858e-09,1.4834499488984112e-09,1.100328429356791e-09,7.104899252491938e-10,5.208656693586908e-10,3.7283157565910385e-10,2.5653902346866305e-10,1.6260789032248536e-10,1.0950377961969041e-10,7.623315463142838e-11,4.826252187154242e-11,2.9991329510872016e-11,1.8302446494788686e-11,1.0239979234926445e-11,6.128221338987771e-12,3.561521759960637e-12,1.828100413831201e-12,1.0582579130415302e-12
0.0,53,53.0,0.0,30.0,0.0,0.0,0.0,0.0,-13.0,0.0,2.0,0.0,0.0,0.0,1.3566367739871137e-10,1.2566743934542286e-10,1.125344379764784e-10,9.573251489582261e-11,8.6350670729934e-11,6.975569788427901e-11,5.704055943574803e-11,4.389089544503101e-11,3.6557954231963806e-11,2.883548089014442e-11,2.1019432597377548e-11,1.4897889823461222e-11,1.0216681841194252e-11,7.245390867001891e-12,4.843808528440009e-12,3.0571651442534135e-12,1.9948614173271634e-12,1.2715251043805837e-12,8.157838117538946e-13,4.654500843205887e-13,2.82302254059424e-13,1.542103753280354e-13,9.211612565325118e-14,5.2311992014784226e-14,3.072808680149171e-14,1.7614334337937223e-14,3.196755749944832e-09,2.2436065193806585e-09,1.4739065902091868e-09,1.0593931606027283e-09,7.694871089200405e-10,5.262299744577878e-10,3.8313632209838204e-10,2.6812625643017915e-10,1.737396683178231e-10,1.196087946122509e-10,7.539307280543955e-11,4.8205528335624886e-11,2.9034492329444777e-11,1.8070978488756856e-11,1.077894453046884e-11,6.238576344156373e-12,3.823181936423085e-12,2.0390717230256458e-12,1.04145566636817e-12
0.0,54,54.0,0.0,30.0,0.0,0.0,0.0,0.0,-13.0,0.0,2.0,0.0,0.0,0.0,1.4525555795149812e-10,1.3510360419895748e-10,1.162579762855833e-10,9.881175955315396e-11,8.633528460935417e-11,7.114148075623006e-11,5.982205879029018e-11,4.916338084396936e-11,3.753065474924059e-11,2.8843750438529583e-11,2.1501867155612188e-11,1.4207518406152901e-11,1.0779430285295171e-11,7.592755829104897e-12,4.832002897725574e-12,3.1335563367513827e-12,2.015857080570864e-12,1.3481244291280362e-12,7.337222364142694e-13,4.786070891317561e-13,2.6870125346329675e-13,1.6861430669533802e-13,9.91986083747411e-14,5.394638639508557e-14,3.096753287264017e-14,1.6316584731130414e-14,3.5319606723208452e-09,2.266683088450651e-09,1.5595543425700609e-09,1.0947609717801467e-09,7.640815365439196e-10,5.669569572110705e-10,3.830657429126458e-10,2.44734991212439e-10,1.7997705002718635e-10,1.1650809814729894e-10,7.93564623873634e-11,5.175207169822331e-11,3.0985379976509825e-11,1.8579739417168205e-11,1.1450997223955823e-11,6.667299434681352e-12,3.6343301431607253e-12,2.027397644090306e-12,1.1111263550834648e-12
