Line_number,Fiducial,Easting,Northing,Height,Elevation,tx_pitch,tx_roll,tx_yaw,txrx_dx,txrx_dy,txrx_dz,rx_pitch,rx_roll,rx_yaw,S0Z_time_3.834e-04,S0Z_time_3.924e-04,S0Z_time_4.039e-04,S0Z_time_4.184e-04,S0Z_time_4.364e-04,S0Z_time_4.589e-04,S0Z_time_4.869e-04,S0Z_time_5.224e-04,S0Z_time_5.679e-04,S0Z_time_6.249e-04,S0Z_time_6.969e-04,S0Z_time_7.879e-04,S0Z_time_9.019e-04,S0Z_time_1.046e-03,S0Z_time_1.227e-03,S0Z_time_1.456e-03,S0Z_time_1.744e-03,S0Z_time_2.109e-03,S0Z_time_2.567e-03,S0Z_time_3.145e-03,S0Z_time_3.864e-03,S0Z_time_4.745e-03,S0Z_time_5.821e-03,S0Z_time_7.140e-03,S0Z_time_8.754e-03,S0Z_time_1.073e-02,S1Z_time_2.057e-05,S1Z_time_2.607e-05,S1Z_time_3.307e-05,S1Z_time_4.206e-05,S1Z_time_5.356e-05,S1Z_time_6.807e-05,S1Z_time_8.607e-05,S1Z_time_1.086e-04,S1Z_time_1.366e-04,S1Z_time_1.721e-04,S1Z_time_2.176e-04,S1Z_time_2.746e-04,S1Z_time_3.466e-04,S1Z_time_4.376e-04,S1Z_time_5.516e-04,S1Z_time_6.956e-04,S1Z_time_8.771e-04,S1Z_time_1.106e-03,S1Z_time_1.394e-03
0.0,0,0.0,0.0,30.0,0.0,0.0,0.0,0.0,-13.0,0.0,2.0,0.0,0.0,0.0,6.001724651511799e-11,4.842017227018012e-11,4.0839024412039934e-11,3.177669811968199e-11,2.4596424252654694e-11,1.924736671156955e-11,1.4116992070508787e-11,1.0980108727374056e-11,7.795236027294286e-12,5.584112177541246e-12,3.903859787506445e-12,2.4161169726212142e-12,1.7033384415406676e-12,1.1543165399217765e-12,7.492520030841481e-13,4.439668893099504e-13,2.991192264472617e-13,1.7373228825289416e-13,1.0102850637383625e-13,6.018217768625817e-14,3.2183319430369495e-14,1.9998231332088113e-14,1.0683096595895318e-14,5.4714251506792494e-15,2.584392283930862e-15,2.5466237308261102e-15,6.337745809614094e-09,3.5617106888739554e-09,2.1078239995264464e-09,1.255265541647551e-09,7.258787315724458e-10,4.158185522882689e-10,2.43632764315783e-10,1.3370600429434143e-10,7.474777460502948e-11,3.854076171233574e-11,2.2658032113167026e-11,1.3104558166313858e-11,7.491148772850291e-12,3.939330626343438e-12,2.158784881575513e-12,1.150942552840293e-12,5.770646267677843e-13,3.2463636413832363e-13,1.6704812939725607e-13
0.0,1,1.0,0.0,30.0,0.0,0.0,0.0,0.0,-13.0,0.0,2.0,0.0,0.0,0.0,5.879960541907573e-11,4.515341558101595e-11,3.9455311947443096e-11,3.165666428906937e-11,2.3569296192328388e-11,1.822579958635994e-11,1.3033402075841546e-11,1.0015745797783198e-11,7.585949382556162e-12,5.099117195421319e-12,3.6638693395054265e-12,2.4871778242380583e-12,1.6056199681251803e-12,1.0246359437741696e-12,7.08907284431076e-13,4.3483578398703203e-13,2.836806120522347e-13,1.5662671572868642e-13,1.0001012469847219e-13,5.179623363183733e-14,3.352227789089002e-14,1.851081688293897e-14,1.134234582585597e-14,6.137271695110717e-15,3.4253536559073988e-15,1.6070756077729264e-15,6.189991249995906e-09,3.530743961548975e-09,2.0434899284516195e-09,1.2709029598360298e-09,6.779868597167711e-10,4.10711150081943e-10,2.227265803879758e-10,1.3019870284010623e-10,7.19334729452895e-11,3.8879348570820136e-11,2.1599391537829812e-11,1.2335896811381202e-11,6.6802545230445504e-12,3.5948541932832843e-12,1.9272074592354525e-12,1.09728326301683e-12,5.761158696797058e-13,2.9685627686163513e-13,1.5788912324669118e-13
0.0,2,2.0,0.0,30.0,0.0,0.0,0.0,0.0,-13.0,0.0,2.0,0.0,0.0,0.0,5.638395085865988e-11,4.9008782345868534e-11,4.001738781855856e-11,2.8855764652721758e-11,2.2923811812519372e-11,1.790132817158399e-11,1.3274338433472771e-11,9.418833625065226e-12,6.833404967822602e-12,4.826734550607829e-12,3.5584383726792965e-12,2.334637733462085e-12,1.5610586301646417e-12,1.0076963703277852e-12,6.658487403243315e-13,4.117665302020072e-13,2.680994950776398e-13,1.6152880510947728e-13,8.78331672574522e-14,5.320126841550381e-14,3.1001431640591376e-14,1.6893922671603833e-14,9.791941786996883e-15,5.127320882879529e-15,2.526563074701401e-15,1.3930419394850778e-15,6.071008013176016e-09,3.3283430068412922e-09,2.144574045291843e-09,1.194872242178251e-09,7.445547519165793e-10,4.0798582572143634e-10,2.1363545466852409e-10,1.2621410351036836e-10,7.015210406232722e-11,3.9073295772510704e-11,2.058855364789905e-11,1.1418920949306417e-11,6.285529712903894e-12,3.575370873674082e-12,1.8682718489994167e-12,1.0098661620174934e-12,5.20211812133086e-13,2.8789951800989134e-13,1.537307684634081e-13
0.0,3,3.0,0.0,30.0,0.0,0.0,0.0,0.0,-13.0,0.0,2.0,0.0,0.0,0.0,5.504286008106599e-11,4.610683947118423e-11,3.779074269257481e-11,2.961278180140027e-11,2.1994288962208723e-11,1.7817265514789183e-11,1.292128471748305e-11,9.213820742034587e-12,6.8053440358749355e-12,4.497812420719496e-12,3.265363277901483e-12,2.2307372039492876e-12,1.4641898912960273e-12,9.722122924222043e-13,5.98919531698282e-13,3.993692340093623e-13,2.4441665416364236e-13,1.5123204264607001e-13,9.292053128895543e-14,5.0902425621209436e-14,2.9336665320257325e-14,1.969368915570906e-14,8.065985484507378e-15,5.686870323171929e-15,3.2665341995250693e-15,1.4175189563170916e-15,5.992055081006998e-09,3.4717465149294833e-09,2.038707462860443e-09,1.2789904491409155e-09,7.284041446635644e-10,4.0181114651647266e-10,2.2230606529824992e-10,1.2597580479415116e-10,6.999497556998653e-11,3.787885782266304e-11,1.9888604949367617e-11,1.0729538453137522e-11,5.948904470797191e-12,3.117718513652913e-12,1.656941007570579e-12,9.319349121629246e-13,5.110505884821072e-13,2.57133100216188e-13,1.580190668571065e-13
0.0,4,4.0,0.0,30.0,0.0,0.0,0.0,0.0,-13.0,0.0,2.0,0.0,0.0,0.0,5.441290910180091e-11,4.912514821658033e-11,3.6619432450397705e-11,2.8091524752967575e-11,2.0677714882291675e-11,1.600737975867322e-11,1.2387559438785186e-11,9.023518318583899e-12,6.530318587402764e-12,4.316953677228838e-12,2.856823600598371e-12,1.9525140536893887e-12,1.355834786998354e-12,9.068494163148573e-13,5.842786627564711e-13,3.930280680485395e-13,2.497397449468654e-13,1.4209079751835154e-13,8.596921506719972e-14,4.787232077690858e-14,2.924668172983895e-14,1.5367423454058992e-14,8.285346236700495e-15,6.13801009096658e-15,2.587112773975766e-15,2.4896480088340345e-15,5.731599793834432e-09,3.5700958263140577e-09,2.037243230733341e-09,1.2290207503658212e-09,7.293535433170867e-10,3.8600199386208264e-10,2.3010906011617824e-10,1.2283990845115967e-10,6.872372103905177e-11,3.68693754561924e-11,2.0131193277801354e-11,1.0197834834133188e-11,5.962926195557055e-12,2.9117015090888294e-12,1.7333168669000267e-12,8.7280504721275e-13,4.702903323344494e-13,2.677618617664385e-13,1.2014224778007364e-13
0.0,5,5.0,0.0,30.0,0.0,0.0,0.0,0.0,-13.0,0.0,2.0,0.0,0.0,0.0,5.1519493351307986e-11,4.358603527235867e-11,3.4879042993961313e-11,2.8182562307565296e-11,2.1654661319134833e-11,1.544636683562794e-11,1.1610695318370605e-11,8.226783988878533e-12,5.908387167871706e-12,4.182381026465209e-12,2.980588132162572e-12,2.018062959120341e-12,1.2534175170875973e-12,8.438957844646401e-13,5.657500467500191e-13,3.89414752889833e-13,2.1998390151237375e-13,1.4436161489670705e-13,8.219373052501332e-14,4.900172147288853e-14,2.6087013877127297e-14,1.711646495557029e-14,9.850856825508856e-15,5.501210785897785e-15,2.5664689268767812e-15,1.951780509474999e-15,6.034316215821316e-09,3.68848861044719e-09,2.143972163808032e-09,1.30536303333349e-09,7.45938459314497e-10,3.9829901994742397e-10,2.2330015791497025e-10,1.247483711247714e-10,6.480264822240805e-11,3.6249515382999353e-11,1.9042384868920866e-11,9.73220890792423e-12,5.1426255444660144e-12,2.8040588712112384e-12,1.4924761379837917e-12,8.092658536374418e-13,4.658582233137564e-13,2.4723976445849513e-13,1.2266681920092673e-13
0.0,6,6.0,0.0,30.0,0.0,0.0,0.0,0.0,-13.0,0.0,2.0,0.0,0.0,0.0,5.31293308027591e-11,4.288338535295856e-11,3.5221106237667195e-11,2.658620778019906e-11,2.0684396493262347e-11,1.5327799412652105e-11,1.1155532183803425e-11,8.540565945446289e-12,5.277247153900724e-12,3.919417186987609e-12,2.7224584427747737e-12,1.863515430444922e-12,1.2367087993352297e-12,8.525484869689458e-13,5.433506023875615e-13,3.587038859259613e-13,2.149856160722248e-13,1.3968962496713999e-13,7.894416552508185e-14,4.77107688864982e-14,2.4945578579303377e-14,1.4336307292670388e-14,7.683415286562358e-15,4.0556904926152366e-15,2.1092098564525843e-15,2.4856361669771905e-15,6.18303926430442e-09,3.405181008218411e-09,2.1134457282289507e-09,1.2882400216638374e-09,7.454626138585767e-10,4.1188475821738017e-10,2.0848628590874648e-10,1.309486198180876e-10,6.927310923341096e-11,3.4092940483760134e-11,1.718074938053225e-11,8.951401825311677e-12,5.262089202894689e-12,2.6883842293689454e-12,1.5221990369305515e-12,7.914032905493634e-13,4.3880869436229306e-13,2.2864213754659474e-13,1.0811801116689829e-13
0.0,7,7.0,0.0,30.0,0.0,0.0,0.0,0.0,-13.0,0.0,2.0,0.0,0.0,0.0,5.4317495728400236e-11,4.0351247190580905e-11,3.2851771018950833e-11,2.6379241119726967e-11,2.0213534169057702e-11,1.406115230018581e-11,1.0743357309927886e-11,7.316128029035871e-12,5.550087498451837e-12,3.870834859863286e-12,2.621635801701074e-12,1.7503496666800138e-12,1.167657144261035e-12,7.549662565619061e-13,5.356205881223832e-13,3.3123579480931525e-13,2.0048854179435798e-13,1.2215908106306156e-13,7.557821282272511e-14,4.3021648186676356e-14,2.6669052061844535e-14,1.693148350118048e-14,9.671333628419637e-15,4.044367840972517e-15,2.5067748218065923e-15,1.7775974236298855e-15,5.886983440672633e-09,3.4742557655507257e-09,2.0957113630159723e-09,1.2454119610400173e-09,7.501401516876194e-10,4.1933312343836205e-10,2.256266973095891e-10,1.226687162866869e-10,6.231075805307789e-11,3.363940076974854e-11,1.760337339363387e-11,9.399536640221491e-12,5.135903829120768e-12,2.6700246810870265e-12,1.4665079647084781e-12,7.420325152916415e-13,4.0682435145626365e-13,2.2271510179673543e-13,1.1803851229566866e-13
0.0,8,8.0,0.0,30.0,0.0,0.0,0.0,0.0,-13.0,0.0,2.0,0.0,0.0,0.0,5.248171993204836e-11,4.328131602922719e-11,3.2860768241171236e-11,2.5511720943144583e-11,1.8719475075148666e-11,1.4664583992744454e-11,9.99451787760799e-12,7.514113812502706e-12,5.179466726722233e-12,3.59328158830997e-12,2.435352601226161e-12,1.7773300101905144e-12,1.1789613604824062e-12,7.302528747635677e-13,4.957199899292946e-13,3.176812735106004e-13,2.0596006626698616e-13,1.2772664536175242e-13,7.559343140542696e-14,4.603800609782692e-14,2.4054519517243098e-14,1.4572288874444718e-14,8.469799823611038e-15,5.954841054682069e-15,1.8943077087061567e-15,2.5954295643117825e-15,5.840215987815321e-09,3.4286214551776077e-09,2.1869892245722693e-09,1.2752700158366786e-09,7.438869288048651e-10,4.252286346150442e-10,2.2986872838993544e-10,1.2084025190364937e-10,6.668518890688054e-11,3.274344888983834e-11,1.6296559501811664e-11,8.763925572635285e-12,4.7442437173683195e-12,2.4766963362918147e-12,1.3572619126412333e-12,7.632897270844944e-13,3.7377287984648e-13,2.0753884998032516e-13,1.14304345164622e-13
0.0,9,9.0,0.0,30.0,0.0,0.0,0.0,0.0,-13.0,0.0,2.0,0.0,0.0,0.0,5.210351168444266e-11,4.2710779232840774e-11,3.408322855134727e-11,2.686419822650759e-11,1.8547209973697122e-11,1.3564222276126432e-11,1.0137780838437514e-11,7.237546894307373e-12,4.850374415412588e-12,3.4949463251355393e-12,2.3862067279322187e-12,1.6402893058823593e-12,1.1507740881158082e-12,7.524940950682461e-13,4.780783350724015e-13,2.9608693789487605e-13,1.8833271699875943e-13,1.1315350857275751e-13,7.382487421913495e-14,4.2730703156761686e-14,2.4680333448100896e-14,1.3174126364581162e-14,6.355937693347121e-15,3.97176031158417e-15,1.2580584864314897e-15,2.582629940291121e-15,6.132966273236397e-09,3.4041197168236467e-09,2.1261818791558253e-09,1.3093577811915948e-09,7.592346409004099e-10,3.9345649931550093e-10,2.2754447391411144e-10,1.2076607241516887e-10,6.151464188255268e-11,3.28321762129061e-11,1.6451953043308842e-11,8.259112901709623e-12,4.3375034978744476e-12,2.383649258945032e-12,1.1926045029325844e-12,7.183274365398483e-13,3.4617163733657636e-13,2.159560011256849e-13,8.834385398218703e-14
0.0,10,10.0,0.0,30.0,0.0,0.0,0.0,0.0,-13.0,0.0,2.0,0.0,0.0,0.0,5.174288416171665e-11,4.163564696256524e-11,3.145560889572005e-11,2.5279417030926737e-11,1.8223421136996125e-11,1.2778777613815959e-11,9.613177089718898e-12,6.3645410226822355e-12,4.5463679770743826e-12,3.3017176530976024e-12,2.220352859714134e-12,1.5741695254517716e-12,9.99724838112837e-13,6.836464604262401e-13,4.3553380136939784e-13,2.8829208306348097e-13,1.8647004714336078e-13,1.1214510907092272e-13,7.075435855303846e-14,4.177373244724614e-14,2.3208759197215282e-14,1.549534740233275e-14,7.886665529897892e-15,3.685276770433236e-15,2.3025377676276773e-15,-1.142994288695653e-16,6.033261275182771e-09,3.567952717909773e-09,2.1640709931679086e-09,1.214467507947228e-09,7.671747185422961e-10,4.079751373359007e-10,2.2113737819984386e-10,1.2257266307014656e-10,6.23769331897708e-11,3.144925985163495e-11,1.605616868610961e-11,8.765742134020646e-12,4.513989903771559e-12,2.3722035152761094e-12,1.2211993143173498e-12,6.521119535340897e-13,3.5286827719809364e-13,1.9310219842546452e-13,9.777086797412322e-14
0.0,11,11.0,0.0,30.0,0.0,0.0,0.0,0.0,-13.0,0.0,2.0,0.0,0.0,0.0,4.9782193939617516e-11,3.938240260612931e-11,3.263078701140263e-11,2.346611325506902e-11,1.7760958834876526e-11,1.2654756113685282e-11,9.306245729565124e-12,6.489846808497565e-12,4.4150583067635495e-12,3.0981032407169787e-12,2.1935102147105882e-12,1.4347370264049173e-12,9.984045434232298e-13,6.730574601615128e-13,4.46106946177612e-13,2.8141804259945175e-13,1.778593099970368e-13,1.07685286453772e-13,6.546839888077853e-14,4.078554217065292e-14,2.2710643449975376e-14,1.5696767387305332e-14,7.379387007927692e-15,3.3048637812114773e-15,1.4009281067568814e-15,1.519763822083397e-15,6.0527521245961916e-09,3.5074150914567462e-09,2.0967968646951195e-09,1.3076482532610537e-09,7.435935406167641e-10,4.1058724769647775e-10,2.242681278940051e-10,1.2083307601661995e-10,6.27917769235361e-11,3.185895520401804e-11,1.5500969515817366e-11,8.004377617443638e-12,4.2724011282950304e-12,2.2254757383133123e-12,1.2537575411812868e-12,6.273426424915536e-13,3.2826410592937033e-13,1.7530227201698014e-13,8.154853232155012e-14
0.0,12,12.0,0.0,30.0,0.0,0.0,0.0,0.0,-13.0,0.0,2.0,0.0,0.0,0.0,5.07832353973174e-11,4.0051670804844113e-11,3.0625562226371926e-11,2.306926562651497e-11,1.8390450125550884e-11,1.227878784443947e-11,9.248073082603732e-12,6.318921838131583e-12,4.326271804183383e-12,3.0054009423062552e-12,2.0421836327860037e-12,1.352714145070971e-12,8.994402810358677e-13,6.157750735641381e-13,3.9227417341423326e-13,2.586448868693944e-13,1.6699247924219799e-13,9.885930920487518e-14,6.283383196766306e-14,3.8452285214100714e-14,2.36760196386014e-14,1.3650708676937218e-14,7.800681269536775e-15,4.260882697596606e-15,2.859227634642922e-15,4.08573906152177e-15,6.00137812989259e-09,3.795826913118072e-09,2.183192504222412e-09,1.3363544542854912e-09,7.369665461728724e-10,4.106185465752408e-10,2.26305030536019e-10,1.1559587460162053e-10,6.212585324704981e-11,3.1005021025979746e-11,1.5278532465485718e-11,7.777860570921553e-12,3.799876084036812e-12,2.2021720296816036e-12,1.1000415849525236e-12,6.063199667796015e-13,3.4506246749849275e-13,2.0113095694238478e-13,1.0299781313697493e-13
0.0,13,13.0,0.0,30.0,0.0,0.0,0.0,0.0,-13.0,0.0,2.0,0.0,0.0,0.0,4.718954594292325e-11,4.149961614256557e-11,2.7863056394912017e-11,2.2791339167749802e-11,1.7576300060615785e-11,1.209580723406976e-11,9.085123292527932e-12,5.8921912981002344e-12,4.383095504724972e-12,2.852645917019362e-12,1.986268758264186e-12,1.297159235518821e-12,9.211086456167917e-13,6.158585492448014e-13,3.8631117947943946e-13,2.549461038384226e-13,1.6216875511801123e-13,1.0869273226593665e-13,6.558996604032182e-14,3.848674937333503e-14,2.2838495410826595e-14,1.3325912166867717e-14,8.010184199878514e-15,4.7656019346573074e-15,6.455661794509207e-16,2.082224116438978e-15,5.8549264055309314e-09,3.58108888697591e-09,2.1854234235397735e-09,1.2654519339138383e-09,7.381473570542392e-10,4.123526138346298e-10,2.2098872748944135e-10,1.1704638529961014e-10,5.988357049612548e-11,3.10635716074112e-11,1.4999116343981193e-11,7.1789667092935375e-12,3.718407874272204e-12,2.0773708391400727e-12,1.0322957518206174e-12,5.57644194861007e-13,3.2198187247037337e-13,1.643456959752413e-13,9.997767605349946e-14
0.0,14,14.0,0.0,30.0,0.0,0.0,0.0,0.0,-13.0,0.0,2.0,0.0,0.0,0.0,4.847772733222738e-11,3.9454607198385124e-11,3.318824448642747e-11,2.2148384008503265e-11,1.6960501872248628e-11,1.175737820896591e-11,8.43251714832827e-12,5.745368785127516e-12,3.9813266188302905e-12,2.736363082557003e-12,1.8483548387665285e-12,1.216724028598632e-12,8.430501882171724e-13,5.68007538012566e-13,3.726059157033862e-13,2.4454327866978003e-13,1.5540105332729433e-13,1.0038614836240653e-13,5.598086292827586e-14,3.559067302224269e-14,2.182015214168884e-14,1.3801475796935149e-14,5.764063503003322e-15,4.920395601645258e-15,2.9042981552637204e-15,1.3147456653133962e-15,6.351533391062506e-09,3.7126852047723243e-09,2.1461168203392834e-09,1.2254660077339905e-09,7.405297089482473e-10,4.1827527419683086e-10,2.0589459230678678e-10,1.1865585824907448e-10,6.019937060813902e-11,2.992478048498943e-11,1.4158453049484708e-11,7.35361422184398e-12,3.6063266227832344e-12,2.029442948898442e-12,1.012635038857496e-12,5.55383188036194e-13,2.8399052565482234e-13,1.6423208829271003e-13,8.047887646922717e-14
0.0,15,15.0,0.0,30.0,0.0,0.0,0.0,0.0,-13.0,0.0,2.0,0.0,0.0,0.0,4.900651351824184e-11,3.785907126408153e-11,2.9501082379807286e-11,2.326267333861574e-11,1.5739408131840485e-11,1.1632685659462533e-11,8.38006402593807e-12,5.8586506278434926e-12,3.854041937784361e-12,2.6610884197408e-12,1.743961515434286e-12,1.2193501204489273e-12,7.981438567563643e-13,5.645458833806417e-13,3.7947359324032846e-13,2.3587400494275274e-13,1.462875895523673e-13,9.5813849328157e-14,5.5007833887646734e-14,3.5608191796367014e-14,1.9334125094590503e-14,1.3227729110402956e-14,8.970301284082524e-15,2.7865323384879172e-15,7.868672819990932e-16,-2.9117805654706597e-16,5.9021533421031745e-09,3.646478751810348e-09,2.2941006170429505e-09,1.3109070169457945e-09,7.318275526947978e-10,3.934469298593515e-10,2.150026542571198e-10,1.1984806446091233e-10,5.954605719003005e-11,2.870035609714658e-11,1.498594384889267e-11,6.9243108052382594e-12,3.4347559888872953e-12,1.7610822650135457e-12,9.545063723769372e-13,4.999430684350195e-13,2.863736651259675e-13,1.4950470879796613e-13,9.7189898962759e-14
0.0,16,16.0,0.0,30.0,0.0,0.0,0.0,0.0,-13.0,0.0,2.0,0.0,0.0,0.0,4.7637262810555387e-11,3.7785352753134905e-11,3.030470249719626e-11,2.2508074987185052e-11,1.5672917894675287e-11,1.1406307400625166e-11,8.182876300707549e-12,5.661103865089925e-12,3.828358349207391e-12,2.6391439124986225e-12,1.7283581573415156e-12,1.1994507015001883e-12,7.634161983687301e-13,5.415550673596201e-13,3.574850062771081e-13,2.416009220728131e-13,1.5074427932320006e-13,9.234682324112321e-14,5.847753434041476e-14,3.354036591248296e-14,2.2605649947256228e-14,1.0719952399151602e-14,5.603151666263437e-15,3.714585248096543e-15,3.1354815089895023e-15,-8.058594818379017e-16,6.304722497334235e-09,3.6708782513752187e-09,2.1899074504910053e-09,1.2992640172542336e-09,7.065821430163104e-10,4.0779395104981536e-10,2.1216171479259173e-10,1.1524418562129045e-10,5.799441860175681e-11,2.8154902963752656e-11,1.4082332748428863e-11,6.781402867516172e-12,3.44756900973726e-12,1.7963123405630993e-12,9.34116915365198e-13,4.938229532903644e-13,2.522139822327022e-13,1.5585614836816127e-13,7.652910320383003e-14
0.0,17,17.0,0.0,30.0,0.0,0.0,0.0,0.0,-13.0,0.0,2.0,0.0,0.0,0.0,4.475629576856566e-11,3.6763889852811644e-11,2.7679575862173308e-11,2.0997499894017555e-11,1.5545962387042403e-11,1.1526403619699374e-11,7.757462703982694e-12,5.6234284446983215e-12,3.4230736568119337e-12,2.486191341525534e-12,1.5741089341717867e-12,1.1562041686763004e-12,7.312756895564525e-13,5.074807754426954e-13,3.2633558389055057e-13,2.1624931632372038e-13,1.4073767932412508e-13,8.857142577240974e-14,5.492441492881248e-14,3.2302105377838434e-14,2.2697945927100175e-14,1.1438697838967787e-14,7.6127675477597e-15,6.544238490977893e-15,2.156932237337227e-15,1.8354682913888753e-15,6.296163522624555e-09,3.773342339918467e-09,2.255225980062042e-09,1.2472591457329053e-09,7.446307087354883e-10,3.9428511593179703e-10,2.1355634384630805e-10,1.161806456565085e-10,5.552248824171309e-11,2.939376512826801e-11,1.3868307044753621e-11,6.865670298667971e-12,3.4052726683568693e-12,1.672120876668095e-12,9.207231084757355e-13,4.854447339310609e-13,2.45612611080657e-13,1.487738813127192e-13,7.553646300083339e-14
0.0,18,18.0,0.0,30.0,0.0,0.0,0.0,0.0,-13.0,0.0,2.0,0.0,0.0,0.0,4.437013749089012e-11,3.8674893306945213e-11,2.667168158190534e-11,2.1878663310636386e-11,1.6396095846008242e-11,1.106644225623718e-11,7.569827777285923e-12,5.151769918580769e-12,3.5175562766746155e-12,2.280243894077145e-12,1.5095873073523913e-12,1.1072460115584173e-12,7.114269002368906e-13,4.822922648241247e-13,3.109906255255233e-13,2.1354962444357275e-13,1.291314441647996e-13,8.624140912844462e-14,5.579195812786381e-14,3.205711090940796e-14,1.8655860104689507e-14,1.1216656624451425e-14,6.71222805508121e-15,2.334302654121256e-15,1.5078146206309023e-15,8.163154144633922e-16,6.175527767593759e-09,3.7437059288573e-09,2.204132080505075e-09,1.228980132980664e-09,7.580751388656132e-10,3.9531964513091494e-10,2.0470796924208223e-10,1.040893726650343e-10,5.544951688365666e-11,2.8742621450128525e-11,1.3283703897641193e-11,6.547767531856346e-12,3.1088734699906458e-12,1.5632995406658324e-12,8.465199530875231e-13,4.1640223873629776e-13,2.37280000889908e-13,1.2185748774531483e-13,5.729464993629502e-14
0.0,19,19.0,0.0,30.0,0.0,0.0,0.0,0.0,-13.0,0.0,2.0,0.0,0.0,0.0,4.3905751921530206e-11,3.7443426376040606e-11,2.7108448941824924e-11,2.1036785349822637e-11,1.509242413457877e-11,1.1031626460237754e-11,7.393136357786724e-12,5.098155064122754e-12,3.4473666018513753e-12,2.330713268600381e-12,1.5458087603441946e-12,1.0251996759087257e-12,6.860375671442189e-13,4.503751597338751e-13,3.0724129217167926e-13,2.0886547373345447e-13,1.3181632170914856e-13,8.113029413075641e-14,5.1610043249417256e-14,3.02096589807901e-14,1.8211511808646718e-14,9.86981402619664e-15,6.6227806306896165e-15,4.095718916985944e-15,1.9217267577129754e-15,3.683368946965355e-15,6.101443151132867e-09,3.628651420202161e-09,2.26601008093824e-09,1.2441515792135546e-09,7.796325445605455e-10,3.745082364792716e-10,2.1641587430919703e-10,1.046653176803131e-10,5.6019471236362604e-11,2.8524336778737967e-11,1.3544202846278146e-11,6.244985383404837e-12,3.0099574518455352e-12,1.6114234318047215e-12,7.720295764375141e-13,4.664686327877597e-13,2.571100113275768e-13,1.334631105944085e-13,7.132239830679065e-14
0.0,20,20.0,0.0,30.0,0.0,0.0,0.0,0.0,-13.0,0.0,2.0,0.0,0.0,0.0,4.505002314638536e-11,3.578900851495999e-11,2.928388212900842e-11,2.040695769691506e-11,1.50273028189883e-11,1.0035780983239086e-11,7.245946390282801e-12,5.004031791493411e-12,3.2467993041613593e-12,2.17295191185504e-12,1.4383542024909153e-12,9.301470977687176e-13,6.720413853216428e-13,4.2038292207519244e-13,2.884255475412879e-13,1.8637681406307983e-13,1.1991471063372002e-13,7.854662987683369e-14,4.848493845189915e-14,3.048227197102466e-14,1.6966076814045708e-14,9.28239084793934e-15,6.859172826877709e-15,3.9924066020081105e-15,2.1607513899991e-15,5.499105182869701e-16,6.160299684404668e-09,3.6395906437206193e-09,2.2425553322943718e-09,1.2557426608492867e-09,6.894945994396839e-10,3.824129967206249e-10,1.9235084050944568e-10,1.0972082790733816e-10,5.509190721484439e-11,2.6150137262542063e-11,1.3342647215448156e-11,6.08961294736441e-12,3.016047628980137e-12,1.504437061861442e-12,8.116439222520296e-13,4.1325040077238713e-13,2.1826709329786504e-13,1.0995010031686487e-13,4.5223415626046886e-14
0.0,21,21.0,0.0,30.0,0.0,0.0,0.0,0.0,-13.0,0.0,2.0,0.0,0.0,0.0,4.4633541679271756e-11,3.438436302104886e-11,2.6783766030879e-11,2.0255987030118e-11,1.4280058416663912e-11,1.0020621736464703e-11,7.355292015410818e-12,4.9885850845929325e-12,3.371011210496296e-12,2.1627129844141234e-12,1.4283434355038059e-12,9.299332304373697e-13,6.434029785242855e-13,4.2156095148982965e-13,2.8255129550125276e-13,1.8109028768432055e-13,1.1972418819850726e-13,7.691473648379417e-14,4.465435610959064e-14,3.1511747189795343e-14,1.696058790000254e-14,1.1761355587848277e-14,5.002588874756775e-15,4.252521095258927e-15,1.945366581261726e-15,-2.636338257570371e-16,6.450000312285325e-09,3.6581990228891787e-09,2.1279538294032386e-09,1.2453674945346043e-09,6.916252128708697e-10,3.8278222837155647e-10,2.0096013542560015e-10,1.0720972998384052e-10,5.405487366721476e-11,2.714000772245267e-11,1.3329504850650818e-11,6.131815113637405e-12,2.776566593940889e-12,1.4764615148038582e-12,7.710475351751594e-13,4.035597903298195e-13,1.9884568897344552e-13,1.072188156271472e-13,6.812389956376305e-14
0.0,22,22.0,0.0,30.0,0.0,0.0,0.0,0.0,-13.0,0.0,2.0,0.0,0.0,0.0,4.3974969909790485e-11,3.3148900575734594e-11,2.7454584047096478e-11,1.958361579356111e-11,1.3724889909677292e-11,1.067861536723397e-11,6.867731827122254e-12,4.737254139443954e-12,3.045131268412024e-12,2.1481901045898265e-12,1.2900509071471859e-12,9.415531417554314e-13,6.20393630504128e-13,4.269925607433386e-13,2.7928051224240225e-13,1.8769150376707506e-13,1.212321166050901e-13,7.723900089431602e-14,4.624500311734651e-14,2.940296802811767e-14,1.8474718182659908e-14,1.0285175781492637e-14,5.344865103828062e-15,1.87165764085529e-15,3.2933871844417896e-15,2.1094451157722405e-15,6.3653118930567316e-09,3.743752343295922e-09,2.1109800422331795e-09,1.2729489203803157e-09,6.782862977721043e-10,3.9886363104532675e-10,2.1549302897413234e-10,1.0449108792248215e-10,5.2323483648375734e-11,2.5701869023285e-11,1.241942351428674e-11,6.007747240103952e-12,2.8497624077094553e-12,1.4292490676269198e-12,7.086725036116805e-13,3.622636179825269e-13,1.976603803922236e-13,1.3090861778457395e-13,4.7776787107423415e-14
0.0,23,23.0,0.0,30.0,0.0,0.0,0.0,0.0,-13.0,0.0,2.0,0.0,0.0,0.0,4.233169352097325e-11,3.439780188621953e-11,2.5671225281352467e-11,2.064277874749171e-11,1.4026139311811116e-11,1.0043658602234601e-11,6.7167915740988625e-12,4.842307936684571e-12,3.0171764796083155e-12,1.965878927728657e-12,1.2918011462101697e-12,8.802992130995858e-13,5.942234742524919e-13,3.8673179950373923e-13,2.515065663256214e-13,1.663543673899519e-13,1.1430293376033703e-13,7.333743400365585e-14,4.624500247604101e-14,2.8090829330725235e-14,1.5377709079150023e-14,1.070292645677477e-14,7.251205617472469e-15,4.73129849213706e-15,2.8920990206780977e-15,1.0484882146102859e-15,6.139186047060051e-09,3.71719146872331e-09,2.1617471168689505e-09,1.2582184181972771e-09,6.607574439939824e-10,3.73659191300355e-10,1.934285388712627e-10,1.0206654647531507e-10,5.171595926622994e-11,2.4260706746508617e-11,1.2092385993702121e-11,5.7303334491611535e-12,2.8259943561177263e-12,1.33023896281393e-12,6.843747305293023e-13,3.3628543788713796e-13,2.2866577019012605e-13,1.093407600724275e-13,4.988599368731168e-14
0.0,24,24.0,0.0,30.0,0.0,0.0,0.0,0.0,-13.0,0.0,2.0,0.0,0.0,0.0,4.0627744277538834e-11,3.271573749933595e-11,2.431775096121288e-11,1.8883641124722333e-11,1.3738349467546662e-11,9.59206304178522e-12,6.656824983043109e-12,4.505050166973682e-12,2.9956490897896205e-12,1.9044202853506708e-12,1.266489946049227e-12,8.370561202231386e-13,5.637396612473811e-13,3.9953934090988976e-13,2.5280889060143603e-13,1.706102050024889e-13,1.0717769685867459e-13,6.966045839880683e-14,4.1842661713098605e-14,2.572817325976471e-14,1.7875024246316398e-14,9.47389684829249e-15,6.429913458521157e-15,2.3301214579564336e-15,6.823552783103765e-16,9.131361801290468e-16,6.4707630768872695e-09,3.886888655240341e-09,2.2333044173544344e-09,1.2693792205960521e-09,6.93210574086606e-10,3.855938546246847e-10,2.0386680930057156e-10,1.0200260440072868e-10,5.1909481056642184e-11,2.4034613235449604e-11,1.2287275590205619e-11,5.440979484345928e-12,2.6081047814860755e-12,1.3087451820987625e-12,6.933920862081999e-13,3.571902112146027e-13,1.934092678757606e-13,9.643680878704718e-14,7.835509208211046e-14
0.0,25,25.0,0.0,30.0,0.0,0.0,0.0,0.0,-13.0,0.0,2.0,0.0,0.0,0.0,4.1716122172447606e-11,2.996585021625562e-11,2.3480312947223e-11,1.8876842795412524e-11,1.2415583357093906e-11,9.095313820532725e-12,6.279478134802148e-12,4.1212542601766864e-12,2.8175484509358484e-12,1.8336765075147395e-12,1.2075439431129316e-12,7.83065637827066e-13,5.380895610471937e-13,3.7215145732642155e-13,2.3960135200727193e-13,1.670694494899284e-13,1.0433972468341839e-13,7.014847558388638e-14,4.1491203746494417e-14,2.6785765792653613e-14,1.2457527512481693e-14,1.2347628351366779e-14,3.891926564529808e-15,3.5331721510879356e-15,3.1508721842852745e-15,1.2051519513102123e-15,6.125994277050115e-09,3.669952101160815e-09,2.245025452767677e-09,1.2530781153616584e-09,6.807329484048408e-10,3.9529219869208566e-10,2.0171619054241794e-10,1.0015490927075397e-10,4.8267545759954923e-11,2.3907062693542016e-11,1.1361938419623417e-11,5.45295573426376e-12,2.5354345791206835e-12,1.2886646704817496e-12,5.923286969568643e-13,3.4055889603800266e-13,1.7542937415687903e-13,1.0245917393783272e-13,5.5422382227158947e-14
0.0,26,26.0,0.0,30.0,0.0,0.0,0.0,0.0,-13.0,0.0,2.0,0.0,0.0,0.0,3.899691724156214e-11,3.379830741523397e-11,2.407160560631438e-11,1.8571505627116813e-11,1.3071321136400341e-11,8.645695990258435e-12,6.274287083253342e-12,4.028209721083895e-12,2.7735417375346787e-12,1.8136253498346515e-12,1.136833024452573e-12,7.665231699095659e-13,5.261199291141059e-13,3.468466741405692e-13,2.3139713093947705e-13,1.5122906688983713e-13,9.998309153424922e-14,6.787223552878576e-14,4.094136270479458e-14,2.502163319379897e-14,1.4069795553785108e-14,8.591170845947344e-15,5.290475198102454e-15,4.8122118337676295e-15,2.1458432798877415e-15,2.8178986345207044e-15,6.488628880738466e-09,3.862427155598514e-09,2.193385453194617e-09,1.1798080985737554e-09,6.626146617958968e-10,3.672578044553158e-10,1.9598222024022782e-10,9.913572755967886e-11,4.784371620470023e-11,2.45440114371565e-11,1.2031990888879738e-11,5.408977881123409e-12,2.4242967981771163e-12,1.2531617465705026e-12,6.14591514669223e-13,3.191038427365966e-13,1.8352121945890278e-13,8.979638901053745e-14,5.922608604406903e-14
0.0,27,27.0,0.0,30.0,0.0,0.0,0.0,0.0,-13.0,0.0,2.0,0.0,0.0,0.0,3.927399422843714e-11,3.0480529371575356e-11,2.4721649076421422e-11,1.759665011420013e-11,1.3237947899299068e-11,8.992665439806952e-12,6.055513122628424e-12,4.000182122566727e-12,2.6599725153875363e-12,1.6478343842270478e-12,1.1222681760376395e-12,7.305942223372157e-13,5.137974573223052e-13,3.271942388304731e-13,2.2451352274312205e-13,1.5106267069423799e-13,1.0371447492982483e-13,6.56798211052835e-14,3.7866704343587024e-14,2.3893310663809248e-14,1.600983260437863e-14,9.517208645398725e-15,4.946994237141514e-15,2.9327860862932278e-15,1.9249153718444978e-15,2.1047920065154117e-15,6.508309925304948e-09,3.714321221699679e-09,2.2946126628030802e-09,1.2501964834090259e-09,7.095646967482211e-10,3.559785782644929e-10,1.8665529002131488e-10,9.377222953425389e-11,4.6602698304197486e-11,2.3949907037888885e-11,1.1210527077514998e-11,5.094272507370467e-12,2.45968973382959e-12,1.108808866603477e-12,5.973584914665423e-13,2.9123894208035287e-13,1.7888789682618456e-13,1.0218041923629299e-13,4.8241859043775164e-14
0.0,28,28.0,0.0,30.0,0.0,0.0,0.0,0.0,-13.0,0.0,2.0,0.0,0.0,0.0,3.871721111969609e-11,3.023104142281847e-11,2.4903929669171476e-11,1.702035488273869e-11,1.2283223471146901e-11,8.720126218849225e-12,5.56413043697792e-12,3.8017031100531275e-12,2.6171009099989555e-12,1.6754344952872572e-12,1.0889350127071404e-12,6.854419854406537e-13,4.580751277719987e-13,3.3753053144903496e-13,2.1734650928251676e-13,1.475487639090528e-13,9.253834817509786e-14,6.140331333846087e-14,3.541508736133389e-14,2.2967751744656065e-14,1.4764221786183198e-14,7.718207677654983e-15,5.15238990140291e-15,1.7715756620630962e-15,1.5081502683325512e-15,8.858823123742322e-16,6.716209690869989e-09,3.820851161468881e-09,2.295363814967828e-09,1.2783471450432246e-09,6.887516151133139e-10,3.429334675770016e-10,1.8765514598006237e-10,9.317298563627286e-11,4.865531022849214e-11,2.2884511478825643e-11,1.120965605729356e-11,5.038764826526217e-12,2.4269208158511494e-12,1.1194072636877185e-12,5.559615529206026e-13,2.9720227178814753e-13,1.6179916339669912e-13,9.77006692269241e-14,4.600139988929734e-14
0.0,29,29.0,0.0,30.0,0.0,0.0,0.0,0.0,-13.0,0.0,2.0,0.0,0.0,0.0,3.642890220926096e-11,2.697265714151497e-11,2.125660960282233e-11,1.7082074848361282e-11,1.2835018790224105e-11,8.462282845314886e-12,5.5443710344875596e-12,3.859536632023627e-12,2.3627460088511944e-12,1.5684351575922827e-12,1.0038615505195767e-12,6.895289339804807e-13,4.479849468183677e-13,2.987795325357639e-13,2.0753035637607967e-13,1.3148636512280706e-13,9.151284061239634e-14,5.994568633460417e-14,3.7846249517168284e-14,2.1128981207844106e-14,1.2974595009865734e-14,1.0509507597806507e-14,4.533146583832322e-15,3.2000082297183708e-15,2.533475487631719e-15,3.0750118591367636e-15,6.429487392489539e-09,3.892741345319055e-09,2.0511358917244488e-09,1.1628465024312882e-09,6.507876877326531e-10,3.572622429768222e-10,1.7969411668639207e-10,9.124485399895224e-11,4.383575458485908e-11,2.2202875785662198e-11,1.0192307632851795e-11,5.031873368158731e-12,2.345932828839498e-12,1.1744004945514152e-12,5.64644688620267e-13,2.8575232242886093e-13,1.5537961993818285e-13,8.32306271490913e-14,5.609345245006625e-14
0.0,30,30.0,0.0,30.0,0.0,0.0,0.0,0.0,-13.0,0.0,2.0,0.0,0.0,0.0,3.735690481158347e-11,2.8326516604865734e-11,2.1708356357503525e-11,1.62813421852778e-11,1.2278100605198936e-11,8.117368805899344e-12,5.692397365738772e-12,3.5737062184547056e-12,2.4092743394386674e-12,1.5284119507203255e-12,9.852982610335304e-13,6.810571616616711e-13,4.504385556946752e-13,2.8049887595344756e-13,1.9150480291208986e-13,1.355322517442806e-13,8.672746163432388e-14,5.813966958821487e-14,3.688137417324516e-14,2.4051294558933043e-14,1.4183614822559937e-14,7.699569444701056e-15,6.234654924581242e-15,2.5915179057650396e-15,1.926996600870308e-15,9.882181712653318e-16,6.563780556291532e-09,3.947788277837077e-09,2.2455562908188824e-09,1.19043917585704e-09,6.583709837279832e-10,3.6243312683660945e-10,1.7241842118617243e-10,9.038525874642125e-11,4.18396946997895e-11,2.151822144928737e-11,9.89995231042847e-12,4.7602798114208745e-12,2.2976940763628645e-12,1.0730158531619058e-12,5.343791000894869e-13,2.760828363008024e-13,1.1518786879852128e-13,7.813688243837367e-14,2.497116080696467e-14
0.0,31,31.0,0.0,30.0,0.0,0.0,0.0,0.0,-13.0,0.0,2.0,0.0,0.0,0.0,3.650635038858425e-11,2.811223626880099e-11,2.186416352040501e-11,1.5659099418637857e-11,1.1462572651474946e-11,7.737336524405637e-12,5.18114431261369e-12,3.7280276929865e-12,2.3608048149252517e-12,1.5714901041976801e-12,9.76418682263827e-13,6.094434057104433e-13,4.212881991050201e-13,2.93592124679321e-13,1.9280143556657807e-13,1.2996931526174385e-13,8.0583200436647e-14,5.521325781473025e-14,3.5388750424307864e-14,2.3531185109242032e-14,1.3862703332308966e-14,8.271132771521255e-15,5.933301968723469e-15,3.3807395245942647e-15,2.7514370222414277e-15,-2.803689959470321e-16,6.615832297754584e-09,3.888102871352859e-09,2.194315293992907e-09,1.2867687419300389e-09,6.58216825377581e-10,3.407712794528522e-10,1.772545814490789e-10,8.810911302236056e-11,4.491990524641775e-11,2.1466047501666556e-11,9.97510342079875e-12,4.6973175630684534e-12,2.121992209567637e-12,9.923177896319422e-13,5.050349367583462e-13,2.649406730376986e-13,1.4302724617853896e-13,8.676817886657493e-14,4.6341623053391784e-14
0.0,32,32.0,0.0,30.0,0.0,0.0,0.0,0.0,-13.0,0.0,2.0,0.0,0.0,0.0,3.6295870818448785e-11,2.7723205375884685e-11,2.190287078008539e-11,1.6530247241208678e-11,1.1255824569077839e-11,7.831652163190415e-12,5.342733572868841e-12,3.4073407025673924e-12,2.2233068149193594e-12,1.398235889251088e-12,9.291008547783946e-13,6.292468504670719e-13,4.0939536094731025e-13,2.732405041628149e-13,1.8235169241978144e-13,1.2772032657355394e-13,7.747612778359673e-14,5.3560601677541196e-14,3.406482940570347e-14,1.8757087568220225e-14,1.1494748337337432e-14,1.0358110135839583e-14,5.071102741313226e-15,3.1346769080219045e-15,1.7192141191373236e-15,8.339882257769186e-16,6.8179860954317585e-09,3.826992905132687e-09,2.1139483659998287e-09,1.1557792983130955e-09,6.626198629819833e-10,3.1057436919836693e-10,1.6884978317625011e-10,8.840096057080567e-11,4.538305163067699e-11,2.1742030330764546e-11,9.879181287935257e-12,4.385468957890823e-12,2.066516115638581e-12,9.765251323675358e-13,4.837118118611211e-13,2.3860441502404116e-13,1.3648186929072246e-13,7.871440281009221e-14,3.4141535884084294e-14
0.0,33,33.0,0.0,30.0,0.0,0.0,0.0,0.0,-13.0,0.0,2.0,0.0,0.0,0.0,3.525294937205448e-11,2.589677501967832e-11,2.0520129447487917e-11,1.5134809780117394e-11,1.0767877618948462e-11,7.308358213721095e-12,5.266429660263954e-12,3.27473246138723e-12,2.1492607291965216e-12,1.4431888213363134e-12,9.091841223132233e-13,5.932625403820409e-13,3.595782985264055e-13,2.5633336326310895e-13,1.8465043517639127e-13,1.1584370315422507e-13,7.518495923118341e-14,5.2573666352998316e-14,3.308208353110391e-14,2.0569310593660646e-14,1.189152585016623e-14,9.472816207643648e-15,5.485806784328432e-15,2.9332448010364092e-15,6.283229785833326e-16,-2.6494699915403744e-16,6.800283783581359e-09,4.066314653944047e-09,2.1149063583414433e-09,1.2001696613064806e-09,6.494085335493834e-10,3.357657419843847e-10,1.660368410183794e-10,8.133381649877773e-11,4.1410217295548025e-11,1.9998214764107614e-11,9.182103410714445e-12,4.278214935194446e-12,2.0847691493516214e-12,9.618449225551044e-13,4.678578420829458e-13,2.252923315696128e-13,1.1901847316044439e-13,5.947276929717704e-14,4.532825891183912e-14
0.0,34,34.0,0.0,30.0,0.0,0.0,0.0,0.0,-13.0,0.0,2.0,0.0,0.0,0.0,3.52081591033881e-11,2.629808719720684e-11,2.0463592773403344e-11,1.5035618143353513e-11,1.0896400194856309e-11,7.2527459026169816e-12,5.050916298098575e-12,3.166209354627807e-12,2.0815466252764405e-12,1.356269100672639e-12,8.897199234535971e-13,5.904277874308572e-13,3.7614458306644745e-13,2.5389541708708463e-13,1.6267157728217854e-13,1.1130570051753262e-13,7.735726055879495e-14,4.8585038416080275e-14,3.236500175439616e-14,1.8608197132780467e-14,1.0801858821004692e-14,1.0442995070479188e-14,4.8894561930842965e-15,2.2352017701173716e-15,-3.15605993449115e-16,9.746648733553552e-16,7.218080531886081e-09,3.7221960159913796e-09,2.08408778700356e-09,1.1622066218690013e-09,6.480397028895676e-10,3.282817113678585e-10,1.608304302469231e-10,7.816183649730136e-11,4.058321922726742e-11,1.9785009675214598e-11,9.05216479599544e-12,4.147189769759514e-12,1.9653564758028713e-12,8.983234260074788e-13,4.4414096643420106e-13,2.2733147322249637e-13,1.2891404826335926e-13,6.979674015133238e-14,2.8513275591599465e-14
0.0,35,35.0,0.0,30.0,0.0,0.0,0.0,0.0,-13.0,0.0,2.0,0.0,0.0,0.0,3.2027515698249526e-11,2.603850329294048e-11,2.0128311926437423e-11,1.457597329928347e-11,9.330645121917235e-12,7.276241896187578e-12,4.804375743854214e-12,3.0993270822079632e-12,2.030609068034387e-12,1.2929476559219899e-12,8.670386087405551e-13,5.581766362570399e-13,3.565942864122199e-13,2.4617737044536635e-13,1.6313015691103262e-13,1.0545679859657665e-13,7.322562476846327e-14,4.8940431591897195e-14,3.067515624650677e-14,2.0428235160666102e-14,1.055988067603661e-14,7.917073972794749e-15,4.691401976976803e-15,3.4853222558321603e-15,2.5796620448372527e-15,2.067424848318129e-15,6.469934144702582e-09,3.714218896795402e-09,2.1940785094069112e-09,1.1505500264896135e-09,6.313309067519418e-10,3.0245783390338545e-10,1.5650096081053522e-10,7.981742873913882e-11,4.033383283123692e-11,1.9296306848537745e-11,8.843491574003222e-12,3.938560652313094e-12,1.9029360364732424e-12,8.541287165213904e-13,4.571633162841722e-13,2.0092111814583683e-13,1.0869150979918022e-13,7.295344441798212e-14,3.850077055618931e-14
0.0,36,36.0,0.0,30.0,0.0,0.0,0.0,0.0,-13.0,0.0,2.0,0.0,0.0,0.0,3.3753560465696785e-11,2.4120065635370704e-11,1.9469927063732533e-11,1.482812745512968e-11,9.990823780908002e-12,7.250223379226397e-12,4.68011586561372e-12,3.030491159814691e-12,1.9313495388164676e-12,1.2371937411541447e-12,8.090454163313689e-13,5.152221579839632e-13,3.549163127630911e-13,2.3210298907788715e-13,1.5768096341544808e-13,1.061584813409542e-13,7.110031795370401e-14,4.918144758124362e-14,2.9260792195704125e-14,2.001249298975912e-14,1.0366395016495954e-14,6.719906179690095e-15,3.1347264665139635e-15,2.173923442124822e-15,3.1213405549971383e-15,3.348106846714754e-16,6.289876151523895e-09,3.726307488906079e-09,2.0753235853822807e-09,1.135717746231306e-09,6.095804549080694e-10,3.0504917630965164e-10,1.5752889944028274e-10,7.770981318744375e-11,3.7453908142146256e-11,1.794697691848433e-11,8.545072899519393e-12,4.011397321324965e-12,1.7287665587019277e-12,8.640172913564059e-13,4.484747202487409e-13,2.3265383908268274e-13,1.1056673250863561e-13,8.543199559675185e-14,3.148738124708012e-14
0.0,37,37.0,0.0,30.0,0.0,0.0,0.0,0.0,-13.0,0.0,2.0,0.0,0.0,0.0,3.201881676649793e-11,2.5259216904820365e-11,1.8177257542129888e-11,1.2543166869805094e-11,9.94613326327884e-12,6.287772091594042e-12,4.671260905428165e-12,2.884632163732347e-12,1.9911115140618116e-12,1.198021616772245e-12,7.703986362336406e-13,5.003926622337052e-13,3.2944362502884886e-13,2.1559785223634936e-13,1.497053433523228e-13,9.661398432644943e-14,6.619971864795766e-14,4.577044961412323e-14,3.041746022077803e-14,1.8543265301510036e-14,8.356503055678597e-15,6.050279432618819e-15,4.93068842565868e-15,2.2846101951345614e-15,1.3814424679394687e-15,-1.4187973031178021e-16,7.12195242509884e-09,3.855220884532752e-09,2.272142447755244e-09,1.1389244875482646e-09,6.052576744437015e-10,2.9497425084222716e-10,1.4701016213315503e-10,7.891781740358546e-11,3.926522736516616e-11,1.7102100870780797e-11,8.711925759919157e-12,3.8916397067957964e-12,1.81214373659654e-12,8.02715705878932e-13,3.8618744076417155e-13,2.0967663904148444e-13,1.0352465031905644e-13,6.756783375307534e-14,2.968355421494108e-14
0.0,38,38.0,0.0,30.0,0.0,0.0,0.0,0.0,-13.0,0.0,2.0,0.0,0.0,0.0,3.0394760603360576e-11,2.4807020388589598e-11,1.734602678810498e-11,1.2744915940367377e-11,9.410179077162603e-12,6.541834125885537e-12,4.124478188940485e-12,2.87904995567371e-12,1.9021768508310028e-12,1.238002606062698e-12,7.452083309677513e-13,4.996997913318923e-13,3.293020656730788e-13,2.089768426701167e-13,1.5311103143005298e-13,9.608635619714329e-14,6.694510893109699e-14,4.487772470902464e-14,2.6080565225236512e-14,1.943637896919738e-14,1.1774039432882028e-14,5.844811545613708e-15,2.7570476132548347e-15,3.4832182693459804e-15,2.658370539473749e-16,-5.067197831231527e-16,7.170630883507893e-09,3.831433016864788e-09,2.109141986957919e-09,1.1353314334938877e-09,5.682953558153218e-10,3.134004449246156e-10,1.5536067618178452e-10,7.886738838277423e-11,3.784814452258221e-11,1.793757567701771e-11,7.848703093842842e-12,3.7698335965883335e-12,1.7910008436027037e-12,7.908854029919355e-13,4.0267316460766125e-13,2.090444785730607e-13,8.852149434124585e-14,5.39380928185963e-14,2.3245872730157007e-14
0.0,39,39.0,0.0,30.0,0.0,0.0,0.0,0.0,-13.0,0.0,2.0,0.0,0.0,0.0,2.965627911354711e-11,2.3043330811483027e-11,1.6971872364796995e-11,1.252733148654036e-11,8.954157023554497e-12,6.3918825175362535e-12,4.0907322862585445e-12,2.78574161803747e-12,1.8435252572895546e-12,1.1403716077478644e-12,7.429781235167945e-13,4.653585345745617e-13,3.2107172310280215e-13,2.0048713853888276e-13,1.516146490333994e-13,9.345951790687007e-14,6.639331693436026e-14,4.167682553668939e-14,2.871394667212389e-14,1.8981065164560347e-14,8.320413676543536e-15,7.68606742262487e-15,3.545579041858002e-15,1.3652308990115002e-15,1.6936828528452653e-15,1.707426743368937e-15,6.559372791008071e-09,3.940888538398885e-09,2.0754571955653823e-09,1.097247784453457e-09,5.949587334689956e-10,2.964991094439082e-10,1.4133381649099262e-10,7.651886628798481e-11,3.53480921514583e-11,1.6131381348661846e-11,8.117390914512877e-12,3.623157033545314e-12,1.6910665628469203e-12,7.601930841971184e-13,3.554529584934647e-13,2.1296386825433334e-13,1.1069816394465665e-13,5.284265706535301e-14,3.1624897830691767e-14
0.0,40,40.0,0.0,30.0,0.0,0.0,0.0,0.0,-13.0,0.0,2.0,0.0,0.0,0.0,2.9153400333425625e-11,2.2924764898771082e-11,1.7936512766527088e-11,1.257953504417154e-11,8.655891453683812e-12,6.098082273921949e-12,3.950297734722386e-12,2.7719760924168317e-12,1.6870970322574362e-12,1.054143510635698e-12,7.11592190239891e-13,4.5276888753592804e-13,2.963479070770408e-13,2.0099436239186951e-13,1.401028299590917e-13,9.715211698477019e-14,6.430879480851741e-14,3.960286664594662e-14,2.6991304110288913e-14,1.6870552373406117e-14,9.505540502840672e-15,6.738673344903377e-15,1.9675510830816733e-15,3.339521161303796e-15,2.0417210553998844e-15,1.1249138605618988e-15,6.708923216882909e-09,3.790012646512078e-09,2.0334982536865404e-09,1.1290763854796542e-09,5.808738412877335e-10,2.8319044438946404e-10,1.405628745437028e-10,7.019021534789437e-11,3.436840118310688e-11,1.6523442614576126e-11,7.43025018965342e-12,3.4920467787163306e-12,1.6287292585354136e-12,7.431897923578791e-13,3.5681352805251117e-13,1.630562347265619e-13,1.0364840497691053e-13,3.032128215054942e-14,2.116828172715968e-14
0.0,41,41.0,0.0,30.0,0.0,0.0,0.0,0.0,-13.0,0.0,2.0,0.0,0.0,0.0,2.812682533547813e-11,2.2314031619079017e-11,1.6649436859643648e-11,1.2054252657722202e-11,8.750112333792461e-12,5.7545721928204405e-12,3.812744295648235e-12,2.535999842587329e-12,1.645924218791281e-12,1.0455751463368984e-12,6.720803112010371e-13,4.615151665687517e-13,2.9684919192952257e-13,1.887153281717572e-13,1.282449451246199e-13,9.272270292251365e-14,6.305181138318919e-14,4.028293455391208e-14,2.6603188598326604e-14,1.5550425902699497e-14,1.0320769854107391e-14,6.70143586855572e-15,5.718396078166894e-15,2.6937230411668524e-15,1.2047160133165386e-15,2.4432117996344038e-15,6.7038660314360805e-09,3.820846863829941e-09,1.9919698244138983e-09,1.0880883307875828e-09,5.558042263822598e-10,2.798029685330524e-10,1.3492690457894112e-10,6.477444050656752e-11,3.375646840899047e-11,1.5629990339985784e-11,7.327603314853322e-12,3.334202498187274e-12,1.5773233679872293e-12,7.279404985543625e-13,3.38863642520587e-13,1.6961500025413492e-13,7.9704929069107e-14,5.623632788013916e-14,3.7801192652298304e-14
0.0,42,42.0,0.0,30.0,0.0,0.0,0.0,0.0,-13.0,0.0,2.0,0.0,0.0,0.0,2.790256932269873e-11,2.2160107512261148e-11,1.654118951191768e-11,1.17588825055227e-11,8.502207195373226e-12,5.690334880583462e-12,3.8057204656977214e-12,2.5460958480860376e-12,1.6141093687802415e-12,9.794418106110769e-13,6.686449553735933e-13,4.0976913956285015e-13,2.744745349522525e-13,1.9013833329327541e-13,1.2753211992689878e-13,8.160401609551814e-14,5.756557383533448e-14,3.9264571625717464e-14,2.453134297987685e-14,1.2242373179542592e-14,8.522594752112813e-15,6.254876898578469e-15,2.999249573494095e-15,1.8708684474858426e-15,3.030753617446856e-15,1.049945291541434e-15,7.071214185230191e-09,3.730052459737529e-09,2.0233636530058067e-09,1.028431336155512e-09,5.275670129195151e-10,2.800655737615687e-10,1.2935611381535984e-10,6.377256544433568e-11,3.312793461477323e-11,1.436352907026455e-11,7.120939018516439e-12,3.204245973306194e-12,1.5305276494148899e-12,7.255496446793357e-13,3.398020236277422e-13,1.5138622099952092e-13,8.217885081430616e-14,5.774511675814757e-14,2.2623176232086616e-14
0.0,43,43.0,0.0,30.0,0.0,0.0,0.0,0.0,-13.0,0.0,2.0,0.0,0.0,0.0,2.5834207021997464e-11,2.1164557458721246e-11,1.5325187688274994e-11,1.1054431053645954e-11,8.102519070641777e-12,5.641349470693902e-12,3.709288344162426e-12,2.354754349635528e-12,1.5607515873671512e-12,9.481127482916605e-13,6.319960750413241e-13,4.057733747733632e-13,2.6664974784309933e-13,1.7725631859039333e-13,1.25082085041852e-13,8.16122953611017e-14,5.6566603340871844e-14,3.758354130946283e-14,2.3932029183496632e-14,1.679154449577542e-14,1.1226114930472599e-14,6.198239591486295e-15,4.5949721019790755e-15,1.6032590905253428e-15,2.001302297077631e-15,-1.0353439564362984e-15,6.525655455405449e-09,3.5805320292067933e-09,1.8555557182470485e-09,1.0317432259124547e-09,5.396553566998931e-10,2.6215669622016235e-10,1.3515838968621952e-10,6.897539786817828e-11,3.1003786719356784e-11,1.411740860848912e-11,6.685680001256067e-12,3.0819222709824003e-12,1.5346249811893937e-12,6.506676785683695e-13,3.4308361784294547e-13,1.5891932965255514e-13,9.60841468498985e-14,6.426356443506715e-14,2.1977323135543233e-14
0.0,44,44.0,0.0,30.0,0.0,0.0,0.0,0.0,-13.0,0.0,2.0,0.0,0.0,0.0,2.539883978225369e-11,2.0009875912382306e-11,1.4961240389585445e-11,1.111040830264164e-11,7.337645333886026e-12,5.311623520154426e-12,3.607517099621619e-12,2.4010504426628522e-12,1.5188069679553478e-12,9.75586644763414e-13,5.571851052025155e-13,3.9957000620701744e-13,2.698963309433045e-13,1.7826714493106737e-13,1.2050286319076831e-13,8.515957586777861e-14,4.89026965304411e-14,3.836120466460534e-14,2.27748751020743e-14,1.3502514926379656e-14,9.167173158992795e-15,6.865840621367802e-15,4.623151131693434e-15,3.765941760231798e-15,-1.6211187870415598e-16,-4.0581188575387555e-18,6.412362971976261e-09,3.631587277591745e-09,1.9212090586455585e-09,1.0079629446697995e-09,5.333205810840577e-10,2.5981145225744894e-10,1.184391777253307e-10,6.055642281311624e-11,2.9704297054139104e-11,1.422388101085838e-11,6.535035632200267e-12,3.1147492176994527e-12,1.5095431398287877e-12,6.791131664016461e-13,3.00154625641845e-13,1.7716185400060504e-13,8.827360384661365e-14,4.1417465998762136e-14,2.888775961447905e-14
0.0,45,45.0,0.0,30.0,0.0,0.0,0.0,0.0,-13.0,0.0,2.0,0.0,0.0,0.0,2.5797436356205043e-11,1.7935688812156286e-11,1.4325347973406447e-11,1.0655213544385946e-11,7.529007997495733e-12,5.235550516046576e-12,3.4595784071302964e-12,2.1864888438000734e-12,1.427725129912555e-12,8.987203436646564e-13,5.377879235702595e-13,4.09348738685773e-13,2.5394332599227214e-13,1.8092333296416113e-13,1.1280317690702806e-13,8.198614019809669e-14,5.3956557234661443e-14,3.640074639385306e-14,2.5093446630578374e-14,1.5138411813173208e-14,8.721329906574654e-15,6.66119124459934e-15,5.451314853710659e-15,2.27522087102688e-15,2.680522917006749e-16,-5.524851632829365e-16,6.821332108074022e-09,3.70957914058328e-09,1.8066472862669739e-09,9.902069754795792e-10,5.060039145518858e-10,2.520716455665494e-10,1.2064998179392506e-10,6.049772037517449e-11,2.844954744702348e-11,1.4223022590468586e-11,6.497016356502124e-12,2.9871458020848637e-12,1.3490379355850907e-12,6.148564268145135e-13,3.1011671777839026e-13,1.625456890989871e-13,8.927349424391727e-14,6.995935268768368e-14,1.9633694368798416e-14
0.0,46,46.0,0.0,30.0,0.0,0.0,0.0,0.0,-13.0,0.0,2.0,0.0,0.0,0.0,2.4256835180976827e-11,1.8658874152681427e-11,1.2844599435454457e-11,1.0022231486130954e-11,7.205208729195928e-12,4.86149437191497e-12,3.2982947233732495e-12,2.249384327931854e-12,1.4779402345307185e-12,8.954267933697876e-13,5.803795079512387e-13,3.7094011611042103e-13,2.3482906242954105e-13,1.651270981476378e-13,1.0753029861814036e-13,7.737456798972185e-14,4.901346460194415e-14,3.237894955341749e-14,2.237369904650082e-14,1.5576839732018778e-14,1.0022549018404222e-14,5.852861103593601e-15,3.064844548404128e-15,1.2586257234420736e-15,1.3386048962488485e-15,1.2894239174939877e-15,6.793125519900941e-09,3.650420290389491e-09,1.89844558328671e-09,1.0005294005968008e-09,5.062870565615335e-10,2.410483612412225e-10,1.1512512625381179e-10,5.749680379939711e-11,2.8070557860684395e-11,1.3645931893835989e-11,6.782286705802262e-12,2.8878672013228717e-12,1.2785070020821837e-12,5.887751910541764e-13,2.9829534359897344e-13,1.3269717150505626e-13,6.506037368537738e-14,2.8128432805202128e-14,2.2148269939088952e-14
0.0,47,47.0,0.0,30.0,0.0,0.0,0.0,0.0,-13.0,0.0,2.0,0.0,0.0,0.0,2.3467541246125743e-11,1.8828694909669157e-11,1.3468748647930336e-11,9.984873537347261e-12,6.399001828817353e-12,4.502555723727117e-12,3.3055219709439576e-12,2.0974315250198636e-12,1.3203550880780912e-12,8.584556343034175e-13,5.500808392069535e-13,3.579957887074547e-13,2.286004252631913e-13,1.5827768820665012e-13,9.84465975616819e-14,7.586725912063083e-14,5.163861324018915e-14,3.448124193054522e-14,2.057053069769205e-14,1.3567431582834153e-14,8.430832574489295e-15,5.399178641978225e-15,1.765107498207689e-15,2.8727967530201262e-15,9.391183581504636e-16,4.679128213647775e-16,7.171052701351429e-09,3.4025504672601224e-09,1.8634055209757507e-09,9.558617505558095e-10,4.386141789032145e-10,2.259089842262849e-10,1.1177985387676912e-10,5.319563002818522e-11,2.7119478826047558e-11,1.28796643029326e-11,6.066792607813303e-12,2.6451162857108748e-12,1.3036583577386084e-12,5.974183026394701e-13,2.7712762180614624e-13,1.3975213935468596e-13,8.065433669099851e-14,3.8450759415619527e-14,1.489320631648074e-14
0.0,48,48.0,0.0,30.0,0.0,0.0,0.0,0.0,-13.0,0.0,2.0,0.0,0.0,0.0,2.2954193428579416e-11,1.645904310024849e-11,1.3102024276099433e-11,9.08495054911483e-12,6.773683905649156e-12,4.35809302749973e-12,3.0229763545949326e-12,2.019972649589957e-12,1.2716685459863853e-12,8.262986559915239e-13,5.271526914429926e-13,3.417299864361846e-13,2.3034895693578874e-13,1.560008959608312e-13,1.0068162068649971e-13,7.536861964191973e-14,4.5862761414342243e-14,3.061235457736792e-14,1.9748243972941085e-14,1.2612125616003606e-14,7.856911066028707e-15,5.358388143151452e-15,3.973176612625711e-15,2.312843088884886e-15,-1.0785649974950765e-16,1.0323072597586775e-16,6.659053000598542e-09,3.439308049964329e-09,1.8020460942551942e-09,9.281475489969748e-10,4.615080655229712e-10,2.101671773042238e-10,1.0490280985186715e-10,5.241687652006407e-11,2.5953813595847362e-11,1.1711134433634668e-11,6.0156901147121236e-12,2.739314898835617e-12,1.2220238149117087e-12,5.42725564921046e-13,2.768163371988269e-13,1.3004849256432868e-13,7.556160429836771e-14,2.2010000320416833e-14,1.898448364186741e-14
0.0,49,49.0,0.0,30.0,0.0,0.0,0.0,0.0,-13.0,0.0,2.0,0.0,0.0,0.0,2.1753077965787124e-11,1.5939096286795897e-11,1.2531557593932008e-11,8.845151808989398e-12,6.096202931802672e-12,4.568335817194126e-12,2.9589818322380378e-12,1.934936289440324e-12,1.2919140257935907e-12,7.919272800078546e-13,4.963316907739149e-13,3.191714225028709e-13,2.2319293298885954e-13,1.5044377753784747e-13,9.470514802390862e-14,6.916798999737336e-14,4.652540764833931e-14,3.30363391792791e-14,2.1491446758292987e-14,1.3012966978526773e-14,6.366637009175707e-15,6.732894637429003e-15,3.3775777102493774e-15,1.9908929484397843e-15,5.622351336731877e-16,9.75199494278464e-16,6.527859706838213e-09,3.769221428343615e-09,1.7276681616683515e-09,9.103924449001087e-10,4.674599608064322e-10,2.3099315877216643e-10,1.1323682321551606e-10,5.157698198935227e-11,2.5948606720326246e-11,1.2022344248064566e-11,5.610360643714641e-12,2.5044492527925442e-12,1.147348488848499e-12,5.408071473782535e-13,2.4962343065785835e-13,1.3097612166012582e-13,6.307287111974788e-14,3.9660928282134426e-14,4.254877433143148e-14
0.0,50,50.0,0.0,30.0,0.0,0.0,0.0,0.0,-13.0,0.0,2.0,0.0,0.0,0.0,2.0379852510869903e-11,1.639206949351151e-11,1.2027594840018856e-11,8.81531015559078e-12,6.464287803662303e-12,4.239864285700174e-12,2.874846522435454e-12,1.863862719636777e-12,1.212323171988802e-12,7.081035728107516e-13,4.906772022020924e-13,3.3799012165371437e-13,2.1500121409700822e-13,1.4032758618523912e-13,1.0042379299906136e-13,6.474252638183129e-14,4.4844578491960706e-14,3.249712040791793e-14,1.9237582010350693e-14,1.2363493158359032e-14,7.998002101843311e-15,4.910510827658652e-15,8.936471488083585e-16,2.987420832290292e-15,-7.091027479606679e-17,1.3525574427976004e-15,6.5933770502385946e-09,3.4053480044437448e-09,1.653971427873401e-09,8.333777302773439e-10,4.3332126679295255e-10,2.1001885270111823e-10,1.0050015426172562e-10,5.0421950213474714e-11,2.3953108436561913e-11,1.1988936390686523e-11,5.241458788330143e-12,2.460938952586257e-12,1.1292491230977632e-12,5.29756369856455e-13,2.310871416661069e-13,1.162036525403331e-13,5.542436878732806e-14,3.733188690079892e-14,1.891024904765509e-14
0.0,51,51.0,0.0,30.0,0.0,0.0,0.0,0.0,-13.0,0.0,2.0,0.0,0.0,0.0,2.0358841706516996e-11,1.5551707627301595e-11,1.1761900050643928e-11,8.057195462915384e-12,5.7690524926318465e-12,4.007222273582877e-12,2.737421516970854e-12,1.7495589032362523e-12,1.165552047713378e-12,7.187147362414127e-13,4.612881608312204e-13,3.167290668297524e-13,2.0063255083964513e-13,1.357626498052946e-13,8.305062567528801e-14,6.212976714190393e-14,4.533800953559483e-14,2.850971422956233e-14,1.954632257288673e-14,1.3442700841012306e-14,8.97888614919006e-15,5.394931546594677e-15,1.7634045012357902e-15,1.2407643765892314e-15,1.0229124009652037e-15,1.0764033652066335e-15,6.686384660706237e-09,3.2456564330787676e-09,1.7583003360274811e-09,8.425422755784511e-10,3.9755380039425673e-10,1.9498832800280069e-10,9.425259359733557e-11,4.83137156823041e-11,2.381710623639388e-11,1.1257406407584113e-11,4.842870651794508e-12,2.3676121867425383e-12,1.1138129799085978e-12,4.998121887866692e-13,2.2613733410748887e-13,1.151476978468448e-13,5.697226438137312e-14,3.154462968085037e-14,1.8253840457789767e-14
0.0,52,52.0,0.0,30.0,0.0,0.0,0.0,0.0,-13.0,0.0,2.0,0.0,0.0,0.0,1.8864926532119275e-11,1.4676270899712607e-11,1.1078032484401738e-11,7.835849985996644e-12,5.561519867050108e-12,3.840216883661622e-12,2.67854777910687e-12,1.7793165973042975e-12,1.0831151895342417e-12,7.084733774031407e-13,4.5085486033222555e-13,2.910160843641848e-13,1.95621287450168e-13,1.3203422577378728e-13,8.930948115810232e-14,5.998291332371914e-14,4.2689334177526166e-14,2.727388573569373e-14,1.814365519444568e-14,1.0764688046049392e-14,7.990067169422953e-15,5.633368559672046e-15,5.1534660007176264e-15,4.348629279709894e-17,1.1132481959373841e-15,1.2446250172163792e-15,6.805491276122351e-09,3.4170084992175685e-09,1.6294405461227742e-09,8.337882450584045e-10,3.7240319697643453e-10,1.8810449672673554e-10,9.941330610759812e-11,4.6998235044256096e-11,2.0735811909953616e-11,1.0722351699338469e-11,4.816888812477972e-12,2.27374509374654e-12,1.0490556912469774e-12,4.716394012115918e-13,2.4107780765845065e-13,1.244454123649894e-13,5.535197480207841e-14,2.938499793524582e-14,2.909609338021216e-14
0.0,53,53.0,0.0,30.0,0.0,0.0,0.0,0.0,-13.0,0.0,2.0,0.0,0.0,0.0,1.738774681963409e-11,1.4492774461606842e-11,1.090102878809773e-11,7.512349431025282e-12,5.556552563012414e-12,3.773008373472816e-12,2.486089732118594e-12,1.6949372342385832e-12,1.0714379308315176e-12,7.011934219096352e-13,4.255036141830558e-13,2.883413363065996e-13,2.0482186754324453e-13,1.255308228040522e-13,9.001807734075877e-14,5.77345314715313e-14,3.989427848812244e-14,2.929832063951502e-14,1.8118313482258717e-14,1.1814731210300041e-14,7.860817363716185e-15,4.123168376008498e-15,3.8284956244438765e-15,1.8034319943230905e-15,-2.399109679368544e-16,-1.0294012808335636e-16,6.5968731622498645e-09,3.2229683701696345e-09,1.6808712281997304e-09,7.449329688768032e-10,3.922137786310659e-10,1.8191183685129853e-10,9.131157225612445e-11,4.4132789587670286e-11,2.1136298875487637e-11,9.80186047412709e-12,4.8626691344869646e-12,2.200437558396399e-12,9.570355263396262e-13,4.897247325436e-13,2.375024872454301e-13,1.1686806188927015e-13,6.010489040188887e-14,3.0072345254622407e-14,1.0891459815397846e-14
0.0,54,54.0,0.0,30.0,0.0,0.0,0.0,0.0,-13.0,0.0,2.0,0.0,0.0,0.0,1.7435570308445258e-11,1.3564844578799113e-11,1.0099686787496659e-11,7.089788664593867e-12,5.442764173405485e-12,3.846715828231992e-12,2.342768969656344e-12,1.575618470241326e-12,9.909536425299874e-13,6.401348879757662e-13,4.372028610951513e-13,2.7525167191915053e-13,1.744318713811545e-13,1.2168707996279886e-13,8.528122400700999e-14,6.0306054542839e-14,3.9519838559154886e-14,2.604438662789767e-14,1.800781956164105e-14,1.0146248878299037e-14,8.233845787655327e-15,5.199176340816052e-15,6.310643871930787e-16,2.227529857436289e-15,4.038891973393625e-15,9.459130282116733e-16,6.352245794655675e-09,3.1824701663884407e-09,1.4886135573775569e-09,7.688938063034744e-10,3.456387501987008e-10,1.7130416272711495e-10,8.589976111923561e-11,4.233135395069282e-11,1.9080430624069893e-11,9.89306914415828e-12,4.397935769941134e-12,2.184745434458138e-12,9.564689038987234e-13,4.77346314068392e-13,2.273985790519515e-13,1.0860831390823289e-13,3.6557591961267765e-14,4.615329742866275e-14,-6.0047052988565064e-15
