Line_number,Fiducial,Easting,Northing,Height,Elevation,tx_pitch,tx_roll,tx_yaw,txrx_dx,txrx_dy,txrx_dz,rx_pitch,rx_roll,rx_yaw,S0Z_time_3.834e-04,S0Z_time_3.924e-04,S0Z_time_4.039e-04,S0Z_time_4.184e-04,S0Z_time_4.364e-04,S0Z_time_4.589e-04,S0Z_time_4.869e-04,S0Z_time_5.224e-04,S0Z_time_5.679e-04,S0Z_time_6.249e-04,S0Z_time_6.969e-04,S0Z_time_7.879e-04,S0Z_time_9.019e-04,S0Z_time_1.046e-03,S0Z_time_1.227e-03,S0Z_time_1.456e-03,S0Z_time_1.744e-03,S0Z_time_2.109e-03,S0Z_time_2.567e-03,S0Z_time_3.145e-03,S0Z_time_3.864e-03,S0Z_time_4.745e-03,S0Z_time_5.821e-03,S0Z_time_7.140e-03,S0Z_time_8.754e-03,S0Z_time_1.073e-02,S1Z_time_2.057e-05,S1Z_time_2.607e-05,S1Z_time_3.307e-05,S1Z_time_4.206e-05,S1Z_time_5.356e-05,S1Z_time_6.807e-05,S1Z_time_8.607e-05,S1Z_time_1.086e-04,S1Z_time_1.366e-04,S1Z_time_1.721e-04,S1Z_time_2.176e-04,S1Z_time_2.746e-04,S1Z_time_3.466e-04,S1Z_time_4.376e-04,S1Z_time_5.516e-04,S1Z_time_6.956e-04,S1Z_time_8.771e-04,S1Z_time_1.106e-03,S1Z_time_1.394e-03
0.0,0,0.0,0.0,30.0,0.0,0.0,0.0,0.0,-13.0,0.0,2.0,0.0,0.0,0.0,1.4192279209247234e-11,1.3111977299642275e-11,1.2874210673704323e-11,1.1817352558577843e-11,1.0946570054664501e-11,1.0324914590296034e-11,9.193977291816487e-12,8.764278839784194e-12,7.701794918279768e-12,6.872859593064487e-12,6.006825345852096e-12,4.671240329614864e-12,4.145940268250068e-12,3.543398731592338e-12,2.912800716859838e-12,2.1789937824853253e-12,1.8533570640556077e-12,1.3490449950507756e-12,9.885496879971217e-13,7.294982209359597e-13,4.909859969157873e-13,3.5470744604867237e-13,2.347617659047858e-13,1.5275351211562944e-13,9.862722626440065e-14,6.527975412701841e-14,1.5070665268067307e-10,7.31177619666045e-11,4.9295288047340724e-11,3.740937960457965e-11,2.8983598269824864e-11,2.2927483641870354e-11,1.881807260054086e-11,1.4566044951902613e-11,1.148499001730535e-11,8.325878946831056e-12,6.863509390105999e-12,5.498978764994208e-12,4.300710219470817e-12,3.0786056415482618e-12,2.267638217449061e-12,1.6211478271111382e-12,1.0872052901671818e-12,7.922442845339399e-13,5.383136637119703e-13
0.0,1,1.0,0.0,30.0,0.0,0.0,0.0,0.0,-13.0,0.0,2.0,0.0,0.0,0.0,1.2018580466388898e-11,1.060699563450444e-11,1.0835378684691297e-11,1.0305309946883193e-11,9.23009108374545e-12,8.646879432005714e-12,7.542644613651426e-12,7.1325313382890076e-12,6.707943254357285e-12,5.6296711029188974e-12,5.063871750991725e-12,4.322148348731743e-12,3.5136547958000882e-12,2.8280795909916432e-12,2.4785850722839127e-12,1.919416603454424e-12,1.5823282782154203e-12,1.0968777942956393e-12,8.819228569405771e-13,5.768132267169207e-13,4.535505172888039e-13,3.0544350672713803e-13,2.1399816743038573e-13,1.396762389182567e-13,9.112253095312901e-14,5.712856218338293e-14,2.1960207835613914e-10,9.134784894858007e-11,4.8289515504085785e-11,3.431937361463608e-11,2.3601508875039954e-11,1.9484412322610224e-11,1.475601562946653e-11,1.2195644913722219e-11,9.570798215033933e-12,7.329851868657547e-12,5.756298464086679e-12,4.584212494315936e-12,3.4101799855463847e-12,2.5053563701021918e-12,1.8067677131940509e-12,1.3802949645431444e-12,9.645052941212086e-13,6.520856743634388e-13,4.562213346779747e-13
0.0,2,2.0,0.0,30.0,0.0,0.0,0.0,0.0,-13.0,0.0,2.0,0.0,0.0,0.0,1.0045613413666742e-11,1.0062899052469304e-11,9.639747602391841e-12,8.274599573138108e-12,7.946197992989954e-12,7.55414274489417e-12,6.864641590718518e-12,6.0181300988218205e-12,5.4389016403173666e-12,4.807756266647031e-12,4.443001828931715e-12,3.66721498163831e-12,3.0881496655753664e-12,2.513843943068514e-12,2.1042374439425766e-12,1.642562145525993e-12,1.3522143628241218e-12,1.0216373523682144e-12,7.054324982606645e-13,5.327447325918332e-13,3.867771973855536e-13,2.6247496766518537e-13,1.8357839086019123e-13,1.216406773102638e-13,7.979790914828004e-14,5.129626115187603e-14,3.0583616134260156e-10,1.2256095118495402e-10,6.128239385256879e-11,3.246504800207323e-11,2.3660819005490676e-11,1.7071155128514283e-11,1.2343564533741888e-11,1.0293398606528946e-11,8.16174741322371e-12,6.479521181293953e-12,4.8631476421087125e-12,3.784027029379011e-12,2.873495706596663e-12,2.2387375063081274e-12,1.5740879094750938e-12,1.142718915974941e-12,7.856873600711586e-13,5.644701258520049e-13,3.952266961594297e-13
0.0,3,3.0,0.0,30.0,0.0,0.0,0.0,0.0,-13.0,0.0,2.0,0.0,0.0,0.0,8.627116792734139e-12,8.341679995084018e-12,8.042005887740125e-12,7.527994158126199e-12,6.787556116257202e-12,6.724274134021288e-12,6.002700145845603e-12,5.310098096386136e-12,4.901445660410934e-12,4.0636423414400805e-12,3.702857890510609e-12,3.1840105266702766e-12,2.6318813349631233e-12,2.202944402286894e-12,1.7189513603666566e-12,1.4460359423298057e-12,1.1197474329265474e-12,8.68978950644561e-13,6.747524596068435e-13,4.647101880152368e-13,3.3642751856898315e-13,2.5410091103090817e-13,1.5670449001389568e-13,1.1139908751695084e-13,7.383198865096132e-14,4.653137034011933e-14,3.898021483131592e-10,1.7751914413127614e-10,7.82102064963746e-11,4.0274696447761793e-11,2.3024788438126383e-11,1.5416799959719876e-11,1.1433269142487633e-11,9.072760791053166e-12,7.193769478706804e-12,5.569447351069977e-12,4.193888631656843e-12,3.1913049849297216e-12,2.451691864448408e-12,1.763459932639814e-12,1.2615911881676213e-12,9.54229712037364e-13,6.956684746223925e-13,4.61690536566253e-13,3.5544295518717453e-13
0.0,4,4.0,0.0,30.0,0.0,0.0,0.0,0.0,-13.0,0.0,2.0,0.0,0.0,0.0,7.58935410425925e-12,7.904590468518065e-12,6.93768192253763e-12,6.3731601717661705e-12,5.714628211120643e-12,5.432130191535928e-12,5.1960422951755905e-12,4.714171101101187e-12,4.277312882002003e-12,3.5554352693084725e-12,2.9569480112886565e-12,2.544935089425525e-12,2.2251456768659482e-12,1.875169454541111e-12,1.5296102590599414e-12,1.297106984824617e-12,1.042364413503837e-12,7.445154391924787e-13,5.709899109426937e-13,4.0096606600256853e-13,3.0389334558974924e-13,2.041653004021573e-13,1.4215209377942845e-13,1.0189540400450481e-13,6.532706701026634e-14,4.3988707040893164e-14,4.442213376947257e-10,2.356092128505611e-10,1.0469042422191737e-10,4.921054361048837e-11,2.5634877048382115e-11,1.4519266634009633e-11,1.0872609964640452e-11,7.94729969800295e-12,6.309082463546667e-12,4.8481593361325095e-12,3.817196408247571e-12,2.739334829961506e-12,2.2306367296906593e-12,1.4972074277823258e-12,1.2027162560606692e-12,8.131011334030924e-13,5.830284223580904e-13,4.2729654596948687e-13,2.7113449647565145e-13
0.0,5,5.0,0.0,30.0,0.0,0.0,0.0,0.0,-13.0,0.0,2.0,0.0,0.0,0.0,6.498093451088852e-12,6.314202636763371e-12,5.938182936786366e-12,5.7486815483749465e-12,5.3926907712851046e-12,4.739018505919801e-12,4.419418481659906e-12,3.9147587176920845e-12,3.536031333057311e-12,3.154918428138231e-12,2.829143272201123e-12,2.413179268947099e-12,1.886702129688387e-12,1.5994440952006309e-12,1.356701014893998e-12,1.176096334758682e-12,8.408157500699841e-13,6.908641672577161e-13,5.000066306749157e-13,3.723182635160476e-13,2.561278528075227e-13,1.936451155255663e-13,1.3451216092819418e-13,9.032781893602556e-14,5.917638425657979e-14,3.9242120820991773e-14,5.259873156515295e-10,2.93120642992917e-10,1.4056022864658925e-10,6.755383707521216e-11,3.170993816325825e-11,1.6026270430245356e-11,1.0204800664094112e-11,7.432311917659458e-12,5.384843060436535e-12,4.303551601821081e-12,3.269332174973753e-12,2.3754413635248875e-12,1.7536013165932631e-12,1.318800174923306e-12,9.452513711981148e-13,6.892504691747416e-13,5.266843818779143e-13,3.621542908138916e-13,2.4472285845525213e-13
0.0,6,6.0,0.0,30.0,0.0,0.0,0.0,0.0,-13.0,0.0,2.0,0.0,0.0,0.0,6.19680917400077e-12,5.688875749151564e-12,5.456192782729013e-12,4.920677399233325e-12,4.67407202723612e-12,4.276033812436646e-12,3.8726491917145846e-12,3.71911119853335e-12,2.898872862420152e-12,2.7200346652482376e-12,2.3803100540193453e-12,2.0533810302164333e-12,1.714717045803662e-12,1.4871857011037455e-12,1.1983338067633358e-12,9.954457988283887e-13,7.544553306858393e-13,6.133705454123178e-13,4.4112910587664513e-13,3.3255348301723015e-13,2.2660833433973212e-13,1.6241212708475849e-13,1.1402134381097503e-13,7.808561988101675e-14,5.287465447857057e-14,3.656036056652175e-14,5.831026143949178e-10,3.0875226595053144e-10,1.674005797055978e-10,8.386335217329346e-11,3.953109808823872e-11,1.912634935289542e-11,9.86568570533929e-12,7.464693864623033e-12,5.309327746368915e-12,3.6936908121369685e-12,2.689812751935998e-12,1.996727747055612e-12,1.6489564480330284e-12,1.1626517275125475e-12,8.893603629307095e-13,6.203146925006521e-13,4.559690183929094e-13,3.0844531917734086e-13,2.037592058596254e-13
0.0,7,7.0,0.0,30.0,0.0,0.0,0.0,0.0,-13.0,0.0,2.0,0.0,0.0,0.0,6.027560870299955e-12,5.014079815079419e-12,4.709693030749471e-12,4.483943332273577e-12,4.180427364193539e-12,3.5898257212275764e-12,3.419473580073081e-12,2.9290974855344923e-12,2.810672754087358e-12,2.481999083678691e-12,2.1202934554232772e-12,1.7846279456124053e-12,1.4973814374271195e-12,1.216995782618736e-12,1.090494110265562e-12,8.477274444868962e-13,6.485495377050579e-13,4.952473797395863e-13,3.8922167593520487e-13,2.799029568218047e-13,2.1541189508319424e-13,1.584949081145895e-13,1.0983133208353307e-13,7.081474479089697e-14,4.8791531612879576e-14,3.244402416435441e-14,5.858114763658401e-10,3.456213263164077e-10,1.9140849383716126e-10,9.801492302156182e-11,4.9224098066754095e-11,2.3420544976421846e-11,1.1818644813307126e-11,7.0445615933375914e-12,4.527026253601844e-12,3.3734298347474733e-12,2.5361054100970415e-12,1.9319590168738165e-12,1.4866324117532995e-12,1.068872641125412e-12,7.934695500900692e-13,5.369559833598056e-13,3.9017218538899125e-13,2.756028477239292e-13,1.944624749294978e-13
0.0,8,8.0,0.0,30.0,0.0,0.0,0.0,0.0,-13.0,0.0,2.0,0.0,0.0,0.0,5.7206644616331076e-12,5.177952707312791e-12,4.455837003427159e-12,4.0468534945071026e-12,3.582924698025851e-12,3.4530222640967238e-12,2.933726993034724e-12,2.7792114411865847e-12,2.428684565811112e-12,2.1375897337145047e-12,1.829321532254622e-12,1.6834217103908796e-12,1.403749080340362e-12,1.0918523632931335e-12,9.351521393292432e-13,7.522979680038299e-13,6.154509642057786e-13,4.770234729237163e-13,3.5854334964283935e-13,2.7134386241795316e-13,1.8470642371167827e-13,1.351281009362761e-13,9.627190179224672e-14,6.856672084300901e-14,4.345067216314699e-14,3.076944723432126e-14,6.03750225193172e-10,3.640888194640024e-10,2.220510938837736e-10,1.1676698285320623e-10,5.88891563405978e-11,2.8805628157000992e-11,1.3962278203224e-11,7.393441394670767e-12,4.773764901785289e-12,3.0993823905088047e-12,2.1803521346573055e-12,1.668720389897229e-12,1.2737841510649601e-12,9.19929108580622e-13,6.816599222412989e-13,5.165665988801922e-13,3.316363501891718e-13,2.3797566423027194e-13,1.7342175371892357e-13
0.0,9,9.0,0.0,30.0,0.0,0.0,0.0,0.0,-13.0,0.0,2.0,0.0,0.0,0.0,5.756810896991554e-12,5.067638976379535e-12,4.48496710552284e-12,4.0576277345117126e-12,3.3332465673654455e-12,2.9750875187276245e-12,2.763409659572409e-12,2.485907817323835e-12,2.115192691450219e-12,1.936727587666489e-12,1.6712309623152157e-12,1.448724838095338e-12,1.276916348126202e-12,1.047289944250563e-12,8.384812897799263e-13,6.510209149980079e-13,5.222264956298763e-13,3.925512281360937e-13,3.2397515153459147e-13,2.350846549802487e-13,1.7179273204169513e-13,1.1831354944942944e-13,8.193472191832353e-14,5.847058772046894e-14,3.8641783007136806e-14,2.8229983849794976e-14,6.525888932004402e-10,3.7872880949704624e-10,2.334614120968843e-10,1.35003091339715e-10,7.040429053807242e-11,3.1958148236552215e-11,1.6366179577775805e-11,8.250961643388801e-12,4.537126416876548e-12,3.014344251572094e-12,2.0733934597206605e-12,1.4682307337811197e-12,1.0852553049755868e-12,8.270364466189966e-13,5.5466818995191e-13,4.537099915414415e-13,2.8472812594249044e-13,2.2888766130348785e-13,1.3211627592386261e-13
0.0,10,10.0,0.0,30.0,0.0,0.0,0.0,0.0,-13.0,0.0,2.0,0.0,0.0,0.0,5.9539912517022865e-12,5.040773321588843e-12,4.127669515633589e-12,3.721538737809666e-12,3.130761500418776e-12,2.643924019709585e-12,2.454329641278818e-12,2.042197377129776e-12,1.852413794269034e-12,1.711252148479538e-12,1.4554562615312681e-12,1.3011747016097477e-12,1.037471085067459e-12,8.887603539322721e-13,7.125864694181816e-13,5.902983507192699e-13,4.807620469954119e-13,3.610739204570312e-13,2.885178820575218e-13,2.1289544808209949e-13,1.5195075310044778e-13,1.1556218292848614e-13,7.853433202769008e-14,5.279944266712019e-14,3.683602338089503e-14,2.2608892063902235e-14,6.573271748333981e-10,4.1079779819430426e-10,2.51835472455442e-10,1.373489085681099e-10,8.105493797179999e-11,3.8947476198816856e-11,1.8857513540328915e-11,9.635428535591174e-12,4.953145777071895e-12,2.8958517309364578e-12,1.9403633515834333e-12,1.4732371205261327e-12,1.0646499262186419e-12,7.750945621659595e-13,5.37323091162612e-13,3.8337653434100865e-13,2.733610521117596e-13,1.913433497120432e-13,1.3035914610482654e-13
0.0,11,11.0,0.0,30.0,0.0,0.0,0.0,0.0,-13.0,0.0,2.0,0.0,0.0,0.0,6.089755663646377e-12,4.984448376136463e-12,4.3820801685780225e-12,3.451253052580359e-12,2.9780507237708995e-12,2.5085187755010796e-12,2.249375634135023e-12,1.95939265268596e-12,1.6893753138972936e-12,1.5080281525545493e-12,1.350818543788046e-12,1.1137850599182225e-12,9.723004729576976e-13,8.199790028289079e-13,6.829023306094091e-13,5.382233076550683e-13,4.278064979686899e-13,3.2302540897434743e-13,2.495766699106352e-13,1.9305151510658102e-13,1.3795048623533764e-13,1.0640865962107855e-13,7.06184357620273e-14,4.756858891996154e-14,3.245885543544312e-14,2.2638061072610384e-14,6.733148942097705e-10,4.146475956998637e-10,2.5489010599762515e-10,1.5891439230594118e-10,8.739261076181958e-11,4.507165879879089e-11,2.2444845603825107e-11,1.1068668441194694e-11,5.5566012177441525e-12,3.0531315892922056e-12,1.8390388049398357e-12,1.282531335958007e-12,9.525170052564296e-13,6.852767329992618e-13,5.263411411722279e-13,3.4770356374364486e-13,2.3770457795594724e-13,1.6207217873939684e-13,1.0412565081109008e-13
0.0,12,12.0,0.0,30.0,0.0,0.0,0.0,0.0,-13.0,0.0,2.0,0.0,0.0,0.0,6.694669776084514e-12,5.39746234406669e-12,4.303426811916339e-12,3.471009921839962e-12,3.0770723652714756e-12,2.374518205227604e-12,2.144205364279341e-12,1.8109293533669646e-12,1.5637872825332594e-12,1.3799508861375448e-12,1.1859291343856233e-12,9.89639574652676e-13,8.246915942370119e-13,7.052645768843073e-13,5.636900371652605e-13,4.635363900584594e-13,3.75859218964762e-13,2.775387514783895e-13,2.2374750306180901e-13,1.707629585699221e-13,1.3022652297675816e-13,9.208465063590169e-14,6.556506902733145e-14,4.5125576224696036e-14,3.1717477619174365e-14,2.3853243399868772e-14,6.806653377538629e-10,4.585706873243696e-10,2.7445380288954577e-10,1.7179377776915196e-10,9.444985346515726e-11,5.0767466338766457e-11,2.6178766226527355e-11,1.2339225337015707e-11,6.2612897198375384e-12,3.19903896207104e-12,1.830928437349662e-12,1.2091599131824414e-12,8.034803706009654e-13,6.463094449200174e-13,4.312934430211324e-13,3.188092172789639e-13,2.411786277075584e-13,1.7777591973744634e-13,1.1789626558264872e-13
0.0,13,13.0,0.0,30.0,0.0,0.0,0.0,0.0,-13.0,0.0,2.0,0.0,0.0,0.0,6.754972897111692e-12,6.0283480695349925e-12,4.167284894596402e-12,3.5816235985236748e-12,2.9992279724546897e-12,2.327285001843219e-12,2.0519448600719073e-12,1.6201343903408906e-12,1.507182475415592e-12,1.2415475944598911e-12,1.0919158147542617e-12,8.974024060862867e-13,7.977226572082622e-13,6.651185021715738e-13,5.225143800936859e-13,4.291856346614457e-13,3.4228637893788476e-13,2.8419044151843804e-13,2.1677213930678098e-13,1.5855933989595351e-13,1.176793304143045e-13,8.382510302945352e-14,6.05818407321033e-14,4.2204786128169496e-14,2.6280932059771725e-14,1.9843245796665015e-14,6.765977943752719e-10,4.4087824370737253e-10,2.821936566289313e-10,1.700756256981942e-10,1.0151184235290661e-10,5.637485896853567e-11,2.906278570326727e-11,1.4449595104581068e-11,6.9405730352974e-12,3.545844838828918e-12,1.870483532370843e-12,1.102151796510218e-12,7.580774029228288e-13,5.815454654554276e-13,3.8322738159937175e-13,2.751008887121501e-13,2.1263176940428834e-13,1.343680729457511e-13,1.0814934569566398e-13
0.0,14,14.0,0.0,30.0,0.0,0.0,0.0,0.0,-13.0,0.0,2.0,0.0,0.0,0.0,7.55726229798954e-12,6.22107486218919e-12,5.345765556651954e-12,3.695656075614487e-12,3.010155900071988e-12,2.295845509516256e-12,1.887264745724623e-12,1.535007346660093e-12,1.3133386103850457e-12,1.135176596578006e-12,9.658152453319568e-13,7.987125149674573e-13,6.917762505516393e-13,5.8016131589254e-13,4.757258934256747e-13,3.8778808375561526e-13,3.084401507751788e-13,2.4677351674364957e-13,1.7589372160966872e-13,1.388868078974704e-13,1.0599127315677289e-13,7.829666362909162e-14,5.151693156571296e-14,3.9053700777205004e-14,2.6958346170147876e-14,1.7482454430126047e-14,7.476349416471561e-10,4.6509254908893147e-10,2.8339285158510193e-10,1.7071784910707077e-10,1.0789016616895678e-10,6.224809267299111e-11,3.029646818976636e-11,1.6750499612706982e-11,8.029794077782356e-12,3.846581171771167e-12,1.8884503730667762e-12,1.145431690995219e-12,7.177722070667389e-13,5.485911900515076e-13,3.6174404564340955e-13,2.6522061777697777e-13,1.7356997102957925e-13,1.2812134233597597e-13,8.310889088638033e-14
0.0,15,15.0,0.0,30.0,0.0,0.0,0.0,0.0,-13.0,0.0,2.0,0.0,0.0,0.0,8.317667811881653e-12,6.498232820452343e-12,5.153575150976728e-12,4.1705857633614855e-12,2.9530907406207064e-12,2.348593181274024e-12,1.891924075633113e-12,1.5429412551651777e-12,1.231892766915802e-12,1.059159852462325e-12,8.700692122836073e-13,7.622031539231397e-13,6.224563612634591e-13,5.46909950979932e-13,4.585485320354688e-13,3.5323648890058597e-13,2.737940264362234e-13,2.2168518808895198e-13,1.6216215264818992e-13,1.2942178144203334e-13,9.179222756043692e-14,7.100796456418535e-14,5.3007892084271133e-14,3.293486235153985e-14,2.2292563344329718e-14,1.435730003265405e-14,7.075824073787367e-10,4.644587406215631e-10,3.0895320466976227e-10,1.881392506308941e-10,1.1183622198966446e-10,6.29062800896245e-11,3.4887974164191586e-11,1.9104955807311073e-11,9.094888189597836e-12,4.19281478215923e-12,2.191004860925992e-12,1.1172438790841306e-12,6.768729662514547e-13,4.5324281349605834e-13,3.2603271221996046e-13,2.2255676981113968e-13,1.7087398918440333e-13,1.0910073838302349e-13,9.53646999229802e-14
0.0,16,16.0,0.0,30.0,0.0,0.0,0.0,0.0,-13.0,0.0,2.0,0.0,0.0,0.0,8.782518522347694e-12,7.059721792564818e-12,5.760176076469431e-12,4.368731252202129e-12,3.147416450146731e-12,2.419829909469384e-12,1.8962208689511956e-12,1.492544340289549e-12,1.1994718221044005e-12,1.015599451512074e-12,8.275106547400062e-13,7.165960154291826e-13,5.676085927813963e-13,4.990040234883147e-13,4.099709914179949e-13,3.42433340890601e-13,2.6627139169797607e-13,2.0147188194526616e-13,1.6055102929097072e-13,1.154985363688758e-13,9.30032258547909e-14,6.057320264040529e-14,4.339447763106002e-14,3.1585611477304256e-14,2.3311121334720836e-14,1.2602214802430245e-14,7.697957993510182e-10,4.752596069633826e-10,3.0031163073144593e-10,1.9129896823815703e-10,1.1239805130114173e-10,6.929610367358961e-11,3.748422825166353e-11,2.0487525504766313e-11,1.0060317509943567e-11,4.6858598022543845e-12,2.290982089601915e-12,1.1619515723605121e-12,6.889545114004199e-13,4.590245711332061e-13,3.1089480801720423e-13,2.146417951894781e-13,1.3828911955134816e-13,1.1135801331938713e-13,7.114320819497497e-14
0.0,17,17.0,0.0,30.0,0.0,0.0,0.0,0.0,-13.0,0.0,2.0,0.0,0.0,0.0,8.931993761005455e-12,7.462457842214235e-12,5.727310335292896e-12,4.430147158536386e-12,3.3701623958619603e-12,2.6031380799984217e-12,1.874624229933488e-12,1.5078311145889617e-12,1.0648015479118665e-12,9.333191234849242e-13,7.274558300006997e-13,6.628459372747351e-13,5.199912805036016e-13,4.4598941828214916e-13,3.5610430220266593e-13,2.909848381355353e-13,2.355496413191703e-13,1.8264985908680289e-13,1.4279925671975814e-13,1.050229688561573e-13,8.668383107461606e-14,5.740447859215819e-14,4.320241167037759e-14,3.291357711627836e-14,2.0474785378041943e-14,1.4385005243783212e-14,7.829413187371357e-10,4.965299408396772e-10,3.146704617899946e-10,1.8788048999652247e-10,1.2259824883514703e-10,7.059126654641936e-11,4.063363970662266e-11,2.2766511649479477e-11,1.0835040910039276e-11,5.5603295302285975e-12,2.5369575750884412e-12,1.2760608531025598e-12,7.026637433447286e-13,4.2100943885951366e-13,3.0202747819479956e-13,2.070941007011684e-13,1.3050252911369613e-13,1.0162695408874455e-13,6.728077421073995e-14
0.0,18,18.0,0.0,30.0,0.0,0.0,0.0,0.0,-13.0,0.0,2.0,0.0,0.0,0.0,9.547004060131681e-12,8.502670829722154e-12,5.999386605656691e-12,5.024417503860164e-12,3.857086226317081e-12,2.6864233713840386e-12,1.9336236006326745e-12,1.4262990819880666e-12,1.1013347496482435e-12,8.435852048554147e-13,6.779616802858688e-13,6.118412198767264e-13,4.854038622787416e-13,4.0537621978818495e-13,3.2370438727059585e-13,2.733067446168548e-13,2.053105111122991e-13,1.6833387984758133e-13,1.3633875042532352e-13,9.78067448087764e-14,7.230425318679382e-14,5.282890617510787e-14,3.867878839025267e-14,2.5205742240977888e-14,1.822199204404e-14,1.228078797347062e-14,7.821251251907622e-10,5.007333895064362e-10,3.1281634834474887e-10,1.890778451999009e-10,1.286481155923024e-10,7.405423235577108e-11,4.155985604253047e-11,2.224737022070247e-11,1.2054166610835863e-11,6.146038785631092e-12,2.743847392484637e-12,1.338230277811407e-12,6.700107154891485e-13,3.933231973855425e-13,2.676362077258342e-13,1.5995910293157448e-13,1.2222513260871107e-13,7.364917688405147e-14,4.6869441324724443e-14
0.0,19,19.0,0.0,30.0,0.0,0.0,0.0,0.0,-13.0,0.0,2.0,0.0,0.0,0.0,1.0143213230477061e-11,8.883551860319305e-12,6.611765262743443e-12,5.255337882471594e-12,3.862274162521169e-12,2.897432050427759e-12,2.0178671349049427e-12,1.477576149129867e-12,1.1015168016968046e-12,8.59396459321151e-13,6.799331695118106e-13,5.487596862042927e-13,4.507042018333596e-13,3.630467818194247e-13,3.058036395556373e-13,2.5484173765650455e-13,1.9914558761283964e-13,1.504527511479008e-13,1.2015478002758438e-13,8.787114553871186e-14,6.656489639218771e-14,4.6794488405967564e-14,3.573999046458965e-14,2.5464781155874302e-14,1.7332251414140435e-14,1.4412417300551362e-14,7.870292501355962e-10,4.933927826705676e-10,3.2711366443247263e-10,1.9531255381461674e-10,1.3597756876599403e-10,7.300838179224762e-11,4.651994453271109e-11,2.4173829394001014e-11,1.3438032524329208e-11,6.847202870150097e-12,3.160730208639593e-12,1.4191214333459377e-12,6.942783216717842e-13,4.223264125880621e-13,2.3524647806001757e-13,1.953861419315927e-13,1.393396217798603e-13,8.31763882272508e-14,5.904479745011767e-14
0.0,20,20.0,0.0,30.0,0.0,0.0,0.0,0.0,-13.0,0.0,2.0,0.0,0.0,0.0,1.112928378906053e-11,9.128023380301188e-12,7.719771785713501e-12,5.535312167773355e-12,4.18532670117986e-12,2.862917983059175e-12,2.1301429988768117e-12,1.5361852003816374e-12,1.0729212000833937e-12,8.080864132078284e-13,6.250078621489659e-13,4.850234115475989e-13,4.2675046129833905e-13,3.259150561896772e-13,2.751843014649318e-13,2.1735732326253768e-13,1.7286014223787546e-13,1.3846347783531989e-13,1.0757339601465013e-13,8.310643043016206e-14,5.988242956470247e-14,4.255906048635078e-14,3.35264955123757e-14,2.352986827652009e-14,1.6357549742259463e-14,1.025749838505202e-14,8.093289912658818e-10,5.031719663085508e-10,3.293401504649691e-10,2.0106634466740992e-10,1.2335379983485434e-10,7.726093834284983e-11,4.350042462988136e-11,2.7163611965280387e-11,1.4454553506988688e-11,6.993229274344338e-12,3.5073332795207145e-12,1.5494336552690513e-12,7.583402873821316e-13,4.066867174286132e-13,2.603373903079546e-13,1.611239993207051e-13,1.0600304148602178e-13,5.95636046146555e-14,3.176307259063253e-14
0.0,21,21.0,0.0,30.0,0.0,0.0,0.0,0.0,-13.0,0.0,2.0,0.0,0.0,0.0,1.1746273634164474e-11,9.391872598769623e-12,7.604830391608707e-12,5.949842869141518e-12,4.324274599225606e-12,3.110194315191539e-12,2.341622053607529e-12,1.6375585319463331e-12,1.1662765501207516e-12,8.21100555670397e-13,6.190883669708834e-13,4.755279177403566e-13,3.965568013029045e-13,3.1532222387515123e-13,2.590542976082611e-13,2.0222936515515366e-13,1.647404766378155e-13,1.2905527195757617e-13,9.488521323005216e-14,8.015089392173675e-14,5.601201294913693e-14,4.339359571076325e-14,2.875314025507148e-14,2.2198227218419804e-14,1.4990427137799255e-14,8.650384552521845e-15,8.630957265712717e-10,5.143180408323438e-10,3.180213092877166e-10,2.0337451653164835e-10,1.2677044457930722e-10,7.990313702572078e-11,4.7569284752842916e-11,2.8253429655386426e-11,1.5388360454059667e-11,8.025205577361214e-12,3.9291346753298844e-12,1.752431165048335e-12,7.645551699762611e-13,4.235541757882976e-13,2.495846857269819e-13,1.581679622725043e-13,9.008389177375406e-14,5.6314953683517953e-14,5.349810943312973e-14
0.0,22,22.0,0.0,30.0,0.0,0.0,0.0,0.0,-13.0,0.0,2.0,0.0,0.0,0.0,1.228576171400831e-11,9.661715141970146e-12,8.366320703885758e-12,6.210065614322879e-12,4.510058983075571e-12,3.606538415506511e-12,2.3753353425780618e-12,1.6746911975721794e-12,1.114719471909e-12,8.425483529636666e-13,5.633894000983483e-13,4.756058605909117e-13,3.728914454400499e-13,3.091488455104368e-13,2.4668141681918705e-13,2.0111329115637473e-13,1.595251956054545e-13,1.234275487840444e-13,9.273349148877894e-14,7.184247953152087e-14,5.500751141001418e-14,3.8394196612430816e-14,2.7176094236588953e-14,1.794735240899918e-14,1.5420854831856813e-14,1.0432502718079663e-14,8.675789030188385e-10,5.353831048142421e-10,3.2116456092608727e-10,2.1205777570022488e-10,1.2729459715581732e-10,8.58362126659126e-11,5.3173031288131765e-11,2.914083587505351e-11,1.6046834491284674e-11,8.341038250100257e-12,4.08158574127892e-12,1.927022719508512e-12,8.736338403370121e-13,4.396656786321735e-13,2.2996737259194125e-13,1.3360966935714518e-13,9.080319573510338e-14,7.889312860061217e-14,3.255734296539693e-14
0.0,23,23.0,0.0,30.0,0.0,0.0,0.0,0.0,-13.0,0.0,2.0,0.0,0.0,0.0,1.251609346534046e-11,1.0662486624126674e-11,8.3671068428717e-12,7.0439391603186895e-12,4.988873905551532e-12,3.687167679969045e-12,2.5275205214498495e-12,1.852730348700437e-12,1.1789658816767935e-12,8.053231557083394e-13,5.745180427307144e-13,4.426975817622411e-13,3.50135884924194e-13,2.718734986664913e-13,2.1451363361895378e-13,1.7145308895166177e-13,1.442823176462044e-13,1.1213349908757591e-13,8.810414696871654e-14,6.563650013390386e-14,4.677823702609054e-14,3.648214721980776e-14,2.7707037445871662e-14,1.988794789837013e-14,1.4039768955599238e-14,8.695947177987674e-15,8.523308558621401e-10,5.408368852151485e-10,3.349448229185962e-10,2.138931580833017e-10,1.2693844159537715e-10,8.277764618684134e-11,4.959497728895889e-11,2.997496175891662e-11,1.6979382715202356e-11,8.581754971620751e-12,4.4050953311777604e-12,2.0576928502339014e-12,9.662742958146256e-13,4.4040754642259757e-13,2.320720029689885e-13,1.2072866210838175e-13,1.2097360937184648e-13,5.824923535638201e-14,3.415195248528363e-14
0.0,24,24.0,0.0,30.0,0.0,0.0,0.0,0.0,-13.0,0.0,2.0,0.0,0.0,0.0,1.2677743285763362e-11,1.0752600350852542e-11,8.450058363801633e-12,6.911533627233778e-12,5.27418060806076e-12,3.82072413968481e-12,2.7255674692559175e-12,1.87131938964208e-12,1.2580666314723702e-12,8.229278735976436e-13,5.7961494304126e-13,4.227045034143557e-13,3.2754363357420663e-13,2.7389562091011893e-13,2.0883321741024493e-13,1.694680715200831e-13,1.3003355943736677e-13,1.0209158852850936e-13,7.692958861936583e-14,5.828715239101002e-14,4.773507648948567e-14,3.252860955754961e-14,2.497011808243312e-14,1.5956710053846457e-14,1.0830677366447749e-14,7.97751537800827e-15,9.151324016858726e-10,5.755149327691487e-10,3.525572376735604e-10,2.2030725962294247e-10,1.363346957267929e-10,8.785440509225137e-11,5.418518262087008e-11,3.141827032555157e-11,1.814564717461438e-11,9.208614053309011e-12,4.932022460245884e-12,2.17968898090133e-12,9.933362406486431e-13,4.765084780161248e-13,2.551597641761463e-13,1.4374240809964674e-13,9.227383372728114e-14,4.6212663152876213e-14,6.212998709938362e-14
0.0,25,25.0,0.0,30.0,0.0,0.0,0.0,0.0,-13.0,0.0,2.0,0.0,0.0,0.0,1.3705820464959412e-11,1.0414619673008517e-11,8.672837625281351e-12,7.387757173077978e-12,5.1293120597854405e-12,3.921755574295269e-12,2.7949569060512126e-12,1.861396612709018e-12,1.2780969123897677e-12,8.428563995624329e-13,5.743735165393288e-13,4.00641028009924e-13,3.1028481824937127e-13,2.4972041150895665e-13,1.9218921051182675e-13,1.6030129513119093e-13,1.218367089640281e-13,9.842685925919504e-14,7.279299033618451e-14,5.6818461336711454e-14,3.7153245035696165e-14,3.424972196335642e-14,2.0400456153028887e-14,1.618633093122282e-14,1.2660058482944381e-14,7.747878106695397e-15,8.826013992609217e-10,5.5314203615387e-10,3.612562206655753e-10,2.2214737411475844e-10,1.3710030232378747e-10,9.25863748314677e-11,5.547958987697353e-11,3.2248975889656835e-11,1.7879688133485833e-11,9.864733098649087e-12,4.9947096814664635e-12,2.427797107240466e-12,1.0786310993924993e-12,5.191239237537344e-13,2.1887951157823332e-13,1.400864902807816e-13,7.937801021482459e-14,5.274058958395514e-14,3.9195581826645904e-14
0.0,26,26.0,0.0,30.0,0.0,0.0,0.0,0.0,-13.0,0.0,2.0,0.0,0.0,0.0,1.346252512367549e-11,1.2392162890998627e-11,9.425917077874743e-12,7.74932587329744e-12,5.794419750741134e-12,4.0250719898854704e-12,3.03101637485389e-12,1.978945052147528e-12,1.363557980707257e-12,8.928660944241566e-13,5.671958129637198e-13,4.0100863294776876e-13,3.0324109764465663e-13,2.288600371658545e-13,1.8079169039283604e-13,1.404442166618209e-13,1.125979461352478e-13,9.151439854145417e-14,6.870378236742289e-14,5.131953755851831e-14,3.7208921828646845e-14,2.752533889338378e-14,2.0669858415912854e-14,1.6561468684976628e-14,1.0885926465039738e-14,8.91166583473784e-15,9.524356957690584e-10,5.927712845046218e-10,3.5994011227875326e-10,2.1377150630440397e-10,1.3672280533908217e-10,8.841918696579801e-11,5.571203169083145e-11,3.328274254386155e-11,1.870573328986274e-11,1.0851620427343891e-11,5.76180585781623e-12,2.663468072539816e-12,1.1496665486943274e-12,5.596179895669066e-13,2.5512492133865485e-13,1.3359424585280198e-13,9.066824511576771e-14,4.1423759204573185e-14,4.296420175322799e-14
0.0,27,27.0,0.0,30.0,0.0,0.0,0.0,0.0,-13.0,0.0,2.0,0.0,0.0,0.0,1.4221552913498471e-11,1.176584588015656e-11,1.0238289734824359e-11,7.8077033600027e-12,6.2789153676831745e-12,4.508273428317562e-12,3.168571432914622e-12,2.1363153720246714e-12,1.4200861480026069e-12,8.734467847238355e-13,5.921716845046842e-13,3.9430580150617267e-13,2.982103743258269e-13,2.1338287812548358e-13,1.714291281885599e-13,1.361404146746746e-13,1.1278142388160757e-13,8.524367594342154e-14,6.143079298988741e-14,4.7161976821914047e-14,3.773248507064365e-14,2.7008018481927525e-14,1.9010175441379102e-14,1.3590897292915341e-14,1.0001293563631328e-14,7.734137117729728e-15,9.733928737858246e-10,5.806262036325177e-10,3.8420652600082587e-10,2.3166338597639992e-10,1.5008465905559933e-10,8.810794918287755e-11,5.4801505802486296e-11,3.2759574863944227e-11,1.9166679460535358e-11,1.1294702085072486e-11,5.8166485450687715e-12,2.7601755249244587e-12,1.2989536615668727e-12,5.443507439842516e-13,2.710805036472822e-13,1.2272256236253814e-13,9.08447520881659e-14,5.465873713198589e-14,3.214587595096241e-14
0.0,28,28.0,0.0,30.0,0.0,0.0,0.0,0.0,-13.0,0.0,2.0,0.0,0.0,0.0,1.4684793803730574e-11,1.226440153831293e-11,1.088548677980238e-11,8.01113954748225e-12,6.2172676137098175e-12,4.6949662086919835e-12,3.146322601609357e-12,2.204409959562867e-12,1.518517043879038e-12,9.599018240316e-13,6.118970262429744e-13,3.8489731046726894e-13,2.6969130647208197e-13,2.1891120030348762e-13,1.6276703129158425e-13,1.293500645765688e-13,9.746329252195238e-14,7.694893448254182e-14,5.554089597967228e-14,4.3607264722235364e-14,3.4117223338451317e-14,2.3300800000901533e-14,1.809068625556557e-14,1.1506627775803608e-14,8.971168023074206e-15,6.082583116658673e-15,1.0236044888431923e-09,6.085818692241796e-10,3.923523353937183e-10,2.4240774447172475e-10,1.4943487845549347e-10,8.729225171014288e-11,5.688220332404301e-11,3.382091942331573e-11,2.0991859383321464e-11,1.1466188970594077e-11,6.272405332492194e-12,2.9904622231453527e-12,1.4211299028506534e-12,6.14237764762566e-13,2.732609086519308e-13,1.397677857525829e-13,7.990449810751976e-14,5.174992250783055e-14,3.012178913011133e-14
0.0,29,29.0,0.0,30.0,0.0,0.0,0.0,0.0,-13.0,0.0,2.0,0.0,0.0,0.0,1.4455135035444194e-11,1.1483508499748661e-11,9.788714357291806e-12,8.510791133291392e-12,6.915883062110571e-12,4.880493823608556e-12,3.3799223927201807e-12,2.425780062963482e-12,1.4898612385790092e-12,9.73730475290889e-13,6.041232922686557e-13,4.0610282254512294e-13,2.697556585137754e-13,1.9364641455441567e-13,1.5300398084292046e-13,1.1231818240998632e-13,9.346380153936477e-14,7.251806881758277e-14,5.641061375947155e-14,3.912283465765208e-14,3.0080521387964176e-14,2.52258732442915e-14,1.6350788141090122e-14,1.2256680539327866e-14,9.48126646178515e-15,7.93012043188989e-15,9.986935922501681e-10,6.320041259385514e-10,3.5812032950546136e-10,2.2580213823468884e-10,1.4493735495763328e-10,9.357398464240273e-11,5.623280722314166e-11,3.4378264271204206e-11,1.9794783255722022e-11,1.1779134519988428e-11,6.1233721348410295e-12,3.2561233250301816e-12,1.5169560202213087e-12,7.201771562667597e-13,3.106928023055351e-13,1.4387663301723047e-13,7.923218724256541e-14,3.930353725641282e-14,4.0461688332361827e-14
0.0,30,30.0,0.0,30.0,0.0,0.0,0.0,0.0,-13.0,0.0,2.0,0.0,0.0,0.0,1.5493633885824086e-11,1.2640912558155748e-11,1.0515961812010922e-11,8.570536591513891e-12,7.027225397710842e-12,5.002616427411288e-12,3.7320209013935285e-12,2.4298683994386112e-12,1.6498063301567889e-12,1.029750461514059e-12,6.379002746486913e-13,4.236495541572201e-13,2.7959051083810016e-13,1.8289609473094339e-13,1.3952683002062526e-13,1.1328745005238478e-13,8.607060624509235e-14,6.802597650492308e-14,5.300317049173863e-14,4.103621529423935e-14,3.000766673604437e-14,2.067341480009297e-14,1.7258091519099657e-14,1.0906566112070352e-14,8.352279293389084e-15,5.465580734154745e-15,1.0392692100813394e-09,6.535826436374509e-10,4.0070134475673845e-10,2.3687641270735464e-10,1.5062265644196588e-10,9.774118367400081e-11,5.5713922853878225e-11,3.532388987535265e-11,1.9739817469112658e-11,1.2052270132559965e-11,6.361621078940043e-12,3.3434106129792887e-12,1.6346174198518707e-12,7.271019019328889e-13,3.2308697994956243e-13,1.5034168282973994e-13,4.717595123270042e-14,3.619631226850744e-14,9.869497130652278e-15
0.0,31,31.0,0.0,30.0,0.0,0.0,0.0,0.0,-13.0,0.0,2.0,0.0,0.0,0.0,1.5814100905371534e-11,1.3136912551290751e-11,1.1127360755639353e-11,8.69496616042751e-12,6.954646100559551e-12,5.083853154484159e-12,3.644486826832749e-12,2.736352490602765e-12,1.753435519721428e-12,1.1496866282391238e-12,6.823118106434456e-13,4.0276652477102846e-13,2.714676058729153e-13,1.9403976496427552e-13,1.3960613297544371e-13,1.0653762465659794e-13,7.784815929095644e-14,6.262535567332119e-14,4.920284761635497e-14,3.861733019489543e-14,2.815658283644493e-14,2.018371235442344e-14,1.6038303519113866e-14,1.1084278214669163e-14,8.733723603976436e-15,3.863412995165635e-15,1.0679668866311924e-09,6.566852564837889e-10,4.004270367432259e-10,2.625650514807342e-10,1.548142762573182e-10,9.469215969523189e-11,5.916608119400184e-11,3.570614207445856e-11,2.2112615965800143e-11,1.2662070246103998e-11,6.832389950958628e-12,3.566732360189768e-12,1.6535406035018002e-12,7.428854865115029e-13,3.3654233922048356e-13,1.5635894074671692e-13,7.958083794003004e-14,4.673466489390357e-14,3.160942267015401e-14
0.0,32,32.0,0.0,30.0,0.0,0.0,0.0,0.0,-13.0,0.0,2.0,0.0,0.0,0.0,1.6413403933450333e-11,1.3555792770286466e-11,1.1698890729035109e-11,9.668583204609099e-12,7.226858481910718e-12,5.474838624700097e-12,4.02299992477801e-12,2.6939302817455615e-12,1.7882621484476438e-12,1.1105969326154328e-12,7.023253591019507e-13,4.4417035795954384e-13,2.7581033262407695e-13,1.8408497161755655e-13,1.317673031353608e-13,1.0304127357639317e-13,7.300980194479977e-14,5.894661784175424e-14,4.58649882538978e-14,3.1238939450640594e-14,2.4039134166652536e-14,2.1464497997788636e-14,1.4299733920799747e-14,1.0230020519130398e-14,7.252082643470036e-15,4.697532488930793e-15,1.1223335987698245e-09,6.597130640150507e-10,3.9475265329681583e-10,2.4202410302842074e-10,1.6035698688339269e-10,8.899574358570025e-11,5.825195441694659e-11,3.7145480302900445e-11,2.328674162895385e-11,1.3478856911069849e-11,7.190480293402008e-12,3.586091429478606e-12,1.7579434459723498e-12,8.076200842087614e-13,3.5664104714407657e-13,1.4956933455447467e-13,7.999531903319035e-14,4.114602911648006e-14,2.0005565851303037e-14
0.0,33,33.0,0.0,30.0,0.0,0.0,0.0,0.0,-13.0,0.0,2.0,0.0,0.0,0.0,1.663603824469394e-11,1.3242365596300258e-11,1.1493363501748717e-11,9.314060102489868e-12,7.304958952589883e-12,5.425461204602956e-12,4.2359353274949245e-12,2.782778872177833e-12,1.8687398352360437e-12,1.243730062846665e-12,7.444806911472749e-13,4.490403901101711e-13,2.547733085231957e-13,1.7722102909689212e-13,1.3398364935926338e-13,9.215947014569005e-14,6.927049182429977e-14,5.6224784848468866e-14,4.3148734620874445e-14,3.2044093211112586e-14,2.3332347786938044e-14,1.949486990443929e-14,1.4003095249979523e-14,9.473315109162092e-15,5.750090081907052e-15,3.3173346461145103e-15,1.1418045429140366e-09,7.15808081667784e-10,4.04409567630909e-10,2.5811480824177867e-10,1.6184391037058346e-10,9.930470569235372e-11,5.924403314391977e-11,3.5442233140497705e-11,2.2133171491554396e-11,1.3007989025616161e-11,7.082419788708319e-12,3.754782233528539e-12,1.9289293743620337e-12,8.756793065014553e-13,3.8193126181452717e-13,1.5454637982017003e-13,7.029054132433157e-14,2.4743872148719154e-14,3.177591343067415e-14
0.0,34,34.0,0.0,30.0,0.0,0.0,0.0,0.0,-13.0,0.0,2.0,0.0,0.0,0.0,1.7335133941897933e-11,1.4057676669909891e-11,1.2011457248336546e-11,9.726334998286625e-12,7.800374888657203e-12,5.7080545970838324e-12,4.330994934868599e-12,2.885704937096754e-12,1.9527376019121038e-12,1.2667848128754735e-12,7.896728600972775e-13,4.807244961914905e-13,2.820355203491313e-13,1.8138960662956473e-13,1.1891772822526115e-13,8.773321825283902e-14,6.992327559738816e-14,5.06223969912746e-14,4.0920246572743174e-14,2.8508812004559265e-14,2.1021917793166193e-14,1.9655399581976617e-14,1.2694399687630103e-14,8.251033297055086e-15,4.433033721824816e-15,4.317784342618508e-15,1.236533066595771e-09,6.694672574125532e-10,4.083706534014786e-10,2.5691776326857294e-10,1.6646506653095455e-10,1.0030162239654735e-10,5.939888695952899e-11,3.533500294736496e-11,2.2586055619924652e-11,1.348498319544251e-11,7.38236803510078e-12,3.894246659037798e-12,1.9704604755904873e-12,8.970290043515548e-13,4.00464499404922e-13,1.7417591844091353e-13,8.72353999629347e-14,3.759489672947906e-14,1.5724275855013366e-14
0.0,35,35.0,0.0,30.0,0.0,0.0,0.0,0.0,-13.0,0.0,2.0,0.0,0.0,0.0,1.6451865523968676e-11,1.454704753551255e-11,1.2375646999032596e-11,9.903807176863694e-12,7.040533103164043e-12,6.06200905043377e-12,4.383779422573345e-12,3.0234683193385005e-12,2.0512950223179217e-12,1.3070710504499758e-12,8.341180816712936e-13,4.899497451889032e-13,2.8420436716550437e-13,1.8282691029711344e-13,1.2106743295279604e-13,8.265453489485968e-14,6.50144176552247e-14,4.971432173571892e-14,3.776758775266856e-14,2.945614120144897e-14,1.978655823289899e-14,1.6101564451702507e-14,1.1867856341776767e-14,9.074589425116946e-15,7.041974484721572e-15,5.186593768649232e-15,1.131198123736652e-09,6.829442823263332e-10,4.4088357328208906e-10,2.616535628373602e-10,1.6731118152412055e-10,9.555886120354672e-11,5.987879755337878e-11,3.745395832638011e-11,2.337021067524257e-11,1.3767018227588241e-11,7.61029811809642e-12,3.945674079682835e-12,2.0605765947350517e-12,9.329295722311974e-13,4.550195854497482e-13,1.6758368885134323e-13,7.53977796610037e-14,4.361218063173149e-14,2.6464342792788974e-14
0.0,36,36.0,0.0,30.0,0.0,0.0,0.0,0.0,-13.0,0.0,2.0,0.0,0.0,0.0,1.809067588686442e-11,1.4082159222849427e-11,1.2535492674356075e-11,1.0576339887236612e-11,7.938823838324368e-12,6.385896556768551e-12,4.536760644398701e-12,3.1582176187309856e-12,2.0967766770873107e-12,1.3515695775983062e-12,8.432442428389586e-13,4.882891305219202e-13,3.0189550806507846e-13,1.8018047848573957e-13,1.1940539119969843e-13,8.322491487594511e-14,6.22058184378313e-14,4.882396327988944e-14,3.5098841694415364e-14,2.793702431673685e-14,1.8692920612920455e-14,1.4088389827576788e-14,9.67767238416158e-15,7.304879429612794e-15,7.282785814071191e-15,3.2271704963686286e-15,1.1227613021856175e-09,7.008985103186143e-10,4.279895809989531e-10,2.659431557387583e-10,1.6682634795896087e-10,9.975983299752351e-11,6.249831582173126e-11,3.7874834880732414e-11,2.259544721842803e-11,1.3393188498367926e-11,7.746287227282578e-12,4.27643252026005e-12,2.0160420519189487e-12,1.0280003248188443e-12,4.901842844582396e-13,2.1745732561068897e-13,8.531302357718622e-14,5.904325879303465e-14,2.033651381537643e-14
0.0,37,37.0,0.0,30.0,0.0,0.0,0.0,0.0,-13.0,0.0,2.0,0.0,0.0,0.0,1.7908965062489136e-11,1.5412105833008667e-11,1.2253360070628502e-11,9.387688744402687e-12,8.316591977489574e-12,5.848491469486325e-12,4.803495923529368e-12,3.2057627029454438e-12,2.3186587617618296e-12,1.411936649859198e-12,8.692094042552522e-13,5.124732886342834e-13,2.9999736738827106e-13,1.7585239559537744e-13,1.1629216387364853e-13,7.588297351311953e-14,5.716256977809782e-14,4.448160228469447e-14,3.534748416324976e-14,2.5369038299530697e-14,1.570214174950355e-14,1.2716533701849217e-14,1.1028482681806842e-14,7.028026837446868e-15,5.238139156085103e-15,2.5492540354361788e-15,1.2984342287552256e-09,7.42290982653657e-10,4.813040509857427e-10,2.748626941069421e-10,1.712284251247787e-10,9.995422463190141e-11,6.053939429301599e-11,3.9981502094381826e-11,2.46705411452276e-11,1.3343100899774914e-11,8.30775037116119e-12,4.404894086318495e-12,2.2678442491195205e-12,1.0387274012431629e-12,4.658010922294609e-13,2.145991940819719e-13,8.679409780966136e-14,4.4675053808572444e-14,1.948281949959473e-14
0.0,38,38.0,0.0,30.0,0.0,0.0,0.0,0.0,-13.0,0.0,2.0,0.0,0.0,0.0,1.774712081822253e-11,1.5821184089520897e-11,1.2242427879712422e-11,1.0006297104098612e-11,8.275057818827493e-12,6.419673315218357e-12,4.493189025120733e-12,3.406288709565056e-12,2.3715540651117653e-12,1.5712933967476533e-12,9.091356045200961e-13,5.531801694291982e-13,3.2183442212477677e-13,1.799710828050077e-13,1.2280392833351362e-13,7.61602817294871e-14,5.738285278543519e-14,4.279635459168058e-14,2.983758356397555e-14,2.5488649340424916e-14,1.866779809090193e-14,1.1898048910539604e-14,8.303016121893242e-15,7.888993332864515e-15,3.8500779676064146e-15,1.998784429035069e-15,1.3357994675611436e-09,7.556911431622131e-10,4.5931127050201763e-10,2.826641793124418e-10,1.6636649275110337e-10,1.1015809646293172e-10,6.647646902490933e-11,4.156846010938757e-11,2.4776504856534802e-11,1.462753630569001e-11,7.864251349166936e-12,4.5213801249403e-12,2.399334139533141e-12,1.10800009745455e-12,5.28618236097415e-13,2.3421887939614405e-13,8.057268319349784e-14,3.4622159128863387e-14,1.4085576869690605e-14
0.0,39,39.0,0.0,30.0,0.0,0.0,0.0,0.0,-13.0,0.0,2.0,0.0,0.0,0.0,1.8083693473262514e-11,1.5365616228150533e-11,1.2542420951698423e-11,1.0316222087184554e-11,8.277332790353618e-12,6.612521366693589e-12,4.715699215861659e-12,3.5035201213116886e-12,2.4563976700465175e-12,1.5559854890434362e-12,9.787915104430472e-13,5.567831389876164e-13,3.3736280353796683e-13,1.8302439081973116e-13,1.2613795308809457e-13,7.506481847318814e-14,5.665212011771206e-14,3.903526932736283e-14,3.1827958203590444e-14,2.42193589100252e-14,1.4297368728469482e-14,1.3270884638639748e-14,8.681841651306996e-15,5.402806565556428e-15,5.05017329865779e-15,4.052635048319635e-15,1.2491550408841997e-09,7.968310432571536e-10,4.650871317651245e-10,2.821147486676698e-10,1.8042985786967012e-10,1.08224433317276e-10,6.290436039297848e-11,4.199754014356931e-11,2.41225735159621e-11,1.3747966701948225e-11,8.538295468587863e-12,4.5964557252731044e-12,2.4200442773666186e-12,1.1505868689626933e-12,5.146550389783233e-13,2.5916495764590794e-13,1.1161125791525764e-13,3.7135974198681844e-14,2.3555677706270045e-14
0.0,40,40.0,0.0,30.0,0.0,0.0,0.0,0.0,-13.0,0.0,2.0,0.0,0.0,0.0,1.8574549786064698e-11,1.5988625793098334e-11,1.3882406001834565e-11,1.0865415019131086e-11,8.408911356095399e-12,6.646289322912365e-12,4.8138995271622385e-12,3.700706086611313e-12,2.398438339848644e-12,1.5435520697759083e-12,1.0108399718558709e-12,5.851662676487121e-13,3.351927089407591e-13,1.9516844226998499e-13,1.214076148480357e-13,7.959658093808502e-14,5.476881792488481e-14,3.6518412876308125e-14,2.9332095310201705e-14,2.1281076717016702e-14,1.4951951811859247e-14,1.1769933494632489e-14,6.6618383960927164e-15,7.101143870123788e-15,5.176692486514847e-15,3.3084854305384886e-15,1.306787704086466e-09,7.862397924885948e-10,4.693622940789016e-10,3.001134673628663e-10,1.82695202804245e-10,1.0746548687914955e-10,6.51484398146206e-11,4.0156418154622145e-11,2.4466215629948798e-11,1.4718742047127885e-11,8.198907629161316e-12,4.678843819510741e-12,2.4839871610103804e-12,1.210884892355878e-12,5.600480619026768e-13,2.2599767471089355e-13,1.1374818255796978e-13,1.8490647486763553e-14,1.43045102335732e-14
0.0,41,41.0,0.0,30.0,0.0,0.0,0.0,0.0,-13.0,0.0,2.0,0.0,0.0,0.0,1.8735388841697763e-11,1.6284946384170277e-11,1.3500058678375068e-11,1.0921535204069672e-11,8.931562748198413e-12,6.604327101421755e-12,4.907401290320309e-12,3.58951770215511e-12,2.492583365070338e-12,1.6401587929234657e-12,1.027883918995089e-12,6.437447604777829e-13,3.616386900514834e-13,1.9543362971433188e-13,1.1628874063576696e-13,7.767377604681956e-14,5.381764378711765e-14,3.6752274087824215e-14,2.8319482443598775e-14,1.9280384535033415e-14,1.5250346541459524e-14,1.1262902840573734e-14,1.0132862006333416e-14,6.163271768383631e-15,4.125463971251089e-15,4.483840804022531e-15,1.336368040446443e-09,8.139420132945832e-10,4.740671788101243e-10,2.993362801372344e-10,1.8151255811488196e-10,1.1052313574250347e-10,6.519858413068632e-11,3.866908393398252e-11,2.5086617096208284e-11,1.4555720653371355e-11,8.47795138701045e-12,4.712076426632369e-12,2.558315151014095e-12,1.2730417938645532e-12,5.794592591586041e-13,2.535503925291709e-13,9.881347895321887e-14,4.817114662251609e-14,3.21830270739208e-14
0.0,42,42.0,0.0,30.0,0.0,0.0,0.0,0.0,-13.0,0.0,2.0,0.0,0.0,0.0,1.944409886774296e-11,1.6932413672194635e-11,1.405678524219677e-11,1.1177812154498566e-11,9.118089960662302e-12,6.874149170435104e-12,5.1698686350944534e-12,3.816521366448225e-12,2.600073378881652e-12,1.6432547168254464e-12,1.0992155668158804e-12,6.163606245292732e-13,3.6030213142179124e-13,2.10439757030089e-13,1.2157110726016907e-13,7.009588724376386e-14,4.9278803144651746e-14,3.548644789081098e-14,2.5676787209920887e-14,1.5293552377112016e-14,1.2860445731408658e-14,1.0373648614761825e-14,7.0124526750959e-15,5.070104339391013e-15,5.770442722410899e-15,2.94831915494025e-15,1.4435020364656856e-09,8.167159343554876e-10,4.970485076361561e-10,2.93170997498978e-10,1.7911864917532224e-10,1.1529552493136455e-10,6.524648901815526e-11,3.9770027252087484e-11,2.5722849179710128e-11,1.3989449933897146e-11,8.635788616610676e-12,4.771095956489658e-12,2.635105427760595e-12,1.3567313247479098e-12,6.251452865729666e-13,2.5315665774272975e-13,1.1071536899372198e-13,5.371290483949301e-14,1.8367590107872163e-14
0.0,43,43.0,0.0,30.0,0.0,0.0,0.0,0.0,-13.0,0.0,2.0,0.0,0.0,0.0,1.8847819230368498e-11,1.694200330003596e-11,1.3655821302284003e-11,1.1028071092614989e-11,9.129928440983824e-12,7.171586663404252e-12,5.314934365734793e-12,3.7343630485185724e-12,2.670602398268746e-12,1.6985812427111592e-12,1.1150273492921515e-12,6.57293549633034e-13,3.7707377118080173e-13,2.100508614067132e-13,1.2577009777074758e-13,7.243726631297498e-14,4.891010367241991e-14,3.371029878359194e-14,2.4621403608355327e-14,1.952680657575118e-14,1.5203681940736702e-14,9.9235566261897e-15,8.32324639924825e-15,4.5597223504969266e-15,4.554942168197303e-15,7.294367418730087e-16,1.3651164355854554e-09,8.065960709590229e-10,4.710526617055807e-10,3.0514936903392854e-10,1.9073101975232531e-10,1.1262301903754489e-10,7.125002383840399e-11,4.498587641895469e-11,2.517498709833152e-11,1.4386885584113796e-11,8.49725642421449e-12,4.830352506186627e-12,2.7984802901065662e-12,1.3078444438493551e-12,6.753871082423315e-13,2.823388879988987e-13,1.3459171196579442e-13,6.438832243657693e-14,1.9141454105298518e-14
0.0,44,44.0,0.0,30.0,0.0,0.0,0.0,0.0,-13.0,0.0,2.0,0.0,0.0,0.0,1.9415691993964874e-11,1.679225011519803e-11,1.3986678333581858e-11,1.1636599857405224e-11,8.688319362490775e-12,7.104626049101644e-12,5.449611447832395e-12,4.0250285500147994e-12,2.7571249710613318e-12,1.8634716689085132e-12,1.0534083136850926e-12,6.961189445201246e-13,4.108961464611586e-13,2.2635968765754863e-13,1.2819288044787667e-13,7.845605323755881e-14,4.264352921907249e-14,3.436247252735988e-14,2.3078798760695453e-14,1.570166682511028e-14,1.2645930815477075e-14,1.024693696560805e-14,8.059459962206375e-15,6.5197313891292345e-15,2.2136408756012596e-15,1.6453121725040884e-15,1.3756642019137587e-09,8.425916045583088e-10,5.046308081363364e-10,3.097092391514607e-10,1.9648253519114714e-10,1.166329304925236e-10,6.533803394950802e-11,4.1353686586127354e-11,2.5247528477558672e-11,1.517571643561072e-11,8.704197248757874e-12,5.133687895455319e-12,2.9119897706154777e-12,1.4471378002467044e-12,6.509804032664046e-13,3.2517120505411565e-13,1.3619099980223605e-13,4.5770848565013005e-14,2.7541362070148682e-14
0.0,45,45.0,0.0,30.0,0.0,0.0,0.0,0.0,-13.0,0.0,2.0,0.0,0.0,0.0,2.068079411307431e-11,1.5791372729071643e-11,1.4059144580715345e-11,1.1721508365827247e-11,9.370022179344798e-12,7.36764440753359e-12,5.507576475507164e-12,3.871542951979401e-12,2.7465100754792116e-12,1.8277291984797518e-12,1.0877054108108627e-12,7.658621901287121e-13,4.160711191805464e-13,2.46290270506046e-13,1.2732278879057637e-13,7.860390991552129e-14,4.8134075373851385e-14,3.2536109631719774e-14,2.5085089495217106e-14,1.6991292156103336e-14,1.1802088912829838e-14,9.707086545294908e-15,8.629145927199901e-15,4.810440080494151e-15,2.491587654045447e-15,9.854701249325536e-16,1.5019934989596034e-09,8.874599522821021e-10,4.916335972357044e-10,3.1652557503746257e-10,1.9459723400877424e-10,1.1841016850318273e-10,6.974312519736357e-11,4.331062584004206e-11,2.5336982776921257e-11,1.5897297780507203e-11,9.069341924490332e-12,5.1750824887240944e-12,2.754680202003762e-12,1.402856012405542e-12,7.112117149772784e-13,3.281176344999916e-13,1.469721558257316e-13,7.874696226195778e-14,1.984942851392169e-14
0.0,46,46.0,0.0,30.0,0.0,0.0,0.0,0.0,-13.0,0.0,2.0,0.0,0.0,0.0,2.041179848237869e-11,1.7249589051470632e-11,1.3242792189825262e-11,1.1585954440237202e-11,9.42751522725154e-12,7.19773357824737e-12,5.53195105126667e-12,4.2041591579743814e-12,3.009627635582623e-12,1.9361812621367932e-12,1.2536594215175678e-12,7.444733612309677e-13,4.13784559636794e-13,2.412901452230997e-13,1.2905384250034773e-13,7.748756302891846e-14,4.4573268968375555e-14,2.885340655857517e-14,2.2114872351535052e-14,1.7091253284796815e-14,1.2783661834818126e-14,8.582241588455917e-15,5.962747057929418e-15,3.596803167205845e-15,3.4226598721035768e-15,2.728769476247321e-15,1.5365972098466004e-09,9.015630661215513e-10,5.359639498388667e-10,3.3321404980243807e-10,2.035504357648697e-10,1.1865881781405301e-10,6.982946110788033e-11,4.320581346755846e-11,2.6221771413252234e-11,1.5989893385507958e-11,9.923994475809426e-12,5.256120359238354e-12,2.7574931953539353e-12,1.4291554803803544e-12,7.342344968832973e-13,3.105046209394807e-13,1.3108376347645512e-13,4.111779107436057e-14,2.3989301744718953e-14
0.0,47,47.0,0.0,30.0,0.0,0.0,0.0,0.0,-13.0,0.0,2.0,0.0,0.0,0.0,2.0749160083478563e-11,1.8292906292031462e-11,1.459870037964756e-11,1.2136737331648694e-11,8.805679363950475e-12,7.014294631412579e-12,5.839662577149563e-12,4.1356124047726675e-12,2.843583195155172e-12,1.9711665841567363e-12,1.2673250863514464e-12,7.695041728487059e-13,4.326375426414841e-13,2.481792356870012e-13,1.2595156499341237e-13,7.963264709669276e-14,4.8267761595315e-14,3.1063136915493445e-14,2.012939297443571e-14,1.474952599521431e-14,1.0837891331441218e-14,7.846448850832936e-15,4.4207193468149835e-15,5.045894989411551e-15,2.887142236890629e-15,1.8100235767582845e-15,1.6679599546044083e-09,8.686596444105216e-10,5.465774383946882e-10,3.3217854991234247e-10,1.846399896610297e-10,1.1671135249728827e-10,7.12418050344754e-11,4.20118521517863e-11,2.6600418633130868e-11,1.5834038941889664e-11,9.30876643512405e-12,5.057356804508596e-12,2.9614015646229307e-12,1.5304798635272148e-12,7.381664838083358e-13,3.3947720177287896e-13,1.5730950333321662e-13,5.595650170990941e-14,1.8414465495903418e-14
0.0,48,48.0,0.0,30.0,0.0,0.0,0.0,0.0,-13.0,0.0,2.0,0.0,0.0,0.0,2.1346807803928857e-11,1.6820364168751924e-11,1.4941617038623792e-11,1.1618289706347092e-11,9.807346868371775e-12,7.144757483111122e-12,5.624498835531389e-12,4.199762378631319e-12,2.893919584968608e-12,2.012425088618022e-12,1.2934915205060748e-12,7.855823750809332e-13,4.67567809817319e-13,2.6232295377168765e-13,1.3720938598949096e-13,8.312591233670258e-14,4.4062619982273663e-14,2.7682599412323125e-14,1.9178980163068496e-14,1.3524737351285486e-14,9.966298203178798e-15,7.553900966598727e-15,6.4406639708332194e-15,4.319883118380226e-15,1.7113210698138536e-15,1.355801061597651e-15,1.5943539463039868e-09,9.088890793286691e-10,5.500410671417375e-10,3.3712140937701533e-10,2.0375008171571904e-10,1.1413169831821888e-10,7.035367848877832e-11,4.3564308648953235e-11,2.6759643536294686e-11,1.5117678497693015e-11,9.681982602376569e-12,5.496748762747518e-12,2.927472344578626e-12,1.4833093103692616e-12,7.795473685656467e-13,3.4613529002182007e-13,1.61486018730576e-13,4.384619849036745e-14,2.4249001471513287e-14
0.0,49,49.0,0.0,30.0,0.0,0.0,0.0,0.0,-13.0,0.0,2.0,0.0,0.0,0.0,2.130114769799749e-11,1.715068133538647e-11,1.5048735627076047e-11,1.1908924730789905e-11,9.29094918992809e-12,7.883269770532508e-12,5.797780807467646e-12,4.240323599135959e-12,3.1041138978037014e-12,2.04348090766352e-12,1.2953368394182977e-12,7.83660079896303e-13,4.85454919388974e-13,2.7125345077421844e-13,1.3785055782676435e-13,8.048720115875095e-14,4.620940246040579e-14,3.040495676577458e-14,2.0826093777081638e-14,1.3707203818166235e-14,8.195328185065556e-15,8.713695759972131e-15,5.643798562702169e-15,3.8458818517828325e-15,2.2666420670981264e-15,2.146347424539509e-15,1.6106809536688436e-09,1.032601550732779e-09,5.496622355096317e-10,3.462104989437415e-10,2.1680990807157986e-10,1.3207066381791236e-10,8.003112176568772e-11,4.517064518898451e-11,2.815461469334563e-11,1.6309153287594923e-11,9.476108599395315e-12,5.277176931424206e-12,2.8967722617319253e-12,1.5574982599153088e-12,7.665464552482089e-13,3.6668873361612177e-13,1.5745170240391305e-13,6.622603262661594e-14,4.963990416422044e-14
0.0,50,50.0,0.0,30.0,0.0,0.0,0.0,0.0,-13.0,0.0,2.0,0.0,0.0,0.0,2.103719013553188e-11,1.858977870493761e-11,1.5222634387312577e-11,1.2504211511817278e-11,1.0375532803584663e-11,7.703207377047591e-12,5.931989205413099e-12,4.303829863736894e-12,3.073390748903248e-12,1.9340557441110127e-12,1.3601266126090065e-12,8.845986165061779e-13,5.004901878929132e-13,2.712969020161273e-13,1.5565788802120533e-13,7.968851813344473e-14,4.6175305125494036e-14,3.038161946436028e-14,1.8561284694146675e-14,1.2865988472151846e-14,9.615104349268032e-15,6.662124029317577e-15,2.960163754480472e-15,4.70760088793429e-15,1.5224999821284282e-15,2.44710838453477e-15,1.6786226622712214e-09,9.686748132841997e-10,5.494626570205898e-10,3.3242022054785074e-10,2.1151282581329302e-10,1.2663728026253952e-10,7.496683956731591e-11,4.65958764019137e-11,2.7380766506793883e-11,1.7106259481872197e-11,9.295370112900556e-12,5.442273364371284e-12,2.9983412230020573e-12,1.6084565263227238e-12,7.675403595910023e-13,3.6482466063028143e-13,1.584082346889551e-13,6.842937029439223e-14,2.7801732430353878e-14
0.0,51,51.0,0.0,30.0,0.0,0.0,0.0,0.0,-13.0,0.0,2.0,0.0,0.0,0.0,2.2179671107601414e-11,1.860768845869738e-11,1.5703603495612056e-11,1.2049575616140446e-11,9.756955926262242e-12,7.667693220460032e-12,5.948557335288125e-12,4.255623244158748e-12,3.115643324425313e-12,2.0756726051894154e-12,1.3565284299784018e-12,8.828707291591e-13,4.993847590776544e-13,2.8104513212671337e-13,1.3828380724918457e-13,8.100355387504505e-14,4.850352479221647e-14,2.7068076706405892e-14,1.888590971356659e-14,1.3793947091911375e-14,1.0394439959808475e-14,6.959458836139378e-15,3.670412127488454e-15,2.8249493244045035e-15,2.5168835039159467e-15,2.098866876554576e-15,1.7588553876803984e-09,9.602852941214329e-10,6.110778478680921e-10,3.5318947338516895e-10,2.0461003738602794e-10,1.2421254036613314e-10,7.431975407121203e-11,4.7176048405019906e-11,2.8715495522774353e-11,1.6909536185745794e-11,9.022673929417416e-12,5.495813072914049e-12,3.1078207867149366e-12,1.606312802518299e-12,7.950859200766059e-13,3.8162190958809517e-13,1.6931468873781078e-13,6.711403067007357e-14,2.90200219087282e-14
0.0,52,52.0,0.0,30.0,0.0,0.0,0.0,0.0,-13.0,0.0,2.0,0.0,0.0,0.0,2.171698648009661e-11,1.854676737925955e-11,1.56171620340536e-11,1.236435454287865e-11,9.916659884073316e-12,7.74146844955627e-12,6.130404364859306e-12,4.558087672810365e-12,3.0511601867290832e-12,2.1616545922789326e-12,1.4047901841339965e-12,8.62914925932274e-13,5.197086066289775e-13,2.9237082117833234e-13,1.5818062925370983e-13,8.295209888713854e-14,4.7658500113593295e-14,2.648656740025339e-14,1.755992617990883e-14,1.0984161692981332e-14,9.205989208276854e-15,7.0249031843037676e-15,6.926778324234704e-15,1.5046116219599528e-15,2.511640920237392e-15,2.2006065601123546e-15,1.8523824491599114e-09,1.053482497370121e-09,5.93619701396125e-10,3.680666172783568e-10,2.0248788178449874e-10,1.268219591999762e-10,8.299610711449097e-11,4.8557875830936645e-11,2.639935577088184e-11,1.69701608769434e-11,9.432178901936476e-12,5.540229243992575e-12,3.079999203279049e-12,1.6033969081980425e-12,8.661355254839704e-13,4.133910474368253e-13,1.7658170519506244e-13,6.94716626232266e-14,4.180343754247069e-14
0.0,53,53.0,0.0,30.0,0.0,0.0,0.0,0.0,-13.0,0.0,2.0,0.0,0.0,0.0,2.117734028966434e-11,1.9364989516342297e-11,1.624205485412798e-11,1.2516856034357414e-11,1.0451781972866285e-11,8.015989979412154e-12,5.993482787022198e-12,4.572030450627127e-12,3.179049418748254e-12,2.2584297474451165e-12,1.4032726230654162e-12,9.079334627830782e-13,5.795030861370584e-13,2.9721739852350253e-13,1.6994238426250659e-13,8.48151180856459e-14,4.66614303775773e-14,2.9219881003368547e-14,1.764521042851834e-14,1.1941525267698742e-14,8.906615590779785e-15,5.346586186461542e-15,5.450070008021196e-15,3.1602350241649714e-15,1.066151427931129e-15,7.898033544249994e-16,1.8609609749158743e-09,1.037492153555943e-09,6.432829906674789e-10,3.470379183222587e-10,2.2576296394779713e-10,1.3004903583066808e-10,8.084450694008307e-11,4.831443409033366e-11,2.8447471125077027e-11,1.6360559944100468e-11,1.0013161232366712e-11,5.628135249269252e-12,2.9603800020344737e-12,1.7319600002289574e-12,8.962155808451437e-13,4.1988900910085185e-13,1.9088433894259612e-13,7.472068601751887e-14,2.5483351923165104e-14
0.0,54,54.0,0.0,30.0,0.0,0.0,0.0,0.0,-13.0,0.0,2.0,0.0,0.0,0.0,2.2495789556419472e-11,1.918568609180483e-11,1.591984844570835e-11,1.248328757350241e-11,1.0806240022616386e-11,8.616373451276786e-12,5.950150274627029e-12,4.474856504545791e-12,3.095525756123594e-12,2.175005255097368e-12,1.524112118822895e-12,9.194322372874533e-13,5.263303457966192e-13,3.075960016247687e-13,1.7202483228271866e-13,9.362663722079757e-14,4.8396717091566384e-14,2.6748285222687866e-14,1.7689884880014692e-14,1.0204762495458857e-14,9.131950054755429e-15,6.28498001496771e-15,2.104512523360784e-15,3.4832748964644227e-15,5.268675011136182e-15,1.7822340811836012e-15,1.8604264048976614e-09,1.0719438596834888e-09,5.998490098638234e-10,3.788810307113311e-10,2.1106996407217787e-10,1.3010825798220431e-10,8.078903497246705e-11,4.917342366155219e-11,2.71799207415772e-11,1.742932797211682e-11,9.531253127843742e-12,5.864849789503837e-12,3.1032223759847314e-12,1.7717830522762876e-12,9.09884346019142e-13,4.2451142282407983e-13,1.7281597775143252e-13,9.574512202632225e-14,1.0482144381878176e-14
