Line_number,Fiducial,Easting,Northing,Height,Elevation,tx_pitch,tx_roll,tx_yaw,txrx_dx,txrx_dy,txrx_dz,rx_pitch,rx_roll,rx_yaw,S0Z_time_3.834e-04,S0Z_time_3.924e-04,S0Z_time_4.039e-04,S0Z_time_4.184e-04,S0Z_time_4.364e-04,S0Z_time_4.589e-04,S0Z_time_4.869e-04,S0Z_time_5.224e-04,S0Z_time_5.679e-04,S0Z_time_6.249e-04,S0Z_time_6.969e-04,S0Z_time_7.879e-04,S0Z_time_9.019e-04,S0Z_time_1.046e-03,S0Z_time_1.227e-03,S0Z_time_1.456e-03,S0Z_time_1.744e-03,S0Z_time_2.109e-03,S0Z_time_2.567e-03,S0Z_time_3.145e-03,S0Z_time_3.864e-03,S0Z_time_4.745e-03,S0Z_time_5.821e-03,S0Z_time_7.140e-03,S0Z_time_8.754e-03,S0Z_time_1.073e-02,S1Z_time_2.057e-05,S1Z_time_2.607e-05,S1Z_time_3.307e-05,S1Z_time_4.206e-05,S1Z_time_5.356e-05,S1Z_time_6.807e-05,S1Z_time_8.607e-05,S1Z_time_1.086e-04,S1Z_time_1.366e-04,S1Z_time_1.721e-04,S1Z_time_2.176e-04,S1Z_time_2.746e-04,S1Z_time_3.466e-04,S1Z_time_4.376e-04,S1Z_time_5.516e-04,S1Z_time_6.956e-04,S1Z_time_8.771e-04,S1Z_time_1.106e-03,S1Z_time_1.394e-03
0.0,0,0.0,0.0,30.0,0.0,0.0,0.0,0.0,-13.0,0.0,2.0,0.0,0.0,0.0,6.477043632249445e-11,5.804915859123116e-11,5.171544002998631e-11,4.63733371107792e-11,3.829529060451251e-11,3.118408483539732e-11,2.5542388528348102e-11,1.9875612312531777e-11,1.5517229972557306e-11,1.1224062641669702e-11,7.350597726474206e-12,4.796270241755489e-12,2.713574440341705e-12,1.6873112183466332e-12,1.058193405682026e-12,5.553300726376684e-13,2.684838590459491e-13,1.2791382614471704e-13,6.642204352293317e-14,3.1337889279058716e-14,1.3577287929308552e-14,5.423224960967601e-15,3.4844896987571015e-15,1.3299729009693997e-15,1.678861544660675e-15,-2.156744895685669e-16,3.439673613960969e-09,1.6083415383618837e-09,8.068966823539499e-10,4.5942580088918e-10,2.924261222704975e-10,2.00476251398344e-10,1.5381213074155223e-10,1.1565897944711771e-10,7.643022283084111e-11,5.792670349237196e-11,3.6968697326375226e-11,2.3080265995435822e-11,1.3554752193884543e-11,7.924183307915317e-12,4.1989296535358295e-12,2.1740790094145818e-12,1.04764188774021e-12,4.987470501502398e-13,2.1273072935974544e-13
0.0,1,1.0,0.0,30.0,0.0,0.0,0.0,0.0,-13.0,0.0,2.0,0.0,0.0,0.0,5.770426884576617e-11,5.46196304630389e-11,5.272783681710237e-11,4.617660914585682e-11,4.0865793668404255e-11,3.563302686377018e-11,2.7930788793637657e-11,2.242647942392781e-11,1.683898497943281e-11,1.3212268143220338e-11,8.767485772088387e-12,5.841034106415034e-12,3.741862153316812e-12,2.37528931685125e-12,1.359999875203264e-12,7.342960068129123e-13,3.604559486640973e-13,2.0009860890652417e-13,9.925559241682112e-14,4.631321673924279e-14,2.0258171023711668e-14,9.019570192175258e-15,2.565700387205445e-15,2.193963792443133e-15,3.725478786133333e-16,-2.8227728139670774e-16,3.352120215364722e-09,1.4367187404688354e-09,8.058126478104597e-10,4.4183432797633956e-10,2.840574591428482e-10,1.937524619450854e-10,1.4159081411574414e-10,1.1188142816823206e-10,7.885362045926706e-11,5.94098934561329e-11,3.8435503677650056e-11,2.416002189814188e-11,1.569645386874896e-11,9.408787958012914e-12,5.140795853744561e-12,2.724478766536275e-12,1.4056006856176596e-12,6.521199966187157e-13,2.89563605426129e-13
0.0,2,2.0,0.0,30.0,0.0,0.0,0.0,0.0,-13.0,0.0,2.0,0.0,0.0,0.0,6.380438529011647e-11,5.586562819810946e-11,4.9829812014312e-11,4.54628541834856e-11,4.138213379406778e-11,3.5614468008636846e-11,2.851584136834308e-11,2.3252774526760934e-11,1.79961298529241e-11,1.3746757258217291e-11,9.393274015729506e-12,7.049838582877157e-12,4.426581257709046e-12,2.787741210454982e-12,1.6385201829934686e-12,9.400359094641623e-13,5.413038338287023e-13,2.860435071833139e-13,1.41683804037068e-13,6.895360870887527e-14,2.996115402618031e-14,1.2506567251513395e-14,5.580251410872049e-15,3.579094355039593e-15,1.3988208529460955e-15,5.987196890464842e-16,3.5725912203090086e-09,1.538577585706536e-09,8.579766318169292e-10,4.371487405749827e-10,2.761783634802222e-10,1.7744845482068618e-10,1.3024484172426852e-10,9.946624098105364e-11,7.129352932133578e-11,5.3339832344969354e-11,3.560900432310467e-11,2.611567851229593e-11,1.5824575984808568e-11,9.50345969418487e-12,5.821363204778889e-12,3.194722213392965e-12,1.5851030433291615e-12,8.536742296171674e-13,3.8442886956268447e-13
0.0,3,3.0,0.0,30.0,0.0,0.0,0.0,0.0,-13.0,0.0,2.0,0.0,0.0,0.0,6.072244761375453e-11,5.6531587983345394e-11,5.0659607142938873e-11,4.5962572954260674e-11,3.9933138059562226e-11,3.450287347539253e-11,2.924183315560405e-11,2.4430545561496783e-11,1.9707820434597486e-11,1.4789126411852688e-11,1.0734139060197101e-11,7.693917443061348e-12,5.1518257502230886e-12,3.1720432982554734e-12,2.084655791768523e-12,1.1501648751114717e-12,6.349112619192591e-13,3.431577956114761e-13,1.7939249887710559e-13,8.467471836790716e-14,4.2224041544953905e-14,1.999821742918429e-14,7.420251224804518e-15,3.5169917963169477e-15,2.8115686036133264e-15,5.00854520177446e-16,3.523414214645573e-09,1.6621904385251038e-09,7.953588048058881e-10,4.594963541397449e-10,2.7364309448119907e-10,1.8542553907074148e-10,1.2651617521607947e-10,8.98622696104546e-11,6.760317128742817e-11,4.9142306022606424e-11,3.7048949059577016e-11,2.569674951223064e-11,1.5636071068579545e-11,1.0712605921709576e-11,6.179332138846379e-12,3.5550788457269206e-12,1.9555106534021034e-12,9.85366087556242e-13,4.812849617416218e-13
0.0,4,4.0,0.0,30.0,0.0,0.0,0.0,0.0,-13.0,0.0,2.0,0.0,0.0,0.0,5.921728509261097e-11,5.570817233355902e-11,4.8191015287042776e-11,4.41581251853485e-11,4.023929478518542e-11,3.234340619384705e-11,3.036211229029876e-11,2.5231133888921068e-11,2.0602897209115482e-11,1.505146981267965e-11,1.18302571815215e-11,8.327042048686284e-12,5.603967805444853e-12,3.801325925986954e-12,2.252189882089399e-12,1.4097565396793542e-12,7.804526024086664e-13,4.1664687256650265e-13,2.196421623672932e-13,1.1507465623128986e-13,5.228727363606296e-14,2.210018303211547e-14,1.2190399804614709e-14,6.311081367273302e-15,3.005986272928337e-15,2.0416357170844945e-15,3.3386004758210832e-09,1.5782986167696755e-09,7.727976728202899e-10,4.691222502366962e-10,2.807298038168277e-10,1.741134872798373e-10,1.2388070361413416e-10,8.914832045730548e-11,6.911407111501661e-11,4.86753719463706e-11,3.595274575304395e-11,2.381389201659226e-11,1.7835414736177994e-11,1.0352959250821958e-11,6.090201805889044e-12,3.855711660830027e-12,2.0684572145352834e-12,1.0707328343372857e-12,5.490160818568472e-13
0.0,5,5.0,0.0,30.0,0.0,0.0,0.0,0.0,-13.0,0.0,2.0,0.0,0.0,0.0,6.003698608362147e-11,5.545611697678575e-11,4.7225429993251686e-11,4.2015401721625925e-11,4.0473805354567974e-11,3.44713885943714e-11,2.8420266552126062e-11,2.5157585817313574e-11,2.0660139104784874e-11,1.630659025480689e-11,1.196206218506267e-11,8.703631246520202e-12,5.97034355063681e-12,3.789416789988311e-12,2.5361476342903156e-12,1.570786919851818e-12,9.370729938001594e-13,4.983915887369084e-13,2.736645208617038e-13,1.2724204946895148e-13,6.493611206700748e-14,3.011502602146202e-14,1.5409692308515917e-14,8.482724153699788e-15,2.6116815947386476e-15,7.705987968040113e-16,3.329325109881033e-09,1.5397892544085243e-09,8.126176913497025e-10,4.976418236350295e-10,2.9678762830044784e-10,1.8307883201669581e-10,1.2722014897157927e-10,8.992620969131579e-11,6.712007345349206e-11,4.868221908316211e-11,3.411157313309695e-11,2.368858058074963e-11,1.669697584001057e-11,1.0448467926034462e-11,6.609200161963375e-12,3.87165310706524e-12,2.287464811325743e-12,1.1109522032447378e-12,6.221711054615173e-13
0.0,6,6.0,0.0,30.0,0.0,0.0,0.0,0.0,-13.0,0.0,2.0,0.0,0.0,0.0,5.976538165851593e-11,5.502598470043873e-11,4.942961312131371e-11,4.340314620526986e-11,3.736680719775983e-11,3.267833798360105e-11,2.9544152562590074e-11,2.479584719856822e-11,1.9150912322629878e-11,1.5107137802115588e-11,1.148747458651933e-11,9.507908610937598e-12,6.581781281449278e-12,4.283000836945028e-12,2.825795869536537e-12,1.7334974203191604e-12,9.608371988647392e-13,5.764453942731945e-13,2.9081420576569146e-13,1.5545250081640143e-13,7.787294731268459e-14,3.762207431435103e-14,1.7387480952555985e-14,8.009514677374353e-15,4.9482901836022865e-15,2.1613682294097283e-15,3.3312772659816126e-09,1.5471668100705858e-09,7.708800438799255e-10,4.431121295346127e-10,2.8640598399050164e-10,1.7921378766486853e-10,1.3021247043390847e-10,9.074086014560628e-11,6.33575320581942e-11,4.387098227965954e-11,3.3034499867592095e-11,2.36224592734455e-11,1.611452348800309e-11,1.0499886226762937e-11,6.810767841056311e-12,3.845018876986287e-12,2.3255848240842293e-12,1.3240458641798467e-12,6.401798000234837e-13
0.0,7,7.0,0.0,30.0,0.0,0.0,0.0,0.0,-13.0,0.0,2.0,0.0,0.0,0.0,5.871684479383265e-11,5.48101789348224e-11,5.0792455996486747e-11,4.383164987768469e-11,4.0370377827484805e-11,3.287832776559212e-11,2.7079809066181494e-11,2.3943570735842117e-11,2.0192447621821927e-11,1.6688604248968037e-11,1.2344242085517023e-11,9.318075621585125e-12,6.47437322815625e-12,4.6228250647538196e-12,2.940293118984447e-12,1.9611947328940087e-12,1.1058612896664402e-12,6.158937120319614e-13,3.5638220634539487e-13,1.824319483479872e-13,9.296198676106355e-14,4.602816244679746e-14,2.1154793487269333e-14,8.450833306640665e-15,6.1306910522117885e-15,2.0510509359605516e-15,3.4320796312314323e-09,1.5075103927795638e-09,7.890174878609068e-10,4.346402753658344e-10,2.8433914646431983e-10,1.8981450038327334e-10,1.343887850712414e-10,9.923389413002526e-11,6.70419812204688e-11,4.5684504559514576e-11,3.0340333095879087e-11,2.2199513482096737e-11,1.5114430933490745e-11,1.035671013585363e-11,6.919764477477538e-12,4.261296159556648e-12,2.257904043407649e-12,1.3024904508463046e-12,7.036354610010369e-13
0.0,8,8.0,0.0,30.0,0.0,0.0,0.0,0.0,-13.0,0.0,2.0,0.0,0.0,0.0,6.001161025676306e-11,5.6716048241168604e-11,4.881992940944346e-11,4.3706988579622054e-11,4.0551116349548125e-11,3.335728934124048e-11,2.8905435162587715e-11,2.4511403953281777e-11,1.9672185384223404e-11,1.632265958712929e-11,1.2191276181235193e-11,8.429575868840628e-12,6.675489317787885e-12,4.692022338999865e-12,3.118688519738203e-12,1.909448336089993e-12,1.2537881619484935e-12,6.79074512255925e-13,4.0462852060027365e-13,2.0443197999173248e-13,1.0569678037016269e-13,5.231594938012958e-14,2.5744468986527082e-14,1.1339143446961991e-14,5.5842820439332854e-15,3.3409822429605884e-15,3.210846650942884e-09,1.4750807354347549e-09,7.855243439619216e-10,4.5535471947085367e-10,2.8474278723630806e-10,1.876471056485283e-10,1.376113194360622e-10,9.168575004654334e-11,6.440375315106251e-11,4.624520824108915e-11,3.077416834492075e-11,2.153339128254969e-11,1.5119041025739968e-11,1.0098365824911382e-11,6.610198155717585e-12,3.889517384938008e-12,2.5723721162438977e-12,1.2533881938798517e-12,7.426565918367496e-13
0.0,9,9.0,0.0,30.0,0.0,0.0,0.0,0.0,-13.0,0.0,2.0,0.0,0.0,0.0,6.02147505628536e-11,5.4609588058026527e-11,4.90110946795206e-11,4.437312320228512e-11,3.819022068288628e-11,3.418174293960871e-11,2.8190136095955846e-11,2.4006833109525622e-11,2.0194838774516722e-11,1.5909246430151455e-11,1.2805991188066e-11,9.302578460092032e-12,6.6720086112613265e-12,5.099818335808414e-12,3.2727163847641863e-12,1.9935373564546394e-12,1.2971400183164831e-12,7.568478588137055e-13,4.368739514192147e-13,2.381978113583536e-13,1.212808346359381e-13,6.048271835564274e-14,2.8913112995325754e-14,1.4219526820369756e-14,5.823796883587862e-15,3.721546786823082e-15,3.4586859003767135e-09,1.5535927601025504e-09,8.035429317937983e-10,4.581913448554703e-10,2.8068802819408016e-10,2.0577356496903942e-10,1.415122639848807e-10,9.61200181091476e-11,7.015117538674262e-11,4.423157981841506e-11,3.199860943937745e-11,2.253738323938619e-11,1.5458825722614864e-11,1.0505890843579958e-11,6.8077491927227225e-12,4.096525072927595e-12,2.5985378900193546e-12,1.3961312582952537e-12,7.575068149984268e-13
0.0,10,10.0,0.0,30.0,0.0,0.0,0.0,0.0,-13.0,0.0,2.0,0.0,0.0,0.0,5.902310139510624e-11,5.7937342346683925e-11,4.995259984965247e-11,4.4475038690042975e-11,3.918014921608325e-11,3.486204083554192e-11,2.5809257425882818e-11,2.41284675075258e-11,1.9537909296932772e-11,1.592867181121499e-11,1.2591278948852638e-11,9.427398140533582e-12,6.849148766976721e-12,4.970984907402576e-12,3.495765104234361e-12,2.077490018311842e-12,1.4509133058422749e-12,8.257052807301938e-13,4.699538350202429e-13,2.406367270287099e-13,1.28163702273099e-13,6.227916554274069e-14,3.192099486051887e-14,1.5291391791921783e-14,7.167360120311306e-15,4.782902096888318e-15,3.3878644980441547e-09,1.4456615854913218e-09,7.711150266862723e-10,4.5180489047750407e-10,2.9114868032732145e-10,1.956897656417552e-10,1.4657773654134149e-10,9.597208868476691e-11,6.732006720765923e-11,4.765014658922656e-11,3.263047704290697e-11,2.3511283959158923e-11,1.4986571547017508e-11,1.0045034626269154e-11,6.280204237129817e-12,4.062577085577044e-12,2.551946919397128e-12,1.4802071788630942e-12,7.901287837158633e-13
0.0,11,11.0,0.0,30.0,0.0,0.0,0.0,0.0,-13.0,0.0,2.0,0.0,0.0,0.0,6.179848209893429e-11,5.998429305116303e-11,5.039271906931907e-11,4.442268958058626e-11,3.8981372558125986e-11,3.6043232589653e-11,2.718076493810882e-11,2.241409912809674e-11,1.9148565832738354e-11,1.605337934167638e-11,1.2165534925779981e-11,8.939783832838681e-12,6.591919205887049e-12,5.01105394373154e-12,3.5187138524338298e-12,2.2244458796160902e-12,1.427081502847292e-12,8.110596982288962e-13,5.081834495602751e-13,2.5869811472207175e-13,1.508175995641163e-13,7.193955796215603e-14,3.962038635445458e-14,1.824130350882589e-14,6.006254076369804e-15,5.562098333972939e-15,3.213485521773321e-09,1.4925078963801303e-09,7.681683643787784e-10,4.811732262426827e-10,3.082002523072228e-10,2.058591214468342e-10,1.4063006388814718e-10,1.0605614262465524e-10,7.551839302956511e-11,4.961175136203356e-11,3.405143905934988e-11,2.156162554626476e-11,1.5126834171726e-11,9.659325372431517e-12,6.338601856363917e-12,4.066966092391635e-12,2.4385905524266005e-12,1.4169214006087783e-12,8.387043206536835e-13
0.0,12,12.0,0.0,30.0,0.0,0.0,0.0,0.0,-13.0,0.0,2.0,0.0,0.0,0.0,6.328476758020462e-11,5.928804992900232e-11,5.353189262429463e-11,4.482175728736487e-11,4.232392879354314e-11,3.3296106903795785e-11,2.8788251575163576e-11,2.3613689344896782e-11,1.972150330938681e-11,1.518597471376661e-11,1.1652667085236207e-11,9.542239206125486e-12,6.744024638377605e-12,5.293356059350932e-12,3.536500108578966e-12,2.3360027431560216e-12,1.4529351875038567e-12,8.881159360531499e-13,5.180344682563225e-13,2.9972236776739e-13,1.5416807114586613e-13,8.070915977799915e-14,3.8711827572041027e-14,2.1057346261850928e-14,1.0858862851443545e-14,3.474604406235062e-15,3.194163135288701e-09,1.4835405758862715e-09,7.879187178253625e-10,4.558020343097985e-10,3.0055352615322874e-10,1.9887268665396214e-10,1.4523539669983604e-10,1.0279006987550422e-10,7.052458700570692e-11,4.3457334156194677e-11,3.460277983724784e-11,2.1981828768218985e-11,1.414529323079167e-11,1.0111201088990756e-11,6.3478514116503105e-12,3.9766147438985755e-12,2.3792935765494116e-12,1.43090236004646e-12,8.147400884407077e-13
0.0,13,13.0,0.0,30.0,0.0,0.0,0.0,0.0,-13.0,0.0,2.0,0.0,0.0,0.0,6.417583467199435e-11,5.945103570187099e-11,4.8064169233735724e-11,4.556165571662207e-11,4.085906045682769e-11,3.349237880028253e-11,2.843821176553842e-11,2.2887284582728492e-11,1.9790665753227948e-11,1.567952023264394e-11,1.2675397487931765e-11,9.205191039414603e-12,7.128115644657185e-12,4.992059562297286e-12,3.548523500510266e-12,2.4233043778778446e-12,1.5420541425215433e-12,9.485978299556419e-13,5.687858972934217e-13,2.9581011886611103e-13,1.676538742256221e-13,8.125514139775152e-14,4.34378983068985e-14,2.1700516212670435e-14,1.1781588080415655e-14,4.441153185260155e-15,3.2434246142210845e-09,1.4473064699331616e-09,7.904369899806468e-10,4.996766227394481e-10,3.124960166050334e-10,2.0828936486302173e-10,1.4687159535626946e-10,1.0537192847073282e-10,7.181484345944148e-11,4.779505298671704e-11,3.363271041340561e-11,2.2113961417244377e-11,1.5090223373282444e-11,9.464015725827565e-12,5.983157821176818e-12,3.9758918322449355e-12,2.4822293465480627e-12,1.4921208848773688e-12,8.031290432632044e-13
0.0,14,14.0,0.0,30.0,0.0,0.0,0.0,0.0,-13.0,0.0,2.0,0.0,0.0,0.0,6.48093531429673e-11,5.858833433924061e-11,5.111590731932062e-11,4.536206192659892e-11,3.940404708165691e-11,3.5345767475952414e-11,3.088204371957692e-11,2.4026645729904817e-11,1.91200941579669e-11,1.5223483400193513e-11,1.2055839483329004e-11,9.040551451493394e-12,7.039449025000984e-12,5.121922669988442e-12,3.5239373763128585e-12,2.207721681783057e-12,1.5881217401085838e-12,9.655639985876885e-13,5.629160533606364e-13,3.124550056615105e-13,1.785307624003867e-13,8.961432340369446e-14,4.525924577283061e-14,2.2495001589803048e-14,1.270130628820192e-14,6.5180375941952295e-15,3.1970525975560815e-09,1.4272121102971958e-09,7.904238673808524e-10,4.6565215305376285e-10,3.1522229677060927e-10,2.0592081839125327e-10,1.524870635604819e-10,1.0569307975778234e-10,7.623750870662035e-11,4.922544145576352e-11,3.3645577092016587e-11,2.165220924072424e-11,1.4367474578520448e-11,9.702250673986161e-12,6.0289536128692575e-12,4.004691545789582e-12,2.3738048760322623e-12,1.4104646149825866e-12,8.253264098306997e-13
0.0,15,15.0,0.0,30.0,0.0,0.0,0.0,0.0,-13.0,0.0,2.0,0.0,0.0,0.0,6.495337754952005e-11,6.06463845549524e-11,5.39349394974937e-11,4.901054666304321e-11,4.096656388186e-11,3.4047167399758115e-11,2.8795529217278427e-11,2.5312178860956537e-11,1.9804904384114177e-11,1.5985036836926592e-11,1.204424386868372e-11,8.973619041678375e-12,7.287834573366048e-12,4.940764212705921e-12,3.4818441113553327e-12,2.4262521519200293e-12,1.6051815158128465e-12,1.0184821202921433e-12,6.182939999723275e-13,3.384219847068842e-13,1.7915265164857729e-13,1.009640618626794e-13,5.302143007469052e-14,2.60742759771579e-14,1.2954085242201841e-14,5.441494279442128e-15,3.0634364835957334e-09,1.5207180508125822e-09,8.031256198473692e-10,4.915799597709118e-10,3.131409511081e-10,2.2039679702630077e-10,1.5479684715927341e-10,1.0948419389023711e-10,7.29068415864685e-11,5.1969152322099185e-11,3.402552883371797e-11,2.3796837084287172e-11,1.512305205009444e-11,9.532755233871955e-12,6.190348936960917e-12,3.8756276322752174e-12,2.2821629905457656e-12,1.4944206596031654e-12,8.589238777687886e-13
0.0,16,16.0,0.0,30.0,0.0,0.0,0.0,0.0,-13.0,0.0,2.0,0.0,0.0,0.0,6.707054393488852e-11,5.8023171306872264e-11,5.688822353230732e-11,4.842461558871156e-11,4.0606539067856335e-11,3.5819894538770064e-11,3.091190774568586e-11,2.4275384272378336e-11,1.980651573234535e-11,1.5788712115366144e-11,1.2515035804653923e-11,9.13667137640151e-12,6.895813344621057e-12,5.168437095664448e-12,3.6154907666198777e-12,2.509152083582631e-12,1.592596658865309e-12,1.0175678727900717e-12,6.25094596681564e-13,3.7001749238557057e-13,1.876012676527231e-13,1.0687827178199731e-13,5.3490574063350363e-14,2.8272309774226608e-14,1.3740624760662824e-14,5.315727858289917e-15,3.1564319385799695e-09,1.4208717667638365e-09,7.86846999997424e-10,4.800580579351344e-10,3.2391574274387984e-10,2.230973284733071e-10,1.556468472209243e-10,1.0996907620617345e-10,7.688051203240449e-11,5.2086007969165363e-11,3.715274775659904e-11,2.4247308374443745e-11,1.5129274974842583e-11,9.698830834756094e-12,5.883015633139263e-12,3.6846066188833e-12,2.4800862139723625e-12,1.353509296030865e-12,8.700301458988417e-13
0.0,17,17.0,0.0,30.0,0.0,0.0,0.0,0.0,-13.0,0.0,2.0,0.0,0.0,0.0,7.049347859311984e-11,6.087902192801788e-11,5.846561657114293e-11,4.590811912299725e-11,4.196136947140086e-11,3.563324209660918e-11,3.0737229540686315e-11,2.6604971637221184e-11,1.9382551217463522e-11,1.5933628317087888e-11,1.2153370784331986e-11,9.45813082027328e-12,6.891536879027154e-12,5.065893454584027e-12,3.5865179299601025e-12,2.381940114738006e-12,1.5688203218824594e-12,1.028322915019379e-12,5.950273749960485e-13,3.8801157933770896e-13,2.1350696199413334e-13,1.0891636404324469e-13,5.96096316241552e-14,2.85216694789123e-14,1.4744972700111923e-14,6.614805171774463e-15,3.0829714311190895e-09,1.4335413464758777e-09,8.104194033411359e-10,4.811924974570058e-10,3.4408908286730407e-10,2.1659268762713244e-10,1.6083937186396165e-10,1.0989971208864615e-10,8.151334572845305e-11,5.872312350334976e-11,3.491644502837604e-11,2.4337499888987565e-11,1.6444805812968133e-11,1.0224017878211113e-11,6.089065682367072e-12,3.892063472790522e-12,2.2773788729924334e-12,1.4023725111049196e-12,7.733229061268514e-13
0.0,18,18.0,0.0,30.0,0.0,0.0,0.0,0.0,-13.0,0.0,2.0,0.0,0.0,0.0,6.992272112452309e-11,5.8945209047882e-11,5.83046165173022e-11,4.947558084857591e-11,4.58299693775181e-11,3.719443324698453e-11,3.203839540351172e-11,2.479497941509649e-11,1.9760244166713438e-11,1.6231046377600106e-11,1.2129871669758089e-11,9.402990585956112e-12,6.9615475178700886e-12,5.027875774663908e-12,3.446131322093413e-12,2.501091103131658e-12,1.6583439972867824e-12,1.119106607040659e-12,6.341218396322939e-13,3.753903108395029e-13,2.0064961201754238e-13,1.1916002841536676e-13,5.527149546234457e-14,3.086985183657388e-14,1.6562835088490212e-14,8.04136729312376e-15,3.0740975707723804e-09,1.501287116709269e-09,7.796100197974554e-10,4.922204355745829e-10,3.3161118571739365e-10,2.4400119648268406e-10,1.693174370778908e-10,1.1525476482974556e-10,8.072495919210117e-11,5.581376152914374e-11,3.6423332048710895e-11,2.58987053926323e-11,1.513199887859423e-11,1.0336741024309706e-11,6.5056248093941665e-12,3.724965882881806e-12,2.2605841568749966e-12,1.3258245748393615e-12,7.703840829047923e-13
0.0,19,19.0,0.0,30.0,0.0,0.0,0.0,0.0,-13.0,0.0,2.0,0.0,0.0,0.0,7.265976409174191e-11,6.394453485674093e-11,5.473646183970123e-11,4.9714072876715283e-11,4.38769792066093e-11,3.885112590791361e-11,3.1246795676231925e-11,2.6324505016529145e-11,2.1246660855357113e-11,1.652627560221426e-11,1.2302662251266993e-11,1.030896642866066e-11,7.301549175598517e-12,5.189941853650584e-12,3.6124841738301683e-12,2.4327607219814086e-12,1.7067626704351584e-12,1.045961945970693e-12,6.431003614552586e-13,4.072369511943691e-13,2.0675937539499307e-13,1.181883960083267e-13,6.39011909827237e-14,3.241994436194844e-14,1.6521488729266562e-14,8.269310412828691e-15,3.0228716764387765e-09,1.4561747204225738e-09,8.241846876888862e-10,5.129409350534667e-10,3.5899534083885567e-10,2.243875513781325e-10,1.7564011533605556e-10,1.2481464985430047e-10,8.031112385454384e-11,5.3218432066041936e-11,3.7791575624507375e-11,2.6444101066904833e-11,1.63346160831223e-11,1.0130536360540494e-11,6.256975168336571e-12,3.7940201714271215e-12,2.4589658967792515e-12,1.2691595811650958e-12,8.090873861471344e-13
0.0,20,20.0,0.0,30.0,0.0,0.0,0.0,0.0,-13.0,0.0,2.0,0.0,0.0,0.0,7.122025536670164e-11,6.430453409411349e-11,6.075451527554424e-11,5.1841160640476025e-11,4.6636354914853914e-11,4.000463465976193e-11,2.8698465116022942e-11,2.499363801987144e-11,2.069625974607532e-11,1.6972233767334742e-11,1.2154477850115362e-11,9.423337277312897e-12,7.454438824382537e-12,5.161704734966999e-12,3.712931610273674e-12,2.5168408705481254e-12,1.724877597364412e-12,1.109188276085281e-12,6.803733897608134e-13,3.9416056177982733e-13,2.246208713794822e-13,1.1884708865467664e-13,6.536257338518352e-14,3.380361256867032e-14,1.858968540247314e-14,6.978694007424626e-15,2.7923590577871413e-09,1.4198772870629505e-09,8.00927450418166e-10,5.135054060769021e-10,3.510643787307933e-10,2.433395054024542e-10,1.6683212231330477e-10,1.2385023046363058e-10,8.069892398139282e-11,5.712870114986152e-11,3.8943590186205123e-11,2.5903453228908733e-11,1.6441423432662284e-11,1.0021756603340466e-11,6.19285673924525e-12,3.930543584359579e-12,2.31174005675546e-12,1.334838530144103e-12,8.395303982192064e-13
0.0,21,21.0,0.0,30.0,0.0,0.0,0.0,0.0,-13.0,0.0,2.0,0.0,0.0,0.0,7.548799022929809e-11,6.672215713399878e-11,5.7353214905635387e-11,5.480746354192514e-11,4.5258941931173885e-11,3.941662700094043e-11,3.284651225743687e-11,2.642451254596583e-11,2.1599300938578762e-11,1.716135052536524e-11,1.279274507956871e-11,9.65902966268793e-12,7.082191911431562e-12,5.3118824235130725e-12,3.5796054665824002e-12,2.468371820393112e-12,1.6378537898841245e-12,1.0374391128048298e-12,6.424049806916376e-13,4.0992710347112025e-13,2.370235151668757e-13,1.3051916550037672e-13,7.196778926543283e-14,3.7167631487172883e-14,1.808847232035942e-14,8.674371795816877e-15,3.1288805488002364e-09,1.3671990427415976e-09,7.798124228815531e-10,5.057443611178289e-10,3.701959308753035e-10,2.481328741835686e-10,1.7826302721766799e-10,1.2207495772564e-10,8.460839015481733e-11,6.02695947148406e-11,3.8150887032290895e-11,2.5980319068068997e-11,1.6502907165168584e-11,1.0340625850792847e-11,6.796352520474735e-12,4.058252828821324e-12,2.4080883259215506e-12,1.3885378783872624e-12,8.148662385174135e-13
0.0,22,22.0,0.0,30.0,0.0,0.0,0.0,0.0,-13.0,0.0,2.0,0.0,0.0,0.0,7.449941675886408e-11,6.755916218964989e-11,5.909756954537378e-11,5.2063622940134474e-11,4.7834582652205036e-11,4.101523851708126e-11,3.3829810079566414e-11,2.6831768120700985e-11,2.1626439014030673e-11,1.7485413350790306e-11,1.3402744861879473e-11,9.626526524283767e-12,7.066191535016343e-12,4.938092491348618e-12,3.642504436802469e-12,2.4188419576724412e-12,1.6209969514236888e-12,1.0560961066139747e-12,6.931072735950447e-13,4.3217821761387027e-13,2.428751109457794e-13,1.3179921657704177e-13,7.519579088677232e-14,3.7982087572517003e-14,2.0427920717537236e-14,1.0086556042784358e-14,2.8596111831921306e-09,1.3784546144033277e-09,8.014613614533237e-10,5.392000084883683e-10,3.2185395422154097e-10,2.4595505224048793e-10,1.7657461450422178e-10,1.2531094402354953e-10,9.05717464232791e-11,6.07555292446877e-11,4.078986401306519e-11,2.7613470102544645e-11,1.6390341592729e-11,1.0921312260920037e-11,6.619235005175557e-12,3.9683681316445045e-12,2.2903520628298623e-12,1.3112890632945631e-12,8.292001045765032e-13
0.0,23,23.0,0.0,30.0,0.0,0.0,0.0,0.0,-13.0,0.0,2.0,0.0,0.0,0.0,7.515552171255687e-11,6.49317667822865e-11,6.239588803210776e-11,5.3197486046920764e-11,4.56635278150037e-11,3.9704387214273714e-11,3.407223242641915e-11,2.6416897413641982e-11,2.2468982938421536e-11,1.6906737070326905e-11,1.314728079774973e-11,9.216600484827188e-12,7.389274523236312e-12,5.044949518161373e-12,3.744368147499698e-12,2.4571261649773634e-12,1.6542089928543654e-12,1.0702763112533252e-12,6.682407957678957e-13,4.28242569780296e-13,2.4694842906238514e-13,1.410194681775588e-13,7.59566762708853e-14,4.0405705781296296e-14,2.127313535252091e-14,9.914519526186769e-15,3.0277193120128758e-09,1.3986084940980648e-09,8.291273164967756e-10,5.369413556404809e-10,3.762870996108837e-10,2.553813398031107e-10,1.8611855365030803e-10,1.2636218931698642e-10,9.157961889854057e-11,5.833673242161833e-11,3.8065270219675274e-11,2.7392573287100365e-11,1.7666487207067725e-11,1.1112943957408261e-11,6.5032818598357256e-12,4.095248148019601e-12,2.3047906425697676e-12,1.3933750661638734e-12,7.763472776692699e-13
0.0,24,24.0,0.0,30.0,0.0,0.0,0.0,0.0,-13.0,0.0,2.0,0.0,0.0,0.0,7.724529518302403e-11,6.849268133088358e-11,6.290111644313359e-11,5.262293019946917e-11,4.49783246029194e-11,4.1725498772984017e-11,3.451682172646293e-11,2.8962563899118936e-11,2.3101727205719174e-11,1.7238993872761502e-11,1.3367835249967766e-11,9.963170591430302e-12,6.931549394895255e-12,5.018224281369725e-12,3.608128464312255e-12,2.5255418175629177e-12,1.689541414342752e-12,1.0828224192049344e-12,6.931863287709882e-13,4.2423171326998366e-13,2.498106634303147e-13,1.4089937872245258e-13,7.786235735578923e-14,4.132463901310315e-14,2.032338809146155e-14,9.565644410060183e-15,2.982021705975451e-09,1.4140610893916642e-09,8.296397833348836e-10,5.416079749456492e-10,3.733654736019803e-10,2.7716941659191717e-10,1.8636927359193263e-10,1.3375339861561135e-10,9.075963436349752e-11,5.936985768205856e-11,4.119048946930803e-11,2.7533020008716596e-11,1.7534475474895493e-11,1.1387342554899492e-11,6.878112712052485e-12,4.0639802998016055e-12,2.371259498700949e-12,1.3780770794264503e-12,7.85925639867558e-13
0.0,25,25.0,0.0,30.0,0.0,0.0,0.0,0.0,-13.0,0.0,2.0,0.0,0.0,0.0,7.911656830385123e-11,7.710657539423043e-11,6.503756683869779e-11,5.6061918060987465e-11,4.9557645965237476e-11,4.1175979086445575e-11,3.495465033291964e-11,2.663913013266493e-11,2.3603032750588797e-11,1.837081166683537e-11,1.336287946632605e-11,9.957551859175826e-12,7.390971542922476e-12,5.161661501919842e-12,3.530778818536602e-12,2.3514609134524394e-12,1.6540239494910732e-12,1.09837845651018e-12,7.160026175304842e-13,4.270300815004499e-13,2.4722222967625375e-13,1.3577236812903524e-13,7.875932823412627e-14,4.209197841246734e-14,2.2758393154044695e-14,1.3509855348400778e-14,2.876467521457423e-09,1.471804317567947e-09,8.283888876109503e-10,5.695710761155719e-10,3.8259032469096085e-10,2.6284827139320043e-10,2.059018228506614e-10,1.254550835983046e-10,8.8060066988448e-11,6.531606331495391e-11,4.2129580581149e-11,2.8282890578623526e-11,1.856247702763618e-11,1.1207325775483414e-11,6.741349907874593e-12,4.105434078332858e-12,2.4440808284513678e-12,1.3483245522753017e-12,8.116394705981832e-13
0.0,26,26.0,0.0,30.0,0.0,0.0,0.0,0.0,-13.0,0.0,2.0,0.0,0.0,0.0,7.960898298364364e-11,7.148036012339645e-11,6.18892368411732e-11,6.0129531635308e-11,4.6658413578190064e-11,4.139268745586631e-11,3.547568224835712e-11,2.8372361653065353e-11,2.387005239404637e-11,1.8958181348455415e-11,1.3620360164385905e-11,1.0220845604287185e-11,7.351433414239377e-12,5.4484606948077126e-12,3.5322999995567784e-12,2.5913132233180955e-12,1.6361913321105983e-12,1.0943160298352635e-12,6.843517140451794e-13,4.461337302415739e-13,2.5371179267495446e-13,1.503663582143933e-13,7.81268272231504e-14,4.6222023157250624e-14,1.9165478982215328e-14,1.0545273673984666e-14,2.9968283952445786e-09,1.3997590136150587e-09,8.20144471385828e-10,5.708272419916519e-10,3.7633441378190226e-10,2.600376566150286e-10,1.9154854857435908e-10,1.3947440561224677e-10,9.468196013972936e-11,6.557342738546307e-11,4.318171940476035e-11,2.7422448332246355e-11,1.848061019097679e-11,1.1329846685938175e-11,7.11996743365819e-12,4.297640386008887e-12,2.456954624988689e-12,1.384423293357031e-12,8.308965693545245e-13
0.0,27,27.0,0.0,30.0,0.0,0.0,0.0,0.0,-13.0,0.0,2.0,0.0,0.0,0.0,7.85925440114572e-11,7.322695571186954e-11,6.450167265128977e-11,5.603136716252416e-11,5.1457766524129947e-11,4.2932686175060796e-11,3.7207838363379266e-11,2.9393573603924703e-11,2.3030557604879366e-11,1.7848674759968668e-11,1.4709599233499537e-11,1.0557495857682232e-11,7.485390482226832e-12,5.532850504540298e-12,3.63999481431525e-12,2.536976752234369e-12,1.6021991853256484e-12,1.1015671201753286e-12,7.131130669559892e-13,4.7239691408547e-13,2.535126269229374e-13,1.5026830905513403e-13,8.318481572987934e-14,4.558709360207247e-14,2.223620585784682e-14,1.2282203557180856e-14,2.8950755222143362e-09,1.3634845413978677e-09,8.524576894950306e-10,5.986798071991254e-10,3.87168179748785e-10,2.6698910738842753e-10,2.0453261454133143e-10,1.400492466412939e-10,1.0150464461524861e-10,6.689684460476482e-11,4.467556208372143e-11,3.060062764630399e-11,1.8995056223412305e-11,1.185471494684896e-11,7.2378350818090024e-12,4.5419600831781564e-12,2.4982162783357933e-12,1.4065943492370865e-12,8.303558623383528e-13
0.0,28,28.0,0.0,30.0,0.0,0.0,0.0,0.0,-13.0,0.0,2.0,0.0,0.0,0.0,8.130543276378834e-11,7.879446531713587e-11,6.691430852036717e-11,5.903312319559245e-11,5.2312981020993165e-11,4.408053623688768e-11,3.428264127476071e-11,3.0463347002734094e-11,2.4951415372440954e-11,1.823053657502032e-11,1.3885732060767908e-11,1.02720850050474e-11,7.353404014362136e-12,5.259782842489481e-12,3.969532374867982e-12,2.4838420801961536e-12,1.6875050917007525e-12,1.1591105839024159e-12,7.186053599208616e-13,4.526718680036197e-13,2.5286033072990417e-13,1.5733818525934324e-13,8.119985354805259e-14,4.570672081514826e-14,2.2315549390674676e-14,1.1690840431908097e-14,2.7627061973315653e-09,1.424577298643131e-09,8.761932589239719e-10,6.024861057644136e-10,3.9582942623602687e-10,3.019896397018188e-10,1.950942431861289e-10,1.4219077340735112e-10,9.94576765836955e-11,7.058929529856854e-11,4.7500082270446106e-11,3.011262377380294e-11,1.9110758873365774e-11,1.2032088492170587e-11,7.188875045684569e-12,4.499871151197889e-12,2.385469193352771e-12,1.393893361776352e-12,8.036762340660619e-13
0.0,29,29.0,0.0,30.0,0.0,0.0,0.0,0.0,-13.0,0.0,2.0,0.0,0.0,0.0,8.342480311417121e-11,7.725166044870851e-11,6.593671083857225e-11,6.047048337270648e-11,5.534018980493696e-11,4.4490241541060024e-11,3.681686457570104e-11,3.1128942911794614e-11,2.407622040712342e-11,1.7780176937706e-11,1.4646508263660146e-11,1.0415249922223045e-11,7.745970707609066e-12,5.354923211226954e-12,3.710392918394818e-12,2.4092157406997423e-12,1.6764056645273527e-12,1.1250087958528779e-12,7.107070612324905e-13,4.554283630023027e-13,2.5232698582444613e-13,1.5174579441097295e-13,8.747961471129456e-14,4.502867361524119e-14,2.2749294308822515e-14,1.1401987013532757e-14,2.8524819126056012e-09,1.4462225883173233e-09,8.879524903208693e-10,5.828183227133156e-10,4.1646157406786455e-10,2.7653859447514574e-10,2.0484844771991644e-10,1.4549692449485165e-10,9.480000104375084e-11,7.005068257554778e-11,4.539407053288216e-11,2.949208874096348e-11,1.8220682174565756e-11,1.2610314070791851e-11,7.593811281419675e-12,4.427643639620039e-12,2.614629825268349e-12,1.5349688108663962e-12,8.332867971627392e-13
0.0,30,30.0,0.0,30.0,0.0,0.0,0.0,0.0,-13.0,0.0,2.0,0.0,0.0,0.0,8.584263367239664e-11,7.724936981774517e-11,7.037716336633087e-11,6.026456039353914e-11,5.355866060230467e-11,4.622020345172769e-11,3.921786001077156e-11,3.082826426609326e-11,2.2967547069231733e-11,1.8936864020835252e-11,1.4270073027177508e-11,1.0351497346379054e-11,7.829212760875493e-12,5.5870177137042955e-12,3.8649855994271305e-12,2.48096937481775e-12,1.6124117547597439e-12,1.15183414604099e-12,7.360490312825273e-13,4.57571007772244e-13,2.646656726705142e-13,1.5938952796319314e-13,8.387246986081664e-14,4.7157180193913005e-14,2.6141770296446456e-14,1.230501013784318e-14,2.8152503955920917e-09,1.3745322742354666e-09,8.923904688237188e-10,6.257482323951597e-10,4.147051805471246e-10,2.9529305835573716e-10,2.051457587451508e-10,1.4302027093204626e-10,1.0296128379710704e-10,7.232734078396218e-11,4.779250149274138e-11,3.1995480246950204e-11,2.005737752705108e-11,1.2598814968027042e-11,7.378041287881444e-12,4.573465394050142e-12,2.6652668027973267e-12,1.4984551336708875e-12,8.282605366586153e-13
0.0,31,31.0,0.0,30.0,0.0,0.0,0.0,0.0,-13.0,0.0,2.0,0.0,0.0,0.0,8.81944430767984e-11,7.813040902777983e-11,6.831724119982279e-11,6.531560939963555e-11,5.504018758928796e-11,4.3824731983509006e-11,4.109994230539943e-11,3.108955264554606e-11,2.561340639885146e-11,1.9804214123123225e-11,1.484623575390164e-11,1.0969570472456567e-11,7.623034109357774e-12,5.685497318913564e-12,3.609121251702088e-12,2.505445225303187e-12,1.7044074427014074e-12,1.1397986802269758e-12,7.010660058714906e-13,4.4117047309575934e-13,2.879021126539349e-13,1.536842137785207e-13,8.721121154601826e-14,4.669618025890894e-14,2.4731941669885945e-14,1.1952169116932606e-14,2.804267479341475e-09,1.4773887202587744e-09,9.356861279608162e-10,5.935904773460637e-10,4.2962419853762626e-10,2.9108682200595463e-10,2.085035124919635e-10,1.5332928605263556e-10,1.0736657842708731e-10,6.804234717778993e-11,4.378302709896765e-11,2.9248073193817046e-11,2.0656979874033722e-11,1.2090134663809177e-11,7.747434747323066e-12,4.561130621660191e-12,2.718416500514223e-12,1.4313729268936485e-12,8.54782426232711e-13
0.0,32,32.0,0.0,30.0,0.0,0.0,0.0,0.0,-13.0,0.0,2.0,0.0,0.0,0.0,8.825162717300247e-11,8.542693980438675e-11,7.474670490013695e-11,6.376921242231207e-11,5.47653427744489e-11,4.791094291975181e-11,3.83493088643041e-11,3.209508989276677e-11,2.4917215963077577e-11,1.952986241671125e-11,1.521174503550634e-11,1.1033316974353133e-11,7.929854086029519e-12,5.54707835248532e-12,3.8829203234283685e-12,2.6409581917005207e-12,1.6944511910872454e-12,1.0769058465068974e-12,7.35827396690757e-13,4.394034516096015e-13,2.6036120888617085e-13,1.63240623215809e-13,9.016882425953894e-14,4.568599835995045e-14,2.8397625457419698e-14,1.4144593540224623e-14,2.807491310918738e-09,1.4551099139121354e-09,9.400354852538647e-10,6.22484974554079e-10,4.216746637122848e-10,3.1946911684801446e-10,2.228350104585386e-10,1.6431197849441626e-10,1.0691550843133233e-10,6.939562419640025e-11,4.884740800375134e-11,2.8781236973085064e-11,2.0086149068687338e-11,1.2973675817725298e-11,7.945278390330023e-12,4.560976150158913e-12,2.7507563681319353e-12,1.527209664044059e-12,8.145842668274209e-13
0.0,33,33.0,0.0,30.0,0.0,0.0,0.0,0.0,-13.0,0.0,2.0,0.0,0.0,0.0,9.468717497303345e-11,8.532564576464859e-11,7.071336585322621e-11,6.79619796676032e-11,5.6357240232194615e-11,4.771725573941388e-11,3.9866702821012116e-11,3.2362418691143056e-11,2.541019514379854e-11,1.8642234139673608e-11,1.5196294422214704e-11,1.1403556898464955e-11,7.662839557244214e-12,5.463905891684443e-12,3.81652839574566e-12,2.5853649882764086e-12,1.7414838305688165e-12,1.1140796645107695e-12,7.428460659893112e-13,4.3337755824207424e-13,2.745150462830611e-13,1.567599171286202e-13,8.444287015967096e-14,5.093940045539217e-14,2.4669090292169082e-14,1.5867793934291404e-14,2.732180031417931e-09,1.5073880226187289e-09,9.470217116131503e-10,6.7158381749832e-10,4.671492390845346e-10,3.217768544427289e-10,2.366346915149132e-10,1.565180984641703e-10,1.1177183454365039e-10,7.451548481035361e-11,5.0475205898860085e-11,3.354497293303029e-11,2.048194252204195e-11,1.3059327019461499e-11,7.953926681724699e-12,4.64457445078948e-12,2.6469783996691843e-12,1.5697818163430226e-12,8.003002894239042e-13
0.0,34,34.0,0.0,30.0,0.0,0.0,0.0,0.0,-13.0,0.0,2.0,0.0,0.0,0.0,9.44193482200047e-11,8.532682926702993e-11,7.416902038916933e-11,6.196640673248986e-11,6.069446269830598e-11,4.794035764026375e-11,4.025248955389308e-11,3.413342234363952e-11,2.7610223634641664e-11,2.0293364606473356e-11,1.532890628061735e-11,1.0838901557416807e-11,7.790327646597565e-12,5.667454123865388e-12,3.977404287514722e-12,2.680256012292668e-12,1.7517378005409096e-12,1.1004146662122374e-12,6.860118590969682e-13,4.549033196296872e-13,2.813604075486713e-13,1.5572458634611227e-13,9.920555846577535e-14,5.1154878844820584e-14,2.7246161275712592e-14,1.4414806750141745e-14,2.717305415960464e-09,1.46568291053551e-09,9.46376502141693e-10,6.600758093433822e-10,4.5320612223968153e-10,3.2255930877980044e-10,2.3088392143898624e-10,1.614821826597025e-10,1.129007502161221e-10,7.99199383532326e-11,5.204357297806909e-11,3.1545684165637056e-11,2.0692536296427458e-11,1.3145919936554567e-11,8.120634763329114e-12,4.752331958534022e-12,2.856120835744623e-12,1.5480022221792882e-12,8.599800484289305e-13
0.0,35,35.0,0.0,30.0,0.0,0.0,0.0,0.0,-13.0,0.0,2.0,0.0,0.0,0.0,9.495335839653758e-11,8.55548948438637e-11,7.53840828393052e-11,6.903473855266819e-11,5.6639687333487814e-11,4.676118314440956e-11,4.141147110534108e-11,3.3572695694129346e-11,2.5208934403487117e-11,1.9707803462392166e-11,1.5551631183811502e-11,1.1988775594174352e-11,8.721842182611848e-12,6.001329587807322e-12,3.789105725621711e-12,2.662152295255884e-12,1.7417872286107698e-12,1.1412375584776084e-12,7.414459352072994e-13,4.2404817681644304e-13,2.753419071037021e-13,1.5776682488583863e-13,8.924560775486845e-14,5.098169519681811e-14,2.568124087236274e-14,1.3831666023992958e-14,2.8229699625060248e-09,1.4097992407446505e-09,9.901411477127714e-10,6.583303163370079e-10,4.811655766530798e-10,3.2530746889982527e-10,2.287409587259323e-10,1.6090221568036288e-10,1.1605792230661153e-10,7.945931861383517e-11,5.353919928153948e-11,3.584196769717454e-11,2.2377619258380295e-11,1.2863637328930352e-11,7.54188675078104e-12,4.9778074222079975e-12,2.9800878696671036e-12,1.608382406601096e-12,8.108496869150296e-13
0.0,36,36.0,0.0,30.0,0.0,0.0,0.0,0.0,-13.0,0.0,2.0,0.0,0.0,0.0,9.885448548936928e-11,8.904201993705817e-11,8.006904552178762e-11,6.819230659757783e-11,5.920430166319682e-11,5.1602852984092794e-11,4.1838147251160854e-11,3.298917818683992e-11,2.8037696160519896e-11,2.0461554834909648e-11,1.589346685749636e-11,1.1367649646889593e-11,8.15725561772731e-12,5.610418496139641e-12,3.876683500418185e-12,2.7539295748945364e-12,1.7695304609943072e-12,1.104885327556585e-12,7.44124724330539e-13,4.636147483228693e-13,2.6672694505975706e-13,1.5888322707467343e-13,8.779152634566821e-14,5.167439153845545e-14,2.7694145319694416e-14,1.3959635976037233e-14,2.8552107601537904e-09,1.5237515997801618e-09,1.0415742990773372e-09,6.869684755953506e-10,5.010214830145355e-10,3.4999982595659925e-10,2.378477002050649e-10,1.6017837463219578e-10,1.1360199297605118e-10,8.005716732368642e-11,5.2437428390900694e-11,3.449979905091624e-11,2.141180778107909e-11,1.3585572324330936e-11,8.211876804817239e-12,5.066087415150734e-12,2.853445991381211e-12,1.4976248957453095e-12,8.621227767182118e-13
0.0,37,37.0,0.0,30.0,0.0,0.0,0.0,0.0,-13.0,0.0,2.0,0.0,0.0,0.0,1.024624195759672e-10,9.200449346252305e-11,8.044527516887732e-11,6.884422038352505e-11,6.045360886582328e-11,5.0476003204212007e-11,4.0655161787612896e-11,3.3862696894706706e-11,2.7531766432547812e-11,2.0598822441605505e-11,1.5604272554610067e-11,1.1758465479388618e-11,8.101476474717999e-12,5.783394973414759e-12,3.757726614317797e-12,2.779101750447544e-12,1.8288409173121978e-12,1.1781514011475418e-12,7.36662583220227e-13,4.5132319194631063e-13,2.6381908938321243e-13,1.5688832146294785e-13,9.385454314772386e-14,5.460610778658737e-14,3.0150513532130174e-14,1.7068612951777804e-14,2.947355478223423e-09,1.6737520539379827e-09,1.0235440910167435e-09,7.357829440259566e-10,5.127273674605033e-10,3.5828677209420034e-10,2.4651388545887353e-10,1.7610782405150596e-10,1.2331125817442062e-10,7.818825572718737e-11,4.914693738161896e-11,3.471547297892208e-11,2.201943845676428e-11,1.4176466976187647e-11,8.452578098632584e-12,5.1676820693436675e-12,2.876820917482753e-12,1.6316268593538177e-12,8.469286545178997e-13
0.0,38,38.0,0.0,30.0,0.0,0.0,0.0,0.0,-13.0,0.0,2.0,0.0,0.0,0.0,1.012592799343012e-10,9.470838397447366e-11,8.310122735583183e-11,7.111084929123644e-11,6.286254865160103e-11,5.0860005244657506e-11,4.3214490082929773e-11,3.5687239497293085e-11,2.671136406122872e-11,2.2232819356914795e-11,1.6827985658208492e-11,1.1266894664797905e-11,8.373087845709689e-12,6.2525826907658774e-12,4.251695441908927e-12,2.729993341083887e-12,1.7188567220606423e-12,1.1815685838248509e-12,7.194147912619948e-13,4.5038722332442195e-13,2.7180000964897406e-13,1.6098258540173843e-13,9.373249126444551e-14,5.3121639884571266e-14,2.9890016089776735e-14,1.397380189499316e-14,2.6866414891306253e-09,1.5018483419712671e-09,1.062226858637758e-09,6.787399941831354e-10,5.108281882427851e-10,3.6867802869409675e-10,2.499110474111482e-10,1.7195925617545124e-10,1.1721335154568477e-10,8.2838069743297e-11,5.5852150780736276e-11,3.6706364636030246e-11,2.2906321911838552e-11,1.4268959173400009e-11,8.439454868942361e-12,4.991534163677877e-12,2.915127898571222e-12,1.6782778282770466e-12,9.132895737355656e-13
0.0,39,39.0,0.0,30.0,0.0,0.0,0.0,0.0,-13.0,0.0,2.0,0.0,0.0,0.0,1.0574818166766262e-10,9.261770775415327e-11,8.926832024102892e-11,7.268596858218634e-11,6.475723695829092e-11,5.501692628962695e-11,4.2859024477535407e-11,3.3708949579003617e-11,2.9023768754188694e-11,2.179258097696679e-11,1.627923148274506e-11,1.1353054357244909e-11,7.987886737327e-12,6.105839295880525e-12,4.0856240648848595e-12,2.763707768932724e-12,1.7887160430280919e-12,1.1106061200846965e-12,7.420294417635562e-13,4.3481949250213925e-13,2.7127700933189313e-13,1.6778013232842526e-13,8.98694132092049e-14,5.552784629474854e-14,3.0121811114426746e-14,1.7926938784702537e-14,2.7669895158724946e-09,1.5997201080363082e-09,9.843650236758092e-10,7.42738643636343e-10,5.281729336645811e-10,3.60058802992885e-10,2.4993683463345526e-10,1.8643863674174978e-10,1.219214028461643e-10,8.621943860723278e-11,5.6896362501671696e-11,3.74410995059994e-11,2.3242103785022026e-11,1.405562680629784e-11,8.854293174842556e-12,5.157474460113493e-12,3.086894432285885e-12,1.6622856068566322e-12,9.38730595797023e-13
0.0,40,40.0,0.0,30.0,0.0,0.0,0.0,0.0,-13.0,0.0,2.0,0.0,0.0,0.0,1.01640141849361e-10,9.482869102907329e-11,8.658677649166602e-11,7.233403111932679e-11,6.233006199955559e-11,5.4017709864702624e-11,4.571000046207613e-11,3.6285441553007666e-11,2.872265381947773e-11,2.2052843141319507e-11,1.7233543871504625e-11,1.2193382079133774e-11,8.809815221559739e-12,6.251433972709863e-12,4.120187546115172e-12,2.860764581909649e-12,1.8844529978393617e-12,1.1241687904320436e-12,7.313208074235355e-13,4.62955499236535e-13,2.7128264823851363e-13,1.6225400707505105e-13,9.456679820160373e-14,5.350615803765773e-14,2.7675146532472738e-14,1.402569434787113e-14,2.652293343983337e-09,1.6167445624989914e-09,1.0366019420024337e-09,7.58247910914476e-10,5.072976604506058e-10,3.8375607887608606e-10,2.502366072272918e-10,1.8976375057754878e-10,1.2236357426589091e-10,8.540075560611429e-11,6.057232317018075e-11,3.5186125535737575e-11,2.2477604216352485e-11,1.4860581709271884e-11,8.681768176944083e-12,5.3650936776799745e-12,3.0560003184693094e-12,1.6254347768912574e-12,9.223200228386836e-13
0.0,41,41.0,0.0,30.0,0.0,0.0,0.0,0.0,-13.0,0.0,2.0,0.0,0.0,0.0,1.1124357622751705e-10,9.74703844672053e-11,8.504819649005131e-11,7.513464778713218e-11,6.399631747381314e-11,5.438197546127518e-11,4.4668972251304346e-11,3.781165251413605e-11,2.990629110072726e-11,2.2936131644733007e-11,1.6667309537577704e-11,1.2356211471123917e-11,8.799154519768907e-12,6.18714671275101e-12,4.352022618320178e-12,2.8103675027188494e-12,1.8016484885807634e-12,1.1685175287735034e-12,7.093698571626062e-13,4.2862809574919474e-13,2.677012475282062e-13,1.5560198998554425e-13,9.213747372487765e-14,5.4156607472512415e-14,3.259217189804824e-14,1.5833496503357915e-14,2.788188472945943e-09,1.6237868134407577e-09,1.1013205985678295e-09,7.78530727382737e-10,5.309743520422254e-10,4.006479929041431e-10,2.726227229779846e-10,1.8562714705120537e-10,1.3008712119227777e-10,8.682027060636287e-11,5.999696579304755e-11,4.011784544225794e-11,2.426274491275393e-11,1.4461877608761218e-11,9.281374365367314e-12,5.341548630170608e-12,2.9942604548500112e-12,1.7074560057363426e-12,9.45121927001843e-13
0.0,42,42.0,0.0,30.0,0.0,0.0,0.0,0.0,-13.0,0.0,2.0,0.0,0.0,0.0,1.153497361666934e-10,9.781228069097177e-11,9.114057999504278e-11,7.929611980402009e-11,6.688978494530085e-11,5.656536784298708e-11,4.567700378000559e-11,3.965054674807077e-11,2.9887130691791765e-11,2.321716624681331e-11,1.6962453455902678e-11,1.275941257773305e-11,8.768166011157292e-12,6.4986943226302e-12,4.5206794864850875e-12,2.9794764097679098e-12,1.822814426504014e-12,1.0962632425477482e-12,7.58274867330691e-13,4.639091207165472e-13,2.7906414321107557e-13,1.6420095805043281e-13,9.786156400112759e-14,5.4857483992838775e-14,3.3293101353958354e-14,1.701983793891106e-14,2.829411698675281e-09,1.6233764550286075e-09,1.1899509798422401e-09,8.208781709374334e-10,5.830365781122156e-10,4.0315453266493317e-10,2.795434425304106e-10,1.8685965807379287e-10,1.3818954691876639e-10,8.998086202909674e-11,5.933823295350616e-11,3.972799595546586e-11,2.4575160946332624e-11,1.4751431577650174e-11,9.165517326465627e-12,5.50705099695499e-12,3.103392140212712e-12,1.663025573276634e-12,9.703834520260653e-13
0.0,43,43.0,0.0,30.0,0.0,0.0,0.0,0.0,-13.0,0.0,2.0,0.0,0.0,0.0,1.1052181281310724e-10,1.0583411846270784e-10,8.997102605121795e-11,7.93910693051669e-11,6.89027004982482e-11,5.989048379084334e-11,4.5021300738107094e-11,4.1228180985336226e-11,3.086457558747122e-11,2.1827897944621426e-11,1.6623853584202335e-11,1.259248367712911e-11,8.989724875223019e-12,6.536083786019707e-12,4.288160047991764e-12,2.7525378180040104e-12,1.927717027448971e-12,1.2189605760786094e-12,7.175397143480106e-13,4.621262999053374e-13,2.7485981060447533e-13,1.61380684920242e-13,9.540735419723823e-14,5.304079437828642e-14,2.8264683080205628e-14,1.727213880368521e-14,2.774716038908322e-09,1.6623186064059088e-09,1.0947206761870773e-09,7.742871720135198e-10,5.988620881894646e-10,4.1050623241405276e-10,2.7253709454786293e-10,1.9970507446186686e-10,1.339100289250249e-10,9.079098214253815e-11,5.893784801918487e-11,4.0202279857118474e-11,2.4392893964141584e-11,1.5137380071148892e-11,9.166685702840915e-12,5.490616588160237e-12,3.26383594511709e-12,1.8022695738933088e-12,9.827786744183515e-13
0.0,44,44.0,0.0,30.0,0.0,0.0,0.0,0.0,-13.0,0.0,2.0,0.0,0.0,0.0,1.1214042965294215e-10,1.0254861055993985e-10,9.457831983267661e-11,8.122729330637576e-11,7.239165518811784e-11,6.115286862926149e-11,4.8417314208966243e-11,3.909556656910811e-11,3.00469486467629e-11,2.360966120345553e-11,1.7175839072168844e-11,1.2702996134736706e-11,9.440021020482004e-12,6.395500807139375e-12,4.392867986853756e-12,3.0499462356511247e-12,1.9107144943130245e-12,1.2475104701512685e-12,7.360568399079567e-13,4.652686707555342e-13,2.6705003442299074e-13,1.626701120880549e-13,9.593404382817729e-14,5.2606588123505816e-14,3.2685941115773545e-14,1.619826319097121e-14,2.944948239089315e-09,1.7218495412541214e-09,1.2550870250005395e-09,7.92879259815832e-10,6.087470280781124e-10,4.069780841527864e-10,2.9249309218980987e-10,2.0106551504936468e-10,1.401070168942276e-10,9.08410839534419e-11,5.791567011134604e-11,4.204609713372441e-11,2.6105387005499973e-11,1.581482161316899e-11,9.512645678180359e-12,5.496262094810144e-12,3.100254727423552e-12,1.7930728031966344e-12,1.0025182070516643e-12
0.0,45,45.0,0.0,30.0,0.0,0.0,0.0,0.0,-13.0,0.0,2.0,0.0,0.0,0.0,1.1531366930869881e-10,1.0554213679683506e-10,9.39148840169989e-11,7.795388828954198e-11,7.02281780392517e-11,5.899845480803904e-11,4.905644855027304e-11,4.3234824847857945e-11,2.999539373709378e-11,2.45091014134819e-11,1.6864598986438363e-11,1.3372428747191356e-11,9.255669314528471e-12,6.80324341186505e-12,4.45028473476376e-12,2.9920334713124915e-12,1.8849981682002194e-12,1.2608106220015994e-12,7.202353810504993e-13,4.588719552229429e-13,2.8526953056990914e-13,1.5644100501193816e-13,9.470551269879097e-14,5.538851638140081e-14,3.2742501588187715e-14,1.6969338667315014e-14,2.887942708630583e-09,1.8401257100278709e-09,1.2097650242427194e-09,8.654131815636326e-10,5.994102316217719e-10,4.3242978291481954e-10,2.8993559104874594e-10,2.0398487449402634e-10,1.4145238160448476e-10,9.829674925412828e-11,6.91339215735952e-11,3.95603111936196e-11,2.5985912401896306e-11,1.6038103960068943e-11,9.259929960655985e-12,5.7611305567858695e-12,3.2905257804881407e-12,1.7875530403872827e-12,9.269463587944269e-13
0.0,46,46.0,0.0,30.0,0.0,0.0,0.0,0.0,-13.0,0.0,2.0,0.0,0.0,0.0,1.217217896851781e-10,1.0520323608486704e-10,9.722670641758323e-11,8.663990657119996e-11,7.523916528199034e-11,6.048566560605006e-11,4.839008171813556e-11,3.8879689688152594e-11,3.298720406158077e-11,2.2913647192733067e-11,1.7692022174969208e-11,1.3701742221433886e-11,9.431050288766998e-12,6.697706130861652e-12,4.303104794593894e-12,3.021786783646802e-12,1.9774804397336898e-12,1.1904398538608417e-12,8.044590655383924e-13,4.583223291606489e-13,2.7524006303524355e-13,1.6036351944699453e-13,9.713922563510776e-14,5.748720831429782e-14,3.065658285263635e-14,1.4981166713179213e-14,2.9166464301925646e-09,1.8498395912062656e-09,1.2015133072702506e-09,8.658531960914466e-10,6.135391515455731e-10,4.3713631205919304e-10,3.20423780566828e-10,2.1246497790171538e-10,1.4498413937655962e-10,9.561850066914353e-11,6.485957211769238e-11,4.194427349161053e-11,2.6584001239377474e-11,1.4445055749380781e-11,9.54702083755207e-12,5.988565847109098e-12,3.273718133527861e-12,1.818557448407953e-12,1.0075396165750137e-12
0.0,47,47.0,0.0,30.0,0.0,0.0,0.0,0.0,-13.0,0.0,2.0,0.0,0.0,0.0,1.2086812784767102e-10,1.1537226598698322e-10,9.758256802781181e-11,8.730816525315859e-11,7.40104388589003e-11,6.046284712618901e-11,4.942754663435117e-11,4.123206983104767e-11,3.1665655780799e-11,2.4266627447103763e-11,1.8143043541330665e-11,1.3225157454681127e-11,9.876816695011521e-12,6.587127006390236e-12,4.3494351992222694e-12,3.0676136443549986e-12,1.972978847661679e-12,1.2091160223691445e-12,7.303544274587181e-13,4.644027607036763e-13,2.818069740370945e-13,1.6354049222478698e-13,9.796954368631103e-14,5.128634725368282e-14,2.997290025768367e-14,1.739567137994166e-14,2.9918544291632843e-09,1.8145907563981685e-09,1.3096046439954198e-09,8.838071449013365e-10,6.438245261343351e-10,4.5698366410339045e-10,3.118063431620725e-10,2.2259074265137374e-10,1.5365352903984637e-10,1.0204092912051464e-10,6.642576650846854e-11,4.297670091269883e-11,2.6855853838445693e-11,1.669227071775715e-11,9.714724546354688e-12,5.824973013327794e-12,3.2621423658149023e-12,1.8419358220949338e-12,9.861020837929832e-13
0.0,48,48.0,0.0,30.0,0.0,0.0,0.0,0.0,-13.0,0.0,2.0,0.0,0.0,0.0,1.2909618525642156e-10,1.1128854656926433e-10,1.0039818233868726e-10,8.794741557439541e-11,7.55984808704466e-11,6.371442409456364e-11,5.324803467388339e-11,4.1235475513014265e-11,3.2205763141733787e-11,2.3971129316864308e-11,1.849850829344154e-11,1.3822223867678911e-11,9.904808902627736e-12,6.987807928840127e-12,4.461363572504141e-12,3.1274573660763204e-12,1.9191926966237322e-12,1.2303238432407816e-12,7.818788320302419e-13,4.949449457116836e-13,2.784364618607361e-13,1.7138470014673806e-13,9.631640357595295e-14,5.5201789931487576e-14,3.273845213670203e-14,1.751380144462044e-14,2.9782360591901046e-09,1.966268657673842e-09,1.3312821719122488e-09,9.301411425179522e-10,6.563204780627595e-10,4.696462294846709e-10,3.2050364857431276e-10,2.3081084183121254e-10,1.4884074864224225e-10,1.0222629432421031e-10,6.748941638690893e-11,4.2029476595174846e-11,2.751122269622938e-11,1.6360979920401495e-11,1.0020299377359788e-11,5.861416762045224e-12,3.362785657453125e-12,1.880673205598893e-12,1.0264819133004269e-12
0.0,49,49.0,0.0,30.0,0.0,0.0,0.0,0.0,-13.0,0.0,2.0,0.0,0.0,0.0,1.295426988490751e-10,1.1534719154895527e-10,1.0265323493122319e-10,9.117550125385048e-11,8.138220006423357e-11,6.228175443018599e-11,5.240275049801895e-11,4.099915604699443e-11,3.2023251154932996e-11,2.5984473818042613e-11,1.9038495604397215e-11,1.361858546991137e-11,9.380546376652518e-12,6.764375445759503e-12,4.438909014959111e-12,3.045364167419143e-12,1.9027487211916478e-12,1.2454864065000516e-12,7.786660255821541e-13,4.430002848980562e-13,2.7151031403829e-13,1.6672753632146294e-13,8.979914909666318e-14,5.2136541639911954e-14,3.007263713863196e-14,1.67989205025542e-14,3.1290485042042886e-09,1.8558031006510026e-09,1.3638974073599603e-09,9.568775722048065e-10,6.445730155260185e-10,4.760232525472889e-10,3.391009038610778e-10,2.418131721730189e-10,1.616356902666198e-10,1.0672170297608819e-10,7.063691513231234e-11,4.35884819471521e-11,2.710352439448911e-11,1.6758852747227876e-11,1.0486632990911869e-11,6.051910510882292e-12,3.5193542794684325e-12,1.7925738674269546e-12,1.0502993277531657e-12
0.0,50,50.0,0.0,30.0,0.0,0.0,0.0,0.0,-13.0,0.0,2.0,0.0,0.0,0.0,1.28444660124197e-10,1.1564232831086498e-10,1.0516896515700589e-10,9.083633029958926e-11,8.435628107831104e-11,6.747205033906682e-11,5.4867003876082066e-11,4.336658653434232e-11,3.469855446902267e-11,2.6213138668400768e-11,2.0568926552297264e-11,1.3765512869820898e-11,1.0457340319237306e-11,7.216127541444405e-12,4.664513197429061e-12,2.978121175170925e-12,2.1089980612696727e-12,1.324673153385601e-12,7.920665199367864e-13,4.471788097978989e-13,2.657754476334575e-13,1.6279148433131713e-13,1.0010222766356169e-13,5.683486668095909e-14,3.197518289617816e-14,1.77291817292891e-14,3.1419161835190904e-09,2.083256535796336e-09,1.376114696561964e-09,9.417328781764053e-10,7.373134601105494e-10,4.864237430820909e-10,3.271672074724704e-10,2.4135734641404685e-10,1.5651812656766591e-10,1.1032530681092788e-10,6.986145997806478e-11,4.1657872235186494e-11,2.8552628838911574e-11,1.7782870759245437e-11,1.0110164883998215e-11,5.959495369913651e-12,3.548134088773934e-12,1.947029369935182e-12,1.0849428525709242e-12
0.0,51,51.0,0.0,30.0,0.0,0.0,0.0,0.0,-13.0,0.0,2.0,0.0,0.0,0.0,1.3645494277199425e-10,1.2050775989762764e-10,1.0746581784136601e-10,9.497822763456231e-11,7.924009415333177e-11,6.949231313288201e-11,5.429045862069407e-11,4.590779668086092e-11,3.4621276278737796e-11,2.6278619928228224e-11,1.951172114994131e-11,1.4161517198250322e-11,1.0466778344475959e-11,7.288495520982621e-12,4.45171253867679e-12,3.1791756806616564e-12,1.89134317418185e-12,1.2591599552925766e-12,7.628907625460316e-13,4.477833182139344e-13,2.6929894662741877e-13,1.6619122493710688e-13,1.0250670180486442e-13,5.4389321276148994e-14,3.255489605805372e-14,1.8886732770290643e-14,3.2220621494726147e-09,2.192986807204538e-09,1.409261103527966e-09,9.794729852733519e-10,6.910390999276149e-10,5.077729487181001e-10,3.5029230943303163e-10,2.459454243410114e-10,1.6261123009074515e-10,1.0665331701403876e-10,7.104367830538337e-11,4.7144955283972884e-11,2.8787193006078398e-11,1.7151841107313146e-11,1.0938978707957951e-11,6.072175887381186e-12,3.5941116741253576e-12,1.8787320547626325e-12,1.0893181870824265e-12
0.0,52,52.0,0.0,30.0,0.0,0.0,0.0,0.0,-13.0,0.0,2.0,0.0,0.0,0.0,1.402190657224353e-10,1.2976138403203567e-10,1.0849766982012499e-10,9.713699620711328e-11,8.340525609698286e-11,7.05158085332016e-11,5.7417362234642915e-11,4.28601343032862e-11,3.453919622123524e-11,2.755627598492655e-11,2.0681604951633873e-11,1.4184687567396109e-11,1.056757245958788e-11,7.253168156259872e-12,5.015637420928894e-12,3.053587721641812e-12,2.055923489038359e-12,1.2257411020753818e-12,7.754191453946551e-13,4.555048695613143e-13,2.866435256248878e-13,1.573692611232008e-13,9.941687797045676e-14,5.6550327210088295e-14,3.21429096947757e-14,1.6630429499803595e-14,3.1786198215159904e-09,2.076742072168184e-09,1.4834497411887714e-09,1.1003294548045087e-09,7.104909942418805e-10,5.208665205396427e-10,3.728324880348007e-10,2.565399691732329e-10,1.626087766812911e-10,1.0950466961518029e-10,7.623407062884994e-11,4.826337502054929e-11,2.9992136961790024e-11,1.830321822448421e-11,1.0240646013425928e-11,6.1288194100991064e-12,3.5619926263954454e-12,1.8282851107599065e-12,1.0580021527607332e-12
0.0,53,53.0,0.0,30.0,0.0,0.0,0.0,0.0,-13.0,0.0,2.0,0.0,0.0,0.0,1.356601473187614e-10,1.256638108054006e-10,1.1253077303404771e-10,9.572893285503109e-11,8.634688224274077e-11,6.975204618267666e-11,5.7036930239001355e-11,4.3887413485049014e-11,3.655424097675701e-11,2.8831652796268827e-11,2.1015698874183193e-11,1.4894259298942336e-11,1.0213201588618981e-11,7.2418736645296744e-12,4.840395657388395e-12,3.0540205767459576e-12,1.991988847530344e-12,1.269321199402404e-12,8.147385900340773e-13,4.659388437544203e-13,2.841214497046997e-13,1.5653521429849315e-13,9.444333325778275e-14,5.414120520576445e-14,3.198449254021033e-14,1.8323891874526414e-14,3.1967600721201033e-09,2.243607560801136e-09,1.4739063256621382e-09,1.0593940217269045e-09,7.69488131874194e-10,5.262307208096739e-10,3.831371408816968e-10,2.6812712815760777e-10,1.7374051224351098e-10,1.196096682792536e-10,7.539389034046738e-11,4.8206300759798917e-11,2.903520864669573e-11,1.8071687640972692e-11,1.0779606849779632e-11,6.2391606906464e-12,3.823692994837965e-12,2.039343462567253e-12,1.0413370572289632e-12
0.0,54,54.0,0.0,30.0,0.0,0.0,0.0,0.0,-13.0,0.0,2.0,0.0,0.0,0.0,1.452521272410574e-10,1.3510006075066358e-10,1.1625453423686357e-10,9.880839493902149e-11,8.633183338079689e-11,7.113808252390406e-11,5.981857995406903e-11,4.915980899261255e-11,3.752715584297695e-11,2.8840226931941595e-11,2.149834162958823e-11,1.4204309756222351e-11,1.0776011538945184e-11,7.589307840895977e-12,4.828801334832123e-12,3.13049715708761e-12,2.0130426808539225e-12,1.345743211869288e-12,7.325906307404783e-13,4.787729380579873e-13,2.7008363379711834e-13,1.7084024759693112e-13,1.0149051719215186e-13,5.57264209544189e-14,3.220331600629108e-14,1.7021156647579808e-14,3.531965053971569e-09,2.2666839773325785e-09,1.5595540074701383e-09,1.0947617369691672e-09,7.640824241184355e-10,5.669576447833186e-10,3.830664477607543e-10,2.447356841480229e-10,1.799778203128171e-10,1.1650885478191772e-10,7.935723034264666e-11,5.175281467649765e-11,3.098607240137004e-11,1.8580410247122644e-11,1.1451653297241003e-11,6.667889672167479e-12,3.634807548709169e-12,2.0277091301163015e-12,1.1111107990839701e-12
