Line_number,Fiducial,Easting,Northing,Height,Elevation,tx_pitch,tx_roll,tx_yaw,txrx_dx,txrx_dy,txrx_dz,rx_pitch,rx_roll,rx_yaw,S0Z_time_3.834e-04,S0Z_time_3.924e-04,S0Z_time_4.039e-04,S0Z_time_4.184e-04,S0Z_time_4.364e-04,S0Z_time_4.589e-04,S0Z_time_4.869e-04,S0Z_time_5.224e-04,S0Z_time_5.679e-04,S0Z_time_6.249e-04,S0Z_time_6.969e-04,S0Z_time_7.879e-04,S0Z_time_9.019e-04,S0Z_time_1.046e-03,S0Z_time_1.227e-03,S0Z_time_1.456e-03,S0Z_time_1.744e-03,S0Z_time_2.109e-03,S0Z_time_2.567e-03,S0Z_time_3.145e-03,S0Z_time_3.864e-03,S0Z_time_4.745e-03,S0Z_time_5.821e-03,S0Z_time_7.140e-03,S0Z_time_8.754e-03,S0Z_time_1.073e-02,S1Z_time_2.057e-05,S1Z_time_2.607e-05,S1Z_time_3.307e-05,S1Z_time_4.206e-05,S1Z_time_5.356e-05,S1Z_time_6.807e-05,S1Z_time_8.607e-05,S1Z_time_1.086e-04,S1Z_time_1.366e-04,S1Z_time_1.721e-04,S1Z_time_2.176e-04,S1Z_time_2.746e-04,S1Z_time_3.466e-04,S1Z_time_4.376e-04,S1Z_time_5.516e-04,S1Z_time_6.956e-04,S1Z_time_8.771e-04,S1Z_time_1.106e-03,S1Z_time_1.394e-03
0.0,0,0.0,0.0,30.0,0.0,0.0,0.0,0.0,-13.0,0.0,2.0,0.0,0.0,0.0,3.264931889707683e-11,2.8846959710886274e-11,2.513933446142938e-11,2.1757502525033917e-11,1.870087128623485e-11,1.608376205778637e-11,1.384246860702595e-11,1.1883314328626833e-11,1.0149269959260388e-11,8.620497144344827e-12,7.268471872861822e-12,6.0570365911303344e-12,4.991892677765389e-12,4.054447555463977e-12,3.2374840184267292e-12,2.537997493661368e-12,1.951901726868321e-12,1.4687317108912443e-12,1.0784779192358108e-12,7.727021769815572e-13,5.408205051559887e-13,3.7177589193580925e-13,2.502869018113649e-13,1.652653100300867e-13,1.0685163637580039e-13,6.773388457824212e-14,3.550147768289746e-09,1.6357115215619712e-09,8.202756551810384e-10,4.472425963326374e-10,2.6032346775726974e-10,1.5634358932090353e-10,9.436601425817887e-11,5.6379216794898264e-11,3.391082965209789e-11,2.080454763407954e-11,1.3213832924413654e-11,8.798106950179809e-12,6.021457144488927e-12,4.185698495881679e-12,2.915357278635047e-12,2.017809991612155e-12,1.378947748075554e-12,9.31728748031054e-13,6.174956468874597e-13
0.0,1,1.0,0.0,30.0,0.0,0.0,0.0,0.0,-13.0,0.0,2.0,0.0,0.0,0.0,3.663948222406306e-11,3.22918427258037e-11,2.7935899960097677e-11,2.382904356800951e-11,2.0033360777381133e-11,1.6750324474411614e-11,1.3971051711954609e-11,1.161799528602389e-11,9.643073605493375e-12,8.007907434201024e-12,6.641823404308546e-12,5.470821361520319e-12,4.473637118825002e-12,3.6147181923162094e-12,2.8771385763829123e-12,2.2517516300208822e-12,1.7313194853953684e-12,1.3037019559976708e-12,9.58913746416647e-13,6.887108418045237e-13,4.835215399835321e-13,3.336005353565124e-13,2.2547478630018342e-13,1.4950552643103142e-13,9.708922870727707e-14,6.181151789184645e-14,3.527080161278021e-09,1.6221826072065653e-09,8.166970991576549e-10,4.5236656548911165e-10,2.7270272798219636e-10,1.7268943356583748e-10,1.1039542167937241e-10,6.900047528633104e-11,4.2148320366185694e-11,2.5260682268156227e-11,1.5132728089698918e-11,9.37662684610883e-12,6.02104193290223e-12,3.999047609951365e-12,2.701466237277271e-12,1.8347733115492946e-12,1.2383576378498926e-12,8.294170742401188e-13,5.484634411244775e-13
0.0,2,2.0,0.0,30.0,0.0,0.0,0.0,0.0,-13.0,0.0,2.0,0.0,0.0,0.0,4.066664620006118e-11,3.599452961012286e-11,3.120918925856932e-11,2.656255989721597e-11,2.214290522848179e-11,1.8217322454431048e-11,1.4839232313515708e-11,1.197076661457451e-11,9.60935093335258e-12,7.73592975806739e-12,6.253842652110541e-12,5.053361939171991e-12,4.077919433432677e-12,3.2660892882358437e-12,2.5849438487617222e-12,2.0159070467401716e-12,1.5475838977749463e-12,1.1648106234883712e-12,8.575000768119175e-13,6.168392090288104e-13,4.341277077104254e-13,3.0042896528687495e-13,2.0377128914586148e-13,1.3561024021232589e-13,8.842995185556564e-14,5.6514877563423855e-14,3.503519267590255e-09,1.6086281954380482e-09,8.119940473895434e-10,4.533382595309503e-10,2.778937279091142e-10,1.8132291366460663e-10,1.2082785780007955e-10,7.903265411861862e-11,5.0107433661262425e-11,3.0539976102962956e-11,1.8033982786307014e-11,1.0678584426763442e-11,6.445378307133238e-12,4.03165580899094e-12,2.6009794883141442e-12,1.7142148478619802e-12,1.1340812056262956e-12,7.491839808158223e-13,4.939371517156102e-13
0.0,3,3.0,0.0,30.0,0.0,0.0,0.0,0.0,-13.0,0.0,2.0,0.0,0.0,0.0,4.433298490467052e-11,3.948285714777751e-11,3.4443982151590396e-11,2.9447863780123354e-11,2.457945690193784e-11,2.013665365916391e-11,1.6216542497352118e-11,1.2819021136075348e-11,1.0001448870197896e-11,7.794556094574462e-12,6.10329769104774e-12,4.7994219002081995e-12,3.794873969889764e-12,2.997007569347688e-12,2.3503043521870073e-12,1.822088420351088e-12,1.3943577561562932e-12,1.0476323713758122e-12,7.712148142321415e-13,5.551466708035745e-13,3.914264211310562e-13,2.7152316916276434e-13,1.8474295804049635e-13,1.2333240932802331e-13,8.074118579506261e-14,5.1799943834873276e-14,3.4794671809650592e-09,1.5952400261585187e-09,8.07537034594472e-10,4.536258131081037e-10,2.805204698374512e-10,1.8579456953543846e-10,1.2693626090417274e-10,8.59167234427743e-11,5.653652419938431e-11,3.556252595976491e-11,2.1316822643943232e-11,1.2485583791449824e-11,7.2580254810552425e-12,4.295974982313796e-12,2.6235075291654443e-12,1.6562810842667316e-12,1.063197665126955e-12,6.883620890903602e-13,4.50654206141846e-13
0.0,4,4.0,0.0,30.0,0.0,0.0,0.0,0.0,-13.0,0.0,2.0,0.0,0.0,0.0,4.751304377358787e-11,4.256211661692416e-11,3.7378374699058164e-11,3.217248168036834e-11,2.7012662074756326e-11,2.2200521606487072e-11,1.785178002499544e-11,1.3988165590267471e-11,1.0720131297447879e-11,8.139722385867842e-12,6.176294143523977e-12,4.705060189210356e-12,3.620625194427453e-12,2.8014423357728206e-12,2.1663550509563727e-12,1.6642100904852852e-12,1.2667924030038412e-12,9.487029191514642e-13,6.976231750612654e-13,5.020580679799254e-13,3.5441129967891503e-13,2.4626832884691634e-13,1.680216912779232e-13,1.1246243087969807e-13,7.39073706390875e-14,4.760384711188698e-14,3.4549425164002536e-09,1.5820327582862566e-09,8.034809694982263e-10,4.5412442321597237e-10,2.8258109294045545e-10,1.8853544694927513e-10,1.3049835436561691e-10,9.028525841281712e-11,6.118161831771385e-11,3.9732690777803924e-11,2.4460607744976954e-11,1.4496822147523123e-11,8.340030179758865e-12,4.7670669291255e-12,2.771209539954244e-12,1.663961776469037e-12,1.0257401524888947e-12,6.457199800477494e-13,4.1643733278024123e-13
0.0,5,5.0,0.0,30.0,0.0,0.0,0.0,0.0,-13.0,0.0,2.0,0.0,0.0,0.0,5.0216225270191245e-11,4.519792049165936e-11,3.992490468590281e-11,3.459332394730874e-11,2.925376127501405e-11,2.419791380294034e-11,1.9540751566745416e-11,1.5307868583517487e-11,1.1645041274763427e-11,8.700651313371838e-12,6.43964300017852e-12,4.758262272066529e-12,3.55104427367508e-12,2.6762306201769334e-12,2.0291409712866563e-12,1.538126237908081e-12,1.1612780612921478e-12,8.653067291710938e-13,6.347750589031337e-13,4.562920507738354e-13,3.222465841821061e-13,2.2415129142924528e-13,1.5329397487780764e-13,1.0282234045787863e-13,6.782600562397432e-14,4.3847184353036844e-14,3.429959870848615e-09,1.5690381389827777e-09,7.998331529138987e-10,4.5498107628378575e-10,2.8472909830529095e-10,1.907686221757523e-10,1.3284497475635898e-10,9.3038620273644e-11,6.43303287662456e-11,4.2898303825554167e-11,2.7160065059217584e-11,1.645394510898221e-11,9.543662270539493e-12,5.3867421938010255e-12,3.030051262397491e-12,1.737043254094028e-12,1.0226271714903089e-12,6.209640159149612e-13,3.904259212528501e-13
0.0,6,6.0,0.0,30.0,0.0,0.0,0.0,0.0,-13.0,0.0,2.0,0.0,0.0,0.0,5.250642376039572e-11,4.743142872070983e-11,4.209215950175526e-11,3.66773422437174e-11,3.1224983817714555e-11,2.601403394412508e-11,2.1148566186035177e-11,1.6644823368061137e-11,1.2664626181923504e-11,9.398388693894155e-12,6.8469383984487465e-12,4.937018265186242e-12,3.5776238741454332e-12,2.6180504526294553e-12,1.936240989146402e-12,1.4411955833687888e-12,1.07525999437252e-12,7.953442024358202e-13,5.811178891743891e-13,4.1680196672514953e-13,2.94240476344941e-13,2.0474296369298818e-13,1.4029225099718909e-13,9.42605370998553e-14,6.24044154613219e-14,4.0457128400388654e-14,3.404534004680728e-09,1.5562895547189095e-09,7.966081890556972e-10,4.5620204210283537e-10,2.871196899007759e-10,1.9298682576172187e-10,1.3474423455376603e-10,9.491982068820313e-11,6.643525062531728e-11,4.517140453303145e-11,2.9309600362691675e-11,1.8192154893447745e-11,1.0739488693317953e-11,6.0843855136148096e-12,3.3723758487705514e-12,1.868977954586991e-12,1.0534408431299196e-12,6.140454325412861e-13,3.7264057572856057e-13
0.0,7,7.0,0.0,30.0,0.0,0.0,0.0,0.0,-13.0,0.0,2.0,0.0,0.0,0.0,5.446235606824247e-11,4.9330975408647385e-11,4.39313498139622e-11,3.8450040497560245e-11,3.29186225618686e-11,2.7606287874622378e-11,2.260381901297618e-11,1.7911550525954872e-11,1.3692148241102189e-11,1.0161172264469064e-11,7.34839961178859e-12,5.212752725241682e-12,3.686835339968172e-12,2.6215305092291133e-12,1.8853362989419346e-12,1.371645379143962e-12,1.0070089997444539e-12,7.372440874193839e-13,5.354309991748494e-13,3.8273061165384833e-13,2.6982167636335154e-13,1.876840131774091e-13,1.2878836237617452e-13,8.664706374972402e-14,5.755849240349883e-14,3.7379973309916255e-14,3.3786849851782094e-09,1.5438186431187183e-09,7.93825775357383e-10,4.5778656948396244e-10,2.89771480384581e-10,1.9534782336889088e-10,1.3656511103580314e-10,9.641501528439969e-11,6.791102844208408e-11,4.677003025257794e-11,3.093657996212932e-11,1.9637985887150735e-11,1.1837491856632493e-11,6.7953306197216275e-12,3.764772315654308e-12,2.0476069922368153e-12,1.1153066033111419e-12,6.244683902137255e-13,3.6338017859247045e-13
0.0,8,8.0,0.0,30.0,0.0,0.0,0.0,0.0,-13.0,0.0,2.0,0.0,0.0,0.0,5.616011896285857e-11,5.096830624696163e-11,4.55062013232619e-11,3.9961262751022477e-11,3.436352027110175e-11,2.8977209284483334e-11,2.3881989517254678e-11,1.906132142444756e-11,1.466955480949963e-11,1.0932494323489792e-11,7.898675644442268e-12,5.555189372347424e-12,3.861787142635258e-12,2.678887749625237e-12,1.873286056623002e-12,1.3279210001476566e-12,9.553216470100835e-13,6.898674420866159e-13,4.967754675211604e-13,3.5337942576238333e-13,2.485185952539501e-13,1.7267288280366845e-13,1.185883736959908e-13,7.986947016992715e-14,5.3213350871599695e-14,3.457940662990119e-14,3.3524387649439765e-09,1.5316581941995239e-09,7.915043509551343e-10,4.597390991214255e-10,2.926800359336108e-10,1.9788673435527153e-10,1.3845659253783723e-10,9.77957137681905e-11,6.906234222544231e-11,4.791912488724192e-11,3.213566622527185e-11,2.0785525220071297e-11,1.2788746460160418e-11,7.470464052811675e-12,4.17529890346837e-12,2.2578561648953115e-12,1.2030419633557594e-12,6.508997929058469e-13,3.6277390180644104e-13
0.0,9,9.0,0.0,30.0,0.0,0.0,0.0,0.0,-13.0,0.0,2.0,0.0,0.0,0.0,5.7666429913467124e-11,5.2408433933626346e-11,4.6878349809971515e-11,4.1265974724196955e-11,3.560290492319138e-11,3.015280778894531e-11,2.4988098722265428e-11,2.0077807042263547e-11,1.5564366019767234e-11,1.1673130444303825e-11,8.461086491274664e-12,5.9362732599709675e-12,4.0845423122856076e-12,2.780593158050995e-12,1.8958537362166426e-12,1.3082269212546534e-12,9.192156578812356e-13,6.523852346632052e-13,4.644452703798566e-13,3.2818719071776604e-13,2.2994267443521624e-13,1.5945588249294639e-13,1.095280896401462e-13,7.382945952554359e-14,4.9304442560283804e-14,3.2029748834889214e-14,3.3258265466923297e-09,1.5198436408469799e-09,7.896610445436044e-10,4.620649982293467e-10,2.958419042867066e-10,2.0060427259528934e-10,1.404667363915474e-10,9.919382978961864e-11,7.00830884999432e-11,4.880370008541251e-11,3.302124383177361e-11,2.1669585844592865e-11,1.3577784309828433e-11,8.078530750331612e-12,4.577812402374378e-12,2.4845095141453576e-12,1.3100358386644623e-12,6.91153513151005e-13,3.705568534754427e-13
0.0,10,10.0,0.0,30.0,0.0,0.0,0.0,0.0,-13.0,0.0,2.0,0.0,0.0,0.0,5.90366900354978e-11,5.3706184226458886e-11,4.8101411486836226e-11,4.241500935434625e-11,3.66818043990128e-11,3.1168086312529277e-11,2.5942830312796593e-11,2.096443067731069e-11,1.6363750988680062e-11,1.2359587826547156e-11,9.008909251500217e-12,6.332476700856842e-12,4.33808125317146e-12,2.916403049883382e-12,1.9479068367548106e-12,1.3103284606221064e-12,8.976945036566859e-13,6.241469693891095e-13,4.3791239267593396e-13,3.067112951009941e-13,2.1377577472567796e-13,1.478194238745845e-13,1.0146898708525566e-13,6.844047969751813e-14,4.5777827700867367e-14,2.971067085893732e-14,3.298884511391672e-09,1.508413155970936e-09,7.883129168690791e-10,4.6476869551792644e-10,2.992557761165059e-10,2.0349551685447167e-10,1.4260488160335298e-10,1.0066417411958664e-10,7.108285372350158e-11,4.955633580158556e-11,3.3699443728078493e-11,2.2343558360657183e-11,1.421228830102225e-11,8.604290761907884e-12,4.953595054834745e-12,2.7141586785301325e-12,1.4292745289408755e-12,7.424318806081503e-13,3.8602462081370425e-13
0.0,11,11.0,0.0,30.0,0.0,0.0,0.0,0.0,-13.0,0.0,2.0,0.0,0.0,0.0,6.031519276252157e-11,5.490578957669158e-11,4.921938078486672e-11,4.345149853620521e-11,3.764093694499384e-11,3.205861234783641e-11,2.6773004064626995e-11,2.1735623601468773e-11,1.7068281674577585e-11,1.2980956625561994e-11,9.524805966931126e-12,6.725695816667616e-12,4.607569540197464e-12,3.076311620945638e-12,2.0238327693249584e-12,1.331566693032184e-12,8.896146960598255e-13,6.045668801005325e-13,4.1676864264804984e-13,2.886072115011996e-13,1.9976005803098045e-13,1.3758415402260686e-13,9.429455935625055e-14,6.362620028263116e-14,4.2589260268305836e-14,2.7604651693765455e-14,3.2716539815327023e-09,1.4974074267629395e-09,7.874776428020072e-10,4.678539129720981e-10,3.0292089169197066e-10,2.0655647052863123e-10,1.448686847945641e-10,1.022244987566651e-10,7.211658835166598e-11,5.026245564170276e-11,3.42555911569562e-11,2.286407730260956e-11,1.4713432549958983e-11,9.044941299658673e-12,5.2912140857939816e-12,2.936206358571045e-12,1.5541719968759603e-12,8.016622819282797e-13,4.0810086703745087e-13
0.0,12,12.0,0.0,30.0,0.0,0.0,0.0,0.0,-13.0,0.0,2.0,0.0,0.0,0.0,6.153628302886614e-11,5.604179255473843e-11,5.026699549176239e-11,4.441020366906504e-11,3.8514419628287984e-11,3.285631298940444e-11,2.750581257342398e-11,2.2410555234790577e-11,1.768656783682493e-11,1.3535411591517256e-11,9.999314272701228e-12,7.1031881108187125e-12,4.8809696786446694e-12,3.2512377567158516e-12,2.117975652021836e-12,1.3689956987298923e-12,8.936479667474738e-13,5.930447163991177e-13,4.006717681613346e-13,2.736056574064188e-13,1.876886349997851e-13,1.2860038534554811e-13,8.790711876286899e-14,5.931962271518911e-14,3.970249192988654e-14,2.569604342263704e-14,3.244181776274409e-09,1.4868695345960107e-09,7.871736802676095e-10,4.713243067295889e-10,3.0683642276802253e-10,2.0978441399514548e-10,1.4725381726418968e-10,1.0387721901498952e-10,7.320790327001239e-11,5.0971975599333767e-11,3.475163891825927e-11,2.3282074717782834e-11,1.510822468144907e-11,9.406216775787344e-12,5.585461062260797e-12,3.1431398565752843e-12,1.6790962402972536e-12,8.658101446293948e-13,4.3546159917928094e-13
0.0,13,13.0,0.0,30.0,0.0,0.0,0.0,0.0,-13.0,0.0,2.0,0.0,0.0,0.0,6.272589535059795e-11,5.714045377310809e-11,5.127089866308587e-11,4.531816751444227e-11,3.9329490604428355e-11,3.358787106068103e-11,2.8165802084959842e-11,2.3009118920809123e-11,1.8231184859148477e-11,1.4027032621123148e-11,1.0429018827602885e-11,7.456961050519212e-12,5.149167159379313e-12,3.4334246866824455e-12,2.2249916837315214e-12,1.419560966239212e-12,9.083092652079201e-13,5.88924401355614e-13,3.8930258808361373e-13,2.6148941284613196e-13,1.7739605903777959e-13,1.2074415086188488e-13,8.222503581264014e-14,5.5462510786041346e-14,3.7087404282979556e-14,2.397056330896202e-14,3.2165205869137568e-09,1.476844951721025e-09,7.874202448190092e-10,4.751838954286184e-10,3.1100159335235464e-10,2.1317735338659304e-10,1.497565880236204e-10,1.0561965585901169e-10,7.436435590548737e-11,5.171107964737726e-11,3.522887402878776e-11,2.3638763511193497e-11,1.5424172902924292e-11,9.698885883278574e-12,5.835935834276265e-12,3.3303457235582874e-12,1.7996172705238222e-12,9.321117044675873e-13,4.666744152675447e-13
0.0,14,14.0,0.0,30.0,0.0,0.0,0.0,0.0,-13.0,0.0,2.0,0.0,0.0,0.0,6.390316423958264e-11,5.822127843900227e-11,5.225104006823601e-11,4.619586872455167e-11,4.010716755975675e-11,3.427455824510662e-11,2.877363571301559e-11,2.3549665954247555e-11,1.871587926450794e-11,1.4463234185153601e-11,1.081476962990935e-11,7.782908902859211e-12,5.405786072012035e-12,3.6166038041178145e-12,2.3400913674433428e-12,1.4802668266716667e-12,9.320187561374747e-13,5.914841709912987e-13,3.8233627258536754e-13,2.52072380072708e-13,1.687486673326597e-13,1.1391341105484695e-13,7.718032949743436e-14,5.2004884580450004e-14,3.471841497731243e-14,2.24147240897433e-14,3.1887293018726957e-09,1.4673815688180661e-09,7.882372538657503e-10,4.794372461985481e-10,3.154159845271364e-10,2.1673374631656532e-10,1.523742557763569e-10,1.0744819845410194e-10,7.558628447315828e-11,5.249156581016769e-11,3.571260558160777e-11,2.3964886067385968e-11,1.568607029688899e-11,9.93595652053086e-12,6.045604434190967e-12,3.4956821718295996e-12,1.9125500615452575e-12,9.982158972615586e-13,5.003250449328615e-13
0.0,15,15.0,0.0,30.0,0.0,0.0,0.0,0.0,-13.0,0.0,2.0,0.0,0.0,0.0,6.508193243978165e-11,5.929846655988467e-11,5.3222054432617756e-11,4.7058478173023453e-11,4.086325218561098e-11,3.493276509333202e-11,2.934590063559725e-11,2.404795369176158e-11,1.9153842812954774e-11,1.48528676830616e-11,1.1160138137393592e-11,8.079891317538924e-12,5.64683235391063e-12,3.7959905988230866e-12,2.4591754192765574e-12,1.5483082979280005e-12,9.631730704400885e-13,5.999479060893318e-13,3.794273637800588e-13,2.451828133601446e-13,1.6163532170478942e-13,1.080242263518143e-13,7.271650898816091e-14,4.89044268178688e-14,3.257333726892182e-14,2.1015241659886316e-14,3.1608732685863896e-09,1.4585296941329504e-09,7.896452792252904e-10,4.840895249593806e-10,3.200797704778297e-10,2.2045250103420491e-10,1.5510484236975896e-10,1.0935967919656227e-10,7.687137891701072e-11,5.331730130855641e-11,3.6216925718561666e-11,2.428178689093657e-11,1.5914448475919424e-11,1.013066385131088e-11,6.219507848263114e-12,3.638955170357942e-12,2.0158670412677946e-12,1.0622483391468012e-12,5.351157715319975e-13
0.0,16,16.0,0.0,30.0,0.0,0.0,0.0,0.0,-13.0,0.0,2.0,0.0,0.0,0.0,6.627206424413963e-11,6.038218943903422e-11,5.419449528819221e-11,4.791703141174618e-11,4.1609380458899883e-11,3.557479705263791e-11,2.9895455829402686e-11,2.4516859306512486e-11,1.955678875435269e-11,1.520493855972544e-11,1.1470188226579217e-11,8.348869870447017e-12,5.870261982385539e-12,3.968173047627708e-12,2.5788860606061472e-12,1.6211612247403215e-12,1.0002105702526475e-12,6.13507666596884e-13,3.8020588717310437e-13,2.406515448251242e-13,1.5595921939816218e-13,1.0300694460490205e-13,6.878659417982321e-14,4.612575147660675e-14,3.0632667435327473e-14,1.9758628585210562e-14,3.133024499453834e-09,1.4503420032416656e-09,7.916655010748996e-10,4.891464931592655e-10,3.249938420679342e-10,2.2433307378709273e-10,1.579469720862015e-10,1.1135165923078292e-10,7.821678573626256e-11,5.418824638196688e-11,3.674866996423724e-11,2.460325867558729e-11,1.612519456883608e-11,1.0295181855748912e-11,6.3637053364657575e-12,3.76138840790764e-12,2.108538917820326e-12,1.1228178459882245e-12,5.699302506240814e-13
0.0,17,17.0,0.0,30.0,0.0,0.0,0.0,0.0,-13.0,0.0,2.0,0.0,0.0,0.0,6.748052742347466e-11,6.147965284699763e-11,5.517587575675304e-11,4.8779440207562975e-11,4.235397933585511e-11,3.62097056709647e-11,3.043200645720697e-11,2.4966526929627455e-11,1.9934578494988315e-11,1.5527825215891573e-11,1.1750568668573005e-11,8.592164815066452e-12,6.0755386470840856e-12,4.130938863097401e-12,2.696597352361443e-12,1.6966343056552917e-12,1.0416634038434713e-12,6.313497639452439e-13,3.842810800308455e-13,2.383050476719231e-13,1.516312715944302e-13,9.880257722948503e-14,6.535128442875482e-14,4.3639553802080235e-14,2.8879175654779715e-14,1.8631113302035372e-14,3.105261829778241e-09,1.442873439448936e-09,7.943196519068683e-10,4.946144898430534e-10,3.301598483987402e-10,2.2837555724563553e-10,1.6089980698973632e-10,1.1342237906764629e-10,7.961993824443233e-11,5.510274710273908e-11,3.7310341771451065e-11,2.4937503809719553e-11,1.6329875829000793e-11,1.0439929190638105e-11,6.484477624573317e-12,3.865139521707647e-12,2.1903449671051263e-12,1.1789850552341735e-12,6.038663121232649e-13
0.0,18,18.0,0.0,30.0,0.0,0.0,0.0,0.0,-13.0,0.0,2.0,0.0,0.0,0.0,6.871224488339215e-11,6.259594366337647e-11,5.617150765630714e-11,4.965132146324853e-11,4.310307599665757e-11,3.684404395173499e-11,3.096272523510937e-11,2.540472357204638e-11,2.0295192789099815e-11,1.5828873543195544e-11,1.2006893945281071e-11,8.81285749742156e-12,6.263221352010329e-12,4.283075011731362e-12,2.8103649617121926e-12,1.772890286331362e-12,1.086194463967668e-12,6.526794503196433e-13,3.912494429358188e-13,2.3796254689832714e-13,1.4856526477404215e-13,9.535955825395843e-14,6.23772802917323e-14,4.142169490746157e-14,2.7297662467553576e-14,1.7618883920843858e-14,3.077671032434055e-09,1.436181072123433e-09,7.97629946075068e-10,5.005004120997944e-10,3.3558019410134683e-10,2.325807258009599e-10,1.6396303705865011e-10,1.1557065539525846e-10,8.107880023869236e-11,5.605872637504539e-11,3.7902090071034327e-11,2.528886655300973e-11,1.6536417345057334e-11,1.0573316352163572e-11,6.587778274208086e-12,3.952890162509408e-12,2.2616796179883703e-12,1.2302088142561872e-12,6.362424772428685e-13
0.0,19,19.0,0.0,30.0,0.0,0.0,0.0,0.0,-13.0,0.0,2.0,0.0,0.0,0.0,6.997073939944954e-11,6.373467858444881e-11,5.7185152823618325e-11,5.0536650190141234e-11,4.386094974703313e-11,3.748250252673642e-11,3.149282835082811e-11,2.5837264179919753e-11,2.0644894780876923e-11,1.611425098830074e-11,1.2244361573832079e-11,9.014339654483026e-12,6.4346049792273894e-12,4.424162683612844e-12,2.918851309497209e-12,1.8484440343330526e-12,1.1326202801213832e-12,6.767416261011838e-13,4.0070450915629557e-13,2.394361198761856e-13,1.46674755424036e-13,9.26310342934602e-14,5.983578254386154e-14,3.9452281467077914e-14,2.5874775216045752e-14,1.6708546923329086e-14,3.0503448920351084e-09,1.430323921516845e-09,8.016189970871453e-10,5.068116968899386e-10,3.4125801809242073e-10,2.3695004060486964e-10,1.6713688329837283e-10,1.177958013174329e-10,8.259187702014693e-11,5.705423492528401e-11,3.8522948889703365e-11,2.565920388971434e-11,1.6749889359182328e-11,1.0701787708297506e-11,6.678899587190438e-12,4.027520852234642e-12,2.3233718840040454e-12,1.2762817976017967e-12,6.665855548043637e-13
0.0,20,20.0,0.0,30.0,0.0,0.0,0.0,0.0,-13.0,0.0,2.0,0.0,0.0,0.0,7.125860514584427e-11,6.489848443384346e-11,5.821951200675934e-11,5.143825701053624e-11,4.46306381159576e-11,3.812841933706808e-11,3.2026066416853956e-11,2.626842686484859e-11,2.0988480611381316e-11,1.6388964818032907e-11,1.2467549548613418e-11,9.1999960240608e-12,6.5914242782051995e-12,4.554383180300252e-12,3.0212380439819555e-12,1.9221442833126354e-12,1.1799221085970522e-12,7.028365982401784e-13,4.1224654473501086e-13,2.425327316649706e-13,1.4587146386261643e-13,9.057275958470225e-14,5.770119607390923e-14,3.7714792524107226e-14,2.459882394255488e-14,1.5887649627853163e-14,3.0233832402033635e-09,1.4253627577743453e-09,8.063097282752114e-10,5.135563051535745e-10,3.4719716750460905e-10,2.4148562829661207e-10,1.704220928657146e-10,1.200975752008946e-10,8.415815541592405e-11,5.8087661745491496e-11,3.9171558245405824e-11,2.6048887370164546e-11,1.697325771150103e-11,1.0830035635979008e-11,6.762309043767482e-12,4.091870356899596e-12,2.376527052354232e-12,1.3172632967897135e-12,6.946065236218628e-13
0.0,21,21.0,0.0,30.0,0.0,0.0,0.0,0.0,-13.0,0.0,2.0,0.0,0.0,0.0,7.257784191180633e-11,6.608934287219566e-11,5.927658079098613e-11,5.2358196081271387e-11,4.5414317862636817e-11,3.878417310012552e-11,3.256512084267548e-11,2.670131946168219e-11,2.132955200395168e-11,1.6656972714025372e-11,1.2680341493045917e-11,9.37299901259127e-12,6.7356228729116856e-12,4.674344341640244e-12,3.1171345897859705e-12,1.9931445652480414e-12,1.2272477480885134e-12,7.303309071474127e-13,4.254911224582057e-13,2.4705730769493097e-13,1.4606483970727598e-13,8.914159740550155e-14,5.595005815579026e-14,3.6195290381244645e-14,2.3459574982158007e-14,1.5145131786493303e-14,2.9968929521789076e-09,1.4213598803653864e-09,8.117252833464812e-10,5.207427095451288e-10,3.5340217297553693e-10,2.461902466013414e-10,1.7381992115957723e-10,1.2247614628305395e-10,8.577703602979147e-11,5.91577804838005e-11,3.984654840061952e-11,2.64574881698229e-11,1.7208024178612487e-11,1.096129417543935e-11,6.8416105737630216e-12,4.148572005034906e-12,2.4223950969589446e-12,1.3534144463050692e-12,7.201707246475232e-13
0.0,22,22.0,0.0,30.0,0.0,0.0,0.0,0.0,-13.0,0.0,2.0,0.0,0.0,0.0,7.393008518800148e-11,6.730883071253009e-11,6.035790144289946e-11,5.3298009790899476e-11,4.6213584096922745e-11,3.945147804951869e-11,3.3111911407144586e-11,2.7138183202889663e-11,2.1670773536698374e-11,1.6921335465190094e-11,1.2885935447113141e-11,9.536191616473427e-12,6.869182980185689e-12,4.784932661089009e-12,3.2064890295323648e-12,2.06086766916235e-12,1.2739064147728933e-12,7.586637415647282e-13,4.4007606682782515e-13,2.5281616504662004e-13,1.4716245380815595e-13,8.829457306476202e-14,5.45601969217923e-14,3.488173688400757e-14,2.2448025727480494e-14,1.4471619936169167e-14,2.9709879035045476e-09,1.4183788827238458e-09,8.178889427291279e-10,5.283798877200775e-10,3.598782277358154e-10,2.5106724589544123e-10,1.7733210354557046e-10,1.249320666054804e-10,8.744827638353679e-11,6.026372709232892e-11,4.054672066846717e-11,2.688421704817567e-11,1.7454732413590067e-11,1.1097649109850433e-11,6.919589023001962e-12,4.199955209443576e-12,2.4622668560876385e-12,1.385139177468624e-12,7.432668107775044e-13
0.0,23,23.0,0.0,30.0,0.0,0.0,0.0,0.0,-13.0,0.0,2.0,0.0,0.0,0.0,7.531676023337658e-11,6.85582828973137e-11,6.146473634253552e-11,5.4258914276158624e-11,4.702964966238836e-11,4.0131599026434056e-11,3.3667827544931496e-11,2.7580633202044235e-11,2.201409649333839e-11,1.7184379302868075e-11,1.308690198354516e-11,9.692035648360956e-12,6.994008049064523e-12,4.887192858402497e-12,3.289505603474698e-12,2.1249669879856575e-12,1.319358661327558e-12,7.873496537213874e-13,4.556666373713171e-13,2.596203408969494e-13,1.490709038112655e-13,8.798838923429024e-14,5.35101114829832e-14,3.376342320254796e-14,2.1556175943650402e-14,1.3859533003975883e-14,2.945788884284163e-09,1.4164844058943445e-09,8.248240505699273e-10,5.364773231886588e-10,3.6663117136926567e-10,2.5612053199483e-10,1.8096082156405598e-10,1.2746624385368256e-10,8.917194650431131e-11,6.140495556955308e-11,4.127111391112428e-11,2.732818848409208e-11,1.7713343939144704e-11,1.124032624346045e-11,6.998303372768107e-12,4.247998740283264e-12,2.4973966939227028e-12,1.4129327546715828e-12,7.639773593174724e-13
0.0,24,24.0,0.0,30.0,0.0,0.0,0.0,0.0,-13.0,0.0,2.0,0.0,0.0,0.0,7.673918249882119e-11,6.983890010696006e-11,6.259818431593743e-11,5.524192618970026e-11,4.786348416755535e-11,4.082550474972207e-11,3.423389771288625e-11,2.802984237623685e-11,2.2360943246505347e-11,1.7447848843760983e-11,1.328526672967761e-11,9.842605151365974e-12,7.111848937656071e-12,4.982234227351228e-12,3.366571520770113e-12,2.1852873256587863e-12,1.3632029661334324e-12,8.159783084811651e-13,4.719590356634077e-13,2.672885403376273e-13,1.5169697858677986e-13,8.817930011389896e-14,5.2778553182061744e-14,3.283051151064022e-14,2.077681305848053e-14,1.3303012658884568e-14,2.921423467748221e-09,1.415741884548175e-09,8.325539562587136e-10,5.450450154359616e-10,3.736674785476452e-10,2.613545327781936e-10,1.8470866801004113e-10,1.3007991357701067e-10,9.094839375969506e-11,6.258119215050892e-11,4.201901217915956e-11,2.7788566382086016e-11,1.7983502755249705e-11,1.1389938440105901e-11,7.079202511254544e-12,4.2943224052647085e-12,2.5289488936434827e-12,1.437338707637697e-12,7.824527697707798e-13
0.0,25,25.0,0.0,30.0,0.0,0.0,0.0,0.0,-13.0,0.0,2.0,0.0,0.0,0.0,7.81986213765913e-11,7.115181796031682e-11,6.37592566655652e-11,5.624794718204944e-11,4.871590867062322e-11,4.153397459363794e-11,3.481091051864742e-11,2.8486678136578358e-11,2.2712353063918882e-11,1.7713041029459198e-11,1.3482600419067538e-11,9.989608598331374e-12,7.224264031886301e-12,5.0711614339616715e-12,3.4381944909907612e-12,2.2418270863692787e-12,1.4051603055142019e-12,8.442119416737951e-13,4.886824302700578e-13,2.7564956450749706e-13,1.5494889210569677e-13,8.882324203982038e-14,5.2344279380943405e-14,3.207368064206805e-14,2.0103325174947054e-14,1.2797719976884129e-14,2.8980258294982728e-09,1.4162172887419286e-09,8.411019736162072e-10,5.54093500502484e-10,3.8099425283522044e-10,2.6677416971140844e-10,1.885786139762487e-10,1.3277461130709877e-10,9.277821366180236e-11,6.379239511517143e-11,4.278992569171087e-11,2.82646345774613e-11,1.8264711791003948e-11,1.1546684852887822e-11,7.163245224436703e-12,4.340205095630957e-12,2.55796422400316e-12,1.4589142321312575e-12,7.988891262198383e-13
0.0,26,26.0,0.0,30.0,0.0,0.0,0.0,0.0,-13.0,0.0,2.0,0.0,0.0,0.0,7.969633963613541e-11,7.249815036747833e-11,6.494892558565721e-11,5.7277818805741353e-11,4.95876586577909e-11,4.2257671351511284e-11,3.53994994706855e-11,2.8951801486362025e-11,2.3069093719800925e-11,1.798091660944714e-11,1.3680105955537841e-11,1.013442731486748e-11,7.332604410125817e-12,5.1550264841065046e-12,3.504951372252414e-12,2.2947032180609654e-12,1.4450577606959686e-12,8.717811170118027e-13,5.0559973303502e-13,2.8454417533300205e-13,1.587374582861634e-13,8.987612918783406e-14,5.218594718675804e-14,3.148386425493078e-14,1.9529549593766278e-14,1.2340551162741208e-14,2.875736513730016e-09,1.4179768650711041e-09,8.504913603488223e-10,5.636338826731785e-10,3.886192255421119e-10,2.7238483453942927e-10,1.9257397967565138e-10,1.3555214577593683e-10,9.466222450869141e-11,6.503872155327082e-11,4.358356252219507e-11,2.875582247938929e-11,1.8556443725489387e-11,1.1710503699598912e-11,7.251012774963412e-12,4.386619108591934e-12,2.5853428274966993e-12,1.4782036225151955e-12,8.135100845523064e-13
0.0,27,27.0,0.0,30.0,0.0,0.0,0.0,0.0,-13.0,0.0,2.0,0.0,0.0,0.0,8.123361723883058e-11,7.387901600801358e-11,6.616815420116289e-11,5.833235729888113e-11,5.047942493828212e-11,4.299718973570586e-11,3.600020103691092e-11,2.942573727166986e-11,2.3431744625890662e-11,1.8252189415261656e-11,1.3878696664370658e-11,1.0278161074041764e-11,7.438016373470933e-12,5.234798171700367e-12,3.5674475739633318e-12,2.3441198119869725e-12,1.4828119927105197e-12,8.984792835572879e-13,5.225073600543678e-13,2.9382641270964063e-13,1.6297712892479938e-13,9.12942391311917e-14,5.2282114055380134e-14,3.105206851000482e-14,1.904965871223198e-14,1.1929323220721243e-14,2.85470214291627e-09,1.42108688130501e-09,8.607453199613519e-10,5.736778774083452e-10,3.965507594911737e-10,2.781923710411613e-10,1.9669840989679216e-10,1.3841457437872013e-10,9.660144481201259e-11,6.632050029586536e-11,4.4399799518754796e-11,2.926170591634286e-11,1.8858205441764884e-11,1.1881184156598782e-11,7.342807662537002e-12,4.434272830218477e-12,2.6118396565992866e-12,1.4957189727402066e-12,8.265524897018707e-13
0.0,28,28.0,0.0,30.0,0.0,0.0,0.0,0.0,-13.0,0.0,2.0,0.0,0.0,0.0,8.28117654506296e-11,7.529555413958235e-11,6.741791474083629e-11,5.941237506119452e-11,5.139187955216117e-11,4.375308798284472e-11,3.661349359507886e-11,2.990892294456462e-11,2.380075727889975e-11,1.8527395648564897e-11,1.4079063149059384e-11,1.0421674757983151e-11,7.541455088561978e-12,5.311345319225348e-12,3.626286327078047e-12,2.3903408616321775e-12,1.5184132310649115e-12,9.24156556260711e-13,5.39234191744602e-13,3.033644129498573e-13,1.675868552431666e-13,9.303463051794827e-14,5.261131438188019e-14,3.076925609737351e-14,1.8658080528896677e-14,1.156247068223437e-14,2.835075067906666e-09,1.4256133791339783e-09,8.718870279655772e-10,5.842378651987647e-10,4.047978574430106e-10,2.8420306159057913e-10,2.0095585431673577e-10,1.413641816798276e-10,9.85970731455041e-11,6.763820975984448e-11,4.523865607962117e-11,2.978199573072431e-11,1.9169571312049402e-11,1.2058444634218047e-11,7.438735921596624e-12,4.483655960497134e-12,2.6380690109292035e-12,1.5119271976258386e-12,8.382552632085757e-13
0.0,29,29.0,0.0,30.0,0.0,0.0,0.0,0.0,-13.0,0.0,2.0,0.0,0.0,0.0,8.443213516036603e-11,7.674893389758828e-11,6.86991992944282e-11,6.051869358581528e-11,5.232569177417457e-11,4.452590797492267e-11,3.7239823015980076e-11,3.0401741727875354e-11,2.41764982602244e-11,1.8806946247084868e-11,1.4281728260462868e-11,1.0565642298412305e-11,7.643704515893792e-12,5.385430397846451e-12,3.682046614686667e-12,2.4336673568481978e-12,1.5519102574947626e-12,9.487130722526588e-13,5.556399207853995e-13,3.1304079234093297e-13,1.7249076048079216e-13,9.505555162476347e-14,5.3152185036173504e-14,3.062628410012141e-14,1.8349448069617004e-14,1.1238781417435504e-14,2.8170129562336836e-09,1.4316219403032612e-09,8.839396838967472e-10,5.953269556551126e-10,4.133701748175053e-10,2.904236182157564e-10,2.0535055252982594e-10,1.4440346137184024e-10,1.0065047037373746e-10,6.899245960905328e-11,4.6100271887439e-11,3.0316521517501265e-11,1.9490196601528115e-11,1.2241984824143361e-11,7.538772804578306e-12,4.535083307124935e-12,2.664515197617716e-12,1.527242349987125e-12,8.488510586808117e-13
0.0,30,30.0,0.0,30.0,0.0,0.0,0.0,0.0,-13.0,0.0,2.0,0.0,0.0,0.0,8.609612190463904e-11,7.824035979193928e-11,7.001302610633258e-11,6.165215108275616e-11,5.328153775698236e-11,4.531618774603489e-11,3.787961910499413e-11,3.090454471845164e-11,2.45592791977361e-11,1.9091165542087237e-11,1.4487090912880051e-11,1.0710585824893884e-11,7.745400090662851e-12,5.457710550558554e-12,3.735268405594364e-12,2.4744186323976676e-12,1.583396720616041e-12,9.720922138768688e-13,5.716129507194347e-13,3.227526635485273e-13,1.776186282608426e-13,9.731681269608548e-14,5.388361748133866e-14,3.0613884287307714e-14,1.8118570776935684e-14,1.0957186589243796e-14,2.8006783176530527e-09,1.439177472129889e-09,8.969265903284268e-10,6.069590608531122e-10,4.222780362795598e-10,2.968611778404193e-10,2.0988702346060142e-10,1.4753510177645637e-10,1.0276314430981942e-10,7.038397543820665e-11,4.6984888552679266e-11,3.0865214564290015e-11,1.981981896111813e-11,1.2431518185855242e-11,7.64281318649357e-12,4.5887346848262944e-12,2.691546866898085e-12,1.5420222125794665e-12,8.585602083805449e-13
0.0,31,31.0,0.0,30.0,0.0,0.0,0.0,0.0,-13.0,0.0,2.0,0.0,0.0,0.0,8.780516914801293e-11,7.977107510599982e-11,7.136044330607386e-11,6.281360693051867e-11,5.4260106218888325e-11,4.6124469074402304e-11,3.85333059351724e-11,3.1417665319010316e-11,2.4949377228114736e-11,1.9380319189050105e-11,1.4695460106277417e-11,1.0856909149224796e-11,7.847051718670074e-12,5.528743548331668e-12,3.78644381467844e-12,2.512917701890956e-12,1.6129989899300251e-12,9.942739339829319e-13,5.870679842379582e-13,3.324113502877003e-13,1.8290622143291754e-13,9.97801062704284e-14,5.4784918964577115e-14,3.072267573386994e-14,1.7960420925173526e-14,1.0716608984972377e-14,2.7862379676144896e-09,1.4483440191601399e-09,9.108712597357349e-10,6.191489767463987e-10,4.315324557338115e-10,3.035233014068485e-10,2.1457005874785462e-10,1.5076197475199671e-10,1.0493673681944688e-10,7.181358594997942e-11,4.789283468183347e-11,3.142809200224466e-11,2.0158253381522735e-11,1.2626790446140326e-11,7.750708777859754e-12,4.644689617985288e-12,2.719433104673407e-12,1.55656820281775e-12,8.675865405294235e-13
0.0,32,32.0,0.0,30.0,0.0,0.0,0.0,0.0,-13.0,0.0,2.0,0.0,0.0,0.0,8.956077074284425e-11,8.134236423531341e-11,7.274253125993903e-11,6.400394432510101e-11,5.5262101765136945e-11,4.695130199756198e-11,3.9201308198729215e-11,3.1941428466456355e-11,2.53470486963374e-11,1.967463394348478e-11,1.4907080742285358e-11,1.1004925498943835e-11,7.949065525984067e-12,5.598996720843969e-12,3.8360128883875955e-12,2.54948018271504e-12,1.6408656489819325e-12,1.015268368417513e-12,6.019434192746009e-13,3.4194186039629085e-13,1.8829545093181592e-13,1.0240926814375007e-13,5.583596983904131e-14,3.094320101750599e-14,1.7870129002304833e-14,1.051586614814381e-14,2.77386243146228e-09,1.4591846084683845e-09,9.257975496734222e-10,6.319124713198887e-10,4.4114515929896616e-10,3.1041797660503756e-10,2.194047196672111e-10,1.5408712773754255e-10,1.0717301331443192e-10,7.32822122752734e-11,4.882451379671585e-11,3.200524299102381e-11,2.0505384062625876e-11,1.2827588519684262e-11,7.86229448400398e-12,4.702956383431639e-12,2.7483598536805794e-12,1.5711277228597343e-12,8.761147108287347e-13
0.0,33,33.0,0.0,30.0,0.0,0.0,0.0,0.0,-13.0,0.0,2.0,0.0,0.0,0.0,9.136447309649341e-11,8.29555545722684e-11,7.41604042552948e-11,6.522407197596684e-11,5.628824686318988e-11,4.7797247470948477e-11,3.9884055034665844e-11,3.2476156411329193e-11,2.5752538146239276e-11,1.99743113918271e-11,1.5122152808393615e-11,1.1154879883560353e-11,8.051763466851725e-12,5.668857377616086e-12,3.884362847841693e-12,2.5844063466618264e-12,1.6671586382402424e-12,1.0351098744184332e-12,6.161986526600863e-13,3.5128217110384985e-13,1.93734415687359e-13,1.0517047754707524e-13,5.701736808750631e-14,3.126597855617053e-14,1.7842983328371372e-14,1.0353619970748875e-14,2.763725294701015e-09,1.4717611367557093e-09,9.417298262880966e-10,6.452663780783114e-10,4.511286109007196e-10,3.1755362396647543e-10,2.2439633717253863e-10,1.575137785982158e-10,1.09473854504767e-10,7.479085919012884e-11,4.978039458379162e-11,3.259681712100804e-11,2.0861155303090254e-11,1.303374318273871e-11,7.977406187530255e-12,4.763495496020438e-12,2.7784456618980707e-12,1.5858982020482092e-12,8.843087508215637e-13
0.0,34,34.0,0.0,30.0,0.0,0.0,0.0,0.0,-13.0,0.0,2.0,0.0,0.0,0.0,9.321787733037721e-11,8.461201827311112e-11,7.561521192663527e-11,6.647492535671763e-11,5.7339283106871805e-11,4.866287895865484e-11,4.058198230869282e-11,3.302217226840645e-11,2.6166084104360557e-11,2.0279537303846446e-11,1.5340845359363743e-11,1.1306966722914374e-11,8.155400375068768e-12,5.738643648326373e-12,3.931829787504484e-12,2.61797580455125e-12,1.692045988548635e-12,1.053851591785881e-12,6.298113746992961e-13,3.603823739102981e-13,1.9917733414661e-13,1.0803239897976337e-13,5.831055544816931e-14,3.168156487744066e-14,1.7874430630194157e-14,1.0228362247551083e-14,2.756002507617148e-09,1.4861343079096324e-09,9.586931556625535e-10,6.592286934418097e-10,4.6149604022229977e-10,3.249391061175097e-10,2.2955051466488744e-10,1.6104531291846665e-10,1.1184125022347046e-10,7.634060803361908e-11,5.076100304612802e-11,3.320301490367179e-11,2.1225562606905043e-11,1.3245127919745255e-11,8.095891996406803e-12,4.826238088175148e-12,2.8097561110993656e-12,1.601032200646328e-12,8.923115852943634e-13
0.0,35,35.0,0.0,30.0,0.0,0.0,0.0,0.0,-13.0,0.0,2.0,0.0,0.0,0.0,9.51226415717936e-11,8.631317408113187e-11,7.710814064533074e-11,6.775746780020389e-11,5.841597215005641e-11,4.9548783451245256e-11,4.129553398320013e-11,3.3579802168235784e-11,2.6587922730373137e-11,2.0590487882875288e-11,1.5563306520068686e-11,1.1461343460859893e-11,8.260178372063822e-12,5.8086150129728204e-12,3.978702002794716e-12,2.650444340732911e-12,1.7156960350150672e-12,1.0715605866340607e-12,6.427749231242055e-13,3.6920372051198074e-13,2.0458438648069824e-13,1.1096627042593571e-13,5.969792216826826e-14,3.218062173331096e-14,1.796007563589282e-14,1.0138425485787706e-14,2.750871655895129e-09,1.502363629962713e-09,9.767135218956955e-10,6.738186766535581e-10,4.722614728731088e-10,3.325837400235952e-10,2.348731331321552e-10,1.6468528340274992e-10,1.142772951074906e-10,7.793261115189212e-11,5.1766916221249206e-11,3.3824080094325967e-11,2.1598644618429207e-11,1.3461655633861397e-11,8.217618688689137e-12,4.8910998199868545e-12,2.8423165592264323e-12,1.6166430643121199e-12,9.002453104335735e-13
0.0,36,36.0,0.0,30.0,0.0,0.0,0.0,0.0,-13.0,0.0,2.0,0.0,0.0,0.0,9.708048343881208e-11,8.806048928616659e-11,7.864041498383981e-11,6.907269159342358e-11,5.951909652777217e-11,5.045556221029361e-11,4.202516298262073e-11,3.4149376561170257e-11,2.701829008409815e-11,2.0907333865926435e-11,1.578967051525539e-11,1.161814088514486e-11,8.366258753501998e-12,5.878982063165875e-12,4.025224290010273e-12,2.6820424449521444e-12,1.7382729672988224e-12,1.0883136056130377e-12,6.550957511447221e-13,3.777176057600255e-13,2.099214846562104e-13,1.139459438319904e-13,6.11628893794538e-14,3.27539839834396e-14,1.80956788569217e-14,1.0082009327361373e-14,2.7485112125564036e-09,1.5205074803674782e-09,9.958180701674727e-10,6.890569508968946e-10,4.834397627681579e-10,3.4049731208828526e-10,2.4037035833868055e-10,1.6843741107271657e-10,1.1678418590839208e-10,7.956808770064637e-11,5.279875720110134e-11,3.4460293562346724e-11,2.198047613787783e-11,1.3683274355859069e-11,8.342474757915782e-12,4.957991026311529e-12,2.8761230427410024e-12,1.6328107316323883e-12,9.082120555860852e-13
0.0,37,37.0,0.0,30.0,0.0,0.0,0.0,0.0,-13.0,0.0,2.0,0.0,0.0,0.0,9.909318273610567e-11,8.98554818496952e-11,8.021329930224055e-11,7.042161914796282e-11,6.064946048169877e-11,5.138383141313954e-11,4.277133180360634e-11,3.4731231031553004e-11,2.745742352179829e-11,2.1230243167241372e-11,1.602006252512578e-11,1.1777470816693166e-11,8.473771595649486e-12,5.9499152409957746e-12,4.071602716827062e-12,2.7129751358867923e-12,1.7599335531619393e-12,1.1041934419871757e-12,6.667910516406323e-13,3.8590451867389785e-13,2.1515998561011029e-13,1.1694788410699279e-13,6.268996948522176e-14,3.339272506684383e-14,1.8277152534404843e-14,1.0057214690360661e-14,2.7490997904959813e-09,1.5406232481168383e-09,1.0160353723493927e-09,7.049656044778915e-10,4.950466268452881e-10,3.486900959976583e-10,2.460486497798152e-10,1.7230558798822437e-10,1.1936422021309167e-10,8.12483206416697e-11,5.3857191244057535e-11,3.511196844096501e-11,2.237116226075006e-11,1.3909962677193958e-11,8.47037115666301e-12,5.026823800412246e-12,2.9111513378794284e-12,1.6495873983816e-12,9.162952765099386e-13
0.0,38,38.0,0.0,30.0,0.0,0.0,0.0,0.0,-13.0,0.0,2.0,0.0,0.0,0.0,1.0116258435951714e-10,9.169972269962432e-11,8.18280994717374e-11,7.180530427692811e-11,6.180789084682863e-11,5.2334222792197124e-11,4.353451301736298e-11,3.5325706847441276e-11,2.790556256425079e-11,2.1559382559302927e-11,1.625460198410557e-11,1.1939431746698828e-11,8.582823378873428e-12,6.021552450561279e-12,4.118009496081903e-12,2.743422725439828e-12,1.7808248652397307e-12,1.1192858938929799e-12,6.77886567921087e-13,3.9375298797990013e-13,2.2027636095392218e-13,1.199511328117884e-13,6.426480587743798e-14,3.408821767073981e-14,1.8500555241429783e-14,1.0062079718714507e-14,2.752815418964744e-09,1.5627675604176289e-09,1.0373957120345474e-09,7.215682911588858e-10,5.070986823736721e-10,3.571728732200528e-10,2.519147711522111e-10,1.7629388126076877e-10,1.2201979637206059e-10,8.297465477372587e-11,5.494292280707911e-11,3.5779446323357724e-11,2.277083357345726e-11,1.414172534342043e-11,8.60124056778597e-12,5.097516660062995e-12,2.9473642827297816e-12,1.6670028298968419e-12,9.245613490651718e-13
0.0,39,39.0,0.0,30.0,0.0,0.0,0.0,0.0,-13.0,0.0,2.0,0.0,0.0,0.0,1.032906013994899e-10,9.359483818837344e-11,8.348616473413525e-11,7.322483358581646e-11,6.299523802183798e-11,5.330738431521066e-11,4.43151897464591e-11,3.5933151383079984e-11,2.836294945975229e-11,2.189491873553877e-11,1.649340478839001e-11,1.2104112906471887e-11,8.693502939195067e-12,6.0940055394530365e-12,4.164587707567127e-12,2.773542229998888e-12,1.8010828435468345e-12,1.1336772792625422e-12,6.884146110063845e-13,4.0125854442135054e-13,2.2525183501081558e-13,1.2293724233599043e-13,6.587419385635493e-14,3.48321878894794e-14,1.8762085889557378e-14,1.0094613533914502e-14,2.7598348713668485e-09,1.5869966003134346e-09,1.0599313852237285e-09,7.388903290320337e-10,5.1961348721733e-10,3.659569560823478e-10,2.579758021265606e-10,1.8040653816883553e-10,1.2475341445534636e-10,8.47484956459752e-11,5.605669335348186e-11,3.646309430977541e-11,2.317964228601538e-11,1.4378589246011273e-11,8.735035810037737e-12,5.1699973636469494e-12,2.984717525344763e-12,1.6850691863744812e-12,9.330613509734026e-13
0.0,40,40.0,0.0,30.0,0.0,0.0,0.0,0.0,-13.0,0.0,2.0,0.0,0.0,0.0,1.054792184323478e-10,9.554251270542797e-11,8.518888969044957e-11,7.468132797378696e-11,6.421237702751053e-11,5.4303980925083195e-11,4.5113856158279404e-11,3.655391849395164e-11,2.882982958328203e-11,2.2237018989128052e-11,1.6736584755582784e-11,1.2271597164062372e-11,8.805886045609094e-12,6.167365713146977e-12,4.211455702480097e-12,2.8034691903030513e-12,1.8208315356903204e-12,1.1474524608675642e-12,6.98412294158871e-13,4.084227181444484e-13,2.300720015587031e-13,1.2589018586649662e-13,6.750608491119319e-14,3.5616761752701806e-14,1.9058077941230076e-14,1.0152825427903734e-14,2.770333075472088e-09,1.6133665198139427e-09,1.0836770123739745e-09,7.569587976967928e-10,5.326095835013964e-10,3.750542133477589e-10,2.642391512470509e-10,1.8464799222353825e-10,1.2756767808180798e-10,8.65713092132808e-11,5.7199279812166565e-11,3.716330274538071e-11,2.359775916627452e-11,1.462059992025227e-11,8.871727806574155e-12,5.2442043559248006e-12,3.0231638960237743e-12,1.7037852853017589e-12,9.418329365481117e-13
0.0,41,41.0,0.0,30.0,0.0,0.0,0.0,0.0,-13.0,0.0,2.0,0.0,0.0,0.0,1.077304949903884e-10,9.754449143707804e-11,8.693771641109784e-11,7.617594423774948e-11,6.546020864883902e-11,5.532469534277844e-11,4.593101799348315e-11,3.7188368887909607e-11,2.93064517580661e-11,2.2585851663606304e-11,1.6984254584163714e-11,1.2441963059498517e-11,8.920038872520338e-12,6.2417079833204164e-12,4.258711094754521e-12,2.833319712611101e-12,1.8401828708074997e-12,1.1606933281431028e-12,7.07919987483291e-13,4.1525208577863807e-13,2.347264283829783e-13,1.2879624791786823e-13,6.914957660493436e-14,3.6434503495432195e-14,1.9384994539658633e-14,1.0234748436847923e-14,2.7844826402871033e-09,1.641933950712951e-09,1.1086698571597017e-09,7.758026339427537e-10,5.461065451779956e-10,3.844770982178032e-10,2.7071256982143085e-10,1.890228700683535e-10,1.3046529699155832e-10,8.844462210652539e-11,5.837149358061263e-11,3.78804835181752e-11,2.4025371142881127e-11,1.4867818574954157e-11,9.01130340703967e-12,5.320087235800037e-12,3.0626566126156755e-12,1.7231402716198383e-12,9.509022256340317e-13
0.0,42,42.0,0.0,30.0,0.0,0.0,0.0,0.0,-13.0,0.0,2.0,0.0,0.0,0.0,1.1004656920504706e-10,9.96025832693712e-11,8.873413666172049e-11,7.770987677119013e-11,6.673966065305067e-11,5.637022892932801e-11,4.676719313442264e-11,3.783687051364965e-11,2.979306854974548e-11,2.294158647573696e-11,1.7236526487700634e-11,1.2615286219767308e-11,9.036020601217214e-12,6.3170947691746876e-12,4.306434295333258e-12,2.8631925889944907e-12,1.8592368399358246e-12,1.173477679225564e-12,7.169799888667469e-13,4.217573784086238e-13,2.392082575974864e-13,1.3164389967487189e-13,7.079489026224818e-14,3.72784453501405e-14,1.9739425090891502e-14,1.0338457177960762e-14,2.8024535360345173e-09,1.672756612396435e-09,1.1349501471853566e-09,7.954527266224787e-10,5.60125029995024e-10,3.9423867867529686e-10,2.774041667080678e-10,1.9353599912816818e-10,1.334490902539895e-10,9.037002240636983e-11,5.957417997816002e-11,3.861506881075511e-11,2.4462679456244292e-11,1.512031963140561e-11,9.153763250550794e-12,5.397606557574967e-12,3.1031515230104976e-12,1.7431167009650832e-12,9.60285643485322e-13
0.0,43,43.0,0.0,30.0,0.0,0.0,0.0,0.0,-13.0,0.0,2.0,0.0,0.0,0.0,1.1242966162108216e-10,1.0171866383412894e-10,9.057969424102269e-11,7.928435935071955e-11,6.805168907521737e-11,5.7441302599960405e-11,4.762291221153885e-11,3.849979897472321e-11,3.028993656037547e-11,2.330439477321622e-11,1.7493512624499036e-11,1.279164033604791e-11,9.153885347155084e-12,6.3935787751208e-12,4.354691582399634e-12,2.89317139309943e-12,1.8780819733065056e-12,1.1858784463026789e-12,7.256354023188411e-13,4.279526584930989e-13,2.435138086361838e-13,1.3442366291609314e-13,7.24333385329407e-14,3.814210896835752e-14,2.0118083616501365e-14,1.0462080447497551e-14,2.8244129645594784e-09,1.705894012642123e-09,1.1625613920947538e-09,8.159420119017275e-10,5.746868363296278e-10,4.0435267007989687e-10,2.8432242395160364e-10,1.9819241594949257e-10,1.365219900231123e-10,9.234916082482868e-11,6.080821806910942e-11,3.9367510219301994e-11,2.490989825250206e-11,1.537818872321295e-11,9.29911978164591e-12,5.4767332060144234e-12,3.144608574371044e-12,1.7636930660593568e-12,9.699916628336861e-13
0.0,44,44.0,0.0,30.0,0.0,0.0,0.0,0.0,-13.0,0.0,2.0,0.0,0.0,0.0,1.1488207918340225e-10,1.0389467870156093e-10,9.247598742927364e-11,8.090066700486649e-11,6.939727956383084e-11,5.853865778280125e-11,4.849871924265942e-11,3.9177537970080465e-11,3.0797316735306426e-11,2.3674449764365383e-11,1.7755325403878945e-11,1.2971097838542261e-11,9.27368357427952e-12,6.471205263498454e-12,4.403537725538124e-12,2.9233264795781925e-12,1.896796022747362e-12,1.197963209248109e-12,7.339292108379481e-13,4.3385457094871223e-13,2.4764218982693433e-13,1.371279658531796e-13,7.405728473193915e-14,3.9019518834589644e-14,2.051780897707677e-14,1.0603809420692928e-14,2.8505254565978054e-09,1.7414082338400272e-09,1.1915506951084014e-09,8.373055705621746e-10,5.898149652573707e-10,4.1483346992723106e-10,2.9147621326638216e-10,2.0299737519523912e-10,1.3968704576781658e-10,9.438375221482463e-11,6.2074520787375e-11,4.0138278169124195e-11,2.536725353172505e-11,1.564152109750266e-11,9.447395478210191e-12,5.557447525216427e-12,3.1869926783003035e-12,1.7848458126641184e-12,9.800224127250174e-13
0.0,45,45.0,0.0,30.0,0.0,0.0,0.0,0.0,-13.0,0.0,2.0,0.0,0.0,0.0,1.174062194016095e-10,1.0613264672620696e-10,9.4424671547836e-11,8.256011796110412e-11,7.077744877992972e-11,5.96630574152709e-11,4.939517229921963e-11,3.9870479758510184e-11,3.13154746876151e-11,2.4051926740376625e-11,1.8022077722094725e-11,1.3153730367239666e-11,9.39546312552292e-12,6.550013830977405e-12,4.453018197385735e-12,2.9537168409512135e-12,1.915446774156104e-12,1.2097939459887679e-12,7.419035281658683e-13,4.3948167110727437e-13,2.5159492351737893e-13,1.397509938316208e-13,7.566009566619691e-14,3.990520822572221e-14,2.0935566871553174e-14,1.0761902428087405e-14,2.8809532292932405e-09,1.779364793444384e-09,1.221969055030543e-09,8.595807294599711e-10,6.055336880920966e-10,4.2569619469260665e-10,2.988748134151295e-10,2.0795635927333046e-10,1.4294742891722643e-10,9.647557734301064e-11,6.337403530589562e-11,4.09278615689749e-11,2.583498237676053e-11,1.59104203558151e-11,9.598621314347997e-12,5.6397383317750416e-12,3.230274118162983e-12,1.8065509010919912e-12,9.903751306101898e-13
0.0,46,46.0,0.0,30.0,0.0,0.0,0.0,0.0,-13.0,0.0,2.0,0.0,0.0,0.0,1.2000457470046785e-10,1.084346635554441e-10,9.642746163116649e-11,8.426407566827079e-11,7.219324584466034e-11,6.081528697253895e-11,5.031284419368635e-11,4.057902564284762e-11,3.184468104010008e-11,2.443700330019052e-11,1.8293883161256445e-11,1.3339609108559232e-11,9.519269970801872e-12,6.63003978455991e-12,4.503171014881856e-12,2.9843917955520513e-12,1.9340929303158047e-12,1.2214269725854865e-12,7.495990120675966e-13,4.4485383008584957e-13,2.5537558882514177e-13,1.4228853748884935e-13,7.723608946556372e-14,4.0794218401855653e-14,2.1368453360993986e-14,1.0934687268923755e-14,2.9158568317966454e-09,1.819833564100262e-09,1.253871657214455e-09,8.828071695635367e-10,6.218686194609367e-10,4.3695671870531115e-10,3.0652792857729175e-10,2.1307508858870996e-10,1.463064378710896e-10,9.862648487529189e-11,6.470774360462477e-11,4.173676765696395e-11,2.6313332402547356e-11,1.6184997476125175e-11,9.752835457802288e-12,5.723601903211663e-12,3.274428621387445e-12,1.82878497355051e-12,1.0010434444923897e-12
0.0,47,47.0,0.0,30.0,0.0,0.0,0.0,0.0,-13.0,0.0,2.0,0.0,0.0,0.0,1.2267973696719087e-10,1.1080290531146414e-10,9.848613521311718e-11,8.601395089240085e-11,7.364575383137006e-11,6.199615552379685e-11,5.125232318325948e-11,4.130358646950879e-11,3.2385211782513446e-11,2.482985958173221e-11,1.8570856171226765e-11,1.3528805046481712e-11,9.645148750511929e-12,6.7113151994674905e-12,4.554028255665e-12,3.015392495182555e-12,1.952785017868936e-12,1.2329130311458005e-12,7.57054420933696e-13,4.499917162869664e-13,2.589894852327427e-13,1.4473784064819588e-13,7.878047974967686e-14,4.1682091798471397e-14,2.1813699555159118e-14,1.1120561914224206e-14,2.9553960985075862e-09,1.862889736144621e-09,1.2873181538228155e-09,9.070270431544548e-10,6.388467957927188e-10,4.486317150437877e-10,3.144457078434402e-10,2.1835953241293861e-10,1.4976750333285526e-10,1.008383935374253e-10,6.607666320050532e-11,4.256552199961988e-11,2.6802561377269942e-11,1.6465370063288586e-11,9.910082187353136e-12,5.809041001961923e-12,3.31943719723154e-12,1.851526187898336e-12,1.0120184805590722e-12
0.0,48,48.0,0.0,30.0,0.0,0.0,0.0,0.0,-13.0,0.0,2.0,0.0,0.0,0.0,1.2543440230853306e-10,1.1323963245830838e-10,1.0060253522915342e-10,8.781120388457972e-11,7.513609129945164e-11,6.320649681348881e-11,5.221421368591307e-11,4.20445831391953e-11,3.293734864074461e-11,2.5230678499618318e-11,1.8853112245601645e-11,1.3721389161077866e-11,9.773143173451888e-12,6.793869727840362e-12,4.605617295075599e-12,3.046753251953446e-12,1.9715662839188416e-12,1.2442974890648064e-12,7.643062953971048e-13,4.549163502662597e-13,2.624433194457355e-13,1.4709744993380378e-13,8.028931729165655e-14,4.256486003195872e-14,2.2268677035527418e-14,1.1317994295318465e-14,2.9997314185335974e-09,1.9086148034847105e-09,1.3223729358751656e-09,9.322851027319224e-10,6.5649675892271e-10,4.6073869850681606e-10,3.2263876600517097e-10,2.238159203652791e-10,1.5333419392980502e-10,1.031132944247736e-10,6.748184801117128e-11,4.341466861288669e-11,2.730293697642803e-11,1.6751661782227327e-11,1.0070411007937907e-11,5.896063972009557e-12,3.365285820114308e-12,1.8747547758507175e-12,1.0232897986702703e-12
0.0,49,49.0,0.0,30.0,0.0,0.0,0.0,0.0,-13.0,0.0,2.0,0.0,0.0,0.0,1.2827137603195508e-10,1.1574719386513297e-10,1.0277857303546102e-10,8.965734661991e-11,7.666541386821103e-11,6.44471703658903e-11,5.319913700583256e-11,4.280244712516798e-11,3.350137945450444e-11,2.5639645987603756e-11,1.9140768097205934e-11,1.3917432596009154e-11,9.903296312878311e-12,6.87773121481551e-12,4.657961806835405e-12,3.0785026912774327e-12,1.990473557506962e-12,1.255620618429028e-12,7.713887471281382e-13,4.596487290499521e-13,2.6574491718917223e-13,1.493670678180082e-13,8.17594301837681e-14,4.3439027538633084e-14,2.2730903566645102e-14,1.152552169965157e-14,3.049025316567885e-09,1.957097553643667e-09,1.3591054018707313e-09,9.58628843884606e-10,6.748486443861909e-10,4.732960707995085e-10,3.311182058291493e-10,2.294507544949987e-10,1.5701022209133942e-10,1.0545325344560073e-10,6.892438933106809e-11,4.428477017982871e-11,2.7814736639002234e-11,1.7044001935367316e-11,1.0233875937949212e-11,5.9846839282344185e-12,3.411965020671888e-12,1.898453379217515e-12,1.0348461634015955e-12
0.0,50,50.0,0.0,30.0,0.0,0.0,0.0,0.0,-13.0,0.0,2.0,0.0,0.0,0.0,1.3119357786538799e-10,1.1832803107523978e-10,1.050162315450377e-10,9.155394510713409e-11,7.82349158300667e-11,6.571906261249024e-11,5.4207732066225555e-11,4.357762099610857e-11,3.4077598560285757e-11,2.6056951243299683e-11,1.9433941835057994e-11,1.4117006808578633e-11,1.0035650832473784e-11,6.96292616755901e-12,4.711082566719201e-12,3.1106647428111804e-12,2.0095380592160268e-12,1.2669179295111155e-12,7.783333378816114e-13,4.642095151339105e-13,2.68902960939744e-13,1.515474105545986e-13,8.318836337159728e-14,4.430155164858399e-14,2.3198048661153226e-14,1.1741750128441444e-14,3.1034443253582564e-09,2.008435044426114e-09,1.39759022997211e-09,9.861086638821423e-10,6.939342739260913e-10,4.86323168168968e-10,3.398956420047996e-10,2.352708219483541e-10,1.6079945016429713e-10,1.0786041389110697e-10,7.040541690408987e-11,4.517640834477746e-11,2.833824750161981e-11,1.7342525152656976e-11,1.0400534942767197e-11,6.074918046462752e-12,3.4594694313686744e-12,1.9226072121600223e-12,1.0466761622083606e-12
0.0,51,51.0,0.0,30.0,0.0,0.0,0.0,0.0,-13.0,0.0,2.0,0.0,0.0,0.0,1.3420404742916777e-10,1.2098468278751876e-10,1.073175684800566e-10,9.350262176902627e-11,7.984583180344252e-11,6.702308804246625e-11,5.5240656148321257e-11,4.437055894120572e-11,3.46663071767784e-11,2.6482786972635662e-11,1.973275314276282e-11,1.4320183710393264e-11,1.0170249164858828e-11,7.049480113349331e-12,4.764998094096306e-12,3.1432594839336744e-12,2.0287861485455068e-12,1.278220536996389e-12,7.851690330873573e-13,4.686187848182311e-13,2.719267539850796e-13,1.5364007220664753e-13,8.457431829954541e-14,4.514981985620575e-14,2.3667938604714713e-14,1.1965353824130019e-14,3.1631611144903936e-09,2.0627335534608354e-09,1.437907662530041e-09,1.0147780370294909e-09,7.13787251812645e-10,4.998403118210258e-10,3.4898322693417886e-10,2.412832081978344e-10,1.6470589675374585e-10,1.103369991325158e-10,7.192610008076116e-11,4.6090184067763627e-11,2.8873766392173598e-11,1.7647371168617536e-11,1.0570449489938873e-11,6.166786954002373e-12,3.5077973207481694e-12,1.9472040913002107e-12,1.0587686848679099e-12
0.0,52,52.0,0.0,30.0,0.0,0.0,0.0,0.0,-13.0,0.0,2.0,0.0,0.0,0.0,1.3730594997144398e-10,1.237197895528183e-10,1.0968471973933503e-10,9.550505789438801e-11,8.149943842677849e-11,6.83601903771138e-11,5.629858563616789e-11,4.518172729569081e-11,3.526781379033781e-11,2.6917349631862688e-11,2.0037323457256972e-11,1.4527035802993682e-11,1.0307133658385026e-11,7.137417874843742e-12,4.819725161580613e-12,3.17630385161774e-12,2.048240003678095e-12,1.289555541827388e-12,7.919222156919068e-13,4.728958301949156e-13,2.7482601067298706e-13,1.556473957460259e-13,8.591609330067937e-14,4.5981624994598677e-14,2.4138560607267254e-14,1.2195075057305432e-14,3.228356826092677e-09,2.1201094928607752e-09,1.4801438127805584e-09,1.0446937070073224e-09,7.344430647946867e-10,5.138688615300821e-10,3.58393678488724e-10,2.4749531080859683e-10,1.6873374328925533e-10,1.1288531545064391e-10,7.348764905044555e-11,4.702671802653179e-11,2.942159986894144e-11,1.7958684666182984e-11,1.074368420375446e-11,6.260314215189432e-12,3.5569501400741095e-12,1.9722343692599624e-12,1.0711132798970433e-12
0.0,53,53.0,0.0,30.0,0.0,0.0,0.0,0.0,-13.0,0.0,2.0,0.0,0.0,0.0,1.4050258237488853e-10,1.2653609868256322e-10,1.1211990287997821e-10,9.756299616334411e-11,8.319705609609335e-11,6.973134376933947e-11,5.738221676764257e-11,4.601160506562798e-11,3.5882434538463746e-11,2.73608396654363e-11,2.034777614640311e-11,1.4737636310400305e-11,1.0446346702845939e-11,7.226763784096571e-12,4.875279198506493e-12,3.209812238734381e-12,2.0679182320151044e-12,1.3009464152921176e-12,7.986167474788722e-13,4.770590089740578e-13,2.7761067226287723e-13,1.5757235198341995e-13,8.721302526688348e-14,4.679513895735782e-14,2.460806581838967e-14,1.242972417463091e-14,3.2992235575140483e-09,2.1806902891050415e-09,1.5243910035291368e-09,1.075915895630338e-09,7.559391858822296e-10,5.284312728983673e-10,3.681403097935336e-10,2.5391485372073424e-10,1.7288734082979993e-10,1.1550775500622577e-10,7.509131614035061e-11,4.798665105639447e-11,2.998206429500336e-11,1.827661517154969e-11,1.0920306599759695e-11,6.355525903407613e-12,3.606932097948292e-12,1.9976908011691465e-12,1.0837004043384413e-12
0.0,54,54.0,0.0,30.0,0.0,0.0,0.0,0.0,-13.0,0.0,2.0,0.0,0.0,0.0,1.4379737943817032e-10,1.2943646936093066e-10,1.146254207134357e-10,9.967824324852754e-11,8.494005074940193e-11,7.113755402925983e-11,5.849226639302132e-11,4.686068445138347e-11,3.65104935894741e-11,2.7813461738755202e-11,2.0664236683855217e-11,1.4952059309015662e-11,1.0587930841043799e-11,7.317541851595072e-12,4.9316746097501596e-12,3.2437969902731285e-12,2.087836412599552e-12,1.312413375205373e-12,8.052740666461848e-13,4.811256363731656e-13,2.802907474203027e-13,1.5941842688351597e-13,8.846493304781615e-14,4.758888554089512e-14,2.5074771020480132e-14,1.2668179851042424e-14,3.3759669265343106e-09,2.244615237268632e-09,1.5707481463193193e-09,1.108508526877892e-09,7.783151826779617e-10,5.435511587086922e-10,3.782370610235555e-10,2.605499020387866e-10,1.7717121713383696e-10,1.1820679895958576e-10,7.673839717354358e-11,4.897064462079256e-11,3.055548594079348e-11,1.8601316987894848e-11,1.1100386882623484e-11,6.452450249559207e-12,3.657749772203086e-12,2.0235683680749343e-12,1.0965215833741079e-12
