Line_number,Fiducial,Easting,Northing,Height,Elevation,tx_pitch,tx_roll,tx_yaw,txrx_dx,txrx_dy,txrx_dz,rx_pitch,rx_roll,rx_yaw,S0Z_time_3.834e-04,S0Z_time_3.924e-04,S0Z_time_4.039e-04,S0Z_time_4.184e-04,S0Z_time_4.364e-04,S0Z_time_4.589e-04,S0Z_time_4.869e-04,S0Z_time_5.224e-04,S0Z_time_5.679e-04,S0Z_time_6.249e-04,S0Z_time_6.969e-04,S0Z_time_7.879e-04,S0Z_time_9.019e-04,S0Z_time_1.046e-03,S0Z_time_1.227e-03,S0Z_time_1.456e-03,S0Z_time_1.744e-03,S0Z_time_2.109e-03,S0Z_time_2.567e-03,S0Z_time_3.145e-03,S0Z_time_3.864e-03,S0Z_time_4.745e-03,S0Z_time_5.821e-03,S0Z_time_7.140e-03,S0Z_time_8.754e-03,S0Z_time_1.073e-02,S1Z_time_2.057e-05,S1Z_time_2.607e-05,S1Z_time_3.307e-05,S1Z_time_4.206e-05,S1Z_time_5.356e-05,S1Z_time_6.807e-05,S1Z_time_8.607e-05,S1Z_time_1.086e-04,S1Z_time_1.366e-04,S1Z_time_1.721e-04,S1Z_time_2.176e-04,S1Z_time_2.746e-04,S1Z_time_3.466e-04,S1Z_time_4.376e-04,S1Z_time_5.516e-04,S1Z_time_6.956e-04,S1Z_time_8.771e-04,S1Z_time_1.106e-03,S1Z_time_1.394e-03
0.0,0,0.0,0.0,30.0,0.0,0.0,0.0,0.0,-13.0,0.0,2.0,0.0,0.0,0.0,1.46848629257177e-11,1.3496949168062956e-11,1.303184411803305e-11,1.2721508328903289e-11,1.1741933682304165e-11,9.98384697361325e-12,9.696762972265982e-12,8.49124792146601e-12,7.583669569840602e-12,6.782382500006266e-12,5.83966333545393e-12,5.1821368569135765e-12,4.273152063613552e-12,3.466579593456221e-12,2.8385823166301422e-12,2.2478889848982636e-12,1.8093216791713488e-12,1.308225135862625e-12,9.848704147208134e-13,6.866585060094266e-13,4.587790784004564e-13,3.5042674627477686e-13,2.388873036063892e-13,1.5093072621406368e-13,1.0758830381617871e-13,6.070434556627376e-14,1.4306367568424432e-10,7.033651659939483e-11,5.023468571998067e-11,3.804088596793981e-11,2.8557262983982642e-11,2.2700113945852067e-11,1.7397824023338433e-11,1.338094547585389e-11,1.1174826888282245e-11,8.931252960888388e-12,7.151793681954434e-12,5.494017881583575e-12,3.972078606440855e-12,2.9707638453674077e-12,2.133330323557361e-12,1.5185183830233538e-12,1.0606633562339552e-12,8.246841118916166e-13,5.165346528493664e-13
0.0,1,1.0,0.0,30.0,0.0,0.0,0.0,0.0,-13.0,0.0,2.0,0.0,0.0,0.0,1.1655729052821654e-11,1.0863162042090555e-11,1.0957732283794911e-11,9.589836538036621e-12,9.338141840800831e-12,8.459380864757838e-12,8.06203031459838e-12,7.102839676575813e-12,6.209650306372334e-12,5.670550579112938e-12,4.9954179109643535e-12,4.2274474154158745e-12,3.589300905874886e-12,2.8918667657526564e-12,2.3716467322744945e-12,1.8726767011054806e-12,1.4764756876078949e-12,1.111414094686138e-12,8.042545898102642e-13,6.189117771807589e-13,4.3104981442742747e-13,2.884211850444643e-13,2.0950154617024671e-13,1.3396730187399791e-13,9.023297764843798e-14,5.907356169580708e-14,2.1437516548941827e-10,9.260773546108912e-11,4.707420015963219e-11,3.370990824638481e-11,2.4464097247435566e-11,1.8878141965238427e-11,1.5015625879720028e-11,1.1963521063485794e-11,9.564607848198224e-12,7.2292326445924305e-12,5.9578940862607155e-12,4.5177794490574336e-12,3.2190603334891276e-12,2.632722389473553e-12,1.960223464294618e-12,1.3862090443843666e-12,9.405606844205802e-13,6.327545743643851e-13,4.646046130431988e-13
0.0,2,2.0,0.0,30.0,0.0,0.0,0.0,0.0,-13.0,0.0,2.0,0.0,0.0,0.0,9.986514208854264e-12,1.0003734046481907e-11,9.202019985582409e-12,8.851460380032899e-12,8.100361368851191e-12,7.56739980216349e-12,6.794624775694184e-12,6.478130600411733e-12,5.51052652765264e-12,4.901179857928482e-12,4.450799881028249e-12,3.462797110641615e-12,2.931518511439037e-12,2.6047559614791363e-12,1.9912139880380154e-12,1.7460944433494994e-12,1.2766847526976465e-12,9.681191673731926e-13,7.831487671282184e-13,5.637962971634567e-13,4.0600312790001175e-13,2.7591537535538454e-13,1.790076702023541e-13,1.3060042420301901e-13,8.030063814999379e-14,5.358006832999106e-14,3.1241102858259753e-10,1.273736257352509e-10,6.058575423202487e-11,3.469888921794283e-11,2.3212310758334408e-11,1.6588678031452002e-11,1.3412669550792481e-11,1.0816202594503679e-11,8.006926009382531e-12,6.355967364293047e-12,4.866899489942392e-12,3.9909045500601524e-12,2.9191329715925208e-12,2.1617214193040026e-12,1.5340886782658181e-12,1.154519730205163e-12,7.867208007888184e-13,5.600914119996715e-13,3.724391017139797e-13
0.0,3,3.0,0.0,30.0,0.0,0.0,0.0,0.0,-13.0,0.0,2.0,0.0,0.0,0.0,8.924764478973924e-12,8.477715837798334e-12,7.83482141104566e-12,7.49192517836794e-12,6.667037659749158e-12,6.0835783501222726e-12,5.911334659482899e-12,5.306902434296399e-12,4.804631704732704e-12,4.458262246617911e-12,3.724692179289579e-12,3.020970804114358e-12,2.714854148202984e-12,2.099197146660262e-12,1.7611433124716325e-12,1.4283791652557901e-12,1.1826393719111543e-12,8.452491757256892e-13,6.326862319727546e-13,4.735383174919461e-13,3.329181759218451e-13,2.4658267034444493e-13,1.5857786193243595e-13,1.0655014488445253e-13,7.193399637544827e-14,4.631637493469951e-14,4.1572310219804677e-10,1.8344548552378588e-10,8.052150125283123e-11,3.793228229506472e-11,2.353898680614807e-11,1.5300220269952625e-11,1.1260108192781391e-11,9.425325792014361e-12,7.159441337229564e-12,5.653825394150077e-12,4.275899985640106e-12,3.320740385860532e-12,2.3980804243666164e-12,1.7670319095019823e-12,1.3705831237596447e-12,9.460440912721565e-13,6.726688078430398e-13,4.71891238427311e-13,3.28808132273624e-13
0.0,4,4.0,0.0,30.0,0.0,0.0,0.0,0.0,-13.0,0.0,2.0,0.0,0.0,0.0,7.585575347739514e-12,6.9760489450688195e-12,6.730725825906715e-12,6.002359032990113e-12,6.089579878928742e-12,5.250837402181006e-12,4.881387091325009e-12,4.574203800911999e-12,3.986328429803898e-12,3.764577893823745e-12,3.0118674713682873e-12,2.710703672579369e-12,2.274085684261625e-12,1.8305747493869152e-12,1.5774642241742939e-12,1.2411164985836096e-12,1.0057386439722736e-12,7.765957596926955e-13,6.077380322440091e-13,4.3618607961903504e-13,2.9779785873734844e-13,2.1075163993835048e-13,1.516296133108725e-13,1.0136486096151992e-13,6.731132418043426e-14,4.017424625910048e-14,4.686835541974645e-10,2.2591842016459173e-10,1.0902258734690654e-10,5.019413644896641e-11,2.634080326247608e-11,1.5643210632253164e-11,1.1080059362410633e-11,7.99406286466047e-12,6.054288008403728e-12,4.734625139307472e-12,3.671275501003022e-12,2.8280711344654277e-12,2.2539030294196794e-12,1.5689247554025873e-12,1.1205592521016525e-12,8.263485607161622e-13,5.836004582579694e-13,4.2176161355286646e-13,2.6381942407652424e-13
0.0,5,5.0,0.0,30.0,0.0,0.0,0.0,0.0,-13.0,0.0,2.0,0.0,0.0,0.0,6.848905856429961e-12,6.469696604646237e-12,6.082379869925528e-12,5.53757760329073e-12,5.189056304431644e-12,4.608314347613874e-12,4.334827947894528e-12,3.911959492503132e-12,3.592054634344331e-12,3.021878330838154e-12,2.790419371784467e-12,2.4462011252347392e-12,1.860612134687769e-12,1.6761579418541544e-12,1.3845987592044382e-12,1.0713236078401295e-12,8.523076679025985e-13,6.642154634319632e-13,4.991829303008655e-13,3.6796152622572284e-13,2.541950108486173e-13,1.9617178950577183e-13,1.358759413693769e-13,8.708960127089328e-14,5.659748569636678e-14,3.970592268440083e-14,5.193386550505851e-10,2.8035307443458123e-10,1.372256573101263e-10,6.67170903271755e-11,3.1769405137376324e-11,1.623626610764856e-11,1.00117237900355e-11,7.0563936265869444e-12,5.65810930606626e-12,4.074448748159209e-12,3.1671701484552445e-12,2.391551579375195e-12,1.8300807557426653e-12,1.2808385521067099e-12,1.0067050960451625e-12,7.365170972625083e-13,5.155383337284569e-13,3.547820991292162e-13,2.480682264347979e-13
0.0,6,6.0,0.0,30.0,0.0,0.0,0.0,0.0,-13.0,0.0,2.0,0.0,0.0,0.0,6.312123624441191e-12,5.319699655460893e-12,5.7058258394073744e-12,5.055234538187118e-12,4.5195848040274935e-12,4.183908552253707e-12,3.918632399670983e-12,3.4731451463052863e-12,2.917156599858996e-12,2.90925131986764e-12,2.377712150791552e-12,2.1118030136034784e-12,1.701184427741126e-12,1.5175783976958793e-12,1.2013088633503477e-12,9.778530895867116e-13,7.361157286717225e-13,6.10429373721543e-13,4.553728723314959e-13,3.429757744387333e-13,2.3420978204932006e-13,1.6713169804765843e-13,1.2662922703538258e-13,7.790761203024083e-14,5.375237435879749e-14,3.707831564584738e-14,5.745311376489032e-10,3.2518538111674107e-10,1.660698558400737e-10,8.345106243006176e-11,3.7398363671862124e-11,2.0119031596506833e-11,1.074920198642387e-11,6.89194194832254e-12,5.1539748880818696e-12,3.719883317304628e-12,2.7290010338075812e-12,2.05192296451421e-12,1.6393343504932235e-12,1.1835039321401384e-12,8.690012641993355e-13,6.540772234443865e-13,4.289831013208878e-13,3.0352153689958495e-13,2.1098104550083757e-13
0.0,7,7.0,0.0,30.0,0.0,0.0,0.0,0.0,-13.0,0.0,2.0,0.0,0.0,0.0,5.8752690690281366e-12,5.3452471113501814e-12,4.853847191705808e-12,4.479216187901856e-12,4.094037840438338e-12,3.6724335235686935e-12,3.329475528573927e-12,3.0993812401379416e-12,2.6629970364714883e-12,2.327147661121583e-12,2.0787343120847513e-12,1.7938765585972868e-12,1.6321249151439125e-12,1.2503766345007322e-12,1.0796102128525142e-12,8.667544605251238e-13,6.480857560706395e-13,5.341857080746417e-13,3.822826397356858e-13,2.705083526299526e-13,2.174007209347801e-13,1.43994618104255e-13,1.0790785613590484e-13,7.130490469239359e-14,5.198567258496914e-14,3.378726920002691e-14,5.97424224752399e-10,3.445646419091979e-10,1.874695517457712e-10,9.877645455909252e-11,4.7849698657838125e-11,2.2795311835032262e-11,1.1959605131395906e-11,7.158719197224202e-12,4.777427595274659e-12,3.3410934333772824e-12,2.429198869232322e-12,1.9741192372737395e-12,1.386053408944034e-12,1.0238078005596362e-12,7.528663513123504e-13,5.17387328343943e-13,3.8502085883103176e-13,2.6878925793739335e-13,1.9623531311585987e-13
0.0,8,8.0,0.0,30.0,0.0,0.0,0.0,0.0,-13.0,0.0,2.0,0.0,0.0,0.0,5.802637740691893e-12,5.077489120396894e-12,4.676407624911365e-12,4.141249854557451e-12,3.7035079836849084e-12,3.374998961388848e-12,3.021211966065967e-12,2.6963627218935696e-12,2.4045137202558283e-12,2.060836840947523e-12,1.870725490573518e-12,1.54553976328037e-12,1.385275308512376e-12,1.121195789642837e-12,9.305916030261307e-13,7.624005331485126e-13,6.080476262964118e-13,4.423533929822788e-13,3.5114794426610254e-13,2.6988640851731495e-13,1.8147669839116086e-13,1.385362954966419e-13,8.915359269456598e-14,6.381894520339365e-14,4.465810589228973e-14,2.728939409993885e-14,6.118845855509241e-10,3.601765869350048e-10,2.2778219157916316e-10,1.1734670368960104e-10,5.927402128856053e-11,2.7742068072826407e-11,1.3607329774762794e-11,7.080065953319288e-12,4.558152742272216e-12,3.0927555728466418e-12,2.3544926189153445e-12,1.7530321165740025e-12,1.3157321812858472e-12,9.49636538983546e-13,6.626938914392243e-13,4.67654913836604e-13,3.566445912470365e-13,2.4679990101277226e-13,1.46838084397573e-13
0.0,9,9.0,0.0,30.0,0.0,0.0,0.0,0.0,-13.0,0.0,2.0,0.0,0.0,0.0,5.751466959824008e-12,5.084201716472284e-12,4.347192940942819e-12,3.802981780198725e-12,3.312624812163892e-12,2.907468530783831e-12,2.793586291912457e-12,2.4156290576015295e-12,2.144715002790055e-12,1.9957410748054748e-12,1.6819219813151192e-12,1.4301415325191989e-12,1.2046053688146392e-12,1.0488943883797806e-12,8.682382138399909e-13,6.868781748854384e-13,5.405734544327435e-13,3.881417724880975e-13,3.1709625178693256e-13,2.3470058402277993e-13,1.7249495391005424e-13,1.2704124615296106e-13,7.921267180440002e-14,5.881677922457935e-14,4.1050675340258545e-14,2.6388195845762056e-14,6.22782298504247e-10,4.064403874364004e-10,2.3746648867294694e-10,1.279422269909102e-10,6.894763112439182e-11,3.425811549312305e-11,1.6220574447836206e-11,8.444381684646544e-12,4.691227008128485e-12,2.976965272131173e-12,2.030170715650937e-12,1.5243161620402547e-12,1.1333203993980751e-12,8.462178445753225e-13,5.981363236379439e-13,4.3925156005146513e-13,2.928030149536872e-13,2.0535127359348048e-13,1.4618899978788458e-13
0.0,10,10.0,0.0,30.0,0.0,0.0,0.0,0.0,-13.0,0.0,2.0,0.0,0.0,0.0,5.669801226934009e-12,5.11555210157675e-12,4.314670509662302e-12,3.6846818321591766e-12,3.2017968079842346e-12,2.957364374350056e-12,2.438649524933982e-12,2.049653730216597e-12,1.9474293866990638e-12,1.693442036655286e-12,1.4482594066111568e-12,1.224312948222523e-12,1.0552059066409575e-12,8.991577339982622e-13,7.251814424670839e-13,6.396992148137198e-13,4.610244791515304e-13,3.6191525334560047e-13,2.6368431854254994e-13,2.133824115522613e-13,1.4538344346489426e-13,1.0964497883014821e-13,7.801785479402355e-14,5.319217928306066e-14,3.967256193017312e-14,2.596591473900761e-14,6.939434187118852e-10,4.0042261711180034e-10,2.5885319099501254e-10,1.469536102661978e-10,7.961114536617273e-11,4.041775849456656e-11,1.8615293573777715e-11,9.292746062922729e-12,5.105793865283469e-12,2.730061068677614e-12,2.0578401632861626e-12,1.4179876900690772e-12,1.0144545357320006e-12,7.424787712770559e-13,5.167500281243634e-13,3.7902585128065146e-13,2.862474512924404e-13,2.0591606887471053e-13,1.5987823000459614e-13
0.0,11,11.0,0.0,30.0,0.0,0.0,0.0,0.0,-13.0,0.0,2.0,0.0,0.0,0.0,6.135481813927707e-12,5.044736718832007e-12,4.217907139081204e-12,3.47119657078377e-12,3.0163545207371578e-12,2.630264047320476e-12,2.2668850866719234e-12,2.0573986826871592e-12,1.7337334352907453e-12,1.5082493275409118e-12,1.296255996470367e-12,1.0743480647589392e-12,9.120323262798655e-13,7.719459327349617e-13,6.847583549476431e-13,5.485912456197538e-13,4.4317427913326866e-13,3.1947906178740797e-13,2.3952905252488087e-13,1.8697603881784605e-13,1.407218492518146e-13,1.0259309531697503e-13,7.39753141883977e-14,5.021112038778582e-14,3.636946260373288e-14,2.242034212815143e-14,6.645120837581906e-10,4.023945257674211e-10,2.5531352800546083e-10,1.5693459116849797e-10,8.418647315579471e-11,4.621495923189748e-11,2.3286422803122634e-11,1.0103807878557022e-11,5.6202427251199116e-12,2.8292531628754456e-12,1.908091770695394e-12,1.3381188220451118e-12,9.256413573306582e-13,6.360442281617728e-13,4.712294040234045e-13,3.4007015460676353e-13,2.407984920737807e-13,1.6832040644402622e-13,1.1554945231824085e-13
0.0,12,12.0,0.0,30.0,0.0,0.0,0.0,0.0,-13.0,0.0,2.0,0.0,0.0,0.0,6.5878352929822304e-12,5.207333475492329e-12,4.3780897195141756e-12,3.757717943919334e-12,2.916284154428571e-12,2.4384150480380096e-12,2.1796729122667276e-12,1.6855623223874636e-12,1.6419929756660862e-12,1.3509725883335504e-12,1.1944368411632773e-12,1.0189506246239032e-12,8.842869301380643e-13,7.129871701592815e-13,5.797775516755272e-13,4.987533353978322e-13,3.554120877248824e-13,2.9984830492942646e-13,2.202447594157556e-13,1.683509533347233e-13,1.3460358555058534e-13,9.15333456132459e-14,6.548377125138662e-14,4.2351428883224395e-14,3.002445686002245e-14,2.1080941393910497e-14,7.058233806218144e-10,4.425731145402837e-10,2.720798883043182e-10,1.6757446333864608e-10,9.548000515545462e-11,4.7679612639191216e-11,2.5696895280142402e-11,1.2854354891349416e-11,6.270787647452569e-12,3.1756677216520214e-12,1.813595747204392e-12,1.1703467033706365e-12,8.443158862568199e-13,6.266606066925297e-13,4.026264433799262e-13,3.0003355983363976e-13,2.0449483931135175e-13,1.616694258988174e-13,9.863953782493014e-14
0.0,13,13.0,0.0,30.0,0.0,0.0,0.0,0.0,-13.0,0.0,2.0,0.0,0.0,0.0,6.920993698030273e-12,5.7052112206356695e-12,4.68014491674821e-12,3.640549297751347e-12,2.6746374031101427e-12,2.4358570571996342e-12,2.0229300485531494e-12,1.681940846702913e-12,1.4045887150613824e-12,1.2646655373811879e-12,1.0881323508512057e-12,9.045771994700415e-13,7.705608476945911e-13,6.297211916952186e-13,5.304138155334878e-13,4.1248203818203065e-13,3.4942362605750554e-13,2.628144887545951e-13,2.0906138094212312e-13,1.49340757394254e-13,1.1282876935511664e-13,8.306369747246606e-14,5.5919126959416454e-14,4.1653494796013375e-14,2.794382116875517e-14,1.7173729968740978e-14,6.856092060023022e-10,4.524107085113996e-10,2.8763677335932185e-10,1.718801002246763e-10,1.0212189606491e-10,5.592663637912069e-11,2.927754253255849e-11,1.4952869443177283e-11,6.679980492018764e-12,3.562585931762295e-12,1.8685264473187892e-12,1.1561547018999159e-12,7.795268633876272e-13,5.442903335629119e-13,3.7557195997733007e-13,2.81459609014203e-13,2.1597761847460211e-13,1.3719412861320686e-13,9.381261670912614e-14
0.0,14,14.0,0.0,30.0,0.0,0.0,0.0,0.0,-13.0,0.0,2.0,0.0,0.0,0.0,7.393474735745078e-12,6.123455252111895e-12,4.96209704143318e-12,3.796605192441813e-12,2.9553950140139942e-12,2.4010123551440806e-12,1.8690569812879738e-12,1.6034564070504122e-12,1.3746337373970086e-12,1.1913602671214066e-12,9.759790952667578e-13,8.66143535869083e-13,7.239301256768151e-13,5.683377787081279e-13,4.643918612096328e-13,3.8756409493429984e-13,3.217723056500743e-13,2.443571775018287e-13,1.8463948242967687e-13,1.484280414267004e-13,1.0545518426701184e-13,7.018771479776646e-14,5.477362953903428e-14,3.8764970302106267e-14,2.6404309306666156e-14,1.8184111033126904e-14,7.273632467410961e-10,4.357558157361319e-10,2.839423276910401e-10,1.738245827599495e-10,1.0365984977491994e-10,5.79044284379496e-11,3.264234085000735e-11,1.6350964818653092e-11,7.841161507815539e-12,3.789520848648667e-12,1.9763540099856065e-12,1.1833497298470016e-12,6.924749238202079e-13,5.153246396366092e-13,3.5211752348009985e-13,2.295325971487151e-13,1.5585448990981293e-13,1.1479497198915224e-13,8.687660648763723e-14
0.0,15,15.0,0.0,30.0,0.0,0.0,0.0,0.0,-13.0,0.0,2.0,0.0,0.0,0.0,8.209261932624587e-12,6.40766039677954e-12,5.380572285282356e-12,4.2218324643597e-12,3.1371837376778514e-12,2.3506340417609987e-12,1.948064570628975e-12,1.5529718941367549e-12,1.2858511487658418e-12,1.0338837832073886e-12,8.186996664555016e-13,8.057126564287753e-13,6.070301327338198e-13,5.310416580986446e-13,4.683957796429012e-13,3.5818365923252247e-13,2.9112899216552647e-13,2.1212116589225886e-13,1.6155990807439487e-13,1.2672593608523995e-13,9.852195947459703e-14,6.855634407191203e-14,4.813832323073724e-14,3.51208702275953e-14,2.5351939942691443e-14,1.4696879155584114e-14,7.174740093924204e-10,4.51958624676836e-10,3.031209063292482e-10,1.8557081274848967e-10,1.1867885307850875e-10,6.612074768409717e-11,3.5201973158415595e-11,1.891200604667795e-11,9.037399528312723e-12,4.226405637991064e-12,2.16166593096054e-12,1.128760303204299e-12,7.031051654674986e-13,4.963192029539342e-13,3.292691416216732e-13,2.210523569868995e-13,1.5651019034373695e-13,1.2373233270271008e-13,7.093415238254247e-14
0.0,16,16.0,0.0,30.0,0.0,0.0,0.0,0.0,-13.0,0.0,2.0,0.0,0.0,0.0,8.596473000537954e-12,6.963998166986299e-12,5.6188037067240785e-12,4.252708241891871e-12,3.0923205786402626e-12,2.388771035050379e-12,1.828331468105666e-12,1.527498280611974e-12,1.2140248038193506e-12,9.972787763371654e-13,8.104876773834985e-13,6.758040954033646e-13,5.727818699020366e-13,4.686364446659144e-13,4.273971450024648e-13,3.006160407018724e-13,2.617214349650215e-13,1.9430449656612646e-13,1.5504870631984417e-13,1.1384673653895916e-13,8.364259158842873e-14,6.099123868985964e-14,4.839299558198072e-14,3.1818751576609146e-14,2.120055729249272e-14,1.5670332422511084e-14,7.608418440325073e-10,4.823614366418497e-10,2.830562796435643e-10,1.9066396078308486e-10,1.1840787661813713e-10,6.456192525478157e-11,3.855870079758692e-11,2.112218502208647e-11,1.0055501596366798e-11,4.953828601101635e-12,2.3531630759593532e-12,1.1647629576597459e-12,6.939239697319404e-13,4.194022395427815e-13,2.9953963173803953e-13,2.145971702158949e-13,1.554118024530423e-13,1.0302689624695974e-13,7.69870896586625e-14
0.0,17,17.0,0.0,30.0,0.0,0.0,0.0,0.0,-13.0,0.0,2.0,0.0,0.0,0.0,8.980445699426424e-12,7.545837506264921e-12,5.985452187516075e-12,4.844484357606842e-12,3.410859163131516e-12,2.5119253217135055e-12,1.9094149632202874e-12,1.4114029775320884e-12,1.1424970166067947e-12,9.093823542380156e-13,7.20830787968891e-13,6.353402264515414e-13,5.272236723780544e-13,4.2025362155206677e-13,3.6184719949592376e-13,3.07189559981517e-13,2.3828391201183147e-13,1.8784253274702014e-13,1.360727086009938e-13,1.0891827092376254e-13,7.990420285634351e-14,5.92036561551893e-14,4.238326329697684e-14,2.763285262754457e-14,2.0350738013120047e-14,1.3106064762467185e-14,7.759825635578583e-10,4.685958625191079e-10,3.1723731029485116e-10,1.881499504311631e-10,1.1610407907563634e-10,7.128422069968012e-11,3.92939311842708e-11,2.1622869836225762e-11,1.0879340370849111e-11,5.627202685907395e-12,2.5971148845055674e-12,1.2527316879633078e-12,6.81457440046399e-13,4.403729214763305e-13,2.9000272332519143e-13,2.0047071755009335e-13,1.3483287010957797e-13,7.627498474885919e-14,6.240475155046209e-14
0.0,18,18.0,0.0,30.0,0.0,0.0,0.0,0.0,-13.0,0.0,2.0,0.0,0.0,0.0,9.716892287611667e-12,8.229129613065662e-12,6.587244335265275e-12,4.805229535653053e-12,3.697847703965731e-12,2.8152990234675423e-12,1.923415678349565e-12,1.5264695407446636e-12,1.0761130147102469e-12,8.726439226561266e-13,7.101662804261614e-13,5.878644907925645e-13,4.766620003335528e-13,3.976932014224629e-13,3.249890535933761e-13,2.713660805325469e-13,2.165170154049864e-13,1.8003337935260345e-13,1.3532063346088046e-13,9.664634873149837e-14,7.365995876985538e-14,5.525760144156438e-14,3.840055344407323e-14,2.7046412812704243e-14,1.8897805222817392e-14,1.3825144526054417e-14,7.739549452421649e-10,4.863658584694379e-10,3.153308642755965e-10,1.9883378276182954e-10,1.2334151288899073e-10,7.307233295840731e-11,4.4162587007726655e-11,2.511282117020401e-11,1.2396563804524068e-11,5.959098222100462e-12,2.86662916454501e-12,1.3214053318014904e-12,6.845342272817442e-13,4.1234280677363687e-13,2.343637896810519e-13,1.6716082985931382e-13,1.2055018944141555e-13,7.193209315266726e-14,4.774674385796016e-14
0.0,19,19.0,0.0,30.0,0.0,0.0,0.0,0.0,-13.0,0.0,2.0,0.0,0.0,0.0,1.0313735076821114e-11,8.153174170449902e-12,6.729998133176516e-12,5.147092694216843e-12,3.885784122876766e-12,2.9244036389904935e-12,2.051725029784197e-12,1.4764488248734302e-12,1.0924567170627962e-12,8.42606589837082e-13,6.475997444843499e-13,5.437494342291867e-13,4.551484507845884e-13,3.5676552104489683e-13,3.1219101537840055e-13,2.543116512183665e-13,1.9260065008474893e-13,1.5327885382124924e-13,1.157107352768639e-13,9.211628307373047e-14,6.453557771026875e-14,4.8689336662038614e-14,3.4075961264481705e-14,2.5106857908041977e-14,1.5396050665334698e-14,1.3363218953207693e-14,7.881806663991414e-10,5.019067633341745e-10,3.146790011874972e-10,1.9608236442698738e-10,1.2192023492465195e-10,7.845161053256176e-11,4.4259345366837316e-11,2.5387111984992736e-11,1.2989470489146513e-11,6.4786534922956e-12,3.1407720007997614e-12,1.4967051447242566e-12,7.229603326138654e-13,3.831569617619857e-13,2.790352031733604e-13,1.5836704965581095e-13,9.84513894815008e-14,1.055779518940035e-13,4.946884932160589e-14
0.0,20,20.0,0.0,30.0,0.0,0.0,0.0,0.0,-13.0,0.0,2.0,0.0,0.0,0.0,1.0527757897783324e-11,8.885465936022474e-12,7.314268541147829e-12,5.60207687075943e-12,4.0298534474556076e-12,3.1609688128268488e-12,2.1065410507254913e-12,1.4625071271730303e-12,1.1205486605787106e-12,8.456598779024494e-13,6.184013037467088e-13,4.882944232974516e-13,4.306203151310929e-13,3.2195230847128067e-13,2.694926102747772e-13,2.3287001386056317e-13,1.8000629375645186e-13,1.406258133637083e-13,1.104624813795659e-13,8.23903152886931e-14,5.882338333325593e-14,4.73663504325251e-14,3.444388801289847e-14,2.3394356037356218e-14,1.618047383653164e-14,1.3560937578360704e-14,8.227922795189459e-10,5.071238893283812e-10,3.2606571857148183e-10,2.1326662224110359e-10,1.3390930489941728e-10,7.78234730207736e-11,4.7229729621710784e-11,2.553383409912521e-11,1.419499275599618e-11,7.042929607169787e-12,3.3081749961318596e-12,1.6675991743063517e-12,7.453284839282001e-13,3.977996150390247e-13,2.4842652275320317e-13,1.7193030591314244e-13,1.1148620300407938e-13,1.0096657607629559e-13,4.869401934804615e-14
0.0,21,21.0,0.0,30.0,0.0,0.0,0.0,0.0,-13.0,0.0,2.0,0.0,0.0,0.0,1.1640627805944936e-11,9.63398121562613e-12,7.981606335194769e-12,6.0037568970325785e-12,4.384011463976816e-12,3.092624629374641e-12,2.2725619634296267e-12,1.6397870601817134e-12,1.089292733248237e-12,8.129202784149973e-13,6.122648955052409e-13,4.92047512161839e-13,3.7921449258055496e-13,3.3992250009865776e-13,2.481650745737812e-13,2.0604029914810196e-13,1.7070412603270718e-13,1.3164398469069023e-13,1.0317235917681339e-13,7.499250920500984e-14,5.656657179130599e-14,4.173872721797417e-14,3.2226607245566257e-14,2.2239922844305303e-14,1.5828024240271377e-14,9.62193062988788e-15,8.728463859401899e-10,5.249968873987497e-10,3.421861362953798e-10,2.2035602520773351e-10,1.289799083487388e-10,7.9341517742378e-11,4.716346646836913e-11,2.7838406751627252e-11,1.5119504718740585e-11,7.922302412046171e-12,3.724805607506189e-12,1.71401231730248e-12,8.431532110738012e-13,3.9856970128515025e-13,2.4264615412231136e-13,1.4456653203105467e-13,1.0674232690885829e-13,8.136806929137622e-14,4.275256718980829e-14
0.0,22,22.0,0.0,30.0,0.0,0.0,0.0,0.0,-13.0,0.0,2.0,0.0,0.0,0.0,1.2229462698359613e-11,1.0076931703752755e-11,7.86843538473456e-12,6.302043293700917e-12,4.7101516998718955e-12,3.422438298887847e-12,2.371738803344359e-12,1.6495821839220187e-12,1.0901757488364514e-12,7.885510440317476e-13,5.9874065939077e-13,4.669010417195866e-13,3.588443565795641e-13,2.956757221202213e-13,2.404443202996378e-13,1.9353350922827004e-13,1.555984833513797e-13,1.1345761414439214e-13,9.254667554300347e-14,7.086738935857615e-14,5.0484048895545375e-14,4.111309540725335e-14,2.8073363660603905e-14,2.1669040574648762e-14,1.3026126627563254e-14,8.649339636943073e-15,8.73077929900175e-10,5.053088990151436e-10,3.36746417322388e-10,2.1197916977297868e-10,1.3647951787421284e-10,8.375051736328135e-11,4.9235057191521366e-11,2.8197165475740443e-11,1.703195455264821e-11,8.235035745434206e-12,3.9502339235929885e-12,1.8312367713403182e-12,9.070060037792029e-13,4.188433771398547e-13,2.2494961933382215e-13,1.4368759438432706e-13,9.0761630759541e-14,5.547830287114414e-14,5.0183326678105586e-14
0.0,23,23.0,0.0,30.0,0.0,0.0,0.0,0.0,-13.0,0.0,2.0,0.0,0.0,0.0,1.2967655485279132e-11,1.0783550380076014e-11,8.654894543406086e-12,6.675418388054396e-12,4.6791440945604875e-12,3.765386060934313e-12,2.5497353406267182e-12,1.7597647011497496e-12,1.2053823450050878e-12,8.37717715385782e-13,5.841505660403116e-13,4.4042427194364397e-13,3.3569106170135824e-13,2.7498095838409564e-13,2.1577857056299895e-13,1.7409685378399518e-13,1.3758589826985732e-13,1.1055718196129187e-13,8.851516221373681e-14,7.190696968230714e-14,4.872865210852123e-14,3.370770523382569e-14,2.7419136164797207e-14,1.807521240958518e-14,1.2194532720500104e-14,9.154533328728741e-15,8.538352919234611e-10,5.466499330067829e-10,3.3992352569121165e-10,2.1560207638541712e-10,1.361880981373991e-10,8.376058403402132e-11,5.1171526964334756e-11,3.0495610955397915e-11,1.7252130792851577e-11,8.73321303460253e-12,4.228587167497402e-12,2.0608668007298767e-12,9.025007772276803e-13,4.485834693667916e-13,2.4578222612373406e-13,1.4361241170861162e-13,7.670464514565853e-14,4.935050896475488e-14,4.300849209415623e-14
0.0,24,24.0,0.0,30.0,0.0,0.0,0.0,0.0,-13.0,0.0,2.0,0.0,0.0,0.0,1.2882748392745736e-11,1.0802557059548933e-11,9.0038132532378e-12,6.722380126225848e-12,5.151770043958396e-12,3.704555846269532e-12,2.5922458560805195e-12,1.774614443196156e-12,1.2380656618384449e-12,8.187705720032139e-13,5.561985198957345e-13,4.1646683975285587e-13,3.0757074418026574e-13,2.5138910385892386e-13,2.1956496539623692e-13,1.6467247986418123e-13,1.3403205202700787e-13,1.0262265183593562e-13,8.01370314978678e-14,6.148950064460229e-14,4.2961941914424594e-14,3.3031835630335435e-14,2.5903453376054965e-14,1.621906513462585e-14,1.1404957633226753e-14,8.019040369863831e-15,9.143268329894619e-10,5.629620019670089e-10,3.6042066220809405e-10,2.2191040599266898e-10,1.3656847959104516e-10,8.826930036424652e-11,5.3410266500187914e-11,2.980969649744575e-11,1.9164611646153542e-11,1.0070556850689375e-11,4.7325641170809934e-12,2.2686520881785523e-12,1.066426869408429e-12,4.696117946283265e-13,2.4663917152920415e-13,1.4543829949155339e-13,7.257024776746913e-14,4.8200528223394956e-14,4.6396807304985683e-14
0.0,25,25.0,0.0,30.0,0.0,0.0,0.0,0.0,-13.0,0.0,2.0,0.0,0.0,0.0,1.3677847223699524e-11,1.1633125949787105e-11,9.17929789199452e-12,7.18728839327546e-12,5.1544383684420784e-12,3.869617331788523e-12,2.8349459784569403e-12,1.970259678467906e-12,1.2890961631014233e-12,8.361219877572232e-13,5.66956456581771e-13,4.110473812639709e-13,3.0906535416051033e-13,2.5197888879847774e-13,1.932111157418496e-13,1.4656926504030413e-13,1.1685246606395718e-13,9.997019594592033e-14,7.062821774072504e-14,5.72240075707005e-14,4.113174393460423e-14,3.047209308023907e-14,2.2102412550378017e-14,1.7273629403102686e-14,1.0983285350109217e-14,7.750786662755178e-15,8.851478919702811e-10,5.692466364463339e-10,3.5940377637601395e-10,2.2396989368521151e-10,1.448258066968766e-10,8.659451814164807e-11,5.383916315159067e-11,3.3673097319305826e-11,1.7662727096916375e-11,9.944850576210341e-12,5.30658757772672e-12,2.4944675788865406e-12,1.1319511297725527e-12,5.183028585809749e-13,2.481696970742531e-13,1.4916342919867854e-13,8.321502539042447e-14,5.342459786625847e-14,3.641298827066651e-14
0.0,26,26.0,0.0,30.0,0.0,0.0,0.0,0.0,-13.0,0.0,2.0,0.0,0.0,0.0,1.4002353048690465e-11,1.1307272804377975e-11,9.792431619030113e-12,7.532398675299879e-12,6.060504579439671e-12,4.20913051299909e-12,3.0272794065435177e-12,2.0451680584757376e-12,1.306501573142191e-12,8.937615282706157e-13,6.104884713653135e-13,4.01258776296076e-13,2.9331250950630167e-13,2.2589570541687826e-13,1.6971793353124526e-13,1.4235481962486595e-13,1.1407143437191366e-13,9.160363661906797e-14,7.04134743378751e-14,5.0981633578804743e-14,3.8179523199595395e-14,3.002039828014609e-14,2.0511961782186716e-14,1.4269914078494173e-14,1.189382981064272e-14,8.34091914134829e-15,9.496390452932395e-10,5.672591891634249e-10,3.387215071835935e-10,2.3019792651523676e-10,1.3738929745891216e-10,8.263182875815716e-11,5.691712552656586e-11,3.351689692550931e-11,1.8517488283994248e-11,1.018576846353726e-11,5.552447100485181e-12,2.541212202580725e-12,1.246827030877551e-12,5.501647181704558e-13,2.602290305013566e-13,1.3560181550255254e-13,7.8386750913922e-14,5.70313829996691e-14,2.8176448009417376e-14
0.0,27,27.0,0.0,30.0,0.0,0.0,0.0,0.0,-13.0,0.0,2.0,0.0,0.0,0.0,1.4369310427518726e-11,1.2362808415088147e-11,1.007819052119535e-11,7.580277071639723e-12,5.91245993473264e-12,4.4612794689067374e-12,3.111274926554516e-12,2.2562535332304505e-12,1.383544372008681e-12,8.97975747978133e-13,6.018469090798315e-13,4.022595158048769e-13,2.8511191716763886e-13,2.1193396049649987e-13,1.7081945076613819e-13,1.3806938051205012e-13,1.0709861530851127e-13,8.040326903009006e-14,6.720735894643291e-14,4.558659994567329e-14,3.358258700281781e-14,2.779576725989726e-14,1.9562565371733674e-14,1.323257775874598e-14,8.599941262716056e-15,9.182329002748168e-15,9.744868798580911e-10,5.991183728644667e-10,3.708583160395038e-10,2.3310595120769914e-10,1.4572704887500677e-10,9.108542391005235e-11,5.4622389583537695e-11,3.3302995967663256e-11,1.8731298702214188e-11,1.07681840012863e-11,5.7678601730335305e-12,2.8834726235186875e-12,1.3165146347185511e-12,5.70894562977573e-13,2.494470334962579e-13,1.0249949591139661e-13,8.607681578472663e-14,3.9741196071313924e-14,2.6371174570536738e-14
0.0,28,28.0,0.0,30.0,0.0,0.0,0.0,0.0,-13.0,0.0,2.0,0.0,0.0,0.0,1.478250120818251e-11,1.1923956468103265e-11,1.0127709181856468e-11,8.644817683380442e-12,6.345332632804947e-12,4.682790078357367e-12,3.153080064523032e-12,2.409305752815648e-12,1.4105132856889312e-12,9.963138154980828e-13,5.652433020072455e-13,4.155586482692974e-13,2.9294209765372947e-13,2.0206523281396924e-13,1.6173570256181667e-13,1.27480212522191e-13,9.601905906901948e-14,7.327178460723782e-14,5.646359842677081e-14,4.5732730015104836e-14,3.3330267938001406e-14,2.4060646111821255e-14,1.9105496293554883e-14,1.3454156015557142e-14,8.327181226044047e-15,5.162058130754569e-15,1.0092887953850359e-09,5.924002491404818e-10,3.755146932557703e-10,2.4517275795226635e-10,1.4785298748342085e-10,8.81026618266017e-11,5.637875591663524e-11,3.327634814062039e-11,2.1281945722756057e-11,1.1255907378550869e-11,6.05534701391562e-12,3.0055345143358944e-12,1.3961981109378417e-12,5.790339763006964e-13,2.6134003556185923e-13,1.3007732679619698e-13,7.614428570763862e-14,4.224910140712547e-14,1.9595932979488493e-14
0.0,29,29.0,0.0,30.0,0.0,0.0,0.0,0.0,-13.0,0.0,2.0,0.0,0.0,0.0,1.4488548036543704e-11,1.2637256950134287e-11,1.039636845138372e-11,8.555281865110238e-12,6.426101785953439e-12,4.920394788109813e-12,3.4074931379558357e-12,2.3560928185081653e-12,1.5343184525347833e-12,9.627689865774815e-13,6.347325163279751e-13,3.9250405549626803e-13,2.7027634616080673e-13,1.988288416559307e-13,1.452208063060836e-13,1.165938562922102e-13,9.016861510214855e-14,7.093464835058818e-14,5.509207722685279e-14,4.0530810640959215e-14,3.090329213991992e-14,2.4704877517298354e-14,1.679082266618975e-14,1.3283772936302202e-14,8.884717484492388e-15,6.776634960901461e-15,9.933400540619806e-10,6.168190318501986e-10,3.8315197356959583e-10,2.33814688342548e-10,1.4430282731999192e-10,8.765640568396222e-11,5.949538559752131e-11,3.384673334176533e-11,2.1633159265319217e-11,1.1673184873406467e-11,6.136145506520139e-12,3.2161612024317403e-12,1.4589846847748949e-12,6.786821718741224e-13,2.927151085302209e-13,1.4411428553086074e-13,6.22886811941105e-14,5.0347844961667177e-14,3.2608701450817876e-14
0.0,30,30.0,0.0,30.0,0.0,0.0,0.0,0.0,-13.0,0.0,2.0,0.0,0.0,0.0,1.5032289640558225e-11,1.4158774593248337e-11,1.1015500259318626e-11,9.286073330967309e-12,7.0419412673576865e-12,4.998783095491536e-12,3.58130054393735e-12,2.461810624692752e-12,1.5408367077621743e-12,1.0119668408331279e-12,6.508713978889854e-13,4.2782412652655424e-13,2.6581232621592716e-13,1.9804057534864336e-13,1.3836973629350055e-13,1.0897176877173725e-13,8.527976748720605e-14,6.808864743631091e-14,5.245661124523029e-14,4.054431160217732e-14,3.017329947957285e-14,2.1888468387579644e-14,1.6161888847105164e-14,1.2967064109276364e-14,7.464569867618028e-15,6.411031765177648e-15,9.844675238464305e-10,6.357466351017641e-10,3.833747474824382e-10,2.4239543004996597e-10,1.5498858468509007e-10,9.354490986784314e-11,5.928312838523013e-11,3.6998681674191415e-11,2.1490717552865735e-11,1.26278836387552e-11,6.5005666583713725e-12,3.330092127543663e-12,1.56152755283207e-12,7.384899670251007e-13,3.218748496800146e-13,1.3863817897832045e-13,7.379991766604833e-14,5.1157826868688075e-14,2.599465892051956e-14
0.0,31,31.0,0.0,30.0,0.0,0.0,0.0,0.0,-13.0,0.0,2.0,0.0,0.0,0.0,1.5354243728984862e-11,1.3485065772407759e-11,1.046098246657955e-11,9.146700519280547e-12,6.85184040919977e-12,5.141588996812454e-12,3.87892964301489e-12,2.502445116804433e-12,1.8121256438801077e-12,1.0685508297712325e-12,6.617411930130371e-13,4.3132641263567023e-13,2.7765729449898837e-13,2.0197081880102195e-13,1.3671743723262637e-13,1.0455978367852194e-13,7.74751743417433e-14,6.234355436739608e-14,4.705886542645223e-14,3.5877415298793e-14,2.5012247876611304e-14,2.2151177866110458e-14,1.3180194503786043e-14,7.635512745025107e-15,6.276771900254439e-15,4.676743913465586e-15,1.0288564179599802e-09,6.625961418329613e-10,3.9495168529551573e-10,2.468451329193223e-10,1.554879967023271e-10,9.523769260411612e-11,6.026583708747119e-11,3.477150517550362e-11,2.130019021627821e-11,1.2780796064041366e-11,6.295571646696759e-12,3.353936808921345e-12,1.711568462656381e-12,7.514409760454774e-13,3.5027944574886113e-13,1.5951899692401902e-13,6.065390407369054e-14,4.38105214793325e-14,3.7276732646440666e-14
0.0,32,32.0,0.0,30.0,0.0,0.0,0.0,0.0,-13.0,0.0,2.0,0.0,0.0,0.0,1.6208267227389514e-11,1.3329757539022218e-11,1.1691877612105402e-11,9.35564376745124e-12,7.266675505571081e-12,5.511763355599083e-12,3.5761322377360725e-12,2.7975606796455098e-12,1.892309905755175e-12,1.1520739825203267e-12,7.053390502636156e-13,4.394050062336219e-13,2.762520674257277e-13,1.8807169982573777e-13,1.3227375192308584e-13,9.715948479472117e-14,7.41695626441342e-14,5.719066512713279e-14,4.300721805123522e-14,3.270509158156849e-14,2.775564538460432e-14,1.9799244011685752e-14,1.3130940994822215e-14,9.509297240084322e-15,7.15301834915981e-15,4.313130587102845e-15,1.0932221849081447e-09,6.705711348362471e-10,4.0392141971391085e-10,2.5356651726347166e-10,1.5926200442108934e-10,9.500820408613005e-11,5.984641412128778e-11,3.6142869884435514e-11,2.2019360039830854e-11,1.2710071001949359e-11,6.935568173199223e-12,3.679306023272992e-12,1.8142642359006655e-12,8.181399754958655e-13,3.6665870082410053e-13,1.500743958626016e-13,6.193871263413343e-14,4.330726942591492e-14,3.1113645649924684e-14
0.0,33,33.0,0.0,30.0,0.0,0.0,0.0,0.0,-13.0,0.0,2.0,0.0,0.0,0.0,1.64829860684307e-11,1.458848852390106e-11,1.1966676426495035e-11,1.016675967893005e-11,7.307441543279308e-12,5.402722754951533e-12,3.983668498162688e-12,2.7917259075848043e-12,1.9049906738766753e-12,1.1147572705607903e-12,7.615970488771228e-13,4.4134466278277756e-13,2.7482779464578777e-13,1.761999473829698e-13,1.2737276251768406e-13,9.485577963957589e-14,7.21539666281375e-14,5.639256133121962e-14,4.161569105030822e-14,3.087446011129637e-14,2.4623530247293147e-14,1.7868317544775695e-14,1.316997568587913e-14,1.0408131904475263e-14,5.5733857187678975e-15,3.822881084008663e-15,1.1593138299574673e-09,6.396970146281422e-10,3.9611281758809006e-10,2.617840096497427e-10,1.5875948003694454e-10,9.748340479222356e-11,5.996699153650909e-11,3.701140766661447e-11,2.2332644962719164e-11,1.3649440445466221e-11,7.177997576227373e-12,3.7954484258765564e-12,1.982075003062414e-12,8.666329985957103e-13,4.1698787073044033e-13,1.6570566102399202e-13,9.027467396234075e-14,2.2167612754534938e-14,2.489828509264028e-14
0.0,34,34.0,0.0,30.0,0.0,0.0,0.0,0.0,-13.0,0.0,2.0,0.0,0.0,0.0,1.597273446969655e-11,1.4662346686326903e-11,1.1464188183890319e-11,9.711352441645865e-12,7.480372250167526e-12,5.536917297899574e-12,4.0095383212182726e-12,2.9066522555882998e-12,2.063628276932307e-12,1.237017199457004e-12,7.869391138667282e-13,4.59904543655462e-13,2.8946871989802995e-13,1.7112675405139931e-13,1.226816148452811e-13,9.339145436639388e-14,6.823925996630356e-14,5.2381165861093325e-14,3.937481781096429e-14,3.1723892683508275e-14,2.2845535953222177e-14,1.6722535732471507e-14,1.28597302330484e-14,9.354955296767076e-15,6.441802317831683e-15,5.978480294458639e-15,1.1420585895304822e-09,6.897642146309102e-10,4.1234950531244147e-10,2.612670508246474e-10,1.678136270361831e-10,9.668631779297329e-11,5.885804186224732e-11,3.858014145966246e-11,2.2628000089874662e-11,1.3413733550372445e-11,7.456883864478661e-12,3.9695017070534856e-12,2.0239147001482474e-12,8.931933034755062e-13,3.9173444286158937e-13,1.7741037166552914e-13,6.230672037157408e-14,2.5054626059386255e-14,4.1355976818158876e-14
0.0,35,35.0,0.0,30.0,0.0,0.0,0.0,0.0,-13.0,0.0,2.0,0.0,0.0,0.0,1.7460596138352128e-11,1.4565058815041228e-11,1.2585911615348224e-11,9.532248283872284e-12,7.655064663640443e-12,6.006055211873066e-12,4.465556665969925e-12,3.108203112337454e-12,1.887711062065332e-12,1.2669447053935895e-12,8.12156811564995e-13,4.734733298251696e-13,3.107808127932618e-13,1.8654233086892713e-13,1.2356595230450629e-13,8.389184171890351e-14,6.508256479612661e-14,5.006376544656945e-14,3.943363723662636e-14,2.954213801907149e-14,2.236320626382723e-14,1.4652978694688372e-14,1.2944775243534272e-14,6.805384988705778e-15,5.319980220258185e-15,4.602437615659897e-15,1.1666205758577882e-09,6.779316946452697e-10,4.182422991685791e-10,2.5248266720384135e-10,1.6538693452000196e-10,1.0381139762890099e-10,6.155030876460494e-11,3.748004344171706e-11,2.2029016937180675e-11,1.3988578293000638e-11,8.163006011772476e-12,3.876505152958514e-12,1.996882174452146e-12,9.487001257826539e-13,4.2402765417743523e-13,1.8945480203128592e-13,9.855910696273502e-14,4.938766536482079e-14,2.736562537638108e-14
0.0,36,36.0,0.0,30.0,0.0,0.0,0.0,0.0,-13.0,0.0,2.0,0.0,0.0,0.0,1.699057870277843e-11,1.4332503733412794e-11,1.2069217515194803e-11,1.0507225152393425e-11,7.889565978391187e-12,5.967370211553507e-12,4.454513751922631e-12,3.245490669688822e-12,2.041004337721842e-12,1.4198970117478102e-12,8.407061784447217e-13,4.947794924428398e-13,3.006358504198331e-13,1.8390571848033914e-13,1.1816026594475052e-13,8.322019156458941e-14,6.022470977098654e-14,4.810903032961915e-14,3.482277595949205e-14,2.551203250577962e-14,2.009098760629495e-14,1.6204300202712096e-14,1.0731717173549938e-14,7.121910773583246e-15,5.938550030559546e-15,5.886266884391039e-15,1.1482032665243477e-09,7.225982629108827e-10,4.400598831373947e-10,2.78966860823806e-10,1.7036839168651396e-10,1.0092842038879358e-10,5.939189170319703e-11,3.9337075428019866e-11,2.2766038589984898e-11,1.3445966562568892e-11,8.098912138175516e-12,4.1125267908846835e-12,2.242689261501116e-12,1.0318287298826966e-12,4.648930591407041e-13,2.0154892111410137e-13,6.866016105820578e-14,2.1991313615516155e-14,2.381167501735222e-14
0.0,37,37.0,0.0,30.0,0.0,0.0,0.0,0.0,-13.0,0.0,2.0,0.0,0.0,0.0,1.7957198629407114e-11,1.5122038553299976e-11,1.2276481724829936e-11,1.0240397758943256e-11,8.052815895312806e-12,6.016628256303363e-12,4.743920844212213e-12,3.100052823719935e-12,2.2432981812921005e-12,1.4356391950555142e-12,9.002838199534296e-13,5.030659348720797e-13,3.068949812734739e-13,1.9721426393391773e-13,1.2058397331424241e-13,8.154897089051049e-14,6.039272402151287e-14,4.469723456568353e-14,3.67566743081177e-14,2.645348263582883e-14,1.865246404866604e-14,1.4170612384984162e-14,9.754496532906816e-15,8.538979603782305e-15,3.7950629096787546e-15,2.105133714484481e-15,1.283791996374298e-09,7.773693338539535e-10,4.5240681938997347e-10,2.754029651228785e-10,1.714837253315467e-10,1.0099546968425725e-10,6.370819308460678e-11,3.892437245045581e-11,2.4089397401137476e-11,1.339177173881701e-11,7.869096586084927e-12,4.461397587427148e-12,2.1893132645297134e-12,1.0382322425587583e-12,5.221484152572444e-13,2.101770795287921e-13,8.369811684658973e-14,2.376411001537271e-14,2.867276873571151e-14
0.0,38,38.0,0.0,30.0,0.0,0.0,0.0,0.0,-13.0,0.0,2.0,0.0,0.0,0.0,1.831554689307129e-11,1.5194974838502176e-11,1.2378499824484483e-11,1.0413535146436504e-11,8.027739413996902e-12,6.155232211794245e-12,4.708773174987453e-12,3.2626433321440478e-12,2.2991117528504653e-12,1.5030753969359137e-12,8.884909530732098e-13,5.18330104988693e-13,3.312742493132539e-13,1.8279890448289794e-13,1.151127827190899e-13,7.96745757921819e-14,5.801929706472375e-14,4.193491542437974e-14,3.248097799120444e-14,2.3326890958931136e-14,1.659070108745656e-14,1.4639662953825032e-14,1.2178215658640765e-14,8.618772905932536e-15,5.072886051080891e-15,5.361827155565879e-15,1.2737910350599306e-09,7.357425292994031e-10,4.6149465893890057e-10,2.786962880731875e-10,1.6590156012011628e-10,1.0170591585152275e-10,6.577149262430457e-11,3.7171982219564954e-11,2.4364840617035626e-11,1.3549332403145518e-11,7.622687199392957e-12,4.21847491175622e-12,2.4535095904386806e-12,1.114466242942792e-12,5.144332118571216e-13,2.3905514080998414e-13,1.039554367187096e-13,2.798948559783115e-14,2.992154059597083e-14
0.0,39,39.0,0.0,30.0,0.0,0.0,0.0,0.0,-13.0,0.0,2.0,0.0,0.0,0.0,1.8318192525570733e-11,1.5415092881697318e-11,1.3020435234048642e-11,1.1008522917444161e-11,8.166396705127951e-12,6.5458632344290415e-12,4.836519837054116e-12,3.2776194936357806e-12,2.3013005110731443e-12,1.5412880963772307e-12,9.865019305101584e-13,5.802269144065133e-13,3.336907628546449e-13,1.8749698690956479e-13,1.241610497921148e-13,7.795077493946672e-14,5.2736077264961885e-14,4.0060070898189676e-14,3.1397145068847173e-14,2.2536031093029672e-14,1.7700685175914457e-14,1.3552097334876848e-14,9.471084680237886e-15,5.629248555073032e-15,4.79777126288151e-15,3.375428501208378e-15,1.3636991975825116e-09,7.258710968112966e-10,4.6246035054523376e-10,2.7962792041150135e-10,1.7552462785836038e-10,9.83240781202674e-11,6.726164033417286e-11,3.9845086604800456e-11,2.2872030223255165e-11,1.4276915206353242e-11,8.432796689656448e-12,4.3539846140347874e-12,2.3922910513313233e-12,1.131220876407891e-12,5.291096297497105e-13,2.350341090769647e-13,1.0111023705010295e-13,3.8720718113641315e-14,2.3931087273343385e-14
0.0,40,40.0,0.0,30.0,0.0,0.0,0.0,0.0,-13.0,0.0,2.0,0.0,0.0,0.0,1.8945673038123904e-11,1.568017257959422e-11,1.3782399981208742e-11,1.1248801651627516e-11,8.42890451450621e-12,6.470111051568028e-12,4.700603992192107e-12,3.5427729918066823e-12,2.405183112169625e-12,1.6249294172050482e-12,9.429786171031814e-13,5.818173394186423e-13,3.5000885076120865e-13,1.9275854496780305e-13,1.153783943892329e-13,7.249676391417281e-14,5.768817815344385e-14,3.7391054957904374e-14,2.695023022758829e-14,2.037786223241077e-14,1.4942456643693346e-14,1.141008635793412e-14,9.413221400415517e-15,5.8430819241153334e-15,3.4801186006127833e-15,1.6964283058868287e-15,1.324794580139526e-09,7.812293155647775e-10,4.95539806415788e-10,2.906636276118477e-10,1.7614709041814145e-10,1.0427775394390172e-10,6.535366992105365e-11,3.978019662449966e-11,2.421797337317925e-11,1.4191839015239166e-11,8.548406977759745e-12,4.653297409439321e-12,2.4498412481256894e-12,1.151985757455982e-12,5.761554082300955e-13,2.538142382787459e-13,9.570324823092067e-14,5.515003591356553e-14,7.637028708846325e-15
0.0,41,41.0,0.0,30.0,0.0,0.0,0.0,0.0,-13.0,0.0,2.0,0.0,0.0,0.0,1.8750817243880943e-11,1.5915805175095876e-11,1.2884169412350015e-11,1.1007970976375938e-11,9.126290241376121e-12,6.7330781403356704e-12,4.982528783783467e-12,3.693415299193052e-12,2.5109622337093755e-12,1.6435383129544296e-12,1.0128001247733167e-12,6.367750967084506e-13,3.579838593447929e-13,1.9947009265755993e-13,1.1897758457924092e-13,7.336622380602941e-14,5.003979556196969e-14,3.594063247741048e-14,2.580013338838211e-14,2.1136989265249628e-14,1.463710468153066e-14,1.164878697478514e-14,7.411126974753639e-15,5.753440009658168e-15,3.4613638061946813e-15,3.712427741525665e-15,1.3470903020727252e-09,7.803442231627392e-10,4.59647123745348e-10,2.9766568527999984e-10,1.7580983367733699e-10,1.0924154227654002e-10,6.586372318992823e-11,4.196653232190725e-11,2.517073741102826e-11,1.498346460682249e-11,8.3775552749194e-12,4.834064370650121e-12,2.665153732176684e-12,1.229773762661768e-12,5.964178307387993e-13,2.4008524428422864e-13,1.248369497444107e-13,4.30506585266324e-14,2.939719122331698e-14
0.0,42,42.0,0.0,30.0,0.0,0.0,0.0,0.0,-13.0,0.0,2.0,0.0,0.0,0.0,1.8048038979449784e-11,1.7154818218489328e-11,1.3464034144811844e-11,1.1292735563859288e-11,8.862042438794212e-12,6.785400604598853e-12,5.41409023692775e-12,3.5448789454395913e-12,2.5950076224586953e-12,1.7416426879121354e-12,1.0628844588430936e-12,6.327981910904188e-13,3.65248893214704e-13,2.0117560603254671e-13,1.2124104913773885e-13,7.591669428851855e-14,4.989980177113765e-14,3.502787031862419e-14,2.535915344020759e-14,1.8883918496830157e-14,1.5540191032785595e-14,8.291527996933984e-15,7.713366362939478e-15,5.1737583753890506e-15,5.426600505175401e-15,2.8917048437158717e-15,1.4535118571942717e-09,7.639417794464957e-10,5.001812849118122e-10,3.0323797891058083e-10,1.9026410942826763e-10,1.054841350974153e-10,6.74423974738941e-11,4.1375814265862373e-11,2.4670314622738686e-11,1.5498428724011815e-11,8.563454899902921e-12,5.152098730550129e-12,2.6816550012193935e-12,1.34466891099981e-12,6.307991888239689e-13,2.60704199349343e-13,1.1142254934054426e-13,5.497322518859184e-14,2.8711659450906516e-14
0.0,43,43.0,0.0,30.0,0.0,0.0,0.0,0.0,-13.0,0.0,2.0,0.0,0.0,0.0,2.005576352160136e-11,1.6273734044674457e-11,1.3445820064510963e-11,1.1562705538875897e-11,8.739659467636086e-12,7.1339636396423975e-12,5.439070877649342e-12,3.86272018795156e-12,2.6101604877577283e-12,1.7492833871144562e-12,1.1209997900462231e-12,6.598701369157543e-13,4.062934504309227e-13,2.0930492740503159e-13,1.19462250487028e-13,7.208595391695957e-14,4.759297699823887e-14,3.0992921432660545e-14,2.4016075959054835e-14,1.751626290347762e-14,1.3531148596553344e-14,1.0369647763745041e-14,6.003533279043956e-15,6.129346574481646e-15,5.571136815408363e-15,2.4829063308323e-15,1.4943125377646645e-09,8.395081817624153e-10,5.335921210357807e-10,3.1659217823316877e-10,1.7701242773017412e-10,1.1269690132251829e-10,7.085481360000582e-11,4.1835573733007565e-11,2.5292373123998488e-11,1.5692255224043726e-11,8.574650436674088e-12,4.9398650542457816e-12,2.6862420451212763e-12,1.3344103822732117e-12,6.441812536696766e-13,2.982645901485156e-13,1.2670296283651776e-13,4.330142096742781e-14,1.1341131968577383e-14
0.0,44,44.0,0.0,30.0,0.0,0.0,0.0,0.0,-13.0,0.0,2.0,0.0,0.0,0.0,1.9101595546386907e-11,1.6731962963803377e-11,1.3924358543285545e-11,1.1144917163122538e-11,8.92546850885532e-12,6.739868878648301e-12,5.409921130520768e-12,3.8839204041763615e-12,2.600401934452425e-12,1.7990507131523378e-12,1.184273302178952e-12,6.691923874119132e-13,4.1142121180316776e-13,2.2095138814507014e-13,1.267371044026373e-13,7.486909815742239e-14,5.016810622226813e-14,3.316675047028624e-14,2.231962884714648e-14,1.590810768455832e-14,1.112912999332368e-14,7.647086643037586e-15,6.947553149106768e-15,3.981292096028162e-15,3.4863348869299765e-15,1.850782634385161e-15,1.4295900682466409e-09,8.413283328312178e-10,5.248255425217407e-10,3.2076540487163007e-10,1.9097557313329084e-10,1.109582007096365e-10,7.0969089715929e-11,4.318344043513707e-11,2.581097911135537e-11,1.5000644198100897e-11,9.054861418133195e-12,5.078139518469857e-12,2.4620123447915022e-12,1.4162376485400182e-12,6.267128816463103e-13,3.105258196204492e-13,1.2673656689723345e-13,6.60457656146661e-14,2.202377669662626e-14
0.0,45,45.0,0.0,30.0,0.0,0.0,0.0,0.0,-13.0,0.0,2.0,0.0,0.0,0.0,1.9302453979073105e-11,1.6881063331566667e-11,1.4629608950145662e-11,1.1594515833176145e-11,9.184978489341266e-12,7.328322000757086e-12,5.466534272409898e-12,3.9627677079007825e-12,2.877522028849842e-12,1.932536199268546e-12,1.196403202395541e-12,7.030496755208319e-13,4.292973707129632e-13,2.3922846198499616e-13,1.3191428764763706e-13,7.20987837562077e-14,4.72632719812076e-14,3.0888376477711303e-14,2.254225443089941e-14,1.6845825069155746e-14,1.2248706753929907e-14,8.461357399308584e-15,7.849963022444964e-15,2.9870691006839195e-15,4.123847012168532e-15,5.674517159026622e-16,1.5183301569817467e-09,8.500593958515562e-10,5.384927525745055e-10,3.1876562979316736e-10,1.9351246267635803e-10,1.1256076065921214e-10,6.919865102285717e-11,4.309587826943786e-11,2.6335674151164527e-11,1.6793539837963812e-11,9.026712018677546e-12,5.236185091785078e-12,2.6420968188289895e-12,1.3686463354457488e-12,6.858333382236134e-13,2.986081298927197e-13,1.508658908403636e-13,5.241497969113409e-14,3.757422643781669e-14
0.0,46,46.0,0.0,30.0,0.0,0.0,0.0,0.0,-13.0,0.0,2.0,0.0,0.0,0.0,2.099117587154904e-11,1.720176989444289e-11,1.4580620428698698e-11,1.1718457374335297e-11,9.49264080082276e-12,7.37718030374857e-12,5.4978447037737436e-12,4.096527042951907e-12,2.969581410016642e-12,1.9342244349775018e-12,1.222257140095534e-12,7.365253952451075e-13,4.1310876640341557e-13,2.3171104224272327e-13,1.3382338327513354e-13,7.245494877470622e-14,4.5207989988541246e-14,3.277634639873313e-14,2.4124539198839275e-14,1.3985342177347843e-14,1.327874326171694e-14,8.294320720491486e-15,6.212341735298449e-15,4.351920734643767e-15,4.308989682270515e-15,6.991915113436036e-16,1.5610480234496366e-09,8.681749661937553e-10,5.448032936129705e-10,3.389445048907928e-10,1.953629622806714e-10,1.192191533180136e-10,7.244204517477832e-11,4.23192551934352e-11,2.7355245017453134e-11,1.639386454266888e-11,9.254708176990686e-12,5.166670809907938e-12,2.7843636532547224e-12,1.4355637363744632e-12,7.583281565702373e-13,3.4834492367121197e-13,1.4069878152155606e-13,4.328435621346108e-14,-3.865894793064396e-15
0.0,47,47.0,0.0,30.0,0.0,0.0,0.0,0.0,-13.0,0.0,2.0,0.0,0.0,0.0,1.9698369089202833e-11,1.7334688581677825e-11,1.5159990794261816e-11,1.165664712108358e-11,9.60773559559608e-12,7.66043640686417e-12,5.623011795073615e-12,4.086987599182332e-12,2.7675047012643265e-12,1.8694953333282606e-12,1.2608030405184604e-12,7.536448846513321e-13,4.432120589729726e-13,2.473491922748977e-13,1.3909990942670705e-13,7.492612408394945e-14,4.5648168880466395e-14,3.282150158387599e-14,2.0074995968021264e-14,1.482899360983429e-14,1.0391700698054581e-14,8.558984996401467e-15,6.961965581767209e-15,3.74577305202971e-15,2.6340367033458422e-15,1.9191576782206933e-15,1.6052096955372537e-09,8.94001051575137e-10,5.407058261393607e-10,3.0660765539889186e-10,1.9047780941095857e-10,1.1931506191840594e-10,7.451348306571319e-11,4.428715800682177e-11,2.558606791953909e-11,1.509177890274846e-11,9.206006887274857e-12,4.9606977241031774e-12,2.964428068344239e-12,1.5015764298991722e-12,7.01449946657186e-13,3.2789624216138307e-13,1.4010345205175585e-13,5.434057246293812e-14,1.049903149635906e-14
0.0,48,48.0,0.0,30.0,0.0,0.0,0.0,0.0,-13.0,0.0,2.0,0.0,0.0,0.0,2.008486163464461e-11,1.72640137379799e-11,1.4417636754915637e-11,1.2445729388848413e-11,9.615079487419689e-12,7.247581002297367e-12,5.624775123565726e-12,4.061002753052275e-12,2.9090479811571456e-12,2.035766940360951e-12,1.2888959713727143e-12,8.360852028315837e-13,4.623597226628782e-13,2.4945580580590396e-13,1.4393141118349927e-13,8.09526773679424e-14,4.797230878320891e-14,2.8153001181926794e-14,2.011069033229121e-14,1.573421026836325e-14,8.738732373110848e-15,7.204663350782422e-15,4.191678360379677e-15,3.104414584977752e-15,1.904386264341639e-15,3.3464537247054913e-15,1.6101000943302537e-09,9.114177603885787e-10,5.410554440253658e-10,3.3782023139540486e-10,2.020678919083142e-10,1.2647991436932087e-10,7.467736413750703e-11,4.2538054635106325e-11,2.624760019323943e-11,1.6423512623492012e-11,9.07757074815515e-12,5.5569825125648536e-12,2.820612128793277e-12,1.5586402098556177e-12,7.412010096208681e-13,3.473260407161411e-13,1.6682662010434152e-13,6.38867114217557e-14,3.4603837043998606e-14
0.0,49,49.0,0.0,30.0,0.0,0.0,0.0,0.0,-13.0,0.0,2.0,0.0,0.0,0.0,2.1189782738701558e-11,1.8252848202463713e-11,1.4517378690986096e-11,1.2105425518837247e-11,9.827188515399948e-12,7.373216478719753e-12,6.0413552852303635e-12,4.13644139997414e-12,2.961331491627517e-12,1.9650908821092855e-12,1.2278481505749382e-12,8.497161366949403e-13,4.699382078023468e-13,2.6203312268465117e-13,1.4394405992296271e-13,8.34211425928873e-14,4.45145774088319e-14,2.999081746356927e-14,1.9129396091428765e-14,1.3264882860649232e-14,1.0624830163362227e-14,8.37066650143238e-15,4.851615645919553e-15,3.078739823698593e-15,1.6098772587778142e-15,3.099771609316601e-15,1.6355471553149828e-09,9.045088855940943e-10,5.94349999575409e-10,3.2873895319803283e-10,2.1043653983811925e-10,1.2415202170484916e-10,7.525151804716795e-11,4.42167547702086e-11,2.7347921457790104e-11,1.5268071279645267e-11,9.505345583982292e-12,5.590292783113883e-12,3.0391439033495234e-12,1.4662333748950083e-12,7.588144043468604e-13,3.647652137802338e-13,1.6683030011036134e-13,6.71539134654044e-14,2.2581437508539596e-14
0.0,50,50.0,0.0,30.0,0.0,0.0,0.0,0.0,-13.0,0.0,2.0,0.0,0.0,0.0,2.1539523027000542e-11,1.8704197703257635e-11,1.4992152728110457e-11,1.2603307527417423e-11,9.061086951609111e-12,7.444353845607501e-12,5.779329306745097e-12,4.234118478503951e-12,3.0693369559212712e-12,2.130264437305574e-12,1.3647840593153876e-12,8.141454300952297e-13,4.661189678336356e-13,2.795364835153938e-13,1.410414761197455e-13,8.323018163553712e-14,4.6064874837498245e-14,2.7120659097988228e-14,1.936064751801083e-14,1.336663568436811e-14,9.554455040562463e-15,6.9373780608514644e-15,5.546455015056401e-15,4.603727366351145e-15,3.151765626706958e-15,2.9147332773991447e-15,1.7061613158843533e-09,1.0278385682831032e-09,5.923384415246709e-10,3.437154836394574e-10,2.0232975273703775e-10,1.2617868205199073e-10,7.269387827538415e-11,4.424328655139239e-11,2.7551032394137583e-11,1.5937494794069293e-11,9.165575009682944e-12,5.3911476110363975e-12,3.0071150386313563e-12,1.5826983046955438e-12,7.945171157006089e-13,3.9303441018492e-13,1.7195103123774108e-13,6.908919803734178e-14,5.342910497560822e-14
0.0,51,51.0,0.0,30.0,0.0,0.0,0.0,0.0,-13.0,0.0,2.0,0.0,0.0,0.0,2.155644804993436e-11,1.8919116848514885e-11,1.502285243021919e-11,1.1969860142451145e-11,9.700999266327546e-12,7.689669283986156e-12,5.821376759676622e-12,4.531656511471444e-12,3.076760674917475e-12,2.1361559465060256e-12,1.3735480129718098e-12,8.41522782193602e-13,5.04638911446073e-13,2.990603458173852e-13,1.507299315244191e-13,8.554583775218378e-14,4.500198282732977e-14,2.775660582734407e-14,1.851050901296867e-14,1.3222077456083363e-14,1.0721064386833389e-14,6.658996404907897e-15,4.034615116165119e-15,4.159521935219818e-15,2.1665273447237798e-15,2.052061495170079e-15,1.7479125258985272e-09,9.449990665630116e-10,6.038749538008228e-10,3.6238851088404386e-10,2.1875372827393148e-10,1.3425393208734652e-10,7.397989957467251e-11,4.6867656094922083e-11,2.800313564379457e-11,1.6190332320600735e-11,9.631842298237702e-12,5.532975830321268e-12,2.9269818820368715e-12,1.6330569006939146e-12,7.994564470490979e-13,3.8220815232650943e-13,1.547385326827254e-13,6.971095132685241e-14,2.7886047031382184e-14
0.0,52,52.0,0.0,30.0,0.0,0.0,0.0,0.0,-13.0,0.0,2.0,0.0,0.0,0.0,2.2062124993090823e-11,1.8524107853952407e-11,1.474754375106953e-11,1.2952944814470221e-11,1.0016418604582542e-11,7.957722258423837e-12,6.154883290888291e-12,4.603416608686117e-12,3.319471034607844e-12,2.1404882199660705e-12,1.418735807727184e-12,8.467751419868202e-13,5.361057043921808e-13,2.833653058903969e-13,1.5062266868749025e-13,8.793015828114387e-14,4.6394608792157046e-14,2.9167263430599685e-14,1.8511804939618777e-14,1.0677068995051374e-14,5.988284243444378e-15,5.300282200636223e-15,4.683426882776396e-15,2.120557611739565e-15,1.7625240115367322e-15,2.692628998120056e-16,1.8103180842359385e-09,1.030243645991736e-09,5.987972364462744e-10,3.782701070251362e-10,2.2628720304528325e-10,1.3157586487841524e-10,7.362010790059429e-11,4.5191872845104637e-11,2.831895529640481e-11,1.624906980164133e-11,9.466205616369136e-12,5.652527620518903e-12,3.1223993215653515e-12,1.7136671671444936e-12,8.309642257288311e-13,4.257556200332079e-13,1.7507380114126628e-13,9.318889506665661e-14,3.229196514866267e-14
0.0,53,53.0,0.0,30.0,0.0,0.0,0.0,0.0,-13.0,0.0,2.0,0.0,0.0,0.0,2.1411315506112742e-11,1.7833314756435782e-11,1.5505075079795736e-11,1.2674308176960418e-11,1.0428226124867962e-11,7.906153688097854e-12,5.9736540194462035e-12,4.6157978172926535e-12,3.1590356758398155e-12,2.1441776999513237e-12,1.4595224301988053e-12,8.83876377903952e-13,5.454229152541669e-13,2.980230274654274e-13,1.6356529754963558e-13,8.840815519467537e-14,4.7314980591790295e-14,2.801765898130325e-14,1.8573870035841826e-14,1.2436795956304377e-14,8.942407654108998e-15,5.496753010680694e-15,5.320001765595103e-15,3.8733512978249325e-15,3.3156685986668858e-15,9.248083436642538e-16,1.840243863659303e-09,1.0720729608491083e-09,6.093346322799299e-10,3.6760327814619026e-10,2.330867405713287e-10,1.3912429661897298e-10,8.186899461083842e-11,4.867258911046561e-11,2.7430985163513518e-11,1.69858358038595e-11,9.590456525144104e-12,5.378444822353511e-12,3.061729737207489e-12,1.6784558561522739e-12,8.45330083191206e-13,4.0685142288641615e-13,1.9700176164257797e-13,8.25326879646741e-14,3.493058949940222e-14
0.0,54,54.0,0.0,30.0,0.0,0.0,0.0,0.0,-13.0,0.0,2.0,0.0,0.0,0.0,2.2330578283803923e-11,1.859516177694456e-11,1.518007389028017e-11,1.3039102169203545e-11,1.0124244681342635e-11,7.537310402798639e-12,6.049390682381122e-12,4.377828795741549e-12,3.292032349036146e-12,2.252037661467411e-12,1.4848003718898388e-12,9.001443615209908e-13,5.620356260273452e-13,3.161594342613271e-13,1.679460944748616e-13,8.916415251181036e-14,5.035447414763151e-14,2.7394287155243432e-14,1.7656081099637265e-14,1.271700585238288e-14,1.0081459167701833e-14,7.576045114474764e-15,5.172893007112501e-15,1.5496313204921353e-15,1.5162653623760926e-15,1.029736255012919e-15,1.9943515991810692e-09,1.0548260455336446e-09,6.414584599997595e-10,3.784821334688993e-10,2.1794502594387972e-10,1.3504494825948257e-10,8.102037775629002e-11,4.6142127679139305e-11,2.9670751123062154e-11,1.584012871818202e-11,9.610056107745711e-12,5.769205112278983e-12,3.0292890843345274e-12,1.7144945125103417e-12,8.409943162951156e-13,4.2528770045555724e-13,1.6755765602822248e-13,7.563389255029598e-14,1.8481476223287562e-14
