Line_number,Fiducial,Easting,Northing,Height,Elevation,tx_pitch,tx_roll,tx_yaw,txrx_dx,txrx_dy,txrx_dz,rx_pitch,rx_roll,rx_yaw,S0Z_time_3.834e-04,S0Z_time_3.924e-04,S0Z_time_4.039e-04,S0Z_time_4.184e-04,S0Z_time_4.364e-04,S0Z_time_4.589e-04,S0Z_time_4.869e-04,S0Z_time_5.224e-04,S0Z_time_5.679e-04,S0Z_time_6.249e-04,S0Z_time_6.969e-04,S0Z_time_7.879e-04,S0Z_time_9.019e-04,S0Z_time_1.046e-03,S0Z_time_1.227e-03,S0Z_time_1.456e-03,S0Z_time_1.744e-03,S0Z_time_2.109e-03,S0Z_time_2.567e-03,S0Z_time_3.145e-03,S0Z_time_3.864e-03,S0Z_time_4.745e-03,S0Z_time_5.821e-03,S0Z_time_7.140e-03,S0Z_time_8.754e-03,S0Z_time_1.073e-02,S1Z_time_2.057e-05,S1Z_time_2.607e-05,S1Z_time_3.307e-05,S1Z_time_4.206e-05,S1Z_time_5.356e-05,S1Z_time_6.807e-05,S1Z_time_8.607e-05,S1Z_time_1.086e-04,S1Z_time_1.366e-04,S1Z_time_1.721e-04,S1Z_time_2.176e-04,S1Z_time_2.746e-04,S1Z_time_3.466e-04,S1Z_time_4.376e-04,S1Z_time_5.516e-04,S1Z_time_6.956e-04,S1Z_time_8.771e-04,S1Z_time_1.106e-03,S1Z_time_1.394e-03
0.0,0,0.0,0.0,30.0,0.0,0.0,0.0,0.0,-13.0,0.0,2.0,0.0,0.0,0.0,6.600852721878642e-10,6.171079984055589e-10,5.703948813212631e-10,5.202742590782034e-10,4.675051027087141e-10,4.1440741131510474e-10,3.619641645691456e-10,3.0963397447420494e-10,2.5891417758229267e-10,2.1239538545888786e-10,1.705444701420803e-10,1.3400889703431547e-10,1.0350870510090148e-10,7.84803741775045e-11,5.833493069112682e-11,4.238308701815567e-11,2.9985728907256485e-11,2.0497025049838102e-11,1.3454141855566778e-11,8.451377330343214e-12,5.094948701999456e-12,2.969532680321953e-12,1.6740971306839327e-12,9.1004729425097e-13,4.822396046422639e-13,2.4592975526138175e-13,5.445213800108681e-09,4.246565606683301e-09,3.3195382955841895e-09,2.599164289845939e-09,2.0236737446626885e-09,1.5676837485436363e-09,1.2092691521893544e-09,9.238949453743952e-10,6.973227809881271e-10,5.168531300704802e-10,3.7352669942930306e-10,2.6473339053662973e-10,1.829251291274547e-10,1.2290405379942272e-10,8.067554490052491e-11,5.172304612787078e-11,3.262421799190499e-11,2.0364652024331907e-11,1.251849724489873e-11
0.0,1,1.0,0.0,30.0,0.0,0.0,0.0,0.0,-13.0,0.0,2.0,0.0,0.0,0.0,6.601228251563522e-10,6.171464418317497e-10,5.704346328933361e-10,5.203160167243082e-10,4.675499844085074e-10,4.1445707662356527e-10,3.620211762689288e-10,3.0970286973695423e-10,2.5900248257962935e-10,2.125136261708321e-10,1.7070495008439513e-10,1.3421876835667756e-10,1.0376010244381296e-10,7.874723509565308e-11,5.85795671163177e-11,4.257190423216744e-11,3.010418375788589e-11,2.0551464614209963e-11,1.3464061133460137e-11,8.437868527356111e-12,5.073963377755913e-12,2.9496336916789434e-12,1.6582971518008573e-12,8.989964098961704e-13,4.750857849680467e-13,2.419448227834342e-13,5.445100422083917e-09,4.2464507415245836e-09,3.3194215526265203e-09,2.5990450661053286e-09,2.0235513548547244e-09,1.5675576176577486e-09,1.2091381782211646e-09,9.237574871584732e-10,6.971779906947032e-10,5.167002731826973e-10,3.7336247933686494e-10,2.645558948386907e-10,1.8274701566655724e-10,1.2276017213870303e-10,8.06054366044798e-11,5.174114836002103e-11,3.270579599727503e-11,2.0463948992271843e-11,1.2599172472076285e-11
0.0,2,2.0,0.0,30.0,0.0,0.0,0.0,0.0,-13.0,0.0,2.0,0.0,0.0,0.0,6.601621308528915e-10,6.171868271515228e-10,5.704765895747481e-10,5.20360355708124e-10,4.675979845072134e-10,4.1451060747803765e-10,3.6208309691261165e-10,3.0977820096765106e-10,2.590994024621406e-10,2.126431865068841e-10,1.7087935349893727e-10,1.3444375136346474e-10,1.0402507858696618e-10,7.902326826055208e-11,5.882753254943885e-11,4.27589998387946e-11,3.021822193425908e-11,2.0601152166681254e-11,1.3470280304258741e-11,8.422025605228838e-12,5.051713861313564e-12,2.929133714076918e-12,1.6422506403374379e-12,8.878934961709665e-13,4.679277075104128e-13,2.3798579174950875e-13,5.444979885503063e-09,4.246328655994128e-09,3.319297505928742e-09,2.5989184272913195e-09,2.023421442832966e-09,1.567423837447812e-09,1.2089993317595465e-09,9.236119376793286e-10,6.970250428771293e-10,5.165391103736895e-10,3.7318953789782025e-10,2.643701897826817e-10,1.8256434529202816e-10,1.2261880962912076e-10,8.054496958430568e-11,5.177189171660495e-11,3.2797762520338475e-11,2.056878490547776e-11,1.268152272003858e-11
0.0,3,3.0,0.0,30.0,0.0,0.0,0.0,0.0,-13.0,0.0,2.0,0.0,0.0,0.0,6.602035809528688e-10,6.17229580928782e-10,5.705212243683016e-10,5.204078118083252e-10,4.676497230367139e-10,4.1456873454446155e-10,3.621508037985335e-10,3.09861045826174e-10,2.592062676803047e-10,2.1278564760350092e-10,1.7106940676166942e-10,1.3468549718706683e-10,1.0430496372517596e-10,7.930934205678854e-11,5.907925753908779e-11,4.2944500581807664e-11,3.032780599291017e-11,2.0645972167300024e-11,1.3472650598867743e-11,8.403699384800076e-12,5.0280738773850136e-12,2.9079411617786485e-12,1.625898445007906e-12,8.767035364922331e-13,4.607470701418138e-13,2.340421028998184e-13,5.444851263253928e-09,4.246198418427806e-09,3.3191652164600272e-09,2.5987834269178297e-09,2.0232830567783855e-09,1.5672814417896915e-09,1.2088516252091604e-09,9.234573061775438e-10,6.968629497040754e-10,5.163686114250936e-10,3.73006824194783e-10,2.6417547573573095e-10,1.823769795269285e-10,1.2248062106280293e-10,8.049524513865109e-11,5.181630245332258e-11,3.2900777306748557e-11,2.0679482752957995e-11,1.2765702943445675e-11
0.0,4,4.0,0.0,30.0,0.0,0.0,0.0,0.0,-13.0,0.0,2.0,0.0,0.0,0.0,6.602475923923241e-10,6.172751596109238e-10,5.705690458518975e-10,5.20458963299983e-10,4.677058706706353e-10,4.1463224832686404e-10,3.6222524407853735e-10,3.099525609039228e-10,2.5932448812081707e-10,2.129426478022085e-10,1.7127683528864707e-10,1.349455659756784e-10,1.0460090648616176e-10,7.960609232578956e-11,5.933495086294875e-11,4.312837244416199e-11,3.043281437701421e-11,2.0685787474261997e-11,1.3471037085483981e-11,8.38276669675932e-12,5.002941412188652e-12,2.885982294866754e-12,1.6091931163459832e-12,8.653981477629609e-13,4.535292931452326e-13,2.3010443766848714e-13,5.444713650460318e-09,4.246059120735442e-09,3.31902377031189e-09,2.5986391463792325e-09,2.023135276039093e-09,1.5671294978251912e-09,1.208694108902804e-09,9.23292649676949e-10,6.966907774602459e-10,5.161878011411718e-10,3.7281336844004826e-10,2.6397111447161463e-10,1.8218503709390117e-10,1.2234653752469155e-10,8.045754309555599e-11,5.187543251509685e-11,3.3015415296893387e-11,2.0796253676785797e-11,1.2851784593844271e-11
0.0,5,5.0,0.0,30.0,0.0,0.0,0.0,0.0,-13.0,0.0,2.0,0.0,0.0,0.0,6.602946223745379e-10,6.173240650813139e-10,5.70620614390322e-10,5.2051444797553e-10,4.67767166771776e-10,4.147020185469447e-10,3.623074558221194e-10,3.1005400466301136e-10,2.594555775488773e-10,2.1311590793178229e-10,1.7150338999815059e-10,1.3522545656681494e-10,1.0491390864683281e-10,7.991396037144942e-11,5.959463447354607e-11,4.3310445084931657e-11,3.053305186419631e-11,2.072043799264324e-11,1.3465311145379989e-11,8.359121999528881e-12,4.9762323029990005e-12,2.8631971398161305e-12,1.5920965111995835e-12,8.539543617715776e-13,4.462628788675896e-13,2.2616454658989193e-13,5.44456614536927e-09,4.245909859026531e-09,3.3188722590559022e-09,2.5984846750412434e-09,2.0229771905823973e-09,1.5669670846390564e-09,1.2085258495651576e-09,9.231170507661226e-10,6.965076219087124e-10,5.159957335194342e-10,3.726082611821136e-10,2.63756617103044e-10,1.8198888578177127e-10,1.2221775657951903e-10,8.043331418749218e-11,5.1950363305210765e-11,3.3142183576381824e-11,2.0919218488252247e-11,1.2939771427636863e-11
0.0,6,6.0,0.0,30.0,0.0,0.0,0.0,0.0,-13.0,0.0,2.0,0.0,0.0,0.0,6.603451830915912e-10,6.173768599085423e-10,5.706765579981179e-10,5.205749797247308e-10,4.678344368345436e-10,4.147790126422459e-10,3.623985877134449e-10,3.101667580836236e-10,2.596011740794703e-10,2.1330725004161438e-10,1.7175086397487479e-10,1.3552662331512709e-10,1.0524484545554005e-10,8.02332174807251e-11,5.985816834904495e-11,4.3490430931580544e-11,3.062825906153671e-11,2.0749741195128464e-11,1.3455345799603556e-11,8.332671540584818e-12,4.947875570385865e-12,2.8395364273931884e-12,1.5745779483990767e-12,8.423536586865078e-13,4.38938898011524e-13,2.2221511110718193e-13,5.444407835775856e-09,4.245749719852597e-09,3.318709765836283e-09,2.598319096211202e-09,2.022807886456567e-09,1.5667932781658848e-09,1.2083459153739474e-09,9.229296022351227e-10,6.963125906587077e-10,5.157914737683855e-10,3.723906424103001e-10,2.635316437275292e-10,1.8178914512800464e-10,1.2209573864858126e-10,8.042417193836813e-11,5.204220326406917e-11,3.328152980514694e-11,2.104842188918354e-11,1.302961090689879e-11
0.0,7,7.0,0.0,30.0,0.0,0.0,0.0,0.0,-13.0,0.0,2.0,0.0,0.0,0.0,6.603998563484697e-10,6.174341825018646e-10,5.707375880945623e-10,5.206413649641002e-10,4.679086096914808e-10,4.1486431387000143e-10,3.6249991803639916e-10,3.102923439250969e-10,2.5976305798940944e-10,2.1351861156647493e-10,1.720211023101908e-10,1.3585048417381156e-10,1.0559447639163244e-10,8.056398056351598e-11,6.012526848589781e-11,4.366794015908592e-11,3.0718120510905196e-11,2.077349338202028e-11,1.3441012864859774e-11,8.30332936257761e-12,4.917810040041919e-12,2.8149592759245245e-12,1.556612779947986e-12,8.305811943659889e-13,4.315505820915348e-13,2.1824962190020994e-13,5.444237789180593e-09,4.245577770234914e-09,3.318535355336967e-09,2.5981414770780584e-09,2.0226264352895157e-09,1.5666071403138136e-09,1.208153365533721e-09,9.227293963174654e-10,6.961047901821451e-10,5.155740859315182e-10,3.7215969840507226e-10,2.6329601236051944e-10,1.815866973037949e-10,1.21982207827865e-10,8.043188432531061e-11,5.2152081519455306e-11,3.343384511452898e-11,2.1183841737628058e-11,1.3121202403726378e-11
0.0,8,8.0,0.0,30.0,0.0,0.0,0.0,0.0,-13.0,0.0,2.0,0.0,0.0,0.0,6.60459308901906e-10,6.174967629746985e-10,5.708045159416361e-10,5.20714519698064e-10,4.679907352648226e-10,4.149591398055734e-10,3.6261287375055856e-10,3.104324454282748e-10,2.5994316777813946e-10,2.137520560596138e-10,1.723160066938718e-10,1.3619842212702895e-10,1.0596344874132428e-10,8.090622108798766e-11,6.039551961127189e-11,4.384249244059086e-11,3.080227166242053e-11,2.0791471378148602e-11,1.3422181294097257e-11,8.271014540958895e-12,4.885981888416782e-12,2.789431448485339e-12,1.5381812859772406e-12,8.186251860697133e-13,4.240929919063588e-13,2.1426228483608667e-13,5.4440550455341156e-09,4.245393050315375e-09,3.3183480664426e-09,2.597950861404516e-09,2.0224318865623263e-09,1.5664077110254013e-09,1.2079472430321648e-09,9.225155170704096e-10,6.958833159551797e-10,5.153426247766775e-10,3.7191466514427975e-10,2.6304971570081126e-10,1.813827043811458e-10,1.2187915568304473e-10,8.045836503311342e-11,5.228113886119969e-11,3.359946337858213e-11,2.1325394959410076e-11,1.3214403096906374e-11
0.0,9,9.0,0.0,30.0,0.0,0.0,0.0,0.0,-13.0,0.0,2.0,0.0,0.0,0.0,6.605243088654213e-10,6.175654400629137e-10,5.708782701071715e-10,5.207954875525163e-10,4.680820032085679e-10,4.1506486159099635e-10,3.627390500214294e-10,3.105889248282115e-10,2.6014361489082293e-10,2.1400978108377834e-10,1.7263753573294627e-10,1.365717814772153e-10,1.0635229590716741e-10,8.12597692534606e-11,6.066838411461723e-11,4.40135262488494e-11,3.0880304821994774e-11,2.0803434360154594e-11,1.339871627368928e-11,8.235649285876589e-12,4.8523428669053534e-12,2.762924043810955e-12,1.5192678193393559e-12,8.064764240959187e-13,4.165627457630165e-13,2.10247951788554e-13,5.443858611828126e-09,4.245194567878288e-09,3.3181469068301354e-09,2.597746264179389e-09,2.022223261834847e-09,1.5661940024525605e-09,1.2077265697144977e-09,9.222870349078144e-10,6.956472447333927e-10,5.150961312126122e-10,3.716548377151184e-10,2.627929448919179e-10,1.8117863067321882e-10,1.2178884679912641e-10,8.050566393882159e-11,5.243051673133385e-11,3.377865809221328e-11,2.1472941204733948e-11,1.3309032208501896e-11
0.0,10,10.0,0.0,30.0,0.0,0.0,0.0,0.0,-13.0,0.0,2.0,0.0,0.0,0.0,6.605957434832156e-10,6.176411793916896e-10,5.709599152369884e-10,5.208854590555892e-10,4.681837627092772e-10,4.1518302419291413e-10,3.628802304406816e-10,3.107638418695829e-10,2.60366697271979e-10,2.14294123517346e-10,1.7298770153420218e-10,1.3697185994188206e-10,1.0676143175574714e-10,8.162431477364915e-11,6.094320829552787e-11,4.4180406318451053e-11,3.0951774210138724e-11,2.080912564489713e-11,1.3370478799191752e-11,8.197157654315332e-12,4.816849027546754e-12,2.7354125165518665e-12,1.4998601434958153e-12,7.941278837615448e-13,4.089577949819568e-13,2.0620207379583902e-13,5.443647458044878e-09,4.244981294249322e-09,3.317930848990414e-09,2.5975266677036226e-09,2.0219995503767784e-09,1.5659649947126152e-09,1.2074903431026637e-09,9.220430025995548e-10,6.953956283234608e-10,5.148336309222106e-10,3.7137958562574086e-10,2.625261198377489e-10,1.8097626915548006e-10,1.2171382504043043e-10,8.057595640526525e-11,5.260134461079785e-11,3.397163766942212e-11,2.162628500848609e-11,1.3404874051232048e-11
0.0,11,11.0,0.0,30.0,0.0,0.0,0.0,0.0,-13.0,0.0,2.0,0.0,0.0,0.0,6.60674638540923e-10,6.177250933467539e-10,5.71050672377876e-10,5.209857923934343e-10,4.682975436590536e-10,4.153153678606225e-10,3.6303840807984974e-10,3.1095947238939355e-10,2.6061491174626854e-10,2.146075623128248e-10,1.733685628097501e-10,1.373998971712421e-10,1.0719114191509975e-10,8.199940525991068e-11,6.121922673562666e-11,4.434242973855127e-11,3.101620026864635e-11,2.0808274350766442e-11,1.3337325550086279e-11,8.15546469659271e-12,4.779459821962008e-12,2.7068759488287263e-12,1.4799489206854647e-12,7.815744175100465e-13,4.012772370782386e-13,2.0212067417859896e-13,5.4434205141395925e-09,4.244752161242688e-09,3.3176988273463556e-09,2.5972910187527326e-09,2.021759705836572e-09,1.56571963288225e-09,1.207237534569349e-09,9.217824522400242e-10,6.951274884645894e-10,5.145541362287478e-10,3.710883742337922e-10,2.622499258781001e-10,1.8077777115533796e-10,1.216569195949949e-10,8.067153095864605e-11,5.2794726017180264e-11,3.417853971356243e-11,2.1785176981706075e-11,1.3501680229634399e-11
0.0,12,12.0,0.0,30.0,0.0,0.0,0.0,0.0,-13.0,0.0,2.0,0.0,0.0,0.0,6.607621796552256e-10,6.178184627768634e-10,5.711519410610989e-10,5.210980358328589e-10,4.684250793721905e-10,4.154638509214199e-10,3.6321580744727887e-10,3.111783269296658e-10,2.608909650924145e-10,2.149527185913095e-10,1.7378221458682293e-10,1.3785706008345762e-10,1.0764157268086178e-10,8.238444293507214e-11,6.14955653937462e-11,4.44988310334851e-11,3.1073073337273646e-11,2.080059689103875e-11,1.3299108948692644e-11,8.110495915415532e-12,4.740137480240747e-12,2.6772965144939446e-12,1.4595273174117567e-12,7.688125111257778e-13,3.9352115919728485e-13,1.9800033933065223e-13,5.443176667835576e-09,4.244506058935782e-09,3.3174497362437667e-09,2.5970382265672196e-09,2.0215026436986275e-09,1.5654568250124099e-09,1.206967088590328e-09,9.215043928081028e-10,6.948418126261711e-10,5.142566514835408e-10,3.7078079275622374e-10,2.619653567751649e-10,1.8058567858201515e-10,1.2162124994827391e-10,8.079477494592717e-11,5.301172324403447e-11,3.439942464852605e-11,2.1949314403817e-11,1.3599171246069047e-11
0.0,13,13.0,0.0,30.0,0.0,0.0,0.0,0.0,-13.0,0.0,2.0,0.0,0.0,0.0,6.608597356628583e-10,6.1792276073014e-10,5.712653233290745e-10,5.212239519725405e-10,4.685683309816173e-10,4.1563067400415126e-10,3.634149073527074e-10,3.114231692532697e-10,2.6119778356838765e-10,2.1533235284332794e-10,1.742307744875874e-10,1.3834442528246925e-10,1.0811271802907765e-10,8.27786802321294e-11,6.177124387254353e-11,4.464878650005156e-11,3.1121856803268886e-11,2.0785798285722124e-11,1.325567733124255e-11,8.062176953277605e-12,4.698846601650147e-12,2.64665909191819e-12,1.4385907018931075e-12,7.55840091316717e-13,3.8569050606928137e-13,1.9383822492915016e-13,5.442914763081795e-09,4.2442418341229315e-09,3.3171824286623813e-09,2.5967671614925656e-09,2.0212272393593455e-09,1.5651754410332107e-09,1.2066779228666164e-09,9.212078080196603e-10,6.945375506948423e-10,5.139401825096591e-10,3.7045658952110724e-10,2.6167376403291705e-10,1.8040295798222038e-10,1.216102289664486e-10,8.094815779955653e-11,5.3253340936978925e-11,3.4634268998174273e-11,2.2118341476296987e-11,1.3697037696711352e-11
0.0,14,14.0,0.0,30.0,0.0,0.0,0.0,0.0,-13.0,0.0,2.0,0.0,0.0,0.0,6.609688843099656e-10,6.180396784046354e-10,5.713926498631522e-10,5.213655439571573e-10,4.687295136187381e-10,4.1581830573782563e-10,3.6363846462050337e-10,3.116970345508511e-10,2.615385205503452e-10,2.1574935891912829e-10,1.747163654710065e-10,1.388629587462442e-10,1.0860440513269354e-10,8.318121471123788e-11,6.204517719379197e-11,4.47914180007745e-11,3.116198980709925e-11,2.076357329387016e-11,1.3206875187533132e-11,8.010433450173175e-12,4.655553907200548e-12,2.6149509918510436e-12,1.4171364139036315e-12,7.426563745058646e-13,3.777869680516755e-13,1.8963207527777444e-13,5.442633599068657e-09,4.243958289347414e-09,3.316895715541214e-09,2.5964766541361585e-09,2.020932326710516e-09,1.5648743124777498e-09,1.206368929143286e-09,9.208916542285898e-10,6.942136126859296e-10,5.13603750876026e-10,3.7011571528211315e-10,2.613769125819279e-10,1.8023303566817252e-10,1.2162756328046153e-10,8.113421157493145e-11,5.352050859552368e-11,3.488295853814259e-11,2.2291849422160763e-11,1.3794941195470927e-11
0.0,15,15.0,0.0,30.0,0.0,0.0,0.0,0.0,-13.0,0.0,2.0,0.0,0.0,0.0,6.610914404227891e-10,6.181711534709501e-10,5.715360083457154e-10,5.215250837616456e-10,4.689111244476167e-10,4.160295099268371e-10,3.638895385266892e-10,3.1200324704071624e-10,2.619165618583239e-10,2.1620675442175845e-10,1.7524109488457323e-10,1.3941349293374044e-10,1.091162787179986e-10,8.359098364452242e-11,6.231617733675647e-11,4.4925796357875514e-11,3.1192889570070924e-11,2.0733607377081957e-11,1.3152543444567902e-11,7.955191031898815e-12,4.610228117235063e-12,2.58216177491666e-12,1.3951635918451474e-12,7.292617486966756e-13,3.698128858529439e-13,1.8538025340495829e-13,5.442331929729261e-09,4.243654182444744e-09,3.316588365643104e-09,2.59616549493745e-09,2.02061669716081e-09,1.5645522329942006e-09,1.2060389745639761e-09,9.205548581776907e-10,6.938688677878302e-10,5.132464140214669e-10,3.697583755466181e-10,2.610770428205363e-10,1.8007983308394527e-10,1.2167725015693239e-10,8.135550846890987e-11,5.381406210115577e-11,3.5145281504763044e-11,2.246937656099557e-11,1.3892515129893796e-11
0.0,16,16.0,0.0,30.0,0.0,0.0,0.0,0.0,-13.0,0.0,2.0,0.0,0.0,0.0,6.612294867185203e-10,6.183194009002454e-10,5.716977741635117e-10,5.217051426242049e-10,4.691159725896145e-10,4.1626737415484387e-10,3.641715157632103e-10,3.123454365731449e-10,2.623355282549095e-10,2.1670766705979582e-10,1.7580702965186167e-10,1.3999670144610666e-10,1.096477845634314e-10,8.400675855885735e-11,6.258295473063706e-11,4.5050944449629264e-11,3.1213953394595476e-11,2.069557750986011e-11,1.3092519782339393e-11,7.896375402024599e-12,4.562839926739359e-12,2.548283139319027e-12,1.372673045270975e-12,7.156576818758615e-13,3.6177116933225114e-13,1.8108177938378682e-13,5.442008463673681e-09,4.243328226552179e-09,3.31625910590132e-09,2.595832434065882e-09,2.0202790990610856e-09,1.5642079596427357e-09,1.2056869033942894e-09,9.20196314447138e-10,6.935021452472467e-10,5.128672925072851e-10,3.693850929699409e-10,2.60776938911889e-10,1.7994780146202093e-10,1.2176357002895309e-10,8.161463507621434e-11,5.4134724395014426e-11,3.542092202095606e-11,2.2650408449051113e-11,1.3989365328688144e-11
0.0,17,17.0,0.0,30.0,0.0,0.0,0.0,0.0,-13.0,0.0,2.0,0.0,0.0,0.0,6.613854073893249e-10,6.18486946403076e-10,5.718806435298201e-10,5.219086236751188e-10,4.693472109355876e-10,4.165353397132702e-10,3.6448813565263994e-10,3.1272755375351784e-10,2.627992745173721e-10,2.1725531647141966e-10,1.7641616741840658e-10,1.4061307138476284e-10,1.101981524273574e-10,8.442713998326955e-11,6.284411984197582e-11,4.516584007656297e-11,3.1224560375843986e-11,2.0649152855481828e-11,1.3026638978528505e-11,7.833912519573651e-12,4.513362057991452e-12,2.5133088638610103e-12,1.349667163682269e-12,7.018466516766618e-13,3.5366522839532945e-13,1.767363741393486e-13,5.441661864516822e-09,4.2429790905544985e-09,3.3159066222013694e-09,2.5954761815731823e-09,2.0199182375293792e-09,1.5638402149883962e-09,1.2053115389272025e-09,9.198148825069865e-10,6.931122378411266e-10,5.124656059541769e-10,3.6899678093851255e-10,2.604800030952122e-10,1.798419546803149e-10,1.2189107384496908e-10,8.191416319610614e-11,5.4483085458353004e-11,3.570945388242673e-11,2.2834378143116273e-11,1.4085070702788595e-11
0.0,18,18.0,0.0,30.0,0.0,0.0,0.0,0.0,-13.0,0.0,2.0,0.0,0.0,0.0,6.615619245617024e-10,6.186766625520599e-10,5.720876690697436e-10,5.22138796772789e-10,4.696083697979777e-10,4.168372326854894e-10,3.64843515245372e-10,3.131538829933433e-10,2.6331188439858553e-10,2.1785299099724252e-10,1.770704034913793e-10,1.4126287357146497e-10,1.1076637868739486e-10,8.485055261394741e-11,6.309818495683759e-11,4.5269418637631635e-11,3.122407285442947e-11,2.0593995328112385e-11,1.2954733284738253e-11,7.76772885068752e-12,4.4617693752125365e-12,2.4772347948105418e-12,1.326149854422153e-12,6.878320920259379e-13,3.454989144948744e-13,1.7234450576523874e-13,5.441290751569342e-09,4.242605399946679e-09,3.315529560554502e-09,2.5950954077340002e-09,2.0195327746997727e-09,1.5634476900044408e-09,1.2049116853532738e-09,9.19409383362746e-10,6.926979089697618e-10,5.12040719516119e-10,3.685948294970366e-10,2.6019033557633163e-10,1.7976789906600826e-10,1.2206456438352548e-10,8.225661706571787e-11,5.4859581783148686e-11,3.601033483526185e-11,2.302066662239342e-11,1.4179183908776679e-11
0.0,19,19.0,0.0,30.0,0.0,0.0,0.0,0.0,-13.0,0.0,2.0,0.0,0.0,0.0,6.617621376963743e-10,6.18891807623446e-10,5.723222978746571e-10,5.223993355174021e-10,4.699033923028177e-10,4.1717729594166866e-10,3.6524217382714127e-10,3.1362905278376e-10,2.638776607079824e-10,2.1850401885669682e-10,1.7777149343696982e-10,1.4194613082999314e-10,1.1135120897700708e-10,8.527524108164884e-11,6.334356622255403e-11,4.536057563468866e-11,3.12118376333942e-11,2.0529760063675604e-11,1.2876632840839795e-11,7.697751686865145e-12,4.408039049561403e-12,2.440058867758693e-12,1.3021265040432655e-12,6.736183532929832e-13,3.372764716117821e-13,1.6790743511060108e-13,5.440893700865677e-09,4.242205738099621e-09,3.3151265286173626e-09,2.5946887435158282e-09,2.0191213304481167e-09,1.5630290477916722e-09,1.2044861293409283e-09,9.189785959027876e-10,6.922579047571588e-10,5.115922030589904e-10,3.6818120475983277e-10,2.5991281931379943e-10,1.797318587112455e-10,1.2228907068138033e-10,8.264443697029054e-11,5.52644755566173e-11,3.63229014651982e-11,2.320860338214036e-11,1.4271232073548404e-11
0.0,20,20.0,0.0,30.0,0.0,0.0,0.0,0.0,-13.0,0.0,2.0,0.0,0.0,0.0,6.619895659498442e-10,6.191360671484701e-10,5.725884119879558e-10,5.226943563653884e-10,4.702366713601265e-10,4.175602217097799e-10,3.656890562455094e-10,3.1415804236202136e-10,2.645011096621619e-10,2.192117331733272e-10,1.7852101124315599e-10,1.4266258457331035e-10,1.1195112111183184e-10,8.569926648039577e-11,6.357858598277897e-11,4.543816900629746e-11,3.11871869789823e-11,2.045609582381883e-11,1.2792166136656296e-11,7.623909525285726e-12,4.352150765508402e-12,2.4017811576109718e-12,1.2776039587249109e-12,6.592106730916063e-13,3.2900249586790315e-13,1.6342725714074218e-13,5.440469246506268e-09,4.241778647919419e-09,3.314696097507141e-09,2.5942547811269827e-09,2.018682483676448e-09,1.562582928095699e-09,1.2040336410330972e-09,9.18521253229659e-10,6.917909729714213e-10,5.111199055396533e-10,3.677585628716389e-10,2.596532087090911e-10,1.7974069467277636e-10,1.225698147380185e-10,8.307993926543283e-11,5.5697833820174155e-11,3.664636480742145e-11,2.339746719509368e-11,1.4360717611188652e-11
0.0,21,21.0,0.0,30.0,0.0,0.0,0.0,0.0,-13.0,0.0,2.0,0.0,0.0,0.0,6.622481934669078e-10,6.194135981144236e-10,5.728903712341501e-10,5.230284597131616e-10,4.706130879783597e-10,4.1799118428277736e-10,3.6618955432788425e-10,3.147461838079696e-10,2.65186918577715e-10,2.1997943030023735e-10,1.793203030147539e-10,1.4341165999174376e-10,1.1256430860557854e-10,8.612050379035507e-11,6.380147541125659e-11,4.550102127864849e-11,3.11494394232787e-11,2.0372645359324484e-11,1.2701160531908078e-11,7.546132508651654e-12,4.294086961613014e-12,2.3624039513938773e-12,1.2525905202459789e-12,6.446151553980991e-13,3.206819031068007e-13,1.5890693434424667e-13,5.440015882294358e-09,4.241322633891805e-09,3.314236803851678e-09,2.593792074602124e-09,2.0182147742678927e-09,1.5621079525643024e-09,1.2035529741333014e-09,9.180360395035829e-10,6.912958910910636e-10,5.106240474131757e-10,3.6733037943328434e-10,2.5941822083880524e-10,1.798019162294645e-10,1.229121696966986e-10,8.356527294292279e-11,5.61595078987629e-11,3.6979806772185925e-11,2.3586487020757862e-11,1.4447119156259564e-11
0.0,22,22.0,0.0,30.0,0.0,0.0,0.0,0.0,-13.0,0.0,2.0,0.0,0.0,0.0,6.625425175132262e-10,6.197290756973167e-10,5.732330582466052e-10,5.234067727554455e-10,4.710380506024115e-10,4.1847587229789667e-10,3.6674952550919016e-10,3.153991584655945e-10,2.6593992590934807e-10,2.2081032092083614e-10,1.8017043624254551e-10,1.4419243019485327e-10,1.1318866508063071e-10,8.653664029994327e-11,6.401037742325075e-11,4.554792151172175e-11,3.1097900387611915e-11,2.0279045761566276e-11,1.2603442846331513e-11,7.46435292318604e-12,4.233833100203963e-12,2.321931839750565e-12,1.2270959547384807e-12,6.298387560579223e-13,3.12319903895176e-13,1.543503182966682e-13,5.439532063649821e-09,4.240836164503172e-09,3.313747152003359e-09,2.59329914040247e-09,2.0177167058529817e-09,1.561602730627056e-09,1.2030428647374494e-09,9.175215881690768e-10,6.90771506453473e-10,5.101053342174563e-10,3.66901095064312e-10,2.5921562743089555e-10,1.7992368217622724e-10,1.2332160876665616e-10,8.410237297978235e-11,5.6649113428541045e-11,3.7322177464731746e-11,2.377484302805409e-11,1.4529892631397341e-11
0.0,23,23.0,0.0,30.0,0.0,0.0,0.0,0.0,-13.0,0.0,2.0,0.0,0.0,0.0,6.628775992885034e-10,6.200877423429171e-10,5.73621925485524e-10,5.238349938504763e-10,4.715175350525165e-10,4.1902051987842405e-10,3.673753076130739e-10,3.1612298643599485e-10,2.667650825782322e-10,2.2170747344489678e-10,1.81072144778963e-10,1.4500357971990162e-10,1.1382176987927505e-10,8.694517510115448e-11,6.420334981874514e-11,4.557762701281954e-11,3.1031862648515175e-11,2.0174928833035334e-11,1.2498840032294153e-11,7.37850575409525e-12,4.171377961583662e-12,2.280371823930378e-12,1.2011315119960382e-12,6.148892730884223e-13,3.039219854467509e-13,1.4976215542682955e-13,5.439016209787721e-09,4.24031767502739e-09,3.3132256163320467e-09,2.592774458032749e-09,2.0171867495542137e-09,1.5610658657972207e-09,1.2025020285834427e-09,9.169764829033645e-10,6.902167921374977e-10,5.095650947756152e-10,3.6647627741747294e-10,2.59054345284607e-10,1.8011478995018933e-10,1.238036442487975e-10,8.469291082959992e-11,5.716601133750649e-11,3.7672293456986337e-11,2.396166768337398e-11,1.4608472460727858e-11
0.0,24,24.0,0.0,30.0,0.0,0.0,0.0,0.0,-13.0,0.0,2.0,0.0,0.0,0.0,6.632591171840066e-10,6.204954589410412e-10,5.740630439668184e-10,5.243194380399674e-10,4.720581245203363e-10,4.196319357581578e-10,3.6807372853568354e-10,3.1692400773513565e-10,2.676674034932893e-10,2.2267374928896105e-10,1.8202576975899203e-10,1.4584336788063305e-10,1.1446087517535831e-10,8.734341969701788e-11,6.43783685883395e-11,4.558886478722453e-11,3.0950606672841126e-11,2.0059921510487416e-11,1.2387179942169323e-11,7.28852929810196e-12,4.106713959250727e-12,2.237733435803259e-12,1.1747099535300754e-12,5.997753404583045e-13,2.954938999646303e-13,1.4514807311206165e-13,5.438466706155613e-09,4.239765570663553e-09,3.3126706435001216e-09,2.5922164707137135e-09,2.016623348894222e-09,1.5604959620890348e-09,1.2019291564613515e-09,9.163992632510601e-10,6.896309230578579e-10,5.090054476896234e-10,3.6606279946590425e-10,2.5894452226652483e-10,1.8038465022648933e-10,1.243637561638746e-10,8.533824254396001e-11,5.770929015232412e-11,3.802883704279648e-11,2.4146046843796924e-11,1.468227293368577e-11
0.0,25,25.0,0.0,30.0,0.0,0.0,0.0,0.0,-13.0,0.0,2.0,0.0,0.0,0.0,6.636934221640127e-10,6.209587577599733e-10,5.74563153344123e-10,5.24867083273995e-10,4.726670489350082e-10,4.203175293108148e-10,3.688521093652408e-10,3.178088535564233e-10,2.686519081473852e-10,2.2371172972655208e-10,1.8303119682584925e-10,1.4670959248830002e-10,1.1510289487078832e-10,8.772849972042832e-11,6.453333129168919e-11,4.5580332697247215e-11,3.085340085515701e-11,1.9933646376739756e-11,1.2268292202245698e-11,7.19436583268936e-12,4.039837473341505e-12,2.1940288689990913e-12,1.147845587874724e-12,5.845064242472827e-13,2.870416588437351e-13,1.4051454249748214e-13,5.437881907132611e-09,4.239178230001912e-09,3.3120806546107285e-09,2.591623586198777e-09,2.016024926057927e-09,1.559891630112816e-09,1.2013229076838787e-09,9.157884377321871e-10,6.890133776836947e-10,5.084294999380145e-10,3.656690332285735e-10,2.5889761538770403e-10,1.8074324450129345e-10,1.2500731016302378e-10,8.603935514781636e-11,5.827775001276588e-11,3.839035647749133e-11,2.432702078430846e-11,1.4750689716038517e-11
0.0,26,26.0,0.0,30.0,0.0,0.0,0.0,0.0,-13.0,0.0,2.0,0.0,0.0,0.0,6.64187594860457e-10,6.214848967246781e-10,5.751297128999243e-10,5.254856167773305e-10,4.733522228417676e-10,4.210853321775315e-10,3.6971825923437527e-10,3.1878440592936625e-10,2.697235491773664e-10,2.248236341204634e-10,1.8408779015493823e-10,1.4759955452898596e-10,1.1574439553448008e-10,8.809735771933968e-11,6.46660604000603e-11,4.5550700306527005e-11,3.073950169859079e-11,1.9795722299431958e-11,1.214200920409399e-11,7.095962341557189e-12,3.970749200094823e-12,2.149273119709595e-12,1.1205543118591834e-12,5.690928202735812e-13,2.7857153208150596e-13,1.3586881493349546e-13,5.4372601390051405e-09,4.23855400878452e-09,3.3114540471140184e-09,2.5909941778886827e-09,2.0153898896813793e-09,1.5592514922591258e-09,1.2006819018029301e-09,9.151425082727829e-10,6.883640718269923e-10,5.078415813899587e-10,3.653050572579251e-10,2.589264567887873e-10,1.8120106311485618e-10,1.2573946463031126e-10,8.67968120319262e-11,5.886988876972927e-11,3.875526716636802e-11,2.450358507867285e-11,1.4813101496011563e-11
0.0,27,27.0,0.0,30.0,0.0,0.0,0.0,0.0,-13.0,0.0,2.0,0.0,0.0,0.0,6.647495038757257e-10,6.220819145353969e-10,5.757709529070623e-10,5.261834808609842e-10,4.741222807340531e-10,4.21944013922074e-10,3.7068045994711233e-10,3.198577439280376e-10,2.7088712781871337e-10,2.2601122950921986e-10,1.8519432391397533e-10,1.485100244229557e-10,1.1638158960093317e-10,8.844675691485973e-11,6.477430648015154e-11,4.5498609396447146e-11,3.060815398958009e-11,1.9645765236970078e-11,1.2008167223131367e-11,6.99327129555546e-12,3.899454515677544e-12,2.1034841360196757e-12,1.0928536567109977e-12,5.535456524263749e-13,2.7009005212243765e-13,1.312188296979233e-13,5.436599703246158e-09,4.237891243909579e-09,3.310789196356957e-09,2.590326586480159e-09,2.014716644289279e-09,1.5585741862230472e-09,1.2000047092302045e-09,9.144600111559081e-10,6.876835320572363e-10,5.072475188511858e-10,3.6498287516165394e-10,2.5904530274652475e-10,1.8176902117672994e-10,1.2656506716888858e-10,8.761069826283527e-11,5.948389052072611e-11,3.912185372533142e-11,2.4674691246657724e-11,1.486887174332093e-11
0.0,28,28.0,0.0,30.0,0.0,0.0,0.0,0.0,-13.0,0.0,2.0,0.0,0.0,0.0,6.653878646927185e-10,6.227586860335689e-10,5.764959257173524e-10,5.269699173262555e-10,4.749866085408108e-10,4.229028898422196e-10,3.7174743815147023e-10,3.2103607446491537e-10,2.7214719526985847e-10,2.272757317143732e-10,1.863489119481127e-10,1.4943721051828566e-10,1.1701033098990859e-10,8.877328578711033e-11,6.485575108700942e-11,4.542267415613493e-11,3.045859102717733e-11,1.9483389253227888e-11,1.1866607672664537e-11,6.886251488090899e-12,3.8259638532069245e-12,2.0566829748683343e-12,1.0647628379335273e-12,5.378768710599843e-13,2.6160402122027914e-13,1.265730917458574e-13,5.435898880138805e-09,4.237188257605608e-09,3.310084456676424e-09,2.589619122482197e-09,2.0140036014047547e-09,1.5578583659710342e-09,1.1992898421526304e-09,9.137395813729402e-10,6.86973117447208e-10,5.06654952794688e-10,3.6471664114662875e-10,2.592698600887276e-10,1.824583499597522e-10,1.274885409980641e-10,8.84805668395282e-11,6.011761689476946e-11,3.948827279102578e-11,2.4839247076244038e-11,1.4917350547654842e-11
0.0,29,29.0,0.0,30.0,0.0,0.0,0.0,0.0,-13.0,0.0,2.0,0.0,0.0,0.0,6.661122984974962e-10,6.235249771312964e-10,5.773145558177898e-10,5.27855009422743e-10,4.759553696873968e-10,4.239719187245527e-10,3.7292832254685125e-10,3.223266456171792e-10,2.7350793911610597e-10,2.2861769836518828e-10,1.8754893663088457e-10,1.5037673047686e-10,1.176261132362043e-10,8.90733632904218e-11,6.490800923116602e-11,4.532148106691422e-11,3.0290034978261054e-11,1.9308207783195643e-11,1.171717850002755e-11,6.774868923752944e-12,3.7502930922725736e-12,2.0088939658819293e-12,1.0363028079254294e-12,5.220992509016954e-13,2.531205212548779e-13,1.2194051963195998e-13,5.435155932794759e-09,4.236443361670785e-09,3.3093381619700875e-09,2.58887007004374e-09,2.013249192193522e-09,1.5571026991523797e-09,1.1985357482224281e-09,9.129800493158039e-10,6.862352994813929e-10,5.060736991200835e-10,3.6452288704129163e-10,2.5961728369640666e-10,1.8328046155196618e-10,1.2851376217694998e-10,8.94053870371697e-11,6.076860133362937e-11,3.98525564083544e-11,2.499611652903097e-11,1.4957876490974595e-11
0.0,30,30.0,0.0,30.0,0.0,0.0,0.0,0.0,-13.0,0.0,2.0,0.0,0.0,0.0,6.669333901316989e-10,6.243914985294826e-10,5.782376879629332e-10,5.288497200985839e-10,4.770395238130658e-10,4.251616879466824e-10,3.74232583329829e-10,3.2373664038568737e-10,2.7497305415653855e-10,2.3003691450134316e-10,1.8879097796778417e-10,1.513235861902342e-10,1.1822407012870423e-10,8.934324444677822e-11,6.492863129066269e-11,4.51935885262438e-11,3.0101697440739384e-11,1.9119835191503443e-11,1.155973572964271e-11,6.659097758720985e-12,3.672463960699772e-12,1.9601448813788273e-12,1.0074963102901444e-12,5.062263879942569e-13,2.4464692480151847e-13,1.1733026547170337e-13,5.43436911162519e-09,4.235654861635577e-09,3.3085486257423442e-09,2.5880776926511576e-09,2.012451881264177e-09,1.5563058599644465e-09,1.1977408110656644e-09,9.121805812259169e-10,6.854740109736152e-10,5.055161570358941e-10,3.6442074346641777e-10,2.6010613812286974e-10,1.8424678492015666e-10,1.2964392900679257e-10,9.038349606179445e-11,6.143404652574323e-11,4.0212615771826713e-11,2.514411914116678e-11,1.4989778495384794e-11
0.0,31,31.0,0.0,30.0,0.0,0.0,0.0,0.0,-13.0,0.0,2.0,0.0,0.0,0.0,6.678627443137461e-10,6.253699573583979e-10,5.792771323389879e-10,5.299659250107672e-10,4.782508358319309e-10,4.2648338290546727e-10,3.756699508027135e-10,3.2527304879584185e-10,2.765455972368947e-10,2.3153227170896766e-10,1.9007074417002347e-10,1.5227214280967126e-10,1.187989787508688e-10,8.957902601750596e-11,6.491510425416894e-11,4.503752628494105e-11,2.989278030703538e-11,1.89178886644593e-11,1.1394145156025015e-11,6.53892129143305e-12,3.5925044486941416e-12,1.910467111813676e-12,9.783679347217013e-13,4.90272695240912e-13,2.361909061358786e-13,1.1275151082591061e-13,5.433536659321159e-09,4.234821060665779e-09,3.3077141407258326e-09,2.587240241357616e-09,2.0116101809126877e-09,1.5554665166855353e-09,1.1969033638370892e-09,9.113408777238931e-10,6.846950756207725e-10,5.04997762365318e-10,3.6443214578914596e-10,2.6075631582219784e-10,1.853685720684468e-10,1.3088142543946098e-10,9.141255528320761e-11,6.211082503056316e-11,4.056624504590077e-11,2.5282028841759758e-11,1.5012377575999362e-11
0.0,32,32.0,0.0,30.0,0.0,0.0,0.0,0.0,-13.0,0.0,2.0,0.0,0.0,0.0,6.689130392032028e-10,6.264731057806404e-10,5.804457055318664e-10,5.312164384325468e-10,4.796018725577947e-10,4.2794873728377464e-10,3.7725030980971827e-10,3.2694251633027765e-10,2.782278260234312e-10,2.3310164206430875e-10,1.913830050204405e-10,1.5321611238291855e-10,1.1934526469218343e-10,8.97766519118462e-11,6.486485220863397e-11,4.485179480438636e-11,2.966247702923564e-11,1.8701990473878434e-11,1.1220284188055537e-11,6.41433300203413e-12,3.5104492358396278e-12,1.859895845812199e-12,9.489441712602983e-13,4.742533961452069e-13,2.277604507786136e-13,1.0821324464034852e-13,5.432656816390909e-09,4.233940262983949e-09,3.306832978333613e-09,2.58635596627707e-09,2.010722664667394e-09,1.5545833136258801e-09,1.1960217250241176e-09,9.104614480749897e-10,6.839067301978133e-10,5.045374831263712e-10,3.6458201323660213e-10,2.615889041185845e-10,1.8665667369195263e-10,1.3222768081896653e-10,9.248951230263376e-11,6.279548298377316e-11,4.09111249412306e-11,2.540857212691919e-11,1.502498841724256e-11
0.0,33,33.0,0.0,30.0,0.0,0.0,0.0,0.0,-13.0,0.0,2.0,0.0,0.0,0.0,6.700980763342843e-10,6.277147854952746e-10,5.81757265845021e-10,5.326150297873864e-10,4.811059835664676e-10,4.2956996016630996e-10,3.7898356644302674e-10,3.287511668532927e-10,2.800210220613283e-10,2.3474174849228864e-10,1.9272152941831403e-10,1.5414854245458476e-10,1.1985700906487535e-10,8.993191796195763e-11,6.477523602535633e-11,4.463486467664118e-11,2.9409974394605564e-11,1.8471770647515868e-11,1.1038043844397594e-11,6.285337639293943e-12,3.4263401316557587e-12,1.8084702537425955e-12,9.192534625935374e-13,4.581845163419947e-13,2.1936386216074066e-13,1.0372403174328602e-13,5.43172782728124e-09,4.233010776558919e-09,3.3059033884140267e-09,2.5854231320764475e-09,2.0097879784712445e-09,1.5536548483059366e-09,1.1950942696625004e-09,9.095439815426129e-10,6.83120251159231e-10,5.041583510190955e-10,3.6489838711288765e-10,2.626259929405801e-10,1.8812128464540262e-10,1.3368302878456113e-10,9.361057003177161e-11,6.348424659825147e-11,4.124482568210834e-11,2.5522425551336254e-11,1.502692068276844e-11
0.0,34,34.0,0.0,30.0,0.0,0.0,0.0,0.0,-13.0,0.0,2.0,0.0,0.0,0.0,6.714328259123169e-10,6.291099669636739e-10,5.832267412245332e-10,5.341764280341587e-10,4.82777262332227e-10,4.3135963548571976e-10,3.808794832973248e-10,3.307043984646114e-10,2.819252989470396e-10,2.3644803347964424e-10,1.9407902849985966e-10,1.5506180980303364e-10,1.203279568175009e-10,9.004047568246062e-11,6.464355225323449e-11,4.4385176288892605e-11,2.913445492513335e-11,1.8226870076442133e-11,1.0847330898882017e-11,6.151952353970234e-12,3.340226530510779e-12,1.7562336734773295e-12,8.893262529435863e-13,4.420828724984563e-13,2.1100976403127556e-13,9.929178275093277e-14,5.430747947076153e-09,4.232030914812769e-09,3.3049236000687454e-09,2.584440038081197e-09,2.0088048472733387e-09,1.5526796465185123e-09,1.194119554280501e-09,9.085918411230837e-10,6.823506962807104e-10,5.038880183594466e-10,3.654125115387231e-10,2.638904155799012e-10,1.8977166067883048e-10,1.3524656863782763e-10,9.477116379508792e-11,6.417303097461674e-11,4.1564808969802085e-11,2.5622212531642833e-11,1.5017479965343578e-11
0.0,35,35.0,0.0,30.0,0.0,0.0,0.0,0.0,-13.0,0.0,2.0,0.0,0.0,0.0,6.729334664465803e-10,6.30674782025617e-10,5.848701476728035e-10,5.359163105017839e-10,4.846304829392237e-10,4.333305887374097e-10,3.829474794729371e-10,3.3280665112371626e-10,2.8393939700295297e-10,2.382145283943665e-10,1.9544710566980364e-10,1.5594761925241224e-10,1.2075152569425423e-10,9.009783464487226e-11,6.446703129787228e-11,4.410113995280396e-11,2.8835100016781827e-11,1.796694408439644e-11,1.0648070174174267e-11,6.014207877963345e-12,3.2521658815887382e-12,1.7032337966263095e-12,8.591950319361833e-13,4.259660581325608e-13,2.027070973461264e-13,9.492353834685166e-14,5.429715448718e-09,4.230998997139675e-09,3.303891824652407e-09,2.5834050433079256e-09,2.007772074285833e-09,1.5516561409238563e-09,1.1930965204467906e-09,9.076107089246708e-10,6.81617769617861e-10,5.037593249451106e-10,3.6615883763799766e-10,2.6540541541228984e-10,1.9161580923392943e-10,1.369160328833005e-10,9.596594720233404e-11,6.485745051425282e-11,4.186842853199668e-11,2.5706499497360298e-11,1.4995968285696214e-11
0.0,36,36.0,0.0,30.0,0.0,0.0,0.0,0.0,-13.0,0.0,2.0,0.0,0.0,0.0,6.746174176727551e-10,6.324265483625165e-10,5.86704595533506e-10,5.378512719943068e-10,4.866810068278099e-10,4.3549571536606644e-10,3.8519639156604e-10,3.3506114543246213e-10,2.860604664641979e-10,2.4003372592930164e-10,1.9681621472928689e-10,1.5679700721456952e-10,1.2112081505607538e-10,9.009936313950712e-11,6.424283505006276e-11,4.3781136757369186e-11,2.8511093932804337e-11,1.7691666478294113e-11,1.0440206982188412e-11,5.8721497489982205e-12,3.1622241742677652e-12,1.649522853076405e-12,8.288943717035557e-13,4.0985242584765707e-13,1.944651105724105e-13,9.062528254716488e-14,5.428628630631347e-09,4.2299133481535825e-09,3.3028062624858642e-09,2.5823165961729153e-09,2.0066885298724468e-09,1.550582663436018e-09,1.192024809943023e-09,9.066094161112288e-10,6.809468140826955e-10,5.038108532736613e-10,3.6717492979990204e-10,2.6719423274396996e-10,1.9366015862516486e-10,1.3868766494351678e-10,9.71887871604606e-11,6.55328299959797e-11,4.215292885590017e-11,2.5773791476475187e-11,1.4961684060739115e-11
0.0,37,37.0,0.0,30.0,0.0,0.0,0.0,0.0,-13.0,0.0,2.0,0.0,0.0,0.0,6.765033656754859e-10,6.343837839541615e-10,5.887482803635475e-10,5.399987690267814e-10,4.889446530884942e-10,4.378677647279195e-10,3.876341920755906e-10,3.374695926661192e-10,2.882838418520697e-10,2.4189645837637346e-10,1.9817562702948617e-10,1.576003492873204e-10,1.2142861366978157e-10,9.004028687588142e-11,6.396805422577395e-11,4.342352043850802e-11,2.8161628760592595e-11,1.7400734093071128e-11,1.0223709710601884e-11,5.725839580889208e-12,3.0704764386283354e-12,1.5951577911635716e-12,7.984609553372303e-13,3.937610654276799e-13,1.862933426182965e-13,8.640180045092897e-14,5.427485824546121e-09,4.2287722958117715e-09,3.3016651152426572e-09,2.581173267717122e-09,2.005553127276545e-09,1.5494574684817495e-09,1.1909052344328506e-09,9.05600993175084e-10,6.80369929894227e-10,5.040874434677945e-10,3.685012507736027e-10,2.6927960782677556e-10,1.959092116064996e-10,1.4055611116659546e-10,9.84327678946007e-11,6.619421514819419e-11,4.241544173776134e-11,2.5822527263274192e-11,1.4913921484220378e-11
0.0,38,38.0,0.0,30.0,0.0,0.0,0.0,0.0,-13.0,0.0,2.0,0.0,0.0,0.0,6.786112790178505e-10,6.365662092101369e-10,5.910204542146115e-10,5.423770328730049e-10,4.914375247684753e-10,4.404590731097366e-10,3.9026766204036724e-10,3.4003187700825276e-10,2.906028108864331e-10,2.4379178451142534e-10,1.995134082040471e-10,1.5834737087344523e-10,1.216674055002727e-10,8.991568559298458e-11,6.363970578975904e-11,4.3026620587531564e-11,2.778591043317727e-11,1.7093871838395063e-11,9.998572556458083e-12,5.575356379573434e-12,2.977007259838277e-12,1.5402004502594178e-12,7.679335946896308e-13,3.777117771802831e-13,1.7820159793695006e-13,8.225659580439193e-14,5.426285403217459e-09,4.2275741689432274e-09,3.3004666063338374e-09,2.5799737858674738e-09,2.0043647836620742e-09,1.5482788139855564e-09,1.1897404540439092e-09,9.046039776298027e-10,6.799272085617095e-10,5.046406312954164e-10,3.701808011905924e-10,2.716831987136632e-10,1.9836519107486324e-10,1.4251433112024924e-10,9.969020322492145e-11,6.683638133915706e-11,4.265298035060535e-11,2.5851074384983195e-11,1.485196929912409e-11
0.0,39,39.0,0.0,30.0,0.0,0.0,0.0,0.0,-13.0,0.0,2.0,0.0,0.0,0.0,6.80962414459063e-10,6.389947337598486e-10,5.935413719561052e-10,5.450049436728469e-10,4.941757825246841e-10,4.432812389897983e-10,3.9310201533767963e-10,3.42745711969752e-10,2.930083819376811e-10,2.4570688778542727e-10,2.0081640452640903e-10,1.590271594066486e-10,1.2182937252669677e-10,8.972048761724821e-11,6.325473095252636e-11,4.258874754132772e-11,2.738316590515754e-11,1.6770838250039102e-11,9.7648184101321e-12,5.42079790489461e-12,2.8819113038146215e-12,1.4847177219883154e-12,7.373532354304086e-13,3.6172503986456467e-13,1.7019991374242505e-13,7.81918821900127e-14,5.425025787631938e-09,4.226317295286083e-09,3.2992090117909806e-09,2.5787170665085082e-09,2.0031223679870858e-09,1.5470451405188993e-09,1.1885359322949894e-09,9.036440150755873e-10,6.796680604157169e-10,5.055289640271979e-10,3.722585890059721e-10,2.7442491607505376e-10,2.0102768737649466e-10,1.4455352972768577e-10,1.0095265560839856e-10,6.745383884181666e-11,4.286243064030499e-11,2.5857724158838236e-11,1.4775108993215265e-11
0.0,40,40.0,0.0,30.0,0.0,0.0,0.0,0.0,-13.0,0.0,2.0,0.0,0.0,0.0,6.835793104041814e-10,6.4169142385278e-10,5.963322056983132e-10,5.479018561284205e-10,4.971753557759563e-10,4.463447336221932e-10,3.961404729687086e-10,3.456062741393547e-10,2.9548905457972955e-10,2.476269882296732e-10,2.020702382976928e-10,1.596281764024204e-10,1.2190639366653663e-10,8.944946262073985e-11,6.28099943503927e-11,4.210819930746743e-11,2.6952651559413954e-11,1.6431431545486947e-11,9.522501895657717e-12,5.262282077411974e-12,2.7852938498371185e-12,1.4287816957434074e-12,7.067629472027151e-13,3.458219725075867e-13,1.6229851967693093e-13,7.42086585379226e-14,5.423705453203113e-09,4.2250000019453995e-09,3.2978907039383693e-09,2.577402235077034e-09,2.0018246431791483e-09,1.5457554074043609e-09,1.1873012487342714e-09,9.027557847634829e-10,6.796525985651485e-10,5.068181399394348e-10,3.747809057111698e-10,2.775221813929601e-10,2.038933182101018e-10,1.4666311397400056e-10,1.02210959624472e-10,6.804083303327555e-11,4.304054001168781e-11,2.584068720898976e-11,1.4682612518489232e-11
0.0,41,41.0,0.0,30.0,0.0,0.0,0.0,0.0,-13.0,0.0,2.0,0.0,0.0,0.0,6.864857654509673e-10,6.44679444820421e-10,5.994149183237291e-10,5.510873652940317e-10,5.004515803299414e-10,4.4965844019212413e-10,3.993837868594962e-10,3.486058186848904e-10,2.9803059820520785e-10,2.4953526994421253e-10,2.03259310905653e-10,1.6013826722876012e-10,1.218900390528509e-10,8.909721309401208e-11,6.230228513410401e-11,4.158327087578979e-11,2.6493662906854566e-11,1.6075496182145044e-11,9.271712576204895e-12,5.099948428128107e-12,2.687271323698987e-12,1.3724697836666966e-12,6.762078966971179e-13,3.300242894084437e-13,1.5450779064807028e-13,7.030687480768985e-14,5.422322934445669e-09,4.223620621242016e-09,3.296510209287955e-09,2.576028630353104e-09,2.0004702205281775e-09,1.5444096686504009e-09,1.1860518644733333e-09,9.019852707488452e-10,6.799530231995122e-10,5.085809086458659e-10,3.7779438944879487e-10,2.809891200527886e-10,2.0695541326178112e-10,1.488306756288937e-10,1.0345524670143081e-10,6.859133789362567e-11,4.3183903463069805e-11,2.5798089888238215e-11,1.4573739722366403e-11
0.0,42,42.0,0.0,30.0,0.0,0.0,0.0,0.0,-13.0,0.0,2.0,0.0,0.0,0.0,6.897067981030473e-10,6.479829709187568e-10,6.028120845048456e-10,5.545809986340058e-10,5.040187503703583e-10,4.5322911531802446e-10,4.02829714244919e-10,3.517332823381821e-10,3.0061584381227167e-10,2.514128252082166e-10,2.0436681132955557e-10,1.6054466625922112e-10,1.2177155918915613e-10,8.865816535199606e-11,6.172832079538417e-11,4.1012266253686825e-11,2.6005545628501823e-11,1.5702929917785682e-11,9.012578335815367e-12,4.9339595867972506e-12,2.5879718225743908e-12,1.3158648198342948e-12,6.457353014680443e-13,3.143542476622081e-13,1.4683819385992155e-13,6.648568710887457e-14,5.420876827778716e-09,4.222177506200159e-09,3.295066280249091e-09,2.5745957808490935e-09,1.9990575613469547e-09,1.5430100022299222e-09,1.1848114478070071e-09,9.013923826705574e-10,6.806549272733295e-10,5.10896661984547e-10,3.8134486082493305e-10,2.8483570662073687e-10,2.1020373621207964e-10,1.5104199964261565e-10,1.0467496700815828e-10,6.909904130701661e-11,4.3288947567807765e-11,2.5727972116755112e-11,1.4447735782101724e-11
0.0,43,43.0,0.0,30.0,0.0,0.0,0.0,0.0,-13.0,0.0,2.0,0.0,0.0,0.0,6.932685816725139e-10,6.516270519102442e-10,6.0654664428179e-10,5.584018179172477e-10,5.078895718051052e-10,4.5706076766767595e-10,4.064724455782159e-10,3.549738808568534e-10,3.0322449386432825e-10,2.5323861509774393e-10,2.053747269445332e-10,1.6083399498338485e-10,1.2154186891998228e-10,8.812656122733606e-11,6.10847546446392e-11,4.0393513535937965e-11,2.5487707999647032e-11,1.5313691376642576e-11,8.745268949646475e-12,4.764502801252202e-12,2.487535620159323e-12,1.2590551280760596e-12,6.15394362351611e-13,2.988345866205836e-13,1.3930023124214992e-13,6.274379344439924e-14,5.419365792590126e-09,4.220669061292471e-09,3.2935579770643782e-09,2.573103345096488e-09,1.9975850876550023e-09,1.5415619438258656e-09,1.1836148747197443e-09,9.010539040815132e-10,6.818584180722832e-10,5.138506400485863e-10,3.854759257057866e-10,2.890668857495009e-10,2.1362425633147214e-10,1.5328109555857656e-10,1.0585890365955474e-10,6.955732097119425e-11,4.335191297941206e-11,2.5628287201337693e-11,1.4303829050518925e-11
0.0,44,44.0,0.0,30.0,0.0,0.0,0.0,0.0,-13.0,0.0,2.0,0.0,0.0,0.0,6.971983453049555e-10,6.556374217387298e-10,6.106415702185253e-10,5.625679117196106e-10,5.120745034551839e-10,4.611539500155327e-10,4.103019910909275e-10,3.583087090294886e-10,3.058329544442079e-10,2.549894450104672e-10,2.0626385257185839e-10,1.6099225076976047e-10,1.211915267125365e-10,8.749645195820405e-11,6.036818790926473e-11,3.9725383283947754e-11,2.493963473191522e-11,1.4907808130675006e-11,8.46999985408232e-12,4.591791475875005e-12,2.3861156379242914e-12,1.2021345526734007e-12,5.852361723955267e-13,2.8348845884668433e-13,1.319043784864217e-13,5.907983216664995e-14,5.417788551700883e-09,4.219093795225742e-09,3.2919847515802263e-09,2.5715510126267435e-09,1.996051503547316e-09,1.5400766203794269e-09,1.1825120186004635e-09,9.01066708951266e-10,6.836789197912628e-10,5.175326756060377e-10,3.9022735094388565e-10,2.9368169824114946e-10,2.1719898020168138e-10,1.5553024648004598e-10,1.0699517381423046e-10,6.995921021667341e-11,4.3368836441263254e-11,2.549690422676273e-11,1.4141229844531011e-11
0.0,45,45.0,0.0,30.0,0.0,0.0,0.0,0.0,-13.0,0.0,2.0,0.0,0.0,0.0,7.015242275700948e-10,6.600402293750758e-10,6.151194243243911e-10,5.670957564673656e-10,5.165809726146457e-10,4.655049632948924e-10,4.143035335398416e-10,3.617143519996024e-10,3.084141926560061e-10,2.5663995170083186e-10,2.0701379292756046e-10,1.6100478436900722e-10,1.2071071044550224e-10,8.676169612631203e-11,5.957518744474677e-11,3.9006310448088306e-11,2.4360902273035167e-11,1.448538531308906e-11,8.187036124187505e-12,4.416066711910207e-12,2.2838778656758482e-12,1.145202446134015e-12,5.553136002632716e-13,2.6833935232423285e-13,1.2466102168932368e-13,5.549281593877132e-14,5.41614389411868e-09,4.217450402955784e-09,3.2903465180752687e-09,2.569938376490833e-09,1.9944564863086904e-09,1.538573827857829e-09,1.1815724299000151e-09,9.015511364714462e-10,6.862474916529342e-10,5.220354043892939e-10,3.956332339393634e-10,2.986724471411164e-10,2.2090585083574285e-10,1.5777006693321513e-10,1.0807121101261833e-10,7.029735373920198e-11,4.333553359637489e-11,2.5331613608713927e-11,1.3959130828068812e-11
0.0,46,46.0,0.0,30.0,0.0,0.0,0.0,0.0,-13.0,0.0,2.0,0.0,0.0,0.0,7.062750627662826e-10,6.648616651639418e-10,6.200017753744103e-10,5.719994213244056e-10,5.21412452385603e-10,4.701049741634099e-10,4.1845675717514167e-10,3.651625168060132e-10,3.109376202658913e-10,2.581625963915281e-10,2.0760295307052633e-10,1.6085626497458313e-10,1.2008919173025348e-10,8.591596382082916e-11,5.870231003751171e-11,3.8234820027088023e-11,2.375119561736826e-11,1.4046614788814103e-11,7.896696658136329e-12,4.237598825865962e-12,2.1810017122539363e-12,1.0883636083199907e-12,5.256811461073236e-13,2.534110039433636e-13,1.1758039215485526e-13,5.1982565599183127e-14,5.414430685645732e-09,4.2157378828539905e-09,3.288643689187087e-09,2.5682648168750146e-09,1.9928019858917843e-09,1.5370863477345959e-09,1.1808909732818308e-09,9.026543491569746e-10,6.897104668894824e-10,5.274518805813061e-10,4.0172000499448075e-10,3.0402394242214787e-10,2.2471871632714599e-10,1.5997955758209793e-10,1.0907372335921755e-10,7.05639541582415e-11,4.324758419468798e-11,2.5130136361460634e-11,1.3756709744498485e-11
0.0,47,47.0,0.0,30.0,0.0,0.0,0.0,0.0,-13.0,0.0,2.0,0.0,0.0,0.0,7.114800445819896e-10,6.701274214525631e-10,6.253084159659114e-10,5.772895662478567e-10,5.265673679253116e-10,4.749390311855691e-10,4.2273514791921795e-10,3.6861967863265265e-10,3.133689932018057e-10,2.5952765431497056e-10,2.0800851819151658e-10,1.6053065197682992e-10,1.193163450596374e-10,8.495279120162592e-11,5.774616711175588e-11,3.7409563073110684e-11,2.311031013888953e-11,1.3591768839308086e-11,7.599357454146129e-12,4.05669432258607e-12,2.0776820138982406e-12,1.0317269908270165e-12,4.963943392473251e-13,2.3872690378190385e-13,1.1067306170325382e-13,4.8549050936814854e-14,5.412647896521457e-09,4.213955690703979e-09,3.2868771493200597e-09,2.566529487773786e-09,1.991094477439676e-09,1.535665840710645e-09,1.1805944291102842e-09,9.045534191038876e-10,6.942281940118454e-10,5.338725584153527e-10,4.085043218299403e-10,3.0971286366516267e-10,2.2860736294802605e-10,1.6213614148371473e-10,1.0998862304101163e-10,7.075071140585737e-11,4.3100321559154684e-11,2.4890137563765424e-11,1.3533135323229629e-11
0.0,48,48.0,0.0,30.0,0.0,0.0,0.0,0.0,-13.0,0.0,2.0,0.0,0.0,0.0,7.171683519482825e-10,6.758620633268256e-10,6.31056453816726e-10,5.829723157500653e-10,5.320379270062674e-10,4.79985082107588e-10,4.2710535921674516e-10,3.720468111028679e-10,3.156703615238962e-10,2.607032005747681e-10,2.0820638588348312e-10,1.6001108638612172e-10,1.1838104202614483e-10,8.386549572681713e-11,5.670337914007722e-11,3.6529333479197566e-11,2.24382148972262e-11,1.3121252479435627e-11,7.295459029155363e-12,3.873682898068088e-12,1.9741246169311164e-12,9.754086024519883e-13,4.67510651495462e-13,2.2431123827712446e-13,1.0394840554681708e-13,4.5195441521187803e-14,5.4107946594891955e-09,4.212103923391687e-09,3.2850481389253893e-09,2.5647315874625725e-09,1.9893486468577827e-09,1.5343906827853047e-09,1.1808489688464624e-09,9.074577937090494e-10,6.999726486083739e-10,5.413816340899329e-10,4.159909369251669e-10,3.157072767517929e-10,2.325375983395204e-10,1.6421566386236364e-10,1.1080092431986367e-10,7.084875817197952e-11,4.28888283705472e-11,2.460924441152823e-11,1.3287577201472203e-11
0.0,49,49.0,0.0,30.0,0.0,0.0,0.0,0.0,-13.0,0.0,2.0,0.0,0.0,0.0,7.23368464430171e-10,6.820880404627117e-10,6.37259025130574e-10,5.890477871314425e-10,5.378086920655044e-10,4.852128431992867e-10,4.315265174272069e-10,3.7539909250594547e-10,3.177999901985487e-10,2.616550642242031e-10,2.0817110287241247e-10,1.592798611939602e-10,1.1727170617780192e-10,8.26472935930391e-11,5.5570687530405e-11,3.5593118088407784e-11,2.1735043092654955e-11,1.2635583924260223e-11,6.98550896788771e-12,3.68892914029809e-12,1.8705497131004965e-12,9.195290268171365e-13,4.3908844310450257e-13,2.101880193400393e-13,9.74155951885968e-14,4.1926285296772064e-14,5.408870346267133e-09,4.210183480749673e-09,3.2831580105958357e-09,2.562871204924438e-09,1.987593121745969e-09,1.5333760686780878e-09,1.1818682377846984e-09,9.116106560904242e-10,7.071236541116953e-10,5.500527535671234e-10,4.2417060365834944e-10,3.219662997601495e-10,2.3647133259366704e-10,1.661923167354296e-10,1.1149460581287959e-10,7.084861671070998e-11,4.260798151442813e-11,2.4285099148222205e-11,1.3019207039525331e-11
0.0,50,50.0,0.0,30.0,0.0,0.0,0.0,0.0,-13.0,0.0,2.0,0.0,0.0,0.0,7.301072694430351e-10,6.888244397108041e-10,6.439237396953257e-10,5.955084026954317e-10,5.438550412168708e-10,4.905826690719183e-10,4.3594959275265903e-10,3.7862567351111365e-10,3.197122919963126e-10,2.623467516751957e-10,2.078757604193576e-10,1.5831835352483424e-10,1.1597632081150256e-10,8.129135490013866e-11,5.43450141558965e-11,3.460013902208566e-11,2.10011158609901e-11,1.2135406126864964e-11,6.670086590928927e-12,3.50283361394801e-12,1.7671917033925915e-12,8.642131034597124e-13,4.1118668411429305e-13,1.96380966566045e-13,9.108352094817632e-14,3.8747522203347374e-14,5.406874766616823e-09,4.208196249448873e-09,3.2812079879473683e-09,2.560951370851774e-09,1.985879166659692e-09,1.5327867670411275e-09,1.183921710719481e-09,9.172887251750595e-10,7.158636155247578e-10,5.599442884461593e-10,4.330182370056353e-10,3.284400212012321e-10,2.403666982664974e-10,1.680385247820267e-10,1.1205245112264983e-10,7.074012177126317e-11,4.225242934151229e-11,2.3915359174423394e-11,1.2727231296852627e-11
0.0,51,51.0,0.0,30.0,0.0,0.0,0.0,0.0,-13.0,0.0,2.0,0.0,0.0,0.0,7.374088286444816e-10,6.960853571312637e-10,6.510507643766235e-10,6.023369309280473e-10,5.501414966653981e-10,4.960444146381191e-10,4.4031681968491216e-10,3.81669475682758e-10,3.2135773997882695e-10,2.6273932431857916e-10,2.0729186074999678e-10,1.5710695724298922e-10,1.1448244893728244e-10,7.979086529246804e-11,5.3023521380185275e-11,3.3549898789578115e-11,2.0236973363528082e-11,1.1621503877179757e-11,6.3498478678849e-12,3.315831993942946e-12,1.6642983428613462e-12,8.095898971148835e-13,3.8386476863776574e-13,1.82913509226715e-13,8.496053013292014e-14,3.56666457191486e-14,5.4048085114704685e-09,4.206145250293266e-09,3.279199093018672e-09,2.5589821732469756e-09,1.984293361662423e-09,1.5328526688628695e-09,1.1873426422060832e-09,9.247998622493289e-10,7.263706440640115e-10,5.710943585777207e-10,4.4249145666294153e-10,3.350696639782611e-10,2.4417816655219043e-10,1.6972478027554987e-10,1.1245587554732579e-10,7.051231114135311e-11,4.181649340581474e-11,2.3497637171973605e-11,1.241095950240938e-11
0.0,52,52.0,0.0,30.0,0.0,0.0,0.0,0.0,-13.0,0.0,2.0,0.0,0.0,0.0,7.452926765978901e-10,7.038777845157102e-10,6.5863047918966e-10,6.095042357585542e-10,5.566199309460335e-10,5.015363029694886e-10,4.4456116191435966e-10,3.8446699478513453e-10,3.226827314448756e-10,2.6279121945473685e-10,2.0638916456656995e-10,1.5562503863910063e-10,1.1277729262068969e-10,7.813912202027431e-11,5.160369341288988e-11,3.2442232530313397e-11,1.9443403242814884e-11,1.1094816578104977e-11,6.025529755018987e-12,3.128395539192903e-12,1.5621302109210908e-12,7.557922290434803e-13,3.5718215786690705e-13,1.6980866541217502e-13,7.905432081503047e-14,3.269237742932972e-14,5.402673140101151e-09,4.204034366643007e-09,3.27713231708028e-09,2.556987908703832e-09,1.9829751007803186e-09,1.5338866482423716e-09,1.1925342773844264e-09,9.344774463621468e-10,7.38809701156402e-10,5.835154894376078e-10,4.525292681023916e-10,3.4178762340170413e-10,2.478563263935517e-10,1.7121922109484397e-10,1.126847113482255e-10,7.015350420062212e-11,4.1294411743625225e-11,2.3029688392073575e-11,1.2069768795490396e-11
0.0,53,53.0,0.0,30.0,0.0,0.0,0.0,0.0,-13.0,0.0,2.0,0.0,0.0,0.0,7.537715297416866e-10,7.121989248936833e-10,6.666406723983061e-10,6.169667501473037e-10,5.632276922661062e-10,5.069838302196004e-10,4.4860582250473966e-10,3.869480851967456e-10,3.236293805522733e-10,2.624580099657066e-10,2.0513552883204912e-10,1.5385092283808184e-10,1.108477887512605e-10,7.632965428461558e-11,5.008343007054508e-11,3.127736599949815e-11,1.86214715460245e-11,1.0556451380292215e-11,5.6979541044969685e-12,2.9410311770858235e-12,1.4609599600413384e-12,7.029561185277121e-13,3.311979777684506e-13,1.570889208084997e-13,7.337181934158364e-14,2.983420132309175e-14,5.4004716143840035e-09,4.201868041136272e-09,3.2750102656486247e-09,2.5550195712339513e-09,1.9821405761200465e-09,1.536304604944531e-09,1.1999734688941541e-09,9.466713407493838e-10,7.53322414055674e-10,5.971897411879818e-10,4.6305146782706586e-10,3.485177626114988e-10,2.5134766212535087e-10,1.7248723398714728e-10,1.1271702381179496e-10,6.965126565388418e-11,4.0680320190809454e-11,2.2509397940326948e-11,1.1703167432534284e-11
0.0,54,54.0,0.0,30.0,0.0,0.0,0.0,0.0,-13.0,0.0,2.0,0.0,0.0,0.0,7.628482604489622e-10,7.210328475036068e-10,6.750432511502053e-10,6.246637026916373e-10,5.698856925265476e-10,5.122987264812741e-10,4.5236378039161513e-10,3.8903568701809957e-10,3.2413521446206027e-10,2.6169210473302443e-10,2.0349675232442895e-10,1.5176192651749827e-10,1.0868074836136622e-10,7.435637038322131e-11,4.846115422647495e-11,3.0055979954295806e-11,1.7772556112020704e-11,1.0007696422772884e-11,5.368030929229309e-12,2.7542811254279045e-12,1.3610713226230528e-12,6.512201256040076e-13,3.059705683160723e-13,1.4477610874561124e-13,6.791904061059773e-14,2.7101811436967532e-14,5.398208638357877e-09,4.199650747926004e-09,3.272841460117885e-09,2.553174927111024e-09,1.9821140118480536e-09,1.5406461301080767e-09,1.2102097144682306e-09,9.617345904694814e-10,7.700156114635543e-10,6.1206436667584e-10,4.739584786665313e-10,3.5517555308382133e-10,2.5459403213077477e-10,1.7349092594750833e-10,1.1252894399269931e-10,6.899244485932763e-11,3.9968330048751076e-11,2.1934832588204925e-11,1.1310837014154514e-11
