Line_number,Fiducial,Easting,Northing,Height,Elevation,tx_pitch,tx_roll,tx_yaw,txrx_dx,txrx_dy,txrx_dz,rx_pitch,rx_roll,rx_yaw,S0Z_time_3.834e-04,S0Z_time_3.924e-04,S0Z_time_4.039e-04,S0Z_time_4.184e-04,S0Z_time_4.364e-04,S0Z_time_4.589e-04,S0Z_time_4.869e-04,S0Z_time_5.224e-04,S0Z_time_5.679e-04,S0Z_time_6.249e-04,S0Z_time_6.969e-04,S0Z_time_7.879e-04,S0Z_time_9.019e-04,S0Z_time_1.046e-03,S0Z_time_1.227e-03,S0Z_time_1.456e-03,S0Z_time_1.744e-03,S0Z_time_2.109e-03,S0Z_time_2.567e-03,S0Z_time_3.145e-03,S0Z_time_3.864e-03,S0Z_time_4.745e-03,S0Z_time_5.821e-03,S0Z_time_7.140e-03,S0Z_time_8.754e-03,S0Z_time_1.073e-02,S1Z_time_2.057e-05,S1Z_time_2.607e-05,S1Z_time_3.307e-05,S1Z_time_4.206e-05,S1Z_time_5.356e-05,S1Z_time_6.807e-05,S1Z_time_8.607e-05,S1Z_time_1.086e-04,S1Z_time_1.366e-04,S1Z_time_1.721e-04,S1Z_time_2.176e-04,S1Z_time_2.746e-04,S1Z_time_3.466e-04,S1Z_time_4.376e-04,S1Z_time_5.516e-04,S1Z_time_6.956e-04,S1Z_time_8.771e-04,S1Z_time_1.106e-03,S1Z_time_1.394e-03
0.0,0,0.0,0.0,30.0,0.0,0.0,0.0,0.0,-13.0,0.0,2.0,0.0,0.0,0.0,3.4377173025421495e-11,2.9193259508114774e-11,2.5877479756274497e-11,2.3220191424800993e-11,1.974862179844982e-11,1.5612211898559648e-11,1.4237016823759417e-11,1.1829355357881549e-11,1.0117841910008961e-11,8.726684834584647e-12,7.299881502516404e-12,6.321298228064992e-12,5.105865778079216e-12,4.069247804821689e-12,3.280596307059508e-12,2.563405622955706e-12,2.0394033490924535e-12,1.459689709692723e-12,1.0886118542948193e-12,7.528849141599613e-13,4.99320626041794e-13,3.790951240122398e-13,2.5683492356177206e-13,1.6151158635266408e-13,1.144732631936849e-13,6.44401103515849e-14,3.555021253253562e-09,1.626526157967116e-09,8.579947025245732e-10,4.669573967440861e-10,2.615335622846122e-10,1.58117291922056e-10,9.18526945028269e-11,5.30288856344012e-11,3.355687286425645e-11,2.0902143245758013e-11,1.3701693741956808e-11,9.115694636086468e-12,5.95138186414988e-12,4.147617869786399e-12,2.8230525872593406e-12,1.9306851912303876e-12,1.3063290169989267e-12,9.896410441086135e-13,6.067666418335418e-13
0.0,1,1.0,0.0,30.0,0.0,0.0,0.0,0.0,-13.0,0.0,2.0,0.0,0.0,0.0,3.61579575571905e-11,3.107818995717231e-11,2.858749720795883e-11,2.2675313175495487e-11,1.9905503516832978e-11,1.6300342919735342e-11,1.4133215217659612e-11,1.1439958602836189e-11,9.301523873372717e-12,8.001136955269866e-12,6.727171618411531e-12,5.4817386793949266e-12,4.514232730951015e-12,3.545928399304707e-12,2.8458267771124403e-12,2.206320235697731e-12,1.7126409826143312e-12,1.2718885503938463e-12,9.092230678137343e-13,6.923809922043778e-13,4.776796151665804e-13,3.172042417641518e-13,2.286391812944772e-13,1.4533622515775477e-13,9.72491976425327e-14,6.334756435338179e-14,3.5407281533092546e-09,1.67763208757037e-09,7.864427366742659e-10,4.578267441626504e-10,2.6710023639839665e-10,1.6817810116828725e-10,1.0847834235543799e-10,6.835554957720023e-11,4.221934083222392e-11,2.4377630998760728e-11,1.554178616009251e-11,9.507699878054087e-12,5.743123385572376e-12,4.178214530456601e-12,2.8562819035260217e-12,1.9007191945909524e-12,1.2314353780756189e-12,8.00702942241375e-13,5.687662494092175e-13
0.0,2,2.0,0.0,30.0,0.0,0.0,0.0,0.0,-13.0,0.0,2.0,0.0,0.0,0.0,4.017477040706815e-11,3.731457023463379e-11,3.140419216604707e-11,2.7340821497146074e-11,2.2379635117493604e-11,1.8603479238134617e-11,1.484390669271275e-11,1.2612116267594669e-11,9.645937438566803e-12,7.829223468500256e-12,6.607155515212266e-12,4.849036063847712e-12,3.9224861770253315e-12,3.3610783210197074e-12,2.493962541357278e-12,2.1334679040099892e-12,1.5283761415988473e-12,1.138680631588492e-12,9.070051257288988e-13,6.442763697750722e-13,4.585220728184581e-13,3.0864513725727366e-13,1.984365215845492e-13,1.4361227799073563e-13,8.767013177705735e-14,5.809442043905673e-14,3.6030807336516104e-09,1.6011475870877409e-09,8.269529124503565e-10,4.658804099438504e-10,2.810319189907139e-10,1.7534250692023142e-10,1.219089263049936e-10,8.217751602377805e-11,4.906332017025329e-11,3.040287287858541e-11,1.779851602383621e-11,1.1271298547027528e-11,6.575547856474382e-12,4.081106341197785e-12,2.5404120699570595e-12,1.7424659441377959e-12,1.1101682801996623e-12,7.49967005415476e-13,4.825703200637886e-13
0.0,3,3.0,0.0,30.0,0.0,0.0,0.0,0.0,-13.0,0.0,2.0,0.0,0.0,0.0,4.523263437058802e-11,4.016582097652362e-11,3.422874289221343e-11,2.979771055616807e-11,2.3773450413414605e-11,1.9235784295052735e-11,1.6430305374836578e-11,1.2883119084575855e-11,1.019198696184026e-11,8.351827859170661e-12,6.276233454344686e-12,4.6679881609496365e-12,3.922046956676044e-12,2.8786867175817173e-12,2.3177551499582912e-12,1.818357529030971e-12,1.466048614090692e-12,1.0242136483421471e-12,7.520761131411122e-13,5.53504049976776e-13,3.836071337831487e-13,2.8076929852583927e-13,1.7866101959441007e-13,1.1893447544962352e-13,7.95938612489708e-14,5.0879605904835874e-14,3.68087948556559e-09,1.6406766493367194e-09,8.096580608704699e-10,4.3694913309650226e-10,2.876263078196999e-10,1.802195231657044e-10,1.2105361661210792e-10,8.897889530217664e-11,5.707409855206916e-11,3.654501109039392e-11,2.1520675387789182e-11,1.2806639059067866e-11,7.1161212538819195e-12,4.162281898306052e-12,2.6775838507272034e-12,1.6155604944695984e-12,1.0401482289142212e-12,6.779100436637714e-13,4.509481369461202e-13
0.0,4,4.0,0.0,30.0,0.0,0.0,0.0,0.0,-13.0,0.0,2.0,0.0,0.0,0.0,4.7008463803385385e-11,4.080649095972259e-11,3.6656652117339866e-11,3.0026508613065795e-11,2.751933743767614e-11,2.1133524935822483e-11,1.7260322740767244e-11,1.4010056465423176e-11,1.048228377492669e-11,8.516516858604755e-12,5.936738717989767e-12,4.742755847585398e-12,3.616358162760719e-12,2.70326498935944e-12,2.200367167600347e-12,1.655643698599807e-12,1.2961335075872603e-12,9.721552057273634e-13,7.429485326367303e-13,5.222328267011977e-13,3.5046871018298767e-13,2.4448365664419814e-13,1.7367271770823159e-13,1.147682720620937e-13,7.546436073421913e-14,4.4784813448615274e-14,3.4524211555451586e-09,1.54700508525901e-09,8.102283927256511e-10,4.527872481831997e-10,2.9029707882730454e-10,1.9032965609295177e-10,1.335767995596363e-10,8.902192674242157e-11,5.94481100794272e-11,3.924390224785147e-11,2.444811669530082e-11,1.4661760590294137e-11,8.905762643573583e-12,4.761008893047213e-12,2.691162961000437e-12,1.6463476274304978e-12,1.010739913339805e-12,6.562164844849477e-13,3.9178082288357827e-13
0.0,5,5.0,0.0,30.0,0.0,0.0,0.0,0.0,-13.0,0.0,2.0,0.0,0.0,0.0,5.0311528647742806e-11,4.541013365115185e-11,4.020299895502576e-11,3.397342921135099e-11,2.9044957974950806e-11,2.3164133728323678e-11,1.9251555907473352e-11,1.5058566428452225e-11,1.1790389469057155e-11,8.398862892817432e-12,6.59056412863388e-12,4.971601989429973e-12,3.3305163044172145e-12,2.710456274692964e-12,2.0703527856322265e-12,1.5087055732252157e-12,1.1474320695491171e-12,8.618546969693115e-13,6.290963387921568e-13,4.520507738472034e-13,3.059575364778519e-13,2.319854022374698e-13,1.583749699525442e-13,1.0018483325883173e-13,6.450128489257227e-14,4.470817496714648e-14,3.3707119816515397e-09,1.5757200369495498e-09,7.921708686074924e-10,4.6442019017461313e-10,2.906635612886619e-10,1.866159794721982e-10,1.2733176890876867e-10,8.862035978345229e-11,6.550832176371784e-11,4.1368256267810014e-11,2.6747079005127927e-11,1.615953315915082e-11,9.528602557534788e-12,5.073236474259302e-12,3.0473150517467324e-12,1.764842016351434e-12,1.0254803286388802e-12,6.143908743824864e-13,3.9192597602442363e-13
0.0,6,6.0,0.0,30.0,0.0,0.0,0.0,0.0,-13.0,0.0,2.0,0.0,0.0,0.0,5.3134998782788994e-11,4.3486186675523224e-11,4.4562017461714964e-11,3.7106570010079156e-11,3.061384004665971e-11,2.570892546246464e-11,2.14618244948539e-11,1.6586847365078047e-11,1.1893087719209094e-11,9.980479545961531e-12,6.824232177256597e-12,5.088120048445972e-12,3.503343828515865e-12,2.7387296121699696e-12,1.9528763653598873e-12,1.4675265147413657e-12,1.0415262228449426e-12,8.242678927326184e-13,5.931636274270352e-13,4.331323027642171e-13,2.886607495110651e-13,2.0174945525346033e-13,1.5025884767194639e-13,9.108110026495602e-14,6.211586626611064e-14,4.2245014801697835e-14,3.41451524399931e-09,1.5835068970237569e-09,7.870620571853383e-10,4.612666510066239e-10,2.758657947811591e-10,2.025867613783361e-10,1.342665753778047e-10,9.298293695042736e-11,6.776340715483723e-11,4.454704673754141e-11,2.8136327016297502e-11,1.7457040720944877e-11,1.0963119402276447e-11,6.055214645712127e-12,3.3587831752151734e-12,1.930359894709913e-12,1.0160892640782404e-12,5.987299908478138e-13,3.6686770063116063e-13
0.0,7,7.0,0.0,30.0,0.0,0.0,0.0,0.0,-13.0,0.0,2.0,0.0,0.0,0.0,5.46165143927067e-11,4.926856462960215e-11,4.3553249456936104e-11,3.837895434116039e-11,3.281265225086856e-11,2.7010319262988177e-11,2.2052516022363347e-11,1.8059061189738858e-11,1.3326190915047192e-11,9.808367781348125e-12,7.279553455783932e-12,5.188095846094874e-12,3.936450579749804e-12,2.566104231010402e-12,1.9386955473871603e-12,1.4024007795612357e-12,9.710709792015864e-13,7.543638447743279e-13,5.163775916603847e-13,3.5208263364515584e-13,2.747669309291741e-13,1.7764271987477622e-13,1.3058802582850703e-13,8.4742005316365e-14,6.086998537992577e-14,3.898541931914931e-14,3.3327295507155855e-09,1.5119617465558153e-09,7.64912794732734e-10,4.5173111410133786e-10,2.8733430796586573e-10,1.9321055755459728e-10,1.37207121330094e-10,9.808837005628956e-11,6.86233988364347e-11,4.569783198923087e-11,2.9602091978349645e-11,2.0442001401258033e-11,1.1592554331231729e-11,6.662194209925563e-12,3.705677262480093e-12,1.9329001571403176e-12,1.0986149877626546e-12,6.142824532578818e-13,3.7255730223413657e-13
0.0,8,8.0,0.0,30.0,0.0,0.0,0.0,0.0,-13.0,0.0,2.0,0.0,0.0,0.0,5.73368822676707e-11,5.097407212308729e-11,4.677834805600137e-11,4.0368825794128536e-11,3.434735348669962e-11,2.911710685341624e-11,2.3745393842148832e-11,1.8835530474164517e-11,1.4551728551504556e-11,1.0562533279486912e-11,7.965129778211755e-12,5.389676700941518e-12,3.959296798705326e-12,2.6588380516486946e-12,1.8760680447164386e-12,1.3476004840670493e-12,9.737700339738335e-13,6.573238605531576e-13,4.936849936474289e-13,3.6275195984369214e-13,2.3574489483131657e-13,1.7471610691245412e-13,1.1025288668178024e-13,7.721464795691983e-14,5.3286120974449966e-14,3.2192263651048144e-14,3.253322832445599e-09,1.464027748107212e-09,8.306395335197103e-10,4.6200415732754315e-10,2.976610753312464e-10,1.9656479902593638e-10,1.3698853961459176e-10,9.305315880777731e-11,6.845768602802622e-11,4.682439719028207e-11,3.2962809425305104e-11,2.149716876115037e-11,1.3351608657237632e-11,7.66172292177823e-12,4.100073542736019e-12,2.181450844006265e-12,1.231754282221264e-12,6.58716369200659e-13,3.36635142016976e-13
0.0,9,9.0,0.0,30.0,0.0,0.0,0.0,0.0,-13.0,0.0,2.0,0.0,0.0,0.0,5.828141099281199e-11,5.368906544178977e-11,4.696121986238763e-11,4.1036882046143816e-11,3.474026557563304e-11,2.8844294506705073e-11,2.5588036981012092e-11,1.9891616580383546e-11,1.54553529525574e-11,1.2279921331397839e-11,8.634836531656202e-12,6.0023138572675764e-12,4.101950615575643e-12,2.9073968877621154e-12,1.993671546551604e-12,1.3447188694342923e-12,9.352819097843999e-13,6.113371146526512e-13,4.661735661882278e-13,3.2689961724238733e-13,2.305975646371249e-13,1.640646251002215e-13,1.001182807671749e-13,7.244593633195072e-14,4.978634355896577e-14,3.138231058503756e-14,3.184455027026092e-09,1.559464300690537e-09,7.962200938792342e-10,4.48603591777886e-10,2.9863598969885853e-10,2.055486875454227e-10,1.4048903967692172e-10,1.0157617590617983e-10,7.024763180451677e-11,4.8225027486300344e-11,3.1872620087075793e-11,2.161371671186821e-11,1.3656950183774363e-11,8.29097462181774e-12,4.561962338129154e-12,2.5189085933965447e-12,1.2709175863406398e-12,6.73137331152966e-13,3.6890624313268647e-13
0.0,10,10.0,0.0,30.0,0.0,0.0,0.0,0.0,-13.0,0.0,2.0,0.0,0.0,0.0,5.7168836525839286e-11,5.502775592488762e-11,4.876972832357771e-11,4.277014494774061e-11,3.705475299793453e-11,3.305784919822005e-11,2.557792008953608e-11,1.9579870030570448e-11,1.646159015549116e-11,1.2340824591042224e-11,8.86903983138541e-12,6.146521606303815e-12,4.280922370920908e-12,2.9322697646035472e-12,1.918519332208961e-12,1.4051923422475911e-12,8.71809491875644e-13,6.092751518181539e-13,4.077589627322782e-13,3.0903891394672197e-13,2.0068774642075368e-13,1.4536709824447647e-13,1.0058570669475148e-13,6.681961122077535e-14,4.873188966291998e-14,3.1042733157326676e-14,3.429434918347228e-09,1.4684815903466275e-09,8.150034776239377e-10,4.716844686808279e-10,3.0618121098891674e-10,2.097801108817612e-10,1.3871704872951045e-10,9.93827596079022e-11,7.292234753139257e-11,4.560816394348185e-11,3.5229468007436464e-11,2.271436777471743e-11,1.419279620612048e-11,8.661252818186183e-12,4.800192448559211e-12,2.685450540600624e-12,1.4777188264940352e-12,7.741228840410678e-13,4.2727892001992475e-13
0.0,11,11.0,0.0,30.0,0.0,0.0,0.0,0.0,-13.0,0.0,2.0,0.0,0.0,0.0,6.018142932719686e-11,5.3821038258172084e-11,4.846007228926741e-11,4.2124434794101944e-11,3.755302113174646e-11,3.2426708665009305e-11,2.6745500981835394e-11,2.245051791335796e-11,1.6948351607775028e-11,1.2845648923969841e-11,9.35871086611691e-12,6.396273674831954e-12,4.390855904906686e-12,2.9674815154094344e-12,2.102859669469123e-12,1.3673408597070469e-12,9.263360937680389e-13,5.803678503224679e-13,3.9207621123105886e-13,2.828543100202406e-13,2.0082827462184596e-13,1.397020593579457e-13,9.743888058289158e-14,6.423878597133497e-14,4.541671583917073e-14,2.7315622830241304e-14,3.1820356032927146e-09,1.4218833656349677e-09,7.66476288832792e-10,4.712521888980393e-10,2.948445288175769e-10,2.1236118459889672e-10,1.5100676276108592e-10,9.495756511364498e-11,7.3985983442513e-11,4.6885341389265404e-11,3.466821831540368e-11,2.3704332642219466e-11,1.4742067573987496e-11,8.697464174059986e-12,5.198100609809285e-12,2.913010966668193e-12,1.5454815658640384e-12,7.963776228022927e-13,4.0636384415662914e-13
0.0,12,12.0,0.0,30.0,0.0,0.0,0.0,0.0,-13.0,0.0,2.0,0.0,0.0,0.0,6.193038614800912e-11,5.4009873175622445e-11,4.9902027120601406e-11,4.6432992872803646e-11,3.8069987604789095e-11,3.241882823647991e-11,2.8395514015333375e-11,2.0689970851899235e-11,1.831340493325933e-11,1.3278818489904903e-11,1.0048489745360085e-11,7.123713998128788e-12,5.018977646169481e-12,3.2251359607195974e-12,2.074889053962582e-12,1.4223138560001903e-12,8.302217161403568e-13,5.934070597821399e-13,3.8441352557540013e-13,2.673083134725363e-13,1.9919054779373603e-13,1.284226500331239e-13,8.845730160920894e-14,5.568290528570482e-14,3.856867885471774e-14,2.594422452001095e-14,3.2787087297463873e-09,1.5143864300083694e-09,7.873774299342001e-10,4.787760053889497e-10,3.110135297965628e-10,1.9826886886190824e-10,1.4741729469738809e-10,1.0627025833333773e-10,7.450343264498916e-11,5.0415565630610075e-11,3.391169503701908e-11,2.2500896013201622e-11,1.50488104224066e-11,9.726157329845672e-12,5.257827399464107e-12,3.0805669639188045e-12,1.6205606671340044e-12,8.876577065198457e-13,4.2634216762188005e-13
0.0,13,13.0,0.0,30.0,0.0,0.0,0.0,0.0,-13.0,0.0,2.0,0.0,0.0,0.0,6.184026017074334e-11,5.67685558036661e-11,5.195597017481939e-11,4.4784696859666033e-11,3.5735391673961017e-11,3.4135332022884305e-11,2.8536782256334796e-11,2.285757539291849e-11,1.76382857073746e-11,1.4175065971739345e-11,1.0547671069239413e-11,7.351809493015848e-12,5.115686860755927e-12,3.337611502638582e-12,2.2130695687149962e-12,1.353514896216381e-12,9.196885566110592e-13,5.722128474842367e-13,3.9209358819585e-13,2.5037082895966694e-13,1.74200885956802e-13,1.2032895121559e-13,7.780468437240748e-14,5.5686042470608636e-14,3.652021068029163e-14,2.182447190024988e-14,3.090763371788014e-09,1.5036550086447722e-09,8.085756141163206e-10,4.733034691272181e-10,3.1477804257566846e-10,2.146089064886399e-10,1.5123748808617455e-10,1.0969443179968932e-10,7.100231317353645e-11,5.27605168940079e-11,3.482512359525367e-11,2.3479711583093825e-11,1.5284281683919742e-11,9.589666164413689e-12,5.6209058650215e-12,3.3487547342923153e-12,1.891363457203348e-12,9.304446870043077e-13,4.666505858292871e-13
0.0,14,14.0,0.0,30.0,0.0,0.0,0.0,0.0,-13.0,0.0,2.0,0.0,0.0,0.0,6.258554656273423e-11,5.8016092857077824e-11,5.298177063507932e-11,4.568275845536534e-11,3.956114352976623e-11,3.4689209860298405e-11,2.7981205136389418e-11,2.372805246961248e-11,1.9176471306480883e-11,1.5053313379424683e-11,1.0785445672999838e-11,8.102228373476189e-12,5.573543217900218e-12,3.5085120205473654e-12,2.2545800715350223e-12,1.4667205667569592e-12,9.608067653596637e-13,5.901994371019071e-13,3.7542054335092634e-13,2.6391289637312295e-13,1.7022917515139988e-13,1.0565045335327734e-13,7.798024877140632e-14,5.2968582732987e-14,3.5044170086500783e-14,2.2956655695774457e-14,3.1822935906733062e-09,1.409343873334941e-09,7.794711719170642e-10,4.658363399218035e-10,3.065899378179009e-10,2.0852125054902395e-10,1.5444269138780393e-10,1.0776376290640576e-10,7.457001995338623e-11,5.146900225616644e-11,3.568750948516767e-11,2.4740844478757094e-11,1.4742709312128693e-11,1.0048358582117973e-11,5.946479343278027e-12,3.2971482806123386e-12,1.7992295517430959e-12,9.69397492508806e-13,5.042840909205718e-13
0.0,15,15.0,0.0,30.0,0.0,0.0,0.0,0.0,-13.0,0.0,2.0,0.0,0.0,0.0,6.584937139985721e-11,5.762806127433673e-11,5.484589314801824e-11,4.906738181134354e-11,4.134881392741541e-11,3.431298489706285e-11,3.033581408404077e-11,2.459292583654367e-11,1.9652269124084584e-11,1.4560355903338686e-11,1.0211113309144421e-11,8.592998925763536e-12,5.3739367908280576e-12,3.791917183847121e-12,2.634831667073715e-12,1.5636668980335572e-12,9.906181504229421e-13,5.728654111105342e-13,3.591145637575849e-13,2.412284808147687e-13,1.670357314251403e-13,1.0684991941642877e-13,7.080956035233631e-14,4.9255922112850174e-14,3.408608238897131e-14,1.9307106996159802e-14,3.0460820782301164e-09,1.4240207674351856e-09,8.15576562287203e-10,4.87499764996246e-10,3.405535568083925e-10,2.2664576218419364e-10,1.5494153903635728e-10,1.13510153672557e-10,7.735912551267155e-11,5.218974414884184e-11,3.695575496239568e-11,2.3774497435870058e-11,1.577577277599335e-11,1.0534421839887074e-11,6.200583096963225e-12,3.55091022932905e-12,1.9874044363551153e-12,1.0963757528222423e-12,5.246653881915502e-13
0.0,16,16.0,0.0,30.0,0.0,0.0,0.0,0.0,-13.0,0.0,2.0,0.0,0.0,0.0,6.550290225834673e-11,5.945781151196525e-11,5.449352782484154e-11,4.7362885528960834e-11,3.960983764945124e-11,3.462795817834019e-11,2.9058870701720053e-11,2.5431328744378412e-11,2.003358828396016e-11,1.5472816486910484e-11,1.1296290841646877e-11,8.144540119141479e-12,5.780882702996629e-12,3.842947361550478e-12,2.772102057098247e-12,1.5119372919066411e-12,1.0171437847626162e-12,5.89830315430242e-13,3.79011161645482e-13,2.3345051861457995e-13,1.5032491392377836e-13,9.930360745509839e-14,7.281100205349702e-14,4.589870216734415e-14,2.959274228824572e-14,2.0404720607146227e-14,3.1339972391419976e-09,1.4816708602168516e-09,7.483394654459923e-10,4.936016977490434e-10,3.3252747794622436e-10,2.131505178810198e-10,1.600707094579206e-10,1.1701786359322042e-10,7.818192176567611e-11,5.5523588064545455e-11,3.748797754105745e-11,2.408100237943613e-11,1.614443606858143e-11,9.810953379057484e-12,6.277428433928632e-12,3.791486573767624e-12,2.1548475218613735e-12,1.1236826559460984e-12,5.84191353535452e-13
0.0,17,17.0,0.0,30.0,0.0,0.0,0.0,0.0,-13.0,0.0,2.0,0.0,0.0,0.0,6.524778636260872e-11,6.129208342537416e-11,5.5207788470307294e-11,5.1486101608297274e-11,4.208185494764708e-11,3.566762807367243e-11,3.04514992863574e-11,2.42781141988821e-11,2.0049852658177125e-11,1.5357769416160893e-11,1.1119092606975762e-11,8.577063142325277e-12,6.017660415814596e-12,3.928629051250826e-12,2.691165923938844e-12,1.7724557072961392e-12,1.0579624337012785e-12,6.429561093046987e-13,3.687576526511343e-13,2.417476582551825e-13,1.52322683998333e-13,1.0045754661523143e-13,6.628142380956825e-14,4.139943335864785e-14,2.88243980454459e-14,1.7762894067850518e-14,3.100596102963505e-09,1.4040283595534398e-09,8.255952848157045e-10,4.818686812576436e-10,3.2125600567789056e-10,2.2888656915468182e-10,1.557006448614333e-10,1.1197738316557454e-10,7.76374689710102e-11,5.7435573506050256e-11,3.818993515322715e-11,2.4894505578918553e-11,1.6138180128073733e-11,1.0734772761852343e-11,6.563407806821753e-12,3.923105147439494e-12,2.1886040500539034e-12,1.1169324344768164e-12,6.015390839234433e-13
0.0,18,18.0,0.0,30.0,0.0,0.0,0.0,0.0,-13.0,0.0,2.0,0.0,0.0,0.0,6.761458742243463e-11,6.380727914184473e-11,5.787660940568215e-11,4.86712770774776e-11,4.3708741508233036e-11,3.8762748799537064e-11,3.0342498710602284e-11,2.6686587381755108e-11,1.977609026481998e-11,1.5839776379411847e-11,1.200287920442951e-11,8.815897664146291e-12,6.105822232987628e-12,4.207110263931159e-12,2.7540648710746112e-12,1.7902834240659954e-12,1.096953996293587e-12,6.963210981729248e-13,4.073997000601391e-13,2.3428730354933554e-13,1.500491927284314e-13,9.838135235497605e-14,6.24422097812062e-14,4.131061318145708e-14,2.7364324874456886e-14,1.8599858734341136e-14,2.9993454869969435e-09,1.422149461938857e-09,8.088868939767296e-10,5.051767947667146e-10,3.379921721629179e-10,2.3000046444114818e-10,1.6874684459344258e-10,1.229690627238162e-10,8.206735901175815e-11,5.573384343618656e-11,3.876144739752004e-11,2.4879809423776853e-11,1.616442602061493e-11,1.058372844053515e-11,6.076678514165499e-12,3.815561310288206e-12,2.2378152299424328e-12,1.178459210423581e-12,6.13990898297514e-13
0.0,19,19.0,0.0,30.0,0.0,0.0,0.0,0.0,-13.0,0.0,2.0,0.0,0.0,0.0,6.905395117231665e-11,6.05932622075543e-11,5.6488514373467825e-11,4.972512718174783e-11,4.3894378653737754e-11,3.878035421512207e-11,3.1655808001472886e-11,2.585358974379346e-11,2.0706491665194828e-11,1.6224179151023724e-11,1.1870880720689477e-11,8.98330072943224e-12,6.494206547279368e-12,4.2422235648823045e-12,2.9946576172422312e-12,1.9084196762604814e-12,1.1111577138788143e-12,6.718359861969302e-13,3.9011120029238247e-13,2.4450827720276107e-13,1.4188605108684962e-13,9.197397498131596e-14,5.807085599632558e-14,3.9531233212216365e-14,2.3603424392603218e-14,1.8192322188745335e-14,2.9620734231410006e-09,1.4328939855276224e-09,7.96508121345088e-10,4.952242379133419e-10,3.321691510586952e-10,2.4360643737884953e-10,1.64501260142775e-10,1.1875408642993503e-10,8.060594688065212e-11,5.5946482776442837e-11,3.906873990552564e-11,2.6375470559946186e-11,1.6661776006120847e-11,1.0245053777998118e-11,7.079722292363268e-12,3.92367389435661e-12,2.2148212371837407e-12,1.3789504168471858e-12,6.575519974120704e-13
0.0,20,20.0,0.0,30.0,0.0,0.0,0.0,0.0,-13.0,0.0,2.0,0.0,0.0,0.0,6.813377383011284e-11,6.356785810633573e-11,5.886146064658102e-11,5.173193591654924e-11,4.349024127063132e-11,4.021334722664919e-11,3.152494178314686e-11,2.533483052145483e-11,2.1593386217268138e-11,1.7042425096599655e-11,1.2161784384781897e-11,8.81322179966708e-12,6.795188558081689e-12,4.274646801425668e-12,2.9100537968388015e-12,1.9779398038855135e-12,1.1779619760303052e-12,6.972651980489552e-13,4.166242082858442e-13,2.414106982884048e-13,1.4004172938540196e-13,9.426745109825295e-14,6.035005964241347e-14,3.8024849116020584e-14,2.465491722478302e-14,1.8479438288599184e-14,2.998310367131093e-09,1.4142630165903713e-09,8.151262723397052e-10,5.362245099531502e-10,3.637873399829968e-10,2.39612379279394e-10,1.7199848956804799e-10,1.1513242159186886e-10,8.337048922429634e-11,5.662332250803704e-11,3.798834034877164e-11,2.736309103142859e-11,1.6569749350689645e-11,1.0657234517075614e-11,6.8366186346828135e-12,4.251714084368262e-12,2.4111643101209135e-12,1.4297443164155087e-12,6.928806909306052e-13
0.0,21,21.0,0.0,30.0,0.0,0.0,0.0,0.0,-13.0,0.0,2.0,0.0,0.0,0.0,7.31411543981878e-11,6.663577096485936e-11,6.182852582192122e-11,5.315493973660518e-11,4.5255963043229935e-11,3.768174584270128e-11,3.280393088825889e-11,2.7823853016874858e-11,2.1066953889006728e-11,1.6921291225851288e-11,1.2773978957122937e-11,9.615813615221453e-12,6.573005350561032e-12,5.003423796719257e-12,2.9975082305962044e-12,1.9712836236752316e-12,1.2617986442771016e-12,7.368390774964666e-13,4.3611813590986735e-13,2.4334701999731396e-13,1.457286211115044e-13,8.917652095472131e-14,5.901609111097713e-14,3.72144836303214e-14,2.44337706060368e-14,1.442247925718867e-14,3.0840020792476712e-09,1.4309788624201822e-09,8.455534174480773e-10,5.522069302590136e-10,3.5014982077353697e-10,2.4318940781436416e-10,1.6931426590776466e-10,1.219485923708082e-10,8.479395828601306e-11,5.979581508270976e-11,3.967372769386807e-11,2.6170455131287156e-11,1.775770948119383e-11,1.0652740170093238e-11,6.930610698063214e-12,4.097886827930199e-12,2.47553234436495e-12,1.4113402075782368e-12,7.129548133709424e-13
0.0,22,22.0,0.0,30.0,0.0,0.0,0.0,0.0,-13.0,0.0,2.0,0.0,0.0,0.0,7.490825329959045e-11,6.766986091876856e-11,5.891035747006238e-11,5.368301471774978e-11,4.6614423044740094e-11,3.9940129147239916e-11,3.29148303064391e-11,2.721486949780058e-11,2.0924684147272047e-11,1.673954206028436e-11,1.310085914224605e-11,9.791517236339236e-12,6.78215322146621e-12,4.799964513204971e-12,3.2284277294295264e-12,2.0733260037105486e-12,1.2945803367439328e-12,7.172445331483437e-13,4.39423011202718e-13,2.54644801967008e-13,1.426342477948969e-13,9.303415208585236e-14,5.4870084845962174e-14,3.714466035407977e-14,2.149495441479715e-14,1.3482502580313615e-14,2.990975422705039e-09,1.3469483970159893e-09,8.231634825563907e-10,5.29920948633431e-10,3.7084370708438585e-10,2.563475061127375e-10,1.7511113552275467e-10,1.2081867620906924e-10,9.194045322551637e-11,5.883163108284044e-11,3.9274899928042526e-11,2.6009184622873625e-11,1.803990704907075e-11,1.0924814026218696e-11,6.762947834843568e-12,4.217358496120989e-12,2.446840821646923e-12,1.3561570451964956e-12,7.616926252039992e-13
0.0,23,23.0,0.0,30.0,0.0,0.0,0.0,0.0,-13.0,0.0,2.0,0.0,0.0,0.0,7.772384381385591e-11,7.058483343249323e-11,6.287889200923467e-11,5.491429512520391e-11,4.452406731870478e-11,4.214129084075274e-11,3.397284731406909e-11,2.808383375031981e-11,2.275044398238106e-11,1.7923318885562216e-11,1.3251168529313208e-11,9.818676264407203e-12,6.868277238533209e-12,4.892044451109648e-12,3.2052082282662014e-12,2.0790658457293933e-12,1.2839790213217332e-12,7.836609917801427e-13,4.700460612310064e-13,2.845205602299063e-13,1.4993929860960677e-13,8.418219359128951e-14,5.590256881565764e-14,3.3335297543044344e-14,2.076946852990297e-14,1.4086798921832969e-14,2.83615033893397e-09,1.4259378742372202e-09,8.226372226808683e-10,5.380606489775659e-10,3.7082634574494304e-10,2.5663911701892706e-10,1.8104951830824622e-10,1.2855346268548277e-10,9.028321674076515e-11,5.950478353364544e-11,3.950053620032576e-11,2.7277651035880358e-11,1.695185304831737e-11,1.1269855688085771e-11,7.195615874248038e-12,4.32560685844564e-12,2.418169353944444e-12,1.3754669562737357e-12,7.721868301811791e-13
0.0,24,24.0,0.0,30.0,0.0,0.0,0.0,0.0,-13.0,0.0,2.0,0.0,0.0,0.0,7.581532444653031e-11,6.9175454305807e-11,6.371914233283267e-11,5.3605737332392614e-11,4.728734929228342e-11,3.9845591295264864e-11,3.316258554893163e-11,2.730912887063776e-11,2.281540454506343e-11,1.7474973522940963e-11,1.2934869123183112e-11,9.774365503837328e-12,6.762196596935447e-12,4.872625689207294e-12,3.5836830545942957e-12,2.1793703752036153e-12,1.393133898723462e-12,8.143738586066887e-13,4.769009640425397e-13,2.726481765597095e-13,1.4655003702209046e-13,8.809180993852023e-14,5.573529943520339e-14,3.171395677829035e-14,2.0109348742790737e-14,1.2971722854936477e-14,2.9450014651246816e-09,1.4380363313314584e-09,8.642096164187448e-10,5.532124876344848e-10,3.729718612192782e-10,2.7122721191341474e-10,1.8861033663431187e-10,1.2424315854703602e-10,9.784151406145133e-11,6.590415300142577e-11,4.180695964286204e-11,2.8103636445532717e-11,1.869812375989545e-11,1.1331072554860363e-11,7.234483610664709e-12,4.437052941314549e-12,2.4512896816664396e-12,1.410676773355417e-12,8.059623945046842e-13
0.0,25,25.0,0.0,30.0,0.0,0.0,0.0,0.0,-13.0,0.0,2.0,0.0,0.0,0.0,7.927967317950903e-11,7.312371231746191e-11,6.350568348874723e-11,5.576026860118414e-11,4.579494184211102e-11,4.0106035555804086e-11,3.486006294947085e-11,2.9191345502568476e-11,2.3074282771727123e-11,1.764489424836186e-11,1.337267446002662e-11,1.0054695146440929e-11,7.241214758995143e-12,5.284846361460222e-12,3.4532999563563767e-12,2.1421951551959e-12,1.351500768436189e-12,8.827065568291483e-13,4.714727676137907e-13,2.820176224413953e-13,1.5367283003193195e-13,8.834008322889788e-14,5.209456422307801e-14,3.376865710403357e-14,1.9878126760214645e-14,1.2762029387049838e-14,2.764936586357396e-09,1.4249988492681623e-09,8.545018016892876e-10,5.580687715792364e-10,3.969719721963606e-10,2.6721571882699166e-10,1.9027003924717522e-10,1.393410163761257e-10,8.846395938828339e-11,6.292003748546054e-11,4.462073805042427e-11,2.905847022463467e-11,1.8636486198171676e-11,1.1835235684410131e-11,7.233606945341466e-12,4.5532747424122795e-12,2.587198153808608e-12,1.4696831370116383e-12,8.03017162258518e-13
0.0,26,26.0,0.0,30.0,0.0,0.0,0.0,0.0,-13.0,0.0,2.0,0.0,0.0,0.0,8.015745621562271e-11,6.998170171741931e-11,6.645055738937114e-11,5.705367966468656e-11,5.229799438943362e-11,4.216176693995939e-11,3.584650856619781e-11,2.91659889546056e-11,2.2636162251757592e-11,1.8516103416427352e-11,1.4461952450147195e-11,1.0129934530809168e-11,7.266504965104951e-12,5.100119860942049e-12,3.3059632814957307e-12,2.282461074861756e-12,1.4559418584775806e-12,8.993868157207715e-13,5.201933423295102e-13,2.8096449113312867e-13,1.5739044138823446e-13,9.310820156574977e-14,5.18637039361333e-14,3.078229821332174e-14,2.1143467649198446e-14,1.3446960185708368e-14,2.8773577209938106e-09,1.3927179838546528e-09,7.991587515190386e-10,5.736051924020249e-10,3.781688264765343e-10,2.5634626952323034e-10,2.0172984927245705e-10,1.3818715647689488e-10,9.142757297602853e-11,6.266919703151175e-11,4.472238434654207e-11,2.7998368578820563e-11,1.9278118093471473e-11,1.1927162889621137e-11,7.367862094931035e-12,4.4400299931666884e-12,2.6003147236473926e-12,1.5182313299806336e-12,8.015339029351954e-13
0.0,27,27.0,0.0,30.0,0.0,0.0,0.0,0.0,-13.0,0.0,2.0,0.0,0.0,0.0,8.144308294779284e-11,7.554560839729296e-11,6.728571405835673e-11,5.6241165038680954e-11,4.972161300589305e-11,4.3323285042345225e-11,3.555954250147343e-11,3.0992357373695545e-11,2.3155376388498054e-11,1.8163364012178598e-11,1.4199058229783403e-11,1.0380079673276216e-11,7.405599434209907e-12,5.11599303492706e-12,3.5997180503460656e-12,2.417200196151719e-12,1.5041296213336511e-12,8.774894001391895e-13,5.497870334765437e-13,2.8099333727070124e-13,1.5507868868281487e-13,9.409491405405925e-14,5.270220633381902e-14,3.030108111525597e-14,1.778434530819891e-14,1.4394268184003586e-14,2.864729929894371e-09,1.4438612702075275e-09,8.689538638688758e-10,5.811610698597045e-10,4.029760078166838e-10,2.843050185855906e-10,1.94484237229838e-10,1.372035458246734e-10,9.15558552120559e-11,6.476797532789007e-11,4.476093030983972e-11,3.017914043677313e-11,1.919716269374374e-11,1.1759701520067924e-11,7.064264023629192e-12,4.0637633560816245e-12,2.7028159664145907e-12,1.4686307266950467e-12,8.145618561122602e-13
0.0,28,28.0,0.0,30.0,0.0,0.0,0.0,0.0,-13.0,0.0,2.0,0.0,0.0,0.0,8.313864165420529e-11,7.212058114911633e-11,6.671046709846037e-11,6.301895386099735e-11,5.2171063256301266e-11,4.422463591826913e-11,3.4875273331704394e-11,3.192203568030593e-11,2.2784848394242304e-11,1.959586751709956e-11,1.318572042922982e-11,1.0861064851036867e-11,7.907533172470805e-12,5.179981086476062e-12,3.672260192028447e-12,2.429604634231856e-12,1.4813340103096011e-12,8.839540844754634e-13,5.178767551365282e-13,3.0831772568669955e-13,1.6715054483859138e-13,9.136160421509685e-14,5.441768499696015e-14,3.1460690120362114e-14,1.7792321703924076e-14,1.0291055953727617e-14,2.8795796574945942e-09,1.4026217972270069e-09,8.744818911377892e-10,6.118658760959919e-10,4.1089810137069774e-10,2.7685128889679246e-10,2.0192442984888312e-10,1.3732407422268965e-10,1.0335496763557383e-10,6.649867048425071e-11,4.551996321684425e-11,3.005695965834345e-11,1.926116805307034e-11,1.13496623594809e-11,7.1156256802080264e-12,4.42264255406521e-12,2.6635505175347933e-12,1.5055277551033565e-12,8.123520036245315e-13
0.0,29,29.0,0.0,30.0,0.0,0.0,0.0,0.0,-13.0,0.0,2.0,0.0,0.0,0.0,8.101662456322341e-11,7.582436040722047e-11,6.773368130602465e-11,6.144977950015138e-11,5.1813446492104996e-11,4.5330991369899444e-11,3.657548318441917e-11,3.016829481897418e-11,2.3924061739534405e-11,1.8365527548991546e-11,1.4549562233422223e-11,1.0307756086595393e-11,7.524085171525908e-12,5.373616748640892e-12,3.538730371154351e-12,2.4099416236411873e-12,1.5187861102574298e-12,9.37658846702184e-13,5.54639173113014e-13,3.0548615619241663e-13,1.7133085972775293e-13,9.90102442514008e-14,5.3103627247122504e-14,3.218155365207462e-14,1.874497295795014e-14,1.2055760847232207e-14,2.75156312730251e-09,1.4361275624023339e-09,8.874908125438374e-10,5.843855754576039e-10,4.031661908521954e-10,2.774393616817763e-10,2.1456755770608382e-10,1.401908998565235e-10,1.047154261930962e-10,6.80248431987467e-11,4.490740543750757e-11,3.088273418714708e-11,1.912108097917141e-11,1.2450834165549766e-11,7.463429494253357e-12,4.600622581184444e-12,2.5865195493871088e-12,1.5662292780507383e-12,8.622013109159352e-13
0.0,30,30.0,0.0,30.0,0.0,0.0,0.0,0.0,-13.0,0.0,2.0,0.0,0.0,0.0,8.372077098897233e-11,8.44438876065085e-11,7.114749566134337e-11,6.588851835842168e-11,5.5839480163732875e-11,4.50594695059806e-11,3.7411118012634256e-11,3.053048282958529e-11,2.3210952492532043e-11,1.8692635831014108e-11,1.4594338851479484e-11,1.1200905182050358e-11,7.56583560543394e-12,5.60213353239916e-12,3.5948996466611414e-12,2.4308906475182436e-12,1.5616531055864415e-12,9.829416264815994e-13,5.794683967952259e-13,3.3212017706701313e-13,1.8179778319812255e-13,9.806723413595881e-14,5.4625629241729045e-14,3.2770714089784626e-14,1.7537044673677367e-14,1.1772697701637718e-14,2.648757431872839e-09,1.4569369618830577e-09,8.839234084980534e-10,6.070058789343884e-10,4.3545420769829965e-10,2.983274694213829e-10,2.1546071183653843e-10,1.5405807968506325e-10,1.0396268621051154e-10,7.285667893375508e-11,4.652457403466627e-11,3.085761212765036e-11,1.9509028350123982e-11,1.2820631838532482e-11,7.737848130182433e-12,4.518723764384781e-12,2.7041312293298874e-12,1.5913187680454354e-12,8.574752365109764e-13
0.0,31,31.0,0.0,30.0,0.0,0.0,0.0,0.0,-13.0,0.0,2.0,0.0,0.0,0.0,8.530553278888994e-11,8.00867574109082e-11,6.712042168623185e-11,6.426228484681334e-11,5.357426770023901e-11,4.5475067648563816e-11,3.954560979883005e-11,3.013095768333135e-11,2.6406745485017566e-11,1.9101101454344076e-11,1.446477711191708e-11,1.1189531044650002e-11,8.013888277715543e-12,5.935317552460132e-12,3.762451297328006e-12,2.5038397441297426e-12,1.5413996507599391e-12,9.843623494983921e-13,5.743416430281817e-13,3.279136485192084e-13,1.7317790304917807e-13,1.0502101704847804e-13,5.2059568024265226e-14,2.6911788593472897e-14,1.6610463344507122e-14,1.0082329889160578e-14,2.6901500316206724e-09,1.4960656613572713e-09,9.071046470960651e-10,6.19620500944501e-10,4.3943457380158146e-10,3.0612764697032557e-10,2.208692036238941e-10,1.4574395167891285e-10,1.0321308523841886e-10,7.32483660723434e-11,4.4251136545275436e-11,3.013143634665241e-11,2.0461268651042406e-11,1.2444806949152764e-11,7.968574890079438e-12,4.7577313451673464e-12,2.6209575603916547e-12,1.5759884274749217e-12,9.010929231949301e-13
0.0,32,32.0,0.0,30.0,0.0,0.0,0.0,0.0,-13.0,0.0,2.0,0.0,0.0,0.0,8.995690092965776e-11,7.895708491287014e-11,7.466160297159656e-11,6.522403477117867e-11,5.616167629888401e-11,4.795973014762746e-11,3.567952467546304e-11,3.278558104883975e-11,2.6721974036819432e-11,1.993235537798477e-11,1.4993271759128996e-11,1.1234854225137313e-11,8.029723528718587e-12,5.7084782954084466e-12,3.836182178056074e-12,2.4908342057856374e-12,1.5914166897180454e-12,9.848490118762547e-13,5.771106136042961e-13,3.3093676970296114e-13,1.9839929592748136e-13,1.0484569654607587e-13,5.4616623259194495e-14,3.0410528316017596e-14,1.7997841250870995e-14,9.828473153070257e-15,2.7794809057110306e-09,1.4932246490418326e-09,9.248048335549543e-10,6.382824483565639e-10,4.5287730618861085e-10,3.0788373747174033e-10,2.2127925387757596e-10,1.5265699125098546e-10,1.0708128712237632e-10,7.256829632338989e-11,4.804984133965105e-11,3.217204273874725e-11,2.0853946986776757e-11,1.288390952252021e-11,7.980034304189592e-12,4.598581368311994e-12,2.6483836224242268e-12,1.5912221152506261e-12,8.95458973799318e-13
0.0,33,33.0,0.0,30.0,0.0,0.0,0.0,0.0,-13.0,0.0,2.0,0.0,0.0,0.0,9.150112859237689e-11,8.631036651555454e-11,7.617986375330772e-11,7.046920502458309e-11,5.5949152027493144e-11,4.636498042986043e-11,3.89984650305287e-11,3.192520026481494e-11,2.6120308945145133e-11,1.8681131586079188e-11,1.5720334161050906e-11,1.1074799784102915e-11,7.99214925543216e-12,5.485294930240386e-12,3.871051553092814e-12,2.585432940228297e-12,1.6610583730894277e-12,1.0456442398309588e-12,6.052828021109383e-13,3.4179924100026023e-13,1.9696814435238677e-13,1.054970466441176e-13,5.740805945954238e-14,3.27179683671139e-14,1.6683134354766266e-14,9.458073474365567e-15,2.8679635879589146e-09,1.4062876321958687e-09,9.047364497775988e-10,6.610985424380915e-10,4.543523794330309e-10,3.185561299132095e-10,2.237792954283994e-10,1.5766153101345454e-10,1.0917133705516628e-10,7.783213112445753e-11,4.918578212522953e-11,3.2439000960731324e-11,2.1984326914665516e-11,1.3044503331656484e-11,8.512043345266624e-12,4.748456700261e-12,2.8932416300129783e-12,1.505421139254583e-12,8.886647860848011e-13
0.0,34,34.0,0.0,30.0,0.0,0.0,0.0,0.0,-13.0,0.0,2.0,0.0,0.0,0.0,8.878683917979495e-11,8.675554793608611e-11,7.286387395044681e-11,6.704083222625063e-11,5.685385574689449e-11,4.697203351967146e-11,3.8610476498316e-11,3.251590202374456e-11,2.7532448907342242e-11,2.0100984829082775e-11,1.5762974970990344e-11,1.1287617184639694e-11,8.369903902540792e-12,5.424118541181579e-12,3.884270044611913e-12,2.6925474691512365e-12,1.6837573342034867e-12,1.0511168937181027e-12,6.216666971190473e-13,3.728618983753004e-13,2.0097980097293152e-13,1.0818171108878924e-13,5.960629181346917e-14,3.249309133919138e-14,1.8115653306637838e-14,1.1846587848914842e-14,2.7510179297640608e-09,1.4985322817944327e-09,9.402013281753445e-10,6.621975017702789e-10,4.834784156371844e-10,3.1866851631428044e-10,2.2174400193799376e-10,1.6586102729144793e-10,1.1134210223284797e-10,7.656048071100673e-11,5.069230166852525e-11,3.3281831268550555e-11,2.1767219156045742e-11,1.2911593130069357e-11,7.849947383711965e-12,4.838569689475073e-12,2.6733954345445213e-12,1.533668933400476e-12,9.456542558520893e-13
0.0,35,35.0,0.0,30.0,0.0,0.0,0.0,0.0,-13.0,0.0,2.0,0.0,0.0,0.0,9.728421335838478e-11,8.628713389897729e-11,7.997195330104872e-11,6.564221647948148e-11,5.78628841620285e-11,5.047552469750992e-11,4.239895722332413e-11,3.4096511810168835e-11,2.4560933305649776e-11,1.9992488605872364e-11,1.5786049739526495e-11,1.1338952473733281e-11,8.88966648631515e-12,5.9700782852474484e-12,4.0453175854270525e-12,2.561624938639964e-12,1.7138789378811216e-12,1.0793182771683745e-12,6.64551477149673e-13,3.7900292235588806e-13,2.1100799256213156e-13,1.0775480729880107e-13,6.259454022033392e-14,3.0261856171078437e-14,1.7351321067563667e-14,1.0588681048535887e-14,2.7385016798696364e-09,1.457020633274403e-09,9.526409557864764e-10,6.425213924556451e-10,4.797984085469698e-10,3.4516108737188395e-10,2.3416574031906003e-10,1.6270733260928571e-10,1.092296811808813e-10,8.006767699551492e-11,5.520115959952408e-11,3.2000072854845224e-11,2.0909501259952863e-11,1.3187118082099253e-11,8.078383800854557e-12,4.9245363515839174e-12,2.9809061308202272e-12,1.6665883021131368e-12,9.154397253729072e-13
0.0,36,36.0,0.0,30.0,0.0,0.0,0.0,0.0,-13.0,0.0,2.0,0.0,0.0,0.0,9.49721028575724e-11,8.510263877196569e-11,7.676065259286502e-11,7.228056618909058e-11,5.940884934490244e-11,4.9779200830854844e-11,4.1793491974363816e-11,3.499418290667575e-11,2.595416067393345e-11,2.1794772371956802e-11,1.5863791936641564e-11,1.1542735130207426e-11,8.477408590972533e-12,5.917501256574583e-12,3.983658826757163e-12,2.661707452164546e-12,1.6929550290321941e-12,1.1097544249075005e-12,6.446270186091171e-13,3.6683962374748777e-13,2.1097912088025023e-13,1.1867987234000155e-13,6.106186404663209e-14,3.190143965804552e-14,1.8555252940138106e-14,1.2105370818147124e-14,2.628793852859505e-09,1.537941746721764e-09,1.0019449395313906e-09,7.130678419376923e-10,4.97811113059863e-10,3.3859009265297327e-10,2.2822310616924856e-10,1.7251308444143957e-10,1.1385805503707846e-10,7.730815814844693e-11,5.4617737954782696e-11,3.3518604368098636e-11,2.290563836232533e-11,1.3821178920673942e-11,8.422405602159555e-12,5.003796679998856e-12,2.7338075315029537e-12,1.544000826378395e-12,9.144681621376573e-13
0.0,37,37.0,0.0,30.0,0.0,0.0,0.0,0.0,-13.0,0.0,2.0,0.0,0.0,0.0,1.0078175254293902e-10,9.007817348803242e-11,7.823635930851238e-11,7.046159490823497e-11,6.050020064527734e-11,4.990835759195073e-11,4.4072400382015134e-11,3.2928391671974334e-11,2.794238436743524e-11,2.1475021849375052e-11,1.650533298698372e-11,1.142226845690027e-11,8.49955082507251e-12,6.337468745408941e-12,4.1524765311267496e-12,2.721161983318296e-12,1.7884052990970808e-12,1.1070494195682808e-12,7.106719154112044e-13,3.9733461115605145e-13,2.1460076568021751e-13,1.1786843145942446e-13,6.185755791535187e-14,3.5105236479225857e-14,1.667354637144719e-14,8.381024920139857e-15,2.8694043637621643e-09,1.6401376426985526e-09,1.0303098036553112e-09,7.073498958711484e-10,5.048079736486955e-10,3.4192145821797646e-10,2.4731267823181784e-10,1.725067139877906e-10,1.2160790955781548e-10,7.745074576288705e-11,5.3037951496610965e-11,3.6002092317992685e-11,2.1917697357139542e-11,1.3495315081793159e-11,8.989686079251379e-12,5.032584798864667e-12,2.86026143053225e-12,1.5641432246151499e-12,9.376295900628956e-13
0.0,38,38.0,0.0,30.0,0.0,0.0,0.0,0.0,-13.0,0.0,2.0,0.0,0.0,0.0,1.032843770785823e-10,9.087783746953999e-11,7.912229719616137e-11,7.175242090619778e-11,6.025801560396306e-11,5.08551104190334e-11,4.339971347168795e-11,3.421147308123712e-11,2.8112049047130067e-11,2.1952621322419315e-11,1.5845164385936316e-11,1.1449347768865707e-11,8.98483202193907e-12,5.851693251762167e-12,4.0364773153700395e-12,2.760955903641434e-12,1.8128516306832537e-12,1.1106753215617945e-12,6.872688788303735e-13,3.8899936051602794e-13,2.1378551744551732e-13,1.2527827770274347e-13,6.966934860726762e-14,3.651399125404339e-14,1.8662739110224996e-14,1.1977226396290338e-14,2.7821910028600454e-09,1.540390934896044e-09,1.0519103179031634e-09,7.195249717543776e-10,4.921425410746348e-10,3.4754718183984454e-10,2.579762368650894e-10,1.665278951062415e-10,1.2423130388543086e-10,7.89181979354114e-11,5.1446549452647596e-11,3.3805573267973297e-11,2.4114523171687687e-11,1.4058449614507898e-11,8.623599021609006e-12,5.315020487097705e-12,3.0304919021480897e-12,1.5960359439516455e-12,9.501835161675552e-13
0.0,39,39.0,0.0,30.0,0.0,0.0,0.0,0.0,-13.0,0.0,2.0,0.0,0.0,0.0,1.0386132723714219e-10,9.263545893981942e-11,8.354700339675587e-11,7.603625454406401e-11,6.132088770497358e-11,5.394848944941884e-11,4.4302350874746365e-11,3.399581690395195e-11,2.7680321003421235e-11,2.2021830734013145e-11,1.713533374609174e-11,1.2467720995966373e-11,8.849260144001603e-12,5.944954477894857e-12,4.389634325249294e-12,2.791452879165256e-12,1.746697101484112e-12,1.1274539342486623e-12,7.069460120045938e-13,4.0135055786627777e-13,2.313101368156232e-13,1.2715477004838926e-13,6.676130092018535e-14,3.359164232974366e-14,1.8917523540544924e-14,1.0141805069362599e-14,2.913779537993058e-09,1.5095675770150757e-09,1.0556443085913024e-09,7.259428955252257e-10,5.24837250289071e-10,3.3919563598660336e-10,2.666045160559407e-10,1.8048094780600752e-10,1.1784940674638788e-10,8.383037469652443e-11,5.708080391636908e-11,3.472214814973432e-11,2.3181883212423338e-11,1.3922317310834347e-11,8.589233290396814e-12,5.1741530954736215e-12,3.00124606215964e-12,1.6608110423469196e-12,9.41170074570491e-13
0.0,40,40.0,0.0,30.0,0.0,0.0,0.0,0.0,-13.0,0.0,2.0,0.0,0.0,0.0,1.080676077228485e-10,9.474306753658955e-11,8.884750000373285e-11,7.79573311817909e-11,6.338653755620471e-11,5.3264862286957776e-11,4.286153772321697e-11,3.6415120285265354e-11,2.8515493895232227e-11,2.2756732876293678e-11,1.5978585869562795e-11,1.2169475724836912e-11,9.061807461110912e-12,6.032232360161922e-12,4.115133130276507e-12,2.681767009064062e-12,1.964004225663587e-12,1.1217109080335585e-12,6.711359343594734e-13,3.9854064653854217e-13,2.2467189350873044e-13,1.2483771944227467e-13,6.93702871503717e-14,3.518017944276974e-14,1.799507147926932e-14,8.635658138844413e-15,2.7721496403578018e-09,1.6154254533925914e-09,1.1334481006177996e-09,7.590581717010728e-10,5.310275999284907e-10,3.632326442333994e-10,2.618138098543052e-10,1.8221908541626887e-10,1.261510437563523e-10,8.407997088948734e-11,5.812305746609384e-11,3.700448409197665e-11,2.3455908221301086e-11,1.3868593078731544e-11,9.003204790510479e-12,5.320979215629657e-12,2.94659791107059e-12,1.7553533684177542e-12,9.009278662942328e-13
0.0,41,41.0,0.0,30.0,0.0,0.0,0.0,0.0,-13.0,0.0,2.0,0.0,0.0,0.0,1.0765981330402863e-10,9.675084792943062e-11,8.350235111098741e-11,7.660946754724339e-11,6.880372700447962e-11,5.54369506583457e-11,4.529300600988978e-11,3.7687092065694067e-11,2.9399400156601484e-11,2.260466262569376e-11,1.6767428648238274e-11,1.2972729985713674e-11,9.042163093477605e-12,6.142712335496245e-12,4.244911957944025e-12,2.7703419875783253e-12,1.806596353277939e-12,1.1383735475119485e-12,6.838032415238743e-13,4.2496620908923337e-13,2.326564125416194e-13,1.31007878346609e-13,6.760632197590253e-14,3.6345078833591906e-14,1.856245848326034e-14,1.0987576062166594e-14,2.7637310627274354e-09,1.6059325653374802e-09,1.054066648166234e-09,7.822185195870243e-10,5.345009316084279e-10,3.842950957210778e-10,2.6671904115808305e-10,1.9443378807682353e-10,1.325950641445644e-10,8.963123565613503e-11,5.7292558682954396e-11,3.84104028029038e-11,2.5261474072308694e-11,1.4496541570213005e-11,9.057925278941636e-12,5.0563517331247996e-12,3.1919149184693407e-12,1.7021891844444677e-12,9.745588168284895e-13
0.0,42,42.0,0.0,30.0,0.0,0.0,0.0,0.0,-13.0,0.0,2.0,0.0,0.0,0.0,1.0435750823560691e-10,1.0497377056474122e-10,8.778413598652925e-11,7.898196578920518e-11,6.704162736804437e-11,5.593820045272608e-11,4.913238696128765e-11,3.5966162460382544e-11,3.006005661331821e-11,2.356833683044989e-11,1.7221087983889214e-11,1.2570563315618842e-11,8.997340464859654e-12,6.0844386619756486e-12,4.3113602351249315e-12,2.9072358438297267e-12,1.863063721154786e-12,1.163888515104503e-12,7.064349198019062e-13,4.1821249563986836e-13,2.483213527906168e-13,1.2314304385879084e-13,7.088895773840312e-14,3.678673494864045e-14,2.1431347287888673e-14,1.0396557175657434e-14,2.927296586762369e-09,1.5661740781296218e-09,1.1505983265218269e-09,8.021359108606361e-10,5.834912205330857e-10,3.748261785327652e-10,2.7611393840177054e-10,1.939195508600821e-10,1.314641803309582e-10,9.366830950076559e-11,5.896886909901684e-11,4.0972331501122116e-11,2.5236391763386252e-11,1.5551731708620183e-11,9.307455764741956e-12,5.225036114527375e-12,3.0627879325562926e-12,1.7736105896693069e-12,9.809476190265453e-13
0.0,43,43.0,0.0,30.0,0.0,0.0,0.0,0.0,-13.0,0.0,2.0,0.0,0.0,0.0,1.1683864893623215e-10,1.0029223950992504e-10,8.824232116454274e-11,8.13277652975324e-11,6.639879519634099e-11,5.894622793654472e-11,4.933696054960587e-11,3.902665317762469e-11,2.996500497781406e-11,2.3333116695082057e-11,1.7804967296617187e-11,1.2795549034079372e-11,9.757577928922623e-12,6.203558213619325e-12,4.223698371232293e-12,2.8083759920849994e-12,1.844858358877452e-12,1.1083293912643992e-12,7.119140486663539e-13,4.195400069674424e-13,2.440927348634824e-13,1.3615956018671737e-13,6.946667218203368e-14,3.950987708141765e-14,2.22231330611585e-14,1.0243777227940607e-14,2.9578132015131643e-09,1.716077662449071e-09,1.2319220833794042e-09,8.432911697496654e-10,5.477241695865816e-10,4.0457863096858043e-10,2.9331547710686095e-10,1.9837403922723235e-10,1.3637092718193513e-10,9.586703501486207e-11,5.951324957600656e-11,3.938819734337367e-11,2.51517644506719e-11,1.5224159540189336e-11,9.293500686654713e-12,5.604306710500701e-12,3.1856704876787126e-12,1.7201456588794596e-12,9.360177221586176e-13
0.0,44,44.0,0.0,30.0,0.0,0.0,0.0,0.0,-13.0,0.0,2.0,0.0,0.0,0.0,1.1216246809424206e-10,1.038985699391511e-10,9.203226970638022e-11,7.888148934984441e-11,6.81519789949438e-11,5.5869225564056096e-11,4.910668046936164e-11,3.9130502899096713e-11,2.963337395852609e-11,2.369477702517112e-11,1.8470487384908027e-11,1.2683163477503013e-11,9.639571054892833e-12,6.408409639481631e-12,4.429672788283926e-12,2.931899762137173e-12,1.9765604578662345e-12,1.2036593506195685e-12,7.087610487388612e-13,4.1674116906267434e-13,2.3615100740540535e-13,1.2988010787404287e-13,7.416968807899399e-14,3.754403586075392e-14,2.042291527389108e-14,9.865194391470598e-15,2.78461124802583e-09,1.716287792305835e-09,1.2167014317936451e-09,8.606449246542733e-10,5.963826600935656e-10,4.0251512026521974e-10,2.971043131539452e-10,2.0719270730433952e-10,1.4083798873977658e-10,9.267458270593246e-11,6.339460337311998e-11,4.064743201253303e-11,2.2995066016969668e-11,1.5943996060958867e-11,8.904661453760535e-12,5.668277606511006e-12,3.172181495734197e-12,1.8498632238139153e-12,9.769740376288468e-13
0.0,45,45.0,0.0,30.0,0.0,0.0,0.0,0.0,-13.0,0.0,2.0,0.0,0.0,0.0,1.1428339842552691e-10,1.0566347567025687e-10,9.74268275739969e-11,8.262512568240623e-11,7.053467822535993e-11,6.099393790558933e-11,4.970689448498189e-11,3.986338990060367e-11,3.2598839999473925e-11,2.5174032481143662e-11,1.835368067688979e-11,1.3040887117670616e-11,9.817390942147911e-12,6.782500325360377e-12,4.549058752826642e-12,2.8459516030329944e-12,1.9235314843785443e-12,1.1827929999269157e-12,7.383608052851133e-13,4.426557804552739e-13,2.523575175775032e-13,1.3770292263242244e-13,7.881743286771525e-14,3.725947011062133e-14,2.1797823090421856e-14,8.810009468010009e-15,2.9140206496400243e-09,1.7320210026133612e-09,1.2541668566144698e-09,8.618101173370973e-10,6.1003352548139e-10,4.126918616850472e-10,2.930057739560037e-10,2.0924912617542958e-10,1.4545003034058503e-10,1.0495321547507043e-10,6.379774410387808e-11,4.212631517630364e-11,2.4628181118756547e-11,1.5275506904487538e-11,9.496191814618605e-12,5.436789407831089e-12,3.375083309319954e-12,1.7839431852988461e-12,1.0337051243604533e-12
0.0,46,46.0,0.0,30.0,0.0,0.0,0.0,0.0,-13.0,0.0,2.0,0.0,0.0,0.0,1.253571958612014e-10,1.0857382769799585e-10,9.787908001309649e-11,8.412226054918005e-11,7.335939141112085e-11,6.169712430765323e-11,5.012620922186354e-11,4.119376154504902e-11,3.3491398685497555e-11,2.4959723185240137e-11,1.847268766005381e-11,1.3389540563629261e-11,9.230070932064179e-12,6.425706627178991e-12,4.546856104440358e-12,2.8617801592088217e-12,1.889621863384359e-12,1.2684026313672018e-12,7.926886929347647e-13,4.2255829334555603e-13,2.6794349876086084e-13,1.4136154453835247e-13,7.719822169086026e-14,4.0614979529554105e-14,2.2651960462481713e-14,9.242718876157288e-15,2.955760065534984e-09,1.768248368267174e-09,1.2753425247508022e-09,9.236669225348505e-10,6.218608337938156e-10,4.418614074920176e-10,3.102941025509734e-10,2.079638786610015e-10,1.52941332149901e-10,1.0367560265579059e-10,6.607008623549097e-11,4.182853149486163e-11,2.5948684182771257e-11,1.58807406890789e-11,1.0253692968687142e-11,5.966879879726553e-12,3.2681426515177215e-12,1.740676268913808e-12,9.114032592958537e-13
0.0,47,47.0,0.0,30.0,0.0,0.0,0.0,0.0,-13.0,0.0,2.0,0.0,0.0,0.0,1.186923018888691e-10,1.1036871171074001e-10,1.026245889392778e-10,8.433240501119428e-11,7.476107939045406e-11,6.441992216135252e-11,5.144995677062762e-11,4.1127078176051316e-11,3.1113673601520026e-11,2.3934139982991193e-11,1.880267633856954e-11,1.3447263633505243e-11,9.680603945804185e-12,6.701796212501618e-12,4.644766609241362e-12,2.944403942248904e-12,1.9331226483651503e-12,1.3030734926562336e-12,7.388723730913494e-13,4.461801033014586e-13,2.543723636491737e-13,1.4671969667538705e-13,8.140421168186417e-14,4.088438403408071e-14,2.129811812984458e-14,1.0826464458980448e-14,3.0023721597025582e-09,1.8215673778831127e-09,1.2727987506569084e-09,8.424777190035082e-10,6.123650910303766e-10,4.471183395727928e-10,3.229155986671205e-10,2.2029251296719964e-10,1.448306968505004e-10,9.660238279686668e-11,6.642293593646022e-11,4.0454883790694847e-11,2.7659714726823572e-11,1.6496938763595896e-11,9.431951700057364e-12,5.6404261216177286e-12,3.246945259633263e-12,1.8078881567790182e-12,9.643927244194495e-13
0.0,48,48.0,0.0,30.0,0.0,0.0,0.0,0.0,-13.0,0.0,2.0,0.0,0.0,0.0,1.2214301907229612e-10,1.1091459093743992e-10,9.84558206027059e-11,9.078262097361846e-11,7.537238186362514e-11,6.132308727710909e-11,5.1690053457987044e-11,4.0935164445427573e-11,3.2640905771266876e-11,2.5893369776944247e-11,1.8995795148910432e-11,1.4662240635639544e-11,9.883363591184687e-12,6.607662224085337e-12,4.7175009027335316e-12,3.1454676777602345e-12,2.0362922152950377e-12,1.2034359968411833e-12,7.609178713452579e-13,4.704041536318482e-13,2.490723816591416e-13,1.4483768462707392e-13,7.656784383098307e-14,4.105231547288597e-14,2.1051071725138188e-14,1.263868562135444e-14,2.978624885038573e-09,1.8591804054341935e-09,1.2812892248273314e-09,9.36247328605862e-10,6.562774437967083e-10,4.793167157113444e-10,3.2747851168012534e-10,2.1420213557902857e-10,1.504408595992269e-10,1.0642347278058419e-10,6.622447842550447e-11,4.567391148601763e-11,2.6403274121741703e-11,1.7039485504053815e-11,9.810084676941599e-12,5.8057818722920096e-12,3.4767398048846024e-12,1.8674960983203214e-12,1.0495532203838244e-12
0.0,49,49.0,0.0,30.0,0.0,0.0,0.0,0.0,-13.0,0.0,2.0,0.0,0.0,0.0,1.3009266516963354e-10,1.1836492909638938e-10,1.0003997138375694e-10,8.906137340006626e-11,7.764117903698487e-11,6.280555982392199e-11,5.5799777397864567e-11,4.1804428957170247e-11,3.319986329519552e-11,2.486541079069575e-11,1.7910029351811033e-11,1.4667689520439985e-11,9.842587097776371e-12,6.78531099342629e-12,4.63019288079078e-12,3.209642029825317e-12,1.9328349015207093e-12,1.2812280199016546e-12,7.615724304240366e-13,4.513993523774941e-13,2.7030112759089933e-13,1.5390431576032986e-13,8.039820380251679e-14,4.217608795573431e-14,2.131585112100226e-14,1.2693127706769055e-14,2.9964062135032905e-09,1.8485296753874e-09,1.4165936106299577e-09,9.192332365837298e-10,6.906291827973982e-10,4.759005531776292e-10,3.3397822851872554e-10,2.2542818981540918e-10,1.5873227386303245e-10,1.0017704261467987e-10,7.014030783244173e-11,4.6353383733108626e-11,2.8552459118597e-11,1.6011173117559668e-11,9.931547509523728e-12,5.95091487243399e-12,3.4620447050704608e-12,1.8922862048845646e-12,1.0187593886843516e-12
0.0,50,50.0,0.0,30.0,0.0,0.0,0.0,0.0,-13.0,0.0,2.0,0.0,0.0,0.0,1.3353656525913112e-10,1.2246058483031615e-10,1.0428439227080818e-10,9.355603739179779e-11,7.218176074150318e-11,6.387069523336562e-11,5.3685290415934813e-11,4.2938904201265596e-11,3.441782764468073e-11,2.684940934938846e-11,1.972933956102366e-11,1.3853487237337877e-11,9.577189237895603e-12,7.079270502204147e-12,4.451281991993554e-12,3.1716096432237585e-12,1.9981756282852954e-12,1.222211870891731e-12,7.850469444691843e-13,4.641693585784362e-13,2.686054676659137e-13,1.5115534268809691e-13,8.431627275353983e-14,4.583910657792892e-14,2.38030911860839e-14,1.281484131922401e-14,3.0993347705351104e-09,2.105952158512135e-09,1.4215355558826732e-09,9.700244211680838e-10,6.711615331404241e-10,4.893256814819795e-10,3.2657320644351133e-10,2.284006061343731e-10,1.6195280477436612e-10,1.0589339475135509e-10,6.84340792404622e-11,4.5129683310133846e-11,2.8400038704682026e-11,1.7235414920451536e-11,1.0282673759367353e-11,6.230908879367672e-12,3.495172529897217e-12,1.909528143262939e-12,1.1278858674260817e-12
0.0,51,51.0,0.0,30.0,0.0,0.0,0.0,0.0,-13.0,0.0,2.0,0.0,0.0,0.0,1.3498443756172153e-10,1.2509334140381493e-10,1.0551147487634074e-10,8.96794649696769e-11,7.794927791085653e-11,6.648420267654854e-11,5.4417667097867404e-11,4.6149445499314025e-11,3.454146564669431e-11,2.6849416722327798e-11,1.9705237068170038e-11,1.4133925875003185e-11,1.0181842094847858e-11,7.411979318238646e-12,4.655217200774644e-12,3.215589050906551e-12,1.966331241357181e-12,1.260589426228528e-12,7.852535117839439e-13,4.732187428078699e-13,2.8411638810866714e-13,1.534038607605364e-13,8.22736231274293e-14,4.6244258832602306e-14,2.3221306316018486e-14,1.2218946980972832e-14,3.1521322053878374e-09,1.942468542184962e-09,1.459834281933913e-09,1.0325377092124469e-09,7.33629214108857e-10,5.268386338827933e-10,3.364710860850937e-10,2.4502194896204524e-10,1.6672829987917334e-10,1.0894978531789071e-10,7.278297836959725e-11,4.678106673915645e-11,2.7818056282630293e-11,1.7777749954256304e-11,1.0279199583068174e-11,6.046015103712234e-12,3.320192624574727e-12,1.9191499440305505e-12,1.0519897753479663e-12
0.0,52,52.0,0.0,30.0,0.0,0.0,0.0,0.0,-13.0,0.0,2.0,0.0,0.0,0.0,1.3957090862356263e-10,1.2372312971508947e-10,1.0460975619764459e-10,9.797524304743182e-11,8.120949610580188e-11,6.936174369226876e-11,5.793001104065031e-11,4.711000001498643e-11,3.7342860365010144e-11,2.6859015309408244e-11,2.0224346750899064e-11,1.4057072860561448e-11,1.0635397020320576e-11,6.883704003217421e-12,4.558694409473551e-12,3.2554349567028457e-12,2.0161789681140375e-12,1.3196486235882928e-12,8.016257015786084e-13,4.497138101107595e-13,2.522385205311659e-13,1.5041079221381589e-13,8.596168687180245e-14,4.389998240592766e-14,2.3332617455615396e-14,1.064156151534423e-14,3.244809626313766e-09,2.125886320235403e-09,1.4587679028184375e-09,1.0884788690929699e-09,7.674426606390493e-10,5.225830597782834e-10,3.3904287169419087e-10,2.392931344295735e-10,1.7079464605378648e-10,1.1075665854874128e-10,7.24137818778149e-11,4.829501447170718e-11,2.98725514456935e-11,1.866682116896884e-11,1.0605278962359988e-11,6.51896037609743e-12,3.4975605439615636e-12,2.0622130746527515e-12,1.0746749817208014e-12
0.0,53,53.0,0.0,30.0,0.0,0.0,0.0,0.0,-13.0,0.0,2.0,0.0,0.0,0.0,1.368754670239851e-10,1.2034385388990566e-10,1.1110587143525925e-10,9.681303122762998e-11,8.533770464934724e-11,6.94999950118351e-11,5.663779947608224e-11,4.7498292141144866e-11,3.564041470301927e-11,2.688784551615197e-11,2.0698537025682942e-11,1.4521068452140567e-11,1.0652810021352227e-11,7.097349038502115e-12,4.842668788300269e-12,3.2244668144394797e-12,2.0447053377266824e-12,1.3004212537659978e-12,8.18171245650632e-13,4.829497749164092e-13,2.8164511539340657e-13,1.5450208903636562e-13,8.96017861629982e-14,4.7949198465727486e-14,2.585653956679781e-14,1.16545015027071e-14,3.2821541734809014e-09,2.222136526456666e-09,1.4965488342294093e-09,1.0686172324927107e-09,7.996129507684491e-10,5.593724257373827e-10,3.818344783512342e-10,2.610644811087512e-10,1.6760086237776492e-10,1.1728390978158516e-10,7.428231203658512e-11,4.64626946825901e-11,2.952420462748364e-11,1.8340044699724957e-11,1.0740904360613774e-11,6.2503629609897565e-12,3.693002498113982e-12,2.0064466093189278e-12,1.0916412945225894e-12
0.0,54,54.0,0.0,30.0,0.0,0.0,0.0,0.0,-13.0,0.0,2.0,0.0,0.0,0.0,1.4427998817629309e-10,1.268126503975006e-10,1.0991234903271906e-10,1.00606939642948e-10,8.36480191319788e-11,6.684628958997637e-11,5.7803401822262787e-11,4.5325221653881726e-11,3.727573585543154e-11,2.8248708150321646e-11,2.0972274611167857e-11,1.465374631618242e-11,1.0820300519252585e-11,7.387714099613775e-12,4.871035148029484e-12,3.199678623143123e-12,2.1437583960292382e-12,1.293760432791086e-12,8.126161491991931e-13,4.960853071832711e-13,2.964590144131259e-13,1.6754807952869077e-13,9.101975279399708e-14,4.496400307834379e-14,2.421253222169927e-14,1.2081845793656335e-14,3.543396302130827e-09,2.1975242455693355e-09,1.5889452503590143e-09,1.1118628870206013e-09,7.564804695302866e-10,5.497773863650055e-10,3.8275657301042587e-10,2.5073413333332514e-10,1.8367098920855125e-10,1.1080757939548041e-10,7.537837163206758e-11,5.039861805572764e-11,2.94616036671567e-11,1.8796810590983563e-11,1.0668489229085023e-11,6.434419227529387e-12,3.4028015807957138e-12,1.971729004294881e-12,1.0434728200217948e-12
