Line_number,Fiducial,Easting,Northing,Height,Elevation,tx_pitch,tx_roll,tx_yaw,txrx_dx,txrx_dy,txrx_dz,rx_pitch,rx_roll,rx_yaw,S0Z_time_3.834e-04,S0Z_time_3.924e-04,S0Z_time_4.039e-04,S0Z_time_4.184e-04,S0Z_time_4.364e-04,S0Z_time_4.589e-04,S0Z_time_4.869e-04,S0Z_time_5.224e-04,S0Z_time_5.679e-04,S0Z_time_6.249e-04,S0Z_time_6.969e-04,S0Z_time_7.879e-04,S0Z_time_9.019e-04,S0Z_time_1.046e-03,S0Z_time_1.227e-03,S0Z_time_1.456e-03,S0Z_time_1.744e-03,S0Z_time_2.109e-03,S0Z_time_2.567e-03,S0Z_time_3.145e-03,S0Z_time_3.864e-03,S0Z_time_4.745e-03,S0Z_time_5.821e-03,S0Z_time_7.140e-03,S0Z_time_8.754e-03,S0Z_time_1.073e-02,S1Z_time_2.057e-05,S1Z_time_2.607e-05,S1Z_time_3.307e-05,S1Z_time_4.206e-05,S1Z_time_5.356e-05,S1Z_time_6.807e-05,S1Z_time_8.607e-05,S1Z_time_1.086e-04,S1Z_time_1.366e-04,S1Z_time_1.721e-04,S1Z_time_2.176e-04,S1Z_time_2.746e-04,S1Z_time_3.466e-04,S1Z_time_4.376e-04,S1Z_time_5.516e-04,S1Z_time_6.956e-04,S1Z_time_8.771e-04,S1Z_time_1.106e-03,S1Z_time_1.394e-03
0.0,0,0.0,0.0,30.0,0.0,0.0,0.0,0.0,-13.0,0.0,2.0,0.0,0.0,0.0,1.3946775553622155e-11,1.3336843644364163e-11,1.2660114773206166e-11,1.192015159633861e-11,1.1118971178929718e-11,1.0285399355484425e-11,9.428037223738519e-12,8.52998043797839e-12,7.60722607019043e-12,6.699852990567028e-12,5.814536524405249e-12,4.9654962848274005e-12,4.177765903809558e-12,3.4539711464573792e-12,2.801278144692346e-12,2.22560764229635e-12,1.7316888964727129e-12,1.3163294087329163e-12,9.757012520872573e-13,7.04736055546932e-13,4.969238549844335e-13,3.436565126515648e-13,2.327887959055668e-13,1.544486948333035e-13,1.0038578369449607e-13,6.38468450275876e-14,1.428675529286591e-10,7.073372735227276e-11,4.8026224565441466e-11,3.643474729132841e-11,2.8425121915196068e-11,2.24454450852656e-11,1.787395404793857e-11,1.4226576045114894e-11,1.1292744717137061e-11,8.889527603560537e-12,6.89693934574954e-12,5.302376207737674e-12,4.018938233487229e-12,2.9981215925408446e-12,2.203431393925624e-12,1.5876267754534502e-12,1.1205039879445892e-12,7.752953999282654e-13,5.260565867226745e-13
0.0,1,1.0,0.0,30.0,0.0,0.0,0.0,0.0,-13.0,0.0,2.0,0.0,0.0,0.0,1.1810951906225908e-11,1.1287387492253487e-11,1.0707970753905177e-11,1.007777414723226e-11,9.398122997674086e-12,8.692908857650427e-12,7.969526612874527e-12,7.213379800637618e-12,6.437668937058872e-12,5.675348981301278e-12,4.932039966404093e-12,4.219028011917864e-12,3.557022508202959e-12,2.9479692119259277e-12,2.3977420459249434e-12,1.9112395549540974e-12,1.4925795529171548e-12,1.1392164777198965e-12,8.482163293527684e-13,6.156301110511936e-13,4.3632434337656626e-13,3.0334590363184934e-13,2.0659618075202888e-13,1.3782696282069245e-13,9.008329286734278e-14,5.761760426362497e-14,2.1354883995377408e-10,8.954682291454219e-11,4.888518283872749e-11,3.330785401496381e-11,2.4977283821076917e-11,1.93846189576037e-11,1.5281051960047236e-11,1.2076437392058063e-11,9.548509189081782e-12,7.491348026444364e-12,5.80086820823916e-12,4.455364617993416e-12,3.3753791960100164e-12,2.519263114043186e-12,1.853131933169946e-12,1.3374649588464766e-12,9.459745418574605e-13,6.564028990473623e-13,4.469665267000595e-13
0.0,2,2.0,0.0,30.0,0.0,0.0,0.0,0.0,-13.0,0.0,2.0,0.0,0.0,0.0,1.0108783730444123e-11,9.649839956601367e-12,9.14488011483749e-12,8.599500257836889e-12,8.014675793670234e-12,7.410320210160973e-12,6.792485112897469e-12,6.148702185406367e-12,5.489625147876815e-12,4.842776139548418e-12,4.212792724354275e-12,3.608713629879995e-12,3.0476866646683643e-12,2.5311392372822597e-12,2.0638582743612214e-12,1.6498729695844304e-12,1.2927310271316366e-12,9.903387467592963e-13,7.403934898212525e-13,5.397762262099502e-13,3.8438637711129917e-13,2.685595531426083e-13,1.8383481640853503e-13,1.232824316182057e-13,8.100491185614471e-14,5.209126835669029e-14,3.0377838324661936e-10,1.2796872105500527e-10,5.948979338223987e-11,3.376470267568333e-11,2.2953079670603413e-11,1.7154577517064516e-11,1.3293691576599982e-11,1.0402075156096084e-11,8.177461571503621e-12,6.384667401773389e-12,4.931424193169424e-12,3.780364127309634e-12,2.861038811980552e-12,2.1353036553299893e-12,1.5711868533479787e-12,1.1353769704253261e-12,8.043344225113704e-13,5.594695292835845e-13,3.8211166431114575e-13
0.0,3,3.0,0.0,30.0,0.0,0.0,0.0,0.0,-13.0,0.0,2.0,0.0,0.0,0.0,8.747255151415317e-12,8.333563007656279e-12,7.884089230648452e-12,7.403963707093397e-12,6.893077017568881e-12,6.3684942132811364e-12,5.834425460454051e-12,5.2804983347923945e-12,4.714807922458513e-12,4.160780436041257e-12,3.6220590200676463e-12,3.106033391467781e-12,2.6268210057576275e-12,2.1854840198026994e-12,1.7858776284060702e-12,1.4313102069639451e-12,1.124799004463312e-12,8.64580543014096e-13,6.487930761865133e-13,4.749445528314108e-13,3.3971240301650817e-13,2.384450788240167e-13,1.6399975568675578e-13,1.1052410225953308e-13,7.298790763447478e-14,4.7179468479710534e-14,3.9297533864628904e-10,1.7836516858375855e-10,8.031056075718856e-11,3.938006611010566e-11,2.2957394296738923e-11,1.5773636955453335e-11,1.1807523845146155e-11,9.100749450578825e-12,7.0919348038274435e-12,5.501561828174046e-12,4.235277749454789e-12,3.2370912307947308e-12,2.4463000470282945e-12,1.824580671632078e-12,1.3423023065133687e-12,9.707830801414156e-13,6.884927361519754e-13,4.798761003670051e-13,3.2856270215886033e-13
0.0,4,4.0,0.0,30.0,0.0,0.0,0.0,0.0,-13.0,0.0,2.0,0.0,0.0,0.0,7.666998238070293e-12,7.276184054804503e-12,6.8632467461269825e-12,6.431349261470316e-12,5.9774592696599476e-12,5.5159482568032515e-12,5.048660431077133e-12,4.567056384798211e-12,4.076782579430503e-12,3.5980169656772253e-12,3.1334057043900414e-12,2.6891577600055986e-12,2.2767691090205077e-12,1.897063434779194e-12,1.553077926414627e-12,1.247539112706253e-12,9.829662399661556e-13,7.578547616910152e-13,5.706419117574247e-13,4.1932005140020266e-13,3.01153641721513e-13,2.122948877625498e-13,1.4666769012421363e-13,9.930567906414951e-14,6.589321621200168e-14,4.280602293122002e-14,4.690258417130618e-10,2.3103372642380218e-10,1.0811466440911117e-10,5.0342373405318943e-11,2.564061762190722e-11,1.5495710864961186e-11,1.0824588032385625e-11,8.107604958608018e-12,6.231088284675437e-12,4.793737651353196e-12,3.6731587685186e-12,2.796042199241495e-12,2.1091706877530025e-12,1.5709606230283615e-12,1.1550355705948957e-12,8.356870929063444e-13,5.930622528058822e-13,4.1408325281339817e-13,2.8406333809362357e-13
0.0,5,5.0,0.0,30.0,0.0,0.0,0.0,0.0,-13.0,0.0,2.0,0.0,0.0,0.0,6.835932061359075e-12,6.4394616640355944e-12,6.0403058948385996e-12,5.638620528275476e-12,5.226361008689329e-12,4.813981357901025e-12,4.39994726060798e-12,3.976726109794262e-12,3.5477711691026334e-12,3.1304661864485564e-12,2.7265161201299472e-12,2.3412228460956885e-12,1.9838241099874133e-12,1.6549900311242968e-12,1.357032853606298e-12,1.0922199760934679e-12,8.625958919870695e-13,6.668772332839068e-13,5.036926252217255e-13,3.7141855931000697e-13,2.6776203730422166e-13,1.8951954282249857e-13,1.3148268597258568e-13,8.941816054050777e-14,5.960173431779693e-14,3.890506718719508e-14,5.28467208702845e-10,2.7916422623708236e-10,1.3855297824839528e-10,6.5361081082082e-11,3.1120734815361244e-11,1.6597634974614487e-11,1.0445439810357117e-11,7.408568792166607e-12,5.5561849557415086e-12,4.225627210222163e-12,3.2163348056706125e-12,2.4355279373923197e-12,1.833018869023328e-12,1.3623072320210704e-12,1.0007314625548901e-12,7.239902321842403e-13,5.139134438679152e-13,3.59353515687032e-13,2.468562137718887e-13
0.0,6,6.0,0.0,30.0,0.0,0.0,0.0,0.0,-13.0,0.0,2.0,0.0,0.0,0.0,6.237451590287748e-12,5.802332795814205e-12,5.389573780232036e-12,4.996757188615304e-12,4.6098115819417896e-12,4.233563873900257e-12,3.861433733981169e-12,3.4852853622792867e-12,3.106411757887419e-12,2.7395644246555296e-12,2.3856241769561207e-12,2.0490821844897864e-12,1.7372591646316783e-12,1.4506962557919325e-12,1.1910731687854336e-12,9.60302301818917e-13,7.599694598847966e-13,5.889943959147078e-13,4.461149901767652e-13,3.300210941488218e-13,2.3875213294435623e-13,1.6962636014388111e-13,1.181445780307573e-13,8.068373635664885e-14,5.4011232438868566e-14,3.5419434641604394e-14,5.728516800065591e-10,3.19596086634537e-10,1.6808409060568408e-10,8.253478051293607e-11,3.8924080296827193e-11,1.9165519344998785e-11,1.078746093909331e-11,7.035668229595208e-12,5.052743435428656e-12,3.772224635392249e-12,2.843603448664568e-12,2.1394008707484302e-12,1.605212028729207e-12,1.189417290019111e-12,8.727485375614125e-13,6.310037098335392e-13,4.47855917576267e-13,3.1355297127274906e-13,2.155645303322066e-13
0.0,7,7.0,0.0,30.0,0.0,0.0,0.0,0.0,-13.0,0.0,2.0,0.0,0.0,0.0,5.85868551193973e-12,5.352018314063841e-12,4.895986038963043e-12,4.487512895001867e-12,4.107260196565859e-12,3.753467059850306e-12,3.4127148973962967e-12,3.0740633317573966e-12,2.7361323094280322e-12,2.41086238969325e-12,2.098396178321068e-12,1.8024034034018346e-12,1.5286107581947246e-12,1.277391164643765e-12,1.0498857624400995e-12,8.477371960402797e-13,6.720874721291266e-13,5.220507283887797e-13,3.9641144191852125e-13,2.9412220393481075e-13,2.134707237701803e-13,1.5220215212275836e-13,1.0639949769768568e-13,7.295074783693248e-14,4.903377980076716e-14,3.229941935834457e-14,6.056621850996448e-10,3.5182459074765837e-10,1.9455573374567862e-10,1.0010055997230912e-10,4.825556976544256e-11,2.3047496400813632e-11,1.1903622887112957e-11,7.036459944161086e-12,4.727712511413384e-12,3.4198629833857673e-12,2.5396844915066223e-12,1.895340884668947e-12,1.4161446804766903e-12,1.0452775228455408e-12,7.659271090525774e-13,5.530934974815734e-13,3.9240370228228e-13,2.7500753316968425e-13,1.8910297464346296e-13
0.0,8,8.0,0.0,30.0,0.0,0.0,0.0,0.0,-13.0,0.0,2.0,0.0,0.0,0.0,5.683544327489668e-12,5.076914773542593e-12,4.5492284762433e-12,4.0994385060601236e-12,3.705251239126594e-12,3.3587824814911163e-12,3.038592560384145e-12,2.7286877646562616e-12,2.42398502354408e-12,2.1330280485321195e-12,1.855115419289487e-12,1.5930118839963862e-12,1.3511498302372083e-12,1.129653522212404e-12,9.292109771435998e-13,7.512595942985404e-13,5.965172214104388e-13,4.642862682365458e-13,3.53350970212013e-13,2.6288914491779976e-13,1.9137260994976182e-13,1.3689927280103424e-13,9.603212117239573e-14,6.608951876184122e-14,4.4593583284311107e-14,2.950178806499784e-14,6.305263013676211e-10,3.76814873091455e-10,2.170503319019724e-10,1.167713882556484e-10,5.828211868704231e-11,2.7928651821230516e-11,1.3753197093723153e-11,7.441287287548617e-12,4.598518965345763e-12,3.1654698229132323e-12,2.294809619016902e-12,1.69393158986347e-12,1.2584541400299912e-12,9.24500973449564e-13,6.762341057067277e-13,4.874230892944574e-13,3.4560102011163814e-13,2.4239453662517394e-13,1.6660959131416201e-13
0.0,9,9.0,0.0,30.0,0.0,0.0,0.0,0.0,-13.0,0.0,2.0,0.0,0.0,0.0,5.690776891581815e-12,4.9629269107643335e-12,4.339521448889054e-12,3.824213127019516e-12,3.3948849889017923e-12,3.0393732279174964e-12,2.728083025314069e-12,2.438242045546463e-12,2.1598443537745874e-12,1.8971109247286055e-12,1.6480718496236782e-12,1.4144022915470357e-12,1.1994913381342185e-12,1.0031267174079959e-12,8.256121022586227e-13,6.682215454700861e-13,5.312755565666813e-13,4.1425702937607907e-13,3.1591716642761305e-13,2.3562945213916996e-13,1.7200113203192642e-13,1.2342429843379228e-13,8.685930938705988e-14,5.998889875351402e-14,4.062517011866166e-14,2.6988879252777035e-14,6.504302605030074e-10,3.961141225071161e-10,2.3551030113591486e-10,1.3178144621419902e-10,6.830253901072671e-11,3.343400745392877e-11,1.6217998820043874e-11,8.246172091174042e-12,4.680210950341611e-12,3.0129068818709993e-12,2.1042755383697726e-12,1.5283487464497514e-12,1.1264729934314245e-12,8.228898786325946e-13,6.005080653119291e-13,4.3176641778581976e-13,3.05895281684442e-13,2.1465998926271263e-13,1.473959997487775e-13
0.0,10,10.0,0.0,30.0,0.0,0.0,0.0,0.0,-13.0,0.0,2.0,0.0,0.0,0.0,5.8550513430922165e-12,4.992692018527093e-12,4.2555425708905454e-12,3.654085366742812e-12,3.1695696193858238e-12,2.7882943631521715e-12,2.4734439629665827e-12,2.194609571274434e-12,1.9358531932797976e-12,1.6960172682648357e-12,1.471105014774641e-12,1.2613657533187719e-12,1.069301531250747e-12,8.942892851808686e-13,7.362995292566888e-13,5.964636310109717e-13,4.747377900391892e-13,3.7077282407069677e-13,2.8326724447585163e-13,2.117650714831889e-13,1.549724737953209e-13,1.1152881189950291e-13,7.872487557747077e-14,5.455338961718872e-14,3.7071862488163914e-14,2.472777724704574e-14,6.675266450175956e-10,4.1131107980024933e-10,2.503759975407128e-10,1.4479899145341494e-10,7.781042607671738e-11,3.9206882129785255e-11,1.9137105660481247e-11,9.412639637721512e-12,4.976718388492342e-12,2.9680043117077463e-12,1.967254110644162e-12,1.3942003414198922e-12,1.0159205468927432e-12,7.371271057443029e-13,5.362595379890798e-13,3.8436709518723964e-13,2.720453500971923e-13,1.909567923973423e-13,1.3091119937262905e-13
0.0,11,11.0,0.0,30.0,0.0,0.0,0.0,0.0,-13.0,0.0,2.0,0.0,0.0,0.0,6.149119161750965e-12,5.146414446600496e-12,4.283998465277938e-12,3.5805559873915383e-12,3.023416570676757e-12,2.6004038281054496e-12,2.2692164325268567e-12,1.991875903915996e-12,1.7460039220513872e-12,1.5241400299414187e-12,1.319268819940989e-12,1.1297039564982648e-12,9.570736969733265e-13,8.002801809456501e-13,6.589963703137606e-13,5.342154850402324e-13,4.2556635950633455e-13,3.328483359793684e-13,2.5469956098020256e-13,1.9081165204308246e-13,1.399629574064777e-13,1.0100187160420687e-13,7.149526733964708e-14,4.9700749456238137e-14,3.3884498017043095e-14,2.2689624823152516e-14,6.832273056039282e-10,4.23767922913957e-10,2.623090917395636e-10,1.5580290810571554e-10,8.649251991772992e-11,4.4951680074912964e-11,2.233978454215905e-11,1.087742067547942e-11,5.4779821882343e-12,3.0343520257869124e-12,1.885034329855817e-12,1.2891882595647006e-12,9.237306316577703e-13,6.645875792919896e-13,4.815148639579495e-13,3.4382908640072896e-13,2.4305397069836535e-13,1.7059966887634453e-13,1.1671369071094005e-13
0.0,12,12.0,0.0,30.0,0.0,0.0,0.0,0.0,-13.0,0.0,2.0,0.0,0.0,0.0,6.545912100379411e-12,5.4032437444089825e-12,4.410110661099301e-12,3.5940114619182226e-12,2.9503312698438387e-12,2.4713239238013057e-12,2.1113701923028237e-12,1.82575934161501e-12,1.5857784198975183e-12,1.3770858059277858e-12,1.1885892308960538e-12,1.016013132118889e-12,8.599542861757416e-13,7.187634918316677e-13,5.918350123463359e-13,4.800186227797523e-13,3.8265473471485884e-13,2.9966437456901644e-13,2.296277145186215e-13,1.7236190550384638e-13,1.2669872979603813e-13,9.166383607532394e-14,6.505599208301176e-14,4.535999001834725e-14,3.1020353234246935e-14,2.084910224736738e-14,6.983905966662493e-10,4.3453141456105877e-10,2.7200948214195585e-10,1.649663196726671e-10,9.419764154815761e-11,5.0448926259185624e-11,2.5668396551097207e-11,1.2564796916151608e-11,6.161590272732859e-12,3.2109055700499807e-12,1.859247999126425e-12,1.2125356553693943e-12,8.47897853226157e-13,6.032329374145291e-13,4.347019682889638e-13,3.090320915758574e-13,2.1811617973706227e-13,1.530321478753182e-13,1.0444838850442298e-13
0.0,13,13.0,0.0,30.0,0.0,0.0,0.0,0.0,-13.0,0.0,2.0,0.0,0.0,0.0,7.020112697375312e-12,5.742587406325323e-12,4.618432746220724e-12,3.683916927118315e-12,2.9436588261468832e-12,2.3967871898843703e-12,1.9966282172028432e-12,1.6930941163366062e-12,1.4518158029340215e-12,1.2514537570244578e-12,1.075886050866187e-12,9.175237243573397e-13,7.756084656822076e-13,6.478223925413459e-13,5.332765126427155e-13,4.3266622606973614e-13,3.4508322564130007e-13,2.7053704815706966e-13,2.075597644123367e-13,1.5607217413077477e-13,1.1494736448726257e-13,8.336128532751685e-14,5.930864915575e-14,4.14696990826411e-14,2.844223289251814e-14,1.918403800592483e-14,7.135053285293199e-10,4.443442572131017e-10,2.801111125274451e-10,1.7256297792954192e-10,1.0089671525992674e-10,5.5553570389114534e-11,2.8990842148054033e-11,1.4397280423175347e-11,6.9966578335295696e-12,3.4914097006643704e-12,1.8905265871699615e-12,1.1643025582920212e-12,7.87279008724086e-13,5.515431985037166e-13,3.9457281606155847e-13,2.790685164039863e-13,1.9657891665220392e-13,1.3780153441928173e-13,9.382700537383827e-14
0.0,14,14.0,0.0,30.0,0.0,0.0,0.0,0.0,-13.0,0.0,2.0,0.0,0.0,0.0,7.549131579098791e-12,6.1451123994766035e-12,4.893657686380649e-12,3.839250402869095e-12,2.9961880050094135e-12,2.3723094734799293e-12,1.9219970139935994e-12,1.5913990759815341e-12,1.3416070626771918e-12,1.1446408884320534e-12,9.786341616725286e-13,8.319816751959073e-13,7.021172734850913e-13,5.858758018964248e-13,4.820470302132082e-13,3.9115571363830965e-13,3.1208408018295357e-13,2.4489315234771077e-13,1.8808147439512548e-13,1.4165153682402197e-13,1.0451099846962511e-13,7.596283281196114e-14,5.416845915767033e-14,3.797663227319318e-14,2.6117695675594453e-14,1.7675087817564993e-14,7.288342298935402e-10,4.537005276297328e-10,2.871355993269022e-10,1.7889970312227726e-10,1.0664400103164905e-10,6.018499633387295e-11,3.220514315349863e-11,1.630307456700119e-11,7.948117573634338e-12,3.86509287283478e-12,1.977763371257817e-12,1.1447482791350037e-12,7.413480970158025e-13,5.084506980605895e-13,3.6015151214849777e-13,2.531988765203262e-13,1.7790940828644527e-13,1.245390793993167e-13,8.461189696684449e-14
0.0,15,15.0,0.0,30.0,0.0,0.0,0.0,0.0,-13.0,0.0,2.0,0.0,0.0,0.0,8.113586620347616e-12,6.593395064308519e-12,5.2212649570190935e-12,4.048977751535239e-12,3.1003414981892784e-12,2.393096673075465e-12,1.88448605856518e-12,1.5185504110561898e-12,1.2532278416229514e-12,1.054664625059054e-12,8.948472404759556e-13,7.575583284375601e-13,6.378995504112913e-13,5.3161322176508e-13,4.3708732224784255e-13,3.5465097699458344e-13,2.8301378840695956e-13,2.2225045437249645e-13,1.7084275526676837e-13,1.288529330514493e-13,9.522070063735454e-14,6.93556620332575e-14,4.956220213894099e-14,3.483452849320742e-14,2.4018393921580587e-14,1.6305429475501632e-14,7.445119228705123e-10,4.6291114105188714e-10,2.9348316216379816e-10,1.8427267490328933e-10,1.1154395640787836e-10,6.431392831814023e-11,3.5239076466879164e-11,1.8220384208440898e-11,8.980380580166607e-12,4.3179926778166e-12,2.1179299378805738e-12,1.1538496404876019e-12,7.099378990895838e-13,4.732609153298875e-13,3.306958226857078e-13,2.3082136460647667e-13,1.6167089657787365e-13,1.1294381714377558e-13,7.660358854649216e-14
0.0,16,16.0,0.0,30.0,0.0,0.0,0.0,0.0,-13.0,0.0,2.0,0.0,0.0,0.0,8.697417054930487e-12,7.072267167192343e-12,5.5879700535206056e-12,4.302466437843513e-12,3.2484324846271633e-12,2.4540938178918442e-12,1.8809763565524242e-12,1.4725583982741971e-12,1.1851198920290544e-12,9.800033078228227e-13,8.229748227182318e-13,6.927785977493433e-13,5.816523647859895e-13,4.839441648806067e-13,3.975125708755698e-13,3.224520434638004e-13,2.573309519417621e-13,2.0220183203442534e-13,1.5554666960168892e-13,1.1746590164416897e-13,8.693183155350801e-14,6.344265364958236e-14,4.542649288834215e-14,3.200311110099331e-14,2.2119510134348188e-14,1.506045012737328e-14,7.606056915829369e-10,4.721622512760659e-10,2.994441810055696e-10,1.8894304274009256e-10,1.1572525624908523e-10,6.794908870052599e-11,3.804710517090674e-11,2.0099283359652463e-11,1.0059988106780618e-11,4.834415235536999e-12,2.3062851834445785e-12,1.1910138269480998e-12,6.930065448182122e-13,4.4556082157880976e-13,3.0566284772818466e-13,2.1145081091191047e-13,1.4750444790508747e-13,1.0276934310466633e-13,6.963183884896723e-14
0.0,17,17.0,0.0,30.0,0.0,0.0,0.0,0.0,-13.0,0.0,2.0,0.0,0.0,0.0,9.287753303236436e-12,7.568929916513996e-12,5.981992259934417e-12,4.5898000229890235e-12,3.4329166915419825e-12,2.550104926597347e-12,1.9081925093848463e-12,1.4514345196629028e-12,1.1359255683021746e-12,9.194585636304675e-13,7.618094680131491e-13,6.364604001706436e-13,5.323044935251324e-13,4.4195902049390187e-13,3.625805250560157e-13,2.939705852906041e-13,2.3457845987019464e-13,1.8440244399604811e-13,1.419404946547295e-13,1.073106202583876e-13,7.952020545820137e-14,5.813999454426924e-14,4.170633459793413e-14,2.944724353762822e-14,2.0399276248042034e-14,1.392742894602997e-14,7.771502496565867e-10,4.815604494354654e-10,3.052195545052394e-10,1.9312667221105927e-10,1.1932199888151215e-10,7.11250700502077e-11,4.060607847285452e-11,2.1901930534381494e-11,1.1157268457605813e-11,5.398232369450531e-12,2.5367980552081278e-12,1.2549703861887173e-12,6.904559121546084e-13,4.2512375029239023e-13,2.846740908575792e-13,1.9470280057325991e-13,1.3511549221125363e-13,9.381315302058156e-14,6.354966798133935e-14
0.0,18,18.0,0.0,30.0,0.0,0.0,0.0,0.0,-13.0,0.0,2.0,0.0,0.0,0.0,9.874637534650222e-12,8.072904198579513e-12,6.39317512138361e-12,4.901989853003009e-12,3.6466050839763224e-12,2.6759352198052012e-12,1.9627376956459968e-12,1.4531287856042745e-12,1.1043730639250486e-12,8.720428272990129e-13,7.104040784109876e-13,5.876614411320006e-13,4.889787213340775e-13,4.048985707604566e-13,3.3166633327656043e-13,2.687101333190492e-13,2.1436903001845928e-13,1.6855928728458787e-13,1.2980843793614732e-13,9.823299774787072e-14,7.287890563440693e-14,5.337518133831188e-14,3.8353902775304274e-14,2.7136213641497187e-14,1.8838563541195198e-14,1.2895232134781821e-14,7.941661708602346e-10,4.91164578798953e-10,3.109425315643422e-10,1.9699319154811182e-10,1.224613209905804e-10,7.389210287408603e-11,4.29105867928894e-11,2.3601777955457794e-11,1.224718513366185e-11,5.993888282579763e-12,2.8026392979798984e-12,1.3437985885013268e-12,7.020124556125059e-13,4.118213260768255e-13,2.67479085784061e-13,1.802799191618969e-13,1.2426373200171714e-13,8.590823011642551e-14,5.822955217349872e-14
0.0,19,19.0,0.0,30.0,0.0,0.0,0.0,0.0,-13.0,0.0,2.0,0.0,0.0,0.0,1.0450665091463769e-11,8.575873225577276e-12,6.8129960933937426e-12,5.231095886282603e-12,3.882824694714105e-12,2.826526868363971e-12,2.0411603460951206e-12,1.4755162663453504e-12,1.0892054056326154e-12,8.368929607355891e-13,6.680005558963065e-13,5.456316884768277e-13,4.5096002144183993e-13,3.7212981052118793e-13,3.042426787298651e-13,2.462501244174841e-13,1.9637341975005167e-13,1.5442264520187843e-13,1.189656775236331e-13,9.010062170568168e-14,6.691563504338752e-14,4.908534787997067e-14,3.532751995557562e-14,2.5043125486251065e-14,1.7420532479019426e-14,1.1954038930288741e-14,8.116688994211497e-10,5.010065343065826e-10,3.1669817210016475e-10,2.0067038513546522e-10,1.2525624697921468e-10,7.630795047002717e-11,4.496848264503765e-11,2.518223390803719e-11,1.3309598901136748e-11,6.607096344853145e-12,3.0966470788800014e-12,1.455039604927741e-12,7.271675441118783e-13,4.055504645408651e-13,2.539191055047486e-13,1.6795845297369162e-13,1.1475522581306904e-13,7.891652635278867e-14,5.3560998465937883e-14
0.0,20,20.0,0.0,30.0,0.0,0.0,0.0,0.0,-13.0,0.0,2.0,0.0,0.0,0.0,1.1010596578473319e-11,9.071461109633516e-12,7.234497614210384e-12,5.5702736775442246e-12,4.135527361976416e-12,2.9970735749213333e-12,2.1400310131694346e-12,1.5164144212094516e-12,1.0891439605850563e-12,8.132084943686809e-13,6.339707824208099e-13,5.097711847408712e-13,4.176678340884483e-13,3.431262327316191e-13,2.798640197458642e-13,2.2623307493052753e-13,1.8031078702092656e-13,1.4177904647116883e-13,1.0925346337847772e-13,8.279940191784643e-14,6.155050747496788e-14,4.52158599667205e-14,3.2590788914138984e-14,2.3144381358396845e-14,1.613033303541145e-14,1.1095111386425082e-14,8.296727439858145e-10,5.111040153057298e-10,3.2253893487077326e-10,2.0425103908419781e-10,1.2780248243716173e-10,7.843188871152658e-11,4.6796850702134795e-11,2.6635081282899927e-11,1.4329139513251322e-11,7.2252629064572016e-12,3.4117164103402353e-12,1.5858491897268034e-12,7.651662317258935e-13,4.061795119955581e-13,2.4389331004156543e-13,1.5757499203610127e-13,1.0643573813379681e-13,7.272394694671984e-14,4.944887040483567e-14
0.0,21,21.0,0.0,30.0,0.0,0.0,0.0,0.0,-13.0,0.0,2.0,0.0,0.0,0.0,1.1550974621590153e-11,9.554979967332912e-12,7.652166120654841e-12,5.913764713193526e-12,4.399351965123055e-12,3.1831083561781135e-12,2.25601610645128e-12,1.5736168256157193e-12,1.1028769521728483e-12,8.002112671465332e-13,6.077701124728083e-13,4.795933899654312e-13,3.8863152175117025e-13,3.1745125406822555e-13,2.581539311179395e-13,2.0835427956643533e-13,1.6594080329258082e-13,1.3044544663769482e-13,1.0053506979984136e-13,7.623078090507349e-14,5.6714202237349446e-14,4.1719131452916666e-14,3.011185794960029e-14,2.1419239558065593e-14,1.495484736306931e-14,1.0310612344761363e-14,8.481924168315063e-10,5.214678789289725e-10,3.2849625810255235e-10,2.0780033764693664e-10,1.301779363461963e-10,8.032056103483422e-11,4.84185709206293e-11,2.7958844828963673e-11,1.529483685024973e-11,7.83769541928487e-12,3.741095031058128e-12,1.733158148817513e-12,8.150302863355792e-13,4.1351394517793833e-13,2.373294520314326e-13,1.490131121071689e-13,9.91847692477309e-14,6.723645503071216e-14,4.581204145274292e-14
0.0,22,22.0,0.0,30.0,0.0,0.0,0.0,0.0,-13.0,0.0,2.0,0.0,0.0,0.0,1.2069767154408792e-11,1.0023169271719852e-11,8.06178006433753e-12,6.2568455445820795e-12,4.66964793882417e-12,3.3805641742991505e-12,2.385941232416568e-12,1.6449330288764402e-12,1.1290644885201027e-12,7.971223504117944e-13,5.889026998565014e-13,4.546942888380417e-13,3.6346862673637517e-13,2.947439050872868e-13,2.387947420715456e-13,1.9235351961714155e-13,1.5305720097845433e-13,1.2026440921733072e-13,9.269243379157157e-14,7.030940733548961e-14,5.234641923768119e-14,3.855362448931266e-14,2.7862796587830614e-14,1.9849436175301563e-14,1.388246801191166e-14,9.593468652306193e-15,8.672434910992979e-10,5.321061145412545e-10,3.3458866475352564e-10,2.1136271338628897e-10,1.3244394363416943e-10,8.202540707733263e-11,4.985952785312254e-11,2.9157226980286336e-11,1.6199617704661943e-11,8.435652394933905e-12,4.078588383101661e-12,1.893819882136326e-12,8.75601761148685e-13,4.272794716762766e-13,2.3416049303919883e-13,1.421906560506805e-13,9.29099624135316e-14,6.237696352209432e-14,4.258213849288058e-14
0.0,23,23.0,0.0,30.0,0.0,0.0,0.0,0.0,-13.0,0.0,2.0,0.0,0.0,0.0,1.2566049845092983e-11,1.0473943999871499e-11,8.460243224414831e-12,6.595748863987279e-12,4.942468181010365e-12,3.5858098242863442e-12,2.5268409874027662e-12,1.7282278504930988e-12,1.1663532191064664e-12,8.031519865614446e-13,5.768973079278351e-13,4.3472728438232174e-13,3.4186583526289564e-13,2.7470625928350573e-13,2.215188612284556e-13,1.780083426427018e-13,1.4148249402837144e-13,1.1110011172936897e-13,8.562335015565268e-14,6.496118820873045e-14,4.8394582357347355e-14,3.568300341284661e-14,2.581906392825359e-14,1.8418860982578902e-14,1.290290614923026e-14,8.937271982948317e-15,8.868424510771107e-10,5.430258349624697e-10,3.4082714945297416e-10,2.1496763364774317e-10,1.3464739229597545e-10,8.359132966260709e-11,5.1146457378263363e-11,3.0237684899646595e-11,1.7039740598732636e-11,9.01228411404793e-12,4.418686256675349e-12,2.0647342211939787e-12,9.455957902894662e-13,4.471189868962494e-13,2.3430760361775965e-13,1.3704818999240067e-13,8.754179497444116e-14,5.8082755345722e-14,3.970227402876578e-14
0.0,24,24.0,0.0,30.0,0.0,0.0,0.0,0.0,-13.0,0.0,2.0,0.0,0.0,0.0,1.303973339741847e-11,1.0906162365306975e-11,8.8454155523665e-12,6.927567353455438e-12,5.21453894701978e-12,3.795664703781839e-12,2.6759946204160506e-12,1.8214561962900372e-12,1.213395472400409e-12,8.174986230481101e-13,5.712918659068995e-13,4.1938361630854607e-13,3.235626407207017e-13,2.570923172804081e-13,2.061013526443885e-13,1.6512855245052301e-13,1.3106365190726095e-13,1.0283503559493598e-13,7.923912236840995e-14,6.012165215560037e-14,4.481274808800161e-14,3.307541717430844e-14,2.3959054970051242e-14,1.7113279193724042e-14,1.2007025323092813e-14,8.336207715188971e-15,9.070066339234401e-10,5.542341777718356e-10,3.472185895109776e-10,2.18634180575751e-10,1.368231895447122e-10,8.505627376823995e-11,5.2305380222553855e-11,3.1210189605224034e-11,1.7814217132575864e-11,9.562502149033485e-12,4.756626954383619e-12,2.2429438733379275e-12,1.0236543580705085e-12,4.725994422018158e-13,2.3766927356459013e-13,1.3353909131850694e-13,8.302858743741494e-14,5.4303251563137345e-14,3.712574961420158e-14
0.0,25,25.0,0.0,30.0,0.0,0.0,0.0,0.0,-13.0,0.0,2.0,0.0,0.0,0.0,1.3491336558362472e-11,1.131941936925396e-11,9.215950338926073e-12,7.250148982723884e-12,5.4832134489755404e-12,4.007396438734588e-12,2.83094845074103e-12,1.9226914577355707e-12,1.2688693094340898e-12,8.393537446305816e-13,5.71624915769164e-13,4.0837779230102934e-13,3.083376752562525e-13,2.4169820840000366e-13,1.9235346937636502e-13,1.5355162197896426e-13,1.2166854139905167e-13,9.536722335199195e-14,7.346258984482924e-14,5.573456953078948e-14,4.1560683952656644e-14,3.070288949695125e-14,2.2263712763415034e-14,1.5920092155604015e-14,1.1186697190163243e-14,7.785002591683766e-15,9.277541747849302e-10,5.657386514963008e-10,3.537678016656338e-10,2.223744955569722e-10,1.3899670088120005e-10,8.645142780618028e-11,5.336054580613381e-11,3.2086185527183347e-11,1.8524252154321122e-11,1.0082805857208005e-11,5.08841435183026e-12,2.425704213487578e-12,1.1083957350037252e-12,5.032249398322712e-13,2.4411574804277167e-13,1.3162153307538248e-13,7.933192206612148e-14,5.09980161289092e-14,3.481475495945035e-14
0.0,26,26.0,0.0,30.0,0.0,0.0,0.0,0.0,-13.0,0.0,2.0,0.0,0.0,0.0,1.3921802401414938e-11,1.171386891333438e-11,9.571143602775682e-12,7.561990483554454e-12,5.746414893674919e-12,4.218705222926027e-12,2.9895266669346507e-12,2.0301468743805447e-12,1.3314972258673649e-12,8.679099211691383e-13,5.774321789774341e-13,4.0143735259317673e-13,2.9599760521896524e-13,2.28353644170891e-13,1.801169583410102e-13,1.4313880918513133e-13,1.1318298086642079e-13,8.860800513486417e-14,6.822646832916631e-14,5.175078565320488e-14,3.860308757838857e-14,2.854079945759782e-14,2.0716196255539477e-14,1.482813112879745e-14,1.0434676296889488e-14,7.278883467074657e-15,9.491039843268744e-10,5.775472264191736e-10,3.6047871760943155e-10,2.2619625967326088e-10,1.4118595243058318e-10,8.780180862218255e-11,5.4333797390321414e-11,3.2877752342267396e-11,1.9172723980352618e-11,1.0571086130328499e-11,5.410801048076564e-12,2.610529514097723e-12,1.198456693993006e-12,5.384529896156071e-13,2.5348773722004553e-13,1.3125243159132702e-13,7.642256976156638e-14,4.81349392750341e-14,3.273910081379234e-14
0.0,27,27.0,0.0,30.0,0.0,0.0,0.0,0.0,-13.0,0.0,2.0,0.0,0.0,0.0,1.4332353505534634e-11,1.209007466678732e-11,9.910799232314942e-12,7.862133996449707e-12,6.002573701419208e-12,4.427698387126209e-12,3.149832424219439e-12,2.1421900495480195e-12,1.40006221956685e-12,9.023701757835468e-13,5.882466839274255e-13,3.9829621065385885e-13,2.8636840414144756e-13,2.1691458094434364e-13,1.692590243222031e-13,1.3377181424951373e-13,1.0550827913322377e-13,8.248011122622295e-14,6.347195214320987e-14,4.812723199285524e-14,3.590892259667015e-14,2.6567438061037025e-14,1.9301595345891703e-14,1.3827479224631824e-14,9.744491488110963e-15,6.813541558421479e-15,9.710757564396129e-10,5.896683260489934e-10,3.6735501406625654e-10,2.301044111855724e-10,1.4340349952649604e-10,8.912704654950436e-11,5.524426750396846e-11,3.359695895029429e-11,1.9763718027465927e-11,1.1026420862612454e-11,5.721248154020786e-12,2.795219626164256e-12,1.2925263959883938e-12,5.777116084806836e-13,2.6559827873808024e-13,1.3238326015492252e-13,7.427700102451555e-14,4.568857765769026e-14,3.0875021355363615e-14
0.0,28,28.0,0.0,30.0,0.0,0.0,0.0,0.0,-13.0,0.0,2.0,0.0,0.0,0.0,1.472438070342825e-11,1.2448888144171565e-11,1.0235111540282376e-11,8.150070381297513e-12,6.2505627027746274e-12,4.632858273172692e-12,3.310241183815681e-12,2.2573512615526534e-12,1.4734206391507354e-12,9.419573738439358e-13,6.036011669529718e-13,3.98690812732003e-13,2.792887504091012e-13,2.0725704268011014e-13,1.5966788718112453e-13,1.2534986371348632e-13,9.855915616064863e-14,7.691610013118656e-14,5.91475360039705e-14,4.482608671269415e-14,3.345085195277256e-14,2.476362877081326e-14,1.8006686014117418e-14,1.2909317334133683e-14,9.110351861198892e-15,6.38509868748898e-15,9.936899958588937e-10,6.021107930802111e-10,3.7440042254065654e-10,2.3410229071945157e-10,1.456579388533082e-10,9.044223844420373e-11,5.610831826916793e-11,3.4255391257285006e-11,2.0302121324006077e-11,1.144887241659819e-11,6.017869802563581e-12,2.9778711785706903e-12,1.3893720051480511e-12,6.20415665772506e-13,2.802367032800889e-13,1.3495751709490643e-13,7.287452013922846e-14,4.3638650369310775e-14,2.920407233116594e-14
0.0,29,29.0,0.0,30.0,0.0,0.0,0.0,0.0,-13.0,0.0,2.0,0.0,0.0,0.0,1.5099359845496747e-11,1.2791351382913032e-11,1.0544565481745733e-11,8.425651413957698e-12,6.4896332381453175e-12,4.8330060177778024e-12,3.469388119937984e-12,2.3743264268686466e-12,1.5505116927389934e-12,9.859228116214594e-13,6.230317428049266e-13,4.023584148709356e-13,2.746052554734568e-13,1.9927203604924598e-13,1.512488913087224e-13,1.1778714337499654e-13,9.226196484121692e-14,7.18570427977785e-14,5.520802100125274e-14,4.181406111962438e-14,3.120475281861225e-14,2.3112401958786412e-14,1.6819719500669406e-14,1.2065790534547707e-14,8.527065431294608e-15,5.990073728854282e-15,1.0169680562957608e-09,6.148838598879135e-10,3.81618862070398e-10,2.3819237604015663e-10,1.4795508564463134e-10,9.175878080449188e-11,5.693965170964725e-11,3.4863830512176015e-11,2.079328078393234e-11,1.1839294350013087e-11,6.299368434735089e-12,3.1568769656897793e-12,1.487856773070696e-12,6.659814941266973e-13,2.971738055638001e-13,1.3890957216083424e-13,7.219502309611359e-14,4.196869915660046e-14,2.7712140145569237e-14
0.0,30,30.0,0.0,30.0,0.0,0.0,0.0,0.0,-13.0,0.0,2.0,0.0,0.0,0.0,1.545879127394287e-11,1.3118621068538316e-11,1.0839853789822313e-11,8.689012057754477e-12,6.719354304398951e-12,5.02726338682358e-12,3.6261512307079685e-12,2.491975636624821e-12,1.6303637816188473e-12,1.0335535442883476e-12,6.46082103063986e-13,4.090368656252502e-13,2.7216921332579695e-13,1.9286146890988637e-13,1.4392113675034445e-13,1.1101052782164071e-13,8.655315220155425e-14,6.725141363450209e-14,5.161367477755261e-14,3.9061792589344665e-14,2.9149300230030774e-14,2.1598714909432793e-14,1.5730240453325013e-14,1.1289892009790255e-14,7.989968861825838e-15,5.625348728898651e-15,1.0409321828722122e-09,6.279971322618831e-10,3.8901448166125405e-10,2.4237673418826365e-10,1.5029885984830552e-10,9.308513020652104e-11,5.7749527958898714e-11,3.5432056793311933e-11,2.1242724547013374e-11,1.2199152425876202e-11,6.56496535512695e-12,3.330916618228054e-12,1.5869516526196806e-12,7.138392660861768e-13,3.161675094344204e-13,1.4416459299370808e-13,7.221734626152709e-14,4.066492236256609e-14,2.638856741238506e-14
0.0,31,31.0,0.0,30.0,0.0,0.0,0.0,0.0,-13.0,0.0,2.0,0.0,0.0,0.0,1.5804157230005384e-11,1.3431910800610009e-11,1.1121809639007875e-11,8.940503194108115e-12,6.939556215412213e-12,5.215014363588785e-12,3.779631570608464e-12,2.6093181650559673e-12,1.7120979816665062e-12,1.0841782498991952e-12,6.723077261233127e-13,4.1846538731483897e-13,2.71834569015548e-13,1.879349660586515e-13,1.376146028873343e-13,1.0495757198425465e-13,8.137791393225567e-14,6.30541479392229e-14,4.832952044253708e-14,3.654332768153612e-14,2.7265608913637564e-14,2.0209210413435835e-14,1.472892973791124e-14,1.0575361986685935e-14,7.494866771749574e-15,5.288134944763525e-15,1.0656055556476733e-09,6.414605859941764e-10,3.9659166194238637e-10,2.466572864188818e-10,1.526919330868101e-10,9.442746442445905e-11,5.85470425933665e-11,3.5968752282413384e-11,2.1655942974388194e-11,1.2530363192812533e-11,6.814329891239422e-12,3.498941060512462e-12,1.685741585546681e-12,7.63442981396014e-13,3.3696850345138164e-13,1.506392627645665e-13,7.29181478062095e-14,3.971518847888065e-14,2.522539329229643e-14
0.0,32,32.0,0.0,30.0,0.0,0.0,0.0,0.0,-13.0,0.0,2.0,0.0,0.0,0.0,1.613689307984256e-11,1.3732448302159582e-11,1.1391353085627289e-11,9.180634602031314e-12,7.150279675097681e-12,5.3958677956778024e-12,3.9291317985143926e-12,2.725524778359628e-12,1.7949290675968526e-12,1.1371715982522514e-12,7.012797640804483e-13,4.3038595432443363e-13,2.7345682729775644e-13,1.844074656803978e-13,1.3226773244373782e-13,9.957474091424428e-14,7.668900853512284e-14,5.922583324487901e-14,4.5324732578499144e-14,3.423568167670052e-14,2.5536924630887075e-14,1.8932008149997458e-14,1.3807468275591812e-14,9.916599580935408e-15,7.037979275215134e-15,4.975939447658458e-15,1.0910123330889472e-09,6.552845729945356e-10,4.0435500245458216e-10,2.5103595405649775e-10,1.5513618737072156e-10,9.579023577308101e-11,5.933942679515809e-11,3.6481480597706695e-11,2.203822396592417e-11,1.2835152031272552e-11,7.0475096375408315e-12,3.660152728769903e-12,1.7834275514280447e-12,8.142781366984116e-13,3.593254923406531e-13,1.5824302971738682e-13,7.427124823828252e-14,3.91082293067604e-14,2.4216702307919864e-14
0.0,33,33.0,0.0,30.0,0.0,0.0,0.0,0.0,-13.0,0.0,2.0,0.0,0.0,0.0,1.645836893930186e-11,1.4021444649144728e-11,1.1649449391571576e-11,9.410027566089333e-12,7.351730702044551e-12,5.569622052355016e-12,4.074134020263538e-12,2.839908079911909e-12,1.8781644926948254e-12,1.1919572010383654e-12,7.32588410992427e-13,4.4454496463990224e-13,2.7689265586994647e-13,1.8219747659588954e-13,1.278254389480872e-13,9.481585994502002e-14,7.244570677141581e-14,5.573200888270384e-14,4.257212202724888e-14,3.211846281413534e-14,2.3948357840162894e-14,1.7756524022136812e-14,1.2958418831792983e-14,9.30858577531338e-15,6.615896549141584e-15,4.686533045239742e-15,1.117177695513844e-09,6.69479833415889e-10,4.123093073331082e-10,2.555147319187572e-10,1.5763303097104796e-10,9.717661988591886e-11,6.013234493130335e-11,3.6976721116315416e-11,2.239453605981227e-11,1.3115931428288247e-11,7.264863624983712e-12,3.813983088250889e-12,1.879325338397777e-12,8.658672826874709e-13,3.8298984993740436e-13,1.6687966992054047e-13,7.624734927010787e-14,3.883300638395123e-14,2.335807282819347e-14
0.0,34,34.0,0.0,30.0,0.0,0.0,0.0,0.0,-13.0,0.0,2.0,0.0,0.0,0.0,1.6769878939523767e-11,1.4300072956338816e-11,1.189707734973331e-11,9.629376236386769e-12,7.544241488815405e-12,5.736232340056442e-12,4.214277705575311e-12,2.951911527931393e-12,1.961201721809089e-12,1.248009280298491e-12,7.658456582659779e-13,4.606949855069661e-13,2.81999975762662e-13,1.812258794070231e-13,1.2423749652756186e-13,9.064077008863652e-14,6.86128589193374e-14,5.254255376835441e-14,4.004769408677685e-14,3.017355121530212e-14,2.2486653643968457e-14,1.667331340511735e-14,1.2175123158877201e-14,8.746816026743534e-15,6.22553936320071e-15,4.417920204849718e-15,1.1441278890763101e-09,6.840575110669471e-10,4.204595745726445e-10,2.600957200210968e-10,1.6018360936542466e-10,9.858886986716914e-11,6.09301730821156e-11,3.745994040809972e-11,2.272945219211013e-11,1.337519932793317e-11,7.46699975978704e-12,3.960068642281921e-12,1.9728618449139524e-12,9.177737386391028e-13,4.0771956793818363e-13,1.764489887494442e-13,7.881405009543782e-14,3.887823868797899e-14,2.2646115439973197e-14
0.0,35,35.0,0.0,30.0,0.0,0.0,0.0,0.0,-13.0,0.0,2.0,0.0,0.0,0.0,1.7072635967220692e-11,1.4569454345778763e-11,1.2135205844898344e-11,9.839416730738724e-12,7.728237016484455e-12,5.895781069808965e-12,4.349338279801829e-12,3.061097662924306e-12,2.043524283008636e-12,1.3048532205954057e-12,8.006874129777759e-13,4.785964238513457e-13,2.8863837014783627e-13,1.8141516250631562e-13,1.2145726806142561e-13,8.70141742297647e-14,6.516006707235157e-14,4.963114707790017e-14,3.773026733636718e-14,2.838482392539715e-14,2.1139992916933717e-14,1.5673934921545558e-14,1.1451612298779864e-14,8.227241227039465e-15,5.8641246436155194e-15,4.168311488575495e-15,1.1718902710127258e-09,6.990291703478656e-10,4.288109901878753e-10,2.6478113296079856e-10,1.6278894142310458e-10,1.0002858894052442e-10,6.17362490246583e-11,3.79356862413076e-11,2.304710692230858e-11,1.3615456687395945e-11,7.654717473492946e-12,4.098226360035076e-12,2.0635695736404996e-12,9.696037526185616e-13,4.332824736037372e-13,1.8684852947998004e-13,8.193608509775232e-14,3.923207528518385e-14,2.2078091419854492e-14
0.0,36,36.0,0.0,30.0,0.0,0.0,0.0,0.0,-13.0,0.0,2.0,0.0,0.0,0.0,1.7367770219095305e-11,1.4830649405598066e-11,1.2364777060062799e-11,1.0040902928418646e-11,7.904207063766536e-12,6.0484514646011625e-12,4.479206833326961e-12,3.1671359891348505e-12,2.1246968629691684e-12,1.3620651777427386e-12,8.367750004277071e-13,4.980190270303842e-13,2.9666967926955635e-13,1.8268899504433692e-13,1.1944072665475216e-13,8.390465937282098e-14,6.206095280116194e-14,4.697479018483278e-14,3.560114257557185e-14,2.6737918756890503e-14,1.9897820258491698e-14,1.4750831891699245e-14,1.0782528192437763e-14,7.746215930732217e-15,5.529135274453515e-15,3.936098805697918e-15,1.2004933568246494e-09,7.144068137444494e-10,4.3736892684026917e-10,2.6957329867409177e-10,1.6545000390489792e-10,1.01496935535265e-10,6.255308933622419e-11,3.840769282534026e-11,2.3351180249527315e-11,1.3839142836554779e-11,7.828956190718195e-12,4.2284292444787245e-12,2.151079847294532e-12,1.0210073852260591e-12,4.5945874260602e-13,1.979751957894635e-13,8.557571526497806e-14,3.9881893787451573e-14,2.165160203734078e-14
0.0,37,37.0,0.0,30.0,0.0,0.0,0.0,0.0,-13.0,0.0,2.0,0.0,0.0,0.0,1.765633032636808e-11,1.5084653697674904e-11,1.2586694943194996e-11,1.023458793004885e-11,8.072683136418456e-12,6.194504434090751e-12,4.603871255899078e-12,3.269790869002332e-12,2.2043597286344712e-12,1.4192709116324899e-12,8.737960994412173e-13,5.187431609534102e-13,3.0595868165065843e-13,1.8497205184640974e-13,1.1814572607863083e-13,8.128387953754413e-14,5.929251238917624e-14,4.455338108818752e-14,3.364381332145147e-14,2.5220030710753745e-14,1.875069502621711e-14,1.3897229045600131e-14,1.0163055030004077e-14,7.300452920212942e-15,5.218293464578759e-15,3.719833589140213e-15,1.2299668699532597e-09,7.302028994759014e-10,4.46138945904148e-10,2.744746532185538e-10,1.6816778134077996e-10,1.0299477410845893e-10,6.33825728872671e-11,3.8878988848313284e-11,2.3644901734299782e-11,1.404858687771441e-11,7.990749936267123e-12,4.350782601146789e-12,2.235115167027234e-12,1.0716783685869293e-12,4.860427655666675e-13,2.0972672738237585e-13,8.969321560301381e-14,4.081420416157856e-14,2.136434016103357e-14
0.0,38,38.0,0.0,30.0,0.0,0.0,0.0,0.0,-13.0,0.0,2.0,0.0,0.0,0.0,1.7939286138198574e-11,1.5332396180016254e-11,1.280181776049872e-11,1.0421210226839714e-11,8.234219782816901e-12,6.334258623801976e-12,4.723398989350432e-12,3.3689097132481205e-12,2.2822227162541736e-12,1.4761439983494464e-12,9.114651731216659e-13,5.405608425821883e-13,3.163737893440875e-13,1.881900187097479e-13,1.1753147799907786e-13,7.912588330975062e-14,5.6834552906057814e-14,4.2349334704948796e-14,3.184371097498071e-14,2.3819735708027985e-14,1.7690162215532527e-14,1.3107042442199405e-14,9.588859016362485e-15,6.886983308190289e-15,4.9295371218590925e-15,3.518207835485101e-15,1.2603417943713997e-09,7.464303592333385e-10,4.5512680190614143e-10,2.7948773507081336e-10,1.7094329351258213e-10,1.0452278356542904e-10,6.422609234018892e-11,3.935200235040022e-11,2.3931069396477857e-11,1.4245973153174312e-11,8.141188162383388e-12,4.465501438839102e-12,2.3154810463741503e-12,1.121353159470833e-12,5.128444435753166e-13,2.2200299393477457e-13,9.424741141729141e-14,4.2014637419872965e-14,2.1213896423270542e-14
0.0,39,39.0,0.0,30.0,0.0,0.0,0.0,0.0,-13.0,0.0,2.0,0.0,0.0,0.0,1.8217532511734827e-11,1.5574739669959392e-11,1.3010953764112278e-11,1.0601483716539681e-11,8.389379742936361e-12,6.468073460796308e-12,4.8379214988899124e-12,3.464411681910919e-12,2.358058990203458e-12,1.5324035610937793e-12,9.495234631132288e-13,5.632765244755446e-13,3.277877076055996e-13,1.9226971957526689e-13,1.1755819710956417e-13,7.740656976148231e-14,5.466920289931558e-14,4.0347243955309405e-14,3.018797916036283e-14,2.252683720311403e-14,1.6708640384143745e-14,1.2374800836543766e-14,9.056035427505752e-15,6.503121485459143e-15,4.660998777030777e-15,3.3300378218569667e-15,1.2916504304112362e-09,7.631026161258463e-10,4.643384484619252e-10,2.8461518054007096e-10,1.7377760904081767e-10,1.0608153336412728e-10,6.508467665042303e-11,3.9828658515276725e-11,2.4212078691474935e-11,1.4433318728940135e-11,8.281382677144479e-12,4.572889325675617e-12,2.3920575852271985e-12,1.1698093717103777e-12,5.396899936496459e-13,2.3470709234149883e-13,9.919622658823956e-14,4.3467999725970336e-14,2.119761293352309e-14
0.0,40,40.0,0.0,30.0,0.0,0.0,0.0,0.0,-13.0,0.0,2.0,0.0,0.0,0.0,1.84918936531634e-11,1.5812482687970206e-11,1.321485918582111e-11,1.0776090809504346e-11,8.538722389052174e-12,6.5963349620485254e-12,4.947620488851101e-12,3.5562770532597146e-12,2.431698738771322e-12,1.5878116427669484e-12,9.877386151436024e-13,5.867076424413722e-13,3.400780272097732e-13,1.9713931912715707e-13,1.181868793059235e-13,7.61032565574933e-14,5.278049168950869e-14,3.853357766132172e-14,2.86652728836634e-14,2.1332231981567935e-14,1.5799324192601366e-14,1.1695576980813782e-14,8.561062001405362e-15,6.146434312676879e-15,4.410986686592714e-15,3.154250230055907e-15,1.3239264540691102e-09,7.802336030239242e-10,4.737800450816424e-10,2.898597208364247e-10,1.7667185080012823e-10,1.0767153556510081e-10,6.595908823880596e-11,4.031046807248258e-11,2.4489957705565884e-11,1.4612460868299273e-11,8.41244039510002e-12,4.673318931930029e-12,2.4647909948711747e-12,1.216863741780151e-12,5.664223434871423e-13,2.4774624654803877e-13,1.0449721633411338e-13,4.515837418902326e-14,2.1312478186273292e-14
0.0,41,41.0,0.0,30.0,0.0,0.0,0.0,0.0,-13.0,0.0,2.0,0.0,0.0,0.0,1.8763127700048637e-11,1.6046362192945128e-11,1.3414237929230061e-11,1.094567797642804e-11,8.682794947810533e-12,6.719444039856836e-12,5.0527158314890796e-12,3.644537367649791e-12,2.5030229425671493e-12,1.6421703267583716e-12,1.0259039999855084e-12,6.106849453546009e-13,3.5312773123033935e-13,2.0272856506003381e-13,1.1937918244006125e-13,7.519434456400259e-14,5.115399131231336e-14,3.689641201892115e-14,2.7265579076959737e-14,2.0227792078795346e-14,1.4956099458182362e-14,1.1064927549638129e-14,8.100757846856276e-15,5.814714031206601e-15,4.177967816949876e-15,2.9898703641632258e-15,1.35720497998331e-09,7.978377815007073e-10,4.834579644414533e-10,2.952241807877539e-10,1.7962719688813355e-10,1.0929327938872458e-10,6.684989868646326e-11,4.079860522234172e-11,2.476640550648121e-11,1.4785052573849995e-11,8.535441509852206e-12,4.7672144112125265e-12,2.533685243161296e-12,1.2623697540533482e-12,5.929011888939954e-13,2.6103251893511114e-13,1.1010806510426907e-13,4.7069254808629984e-14,2.155505738555519e-14
0.0,42,42.0,0.0,30.0,0.0,0.0,0.0,0.0,-13.0,0.0,2.0,0.0,0.0,0.0,1.9031931341095798e-11,1.6277056853885616e-11,1.360974246957699e-11,1.1110853192914271e-11,8.822126037121647e-12,6.837807025385297e-12,5.1534551350410725e-12,3.729266411526493e-12,2.571957323269238e-12,1.6953186971868918e-12,1.0638377885833541e-12,6.350526303186101e-13,3.668256080839982e-13,2.0896904339778865e-13,1.2109738366337667e-13,7.465906412167859e-14,4.9776515173177214e-14,3.542519288553545e-14,2.598005581901827e-14,1.9206260298192605e-14,1.4173468906226148e-14,1.0478840553122433e-14,7.672247170252421e-15,5.5059544329724345e-15,3.960552471674534e-15,2.8360121355173966e-15,1.3915226282595494e-09,8.159301615510978e-10,4.933787998953903e-10,3.007114789597985e-10,1.826448794747579e-10,1.1094725335222253e-10,6.775754666747654e-11,4.129397487593137e-11,2.5042831305740395e-11,1.495256443700215e-11,8.65142260309188e-12,4.855035702018307e-12,2.5987939552200795e-12,1.3062150293214484e-12,6.190027791167139e-13,2.7448334823141204e-13,1.1598703704916688e-13,4.9183699438629605e-14,2.1921452918717157e-14
0.0,43,43.0,0.0,30.0,0.0,0.0,0.0,0.0,-13.0,0.0,2.0,0.0,0.0,0.0,1.9298944344484037e-11,1.6505190605509633e-11,1.3801975583704198e-11,1.1272184831127866e-11,8.957221101639869e-12,6.95182813222725e-12,5.250104847607739e-12,3.8105720722986955e-12,2.6384665559311106e-12,1.7471297159057202e-12,1.1013818339873322e-12,6.596683078234896e-13,3.81066569659613e-13,2.157944278378067e-13,1.2330439169817607e-13,7.447728925885784e-14,4.8635867531254446e-14,3.411052642697343e-14,2.4800888084435e-14,1.82611572680617e-14,1.3446487057075556e-14,9.933689248421407e-15,7.272927217985679e-15,5.2183298854615244e-15,3.757480371328137e-15,2.691869500578794e-15,1.426917595316355e-09,8.345263222371135e-10,5.035493731256879e-10,3.063246288652706e-10,1.8572618291233624e-10,1.1263395881189079e-10,6.868238151072048e-11,4.179726960448402e-11,2.5320392716254513e-11,1.511629122873581e-11,8.76136415233181e-12,4.937264771631297e-12,2.660212677126562e-12,1.3483185614082947e-12,6.44619486430335e-13,2.880219321362163e-13,1.2209337197327714e-13,5.148449106785867e-14,2.240729017442273e-14
0.0,44,44.0,0.0,30.0,0.0,0.0,0.0,0.0,-13.0,0.0,2.0,0.0,0.0,0.0,1.9564753917781122e-11,1.673133631255e-11,1.3991492624631029e-11,1.1430201633148214e-11,9.08855938297307e-12,7.061903592720949e-12,5.3429427743584676e-12,3.88858906703164e-12,2.70254880673745e-12,1.7975070810351905e-12,1.1384004065541691e-12,6.844028213137997e-13,3.9575187803976397e-13,2.2314071020644114e-13,1.259637963919868e-13,7.462940741728123e-14,4.7720638049363996e-14,3.294399585227554e-14,2.3721158297660108e-14,1.7386698361762306e-14,1.277070291151608e-14,9.42619168790784e-15,6.900439913418404e-15,4.950176856221081e-15,3.5676080322337795e-15,2.5567090654805988e-15,1.4634297289319103e-09,8.536424333758297e-10,5.139767419093282e-10,3.1206674096488596e-10,1.888724418667739e-10,1.1435391772778926e-10,6.962469536444371e-11,4.23090170731792e-11,2.560003191611381e-11,1.5277361876676744e-11,8.86618187602685e-12,5.014393773576857e-12,2.71807158622439e-12,1.388627871575811e-12,6.696592077012408e-13,3.0157747400666036e-13,1.2838762388410668e-13,5.395429902609926e-14,2.3007724327712826e-14
0.0,45,45.0,0.0,30.0,0.0,0.0,0.0,0.0,-13.0,0.0,2.0,0.0,0.0,0.0,1.982989885732633e-11,1.6956019424373502e-11,1.4178804128291815e-11,1.1585393473559222e-11,9.216592112074267e-12,7.168417217318636e-12,5.4322518750984356e-12,3.963472526130625e-12,2.7642306397158826e-12,1.846382120595989e-12,1.1747788229775657e-12,7.091399443125404e-13,4.1078928723275276e-13,2.3094640390020893e-13,1.2903994152100689e-13,7.5096233657691e-14,4.702003584404193e-14,3.191800207707025e-14,2.273473028285645e-14,1.6577719124250607e-14,1.214210929586566e-14,8.953375152373074e-15,6.552646736322474e-15,4.69997762383737e-15,3.389897318440962e-15,2.4298636085157946e-15,1.5011006076908425e-09,8.732952783591968e-10,5.246682080243574e-10,3.1794102521651257e-10,1.9208503983979152e-10,1.1610767667705952e-10,7.058474648982168e-11,4.282961894596405e-11,2.5882508958744315e-11,1.5436751687215244e-11,8.96672135520277e-12,5.086915048089933e-12,2.77252871074918e-12,1.4271161382244027e-12,6.940446377848294e-13,3.1508531275442977e-13,1.348319423607013e-13,5.6575833826608445e-14,2.3717464119658055e-14
0.0,46,46.0,0.0,30.0,0.0,0.0,0.0,0.0,-13.0,0.0,2.0,0.0,0.0,0.0,2.0094873467691502e-11,1.7179721542682878e-11,1.4364378597164724e-11,1.1738212680468389e-11,9.341741659479329e-12,7.271737148969034e-12,5.51831520554379e-12,4.035392396686892e-12,2.8235623202283944e-12,1.8937107648716884e-12,1.2104220042724052e-12,7.337759764312074e-13,4.2609310793479856e-13,2.391527158224239e-13,1.3249800996007908e-13,7.585895973380005e-14,4.65237577459425e-14,3.102562623188537e-14,2.1836145429664958e-14,1.5829608108401295e-14,1.1557097902318153e-14,8.51254481478541e-15,6.227606450779399e-15,4.466345899793966e-15,3.223405062149078e-15,2.3107263140899703e-15,1.5399736250501111e-09,8.935022781746038e-10,5.356313253424206e-10,3.2395079399071493e-10,1.9536540821858072e-10,1.1789580853731113e-10,7.156277577432319e-11,4.335938233607077e-11,2.6168431807731878e-11,1.5595295876899044e-11,9.063755390209313e-12,5.1553128621851946e-12,2.8237637028217338e-12,1.46377934947019e-12,7.17712447785508e-13,3.284869539975078e-13,1.4139029913601903e-13,5.933199118832571e-14,2.453080904405251e-14
0.0,47,47.0,0.0,30.0,0.0,0.0,0.0,0.0,-13.0,0.0,2.0,0.0,0.0,0.0,2.0360131246040666e-11,1.7402883854187364e-11,1.4548645349452488e-11,1.1889075735289456e-11,9.464401422926606e-12,7.372213608145452e-12,5.6014118671067295e-12,4.104528618211712e-12,2.88061352985511e-12,1.939470632319889e-12,1.245252992918061e-12,7.582192575537596e-13,4.4158420402432433e-13,2.4770368500100457e-13,1.3630411302173722e-13,7.689912981373839e-14,4.622188582200758e-14,3.0260511992109464e-14,2.1020530057795573e-14,1.5138246233794217e-14,1.1012419212100087e-14,8.101256065226348e-15,5.923555337060404e-15,4.248014118655238e-15,3.0672736627204854e-15,2.1987455539652213e-15,1.5800940782663658e-09,9.142815166811786e-10,5.46873908162241e-10,3.3009946522817635e-10,1.9871502585870824e-10,1.1971891281047714e-10,7.255901815668468e-11,4.389854487856277e-11,2.645828293177641e-11,1.5753703667435624e-11,9.157983584965724e-12,5.220056761434642e-12,2.8719721921251053e-12,1.498633517961024e-12,7.406123954604234e-13,3.417300189281916e-13,1.4802866370598322e-13,6.220598232750416e-14,2.5441696725945784e-14
0.0,48,48.0,0.0,30.0,0.0,0.0,0.0,0.0,-13.0,0.0,2.0,0.0,0.0,0.0,2.0626088334650775e-11,1.7625910400325682e-11,1.4731997355736247e-11,1.2038365213363614e-11,9.58493627085533e-12,7.470177448320075e-12,5.681813835222593e-12,4.1710670154160655e-12,2.9354694963313865e-12,1.983658256069241e-12,1.2792114549606437e-12,7.823896174165969e-13,4.571899295514751e-13,2.5654628796400877e-13,1.404253779944259e-13,7.819863594024549e-14,4.610480960181949e-14,2.961676576818796e-14,2.0283513078675125e-14,1.4499951947166846e-14,1.0505146620452715e-14,7.717290002845273e-15,5.638889625636821e-15,4.04382218364335e-15,2.920722585144883e-15,2.0934200911056737e-15,1.6215092624513751e-09,9.356517671882958e-10,5.584040398388962e-10,3.363905657612797e-10,2.0213541914112767e-10,1.2157761522899547e-10,7.357371030482015e-11,4.444729444619734e-11,2.6752442483053683e-11,1.591257236882968e-11,9.25003369466083e-12,5.2815963888782125e-12,2.9173607326808458e-12,1.5317119903146116e-12,7.627063903207814e-13,3.5476812554712216e-13,1.5471513259883877e-13,6.518144886489874e-14,2.6443757631515808e-14
0.0,49,49.0,0.0,30.0,0.0,0.0,0.0,0.0,-13.0,0.0,2.0,0.0,0.0,0.0,2.089312674948547e-11,1.784917116979433e-11,1.4914794009809007e-11,1.2186431861046363e-11,9.703683394165682e-12,7.565939365240394e-12,5.7597835440810194e-12,4.235195847842908e-12,2.98822753328834e-12,2.0262864711901748e-12,1.3122521889408792e-12,8.062177758305679e-13,4.728440146531845e-13,2.656305122245485e-13,1.448300297218016e-13,7.973972752968332e-14,4.6163168873836327e-14,2.9088872864392406e-14,1.962115313193414e-14,1.3911431593698707e-14,1.0032644195478274e-14,7.358631667560922e-15,5.372149868356073e-15,3.8527074809851515e-15,2.7830406866068933e-15,1.9942946164948467e-15,1.6642685700476896e-09,9.576325203784279e-10,5.702300817597556e-10,3.428277347573534e-10,2.0562816241878144e-10,1.234725670526324e-10,7.460709559018981e-11,4.5005784440855553e-11,2.7051208212652353e-11,1.6072401023247736e-11,9.340464322425196e-12,5.34035761679349e-12,2.9601423420204145e-12,1.5630628774773113e-12,7.839675321515226e-13,3.6756071508227764e-13,1.614200173121311e-13,6.824256167875947e-14,2.7530374591476168e-14
0.0,50,50.0,0.0,30.0,0.0,0.0,0.0,0.0,-13.0,0.0,2.0,0.0,0.0,0.0,2.1161597394933576e-11,1.8073005008640743e-11,1.50973637985941e-11,1.2333596731502976e-11,9.820953447603844e-12,7.659789625580821e-12,5.835572115112546e-12,4.297102953931553e-12,3.03899397746791e-12,2.0673819769282864e-12,1.3443436600029913e-12,8.296447069682446e-13,4.884864082683489e-13,2.749094000282862e-13,1.494874634992254e-13,8.150503029194208e-14,4.638781335536674e-14,2.867162779814929e-14,1.902987443239604e-14,1.3369734509553935e-14,9.59253759868494e-15,7.0234506426622904e-15,5.122007013727004e-15,3.673695999731967e-15,2.6535793050923186e-15,1.900955558989269e-15,1.7084235960434852e-09,9.802440136155481e-10,5.823606827126202e-10,3.4941472726574183e-10,2.0919487876542118e-10,1.2540444430254217e-10,7.565942715573417e-11,4.5574145486459676e-11,2.7354812360998367e-11,1.6233603307655645e-11,9.429768602737503e-12,5.396739833409818e-12,3.000532620766017e-12,1.5927466268900075e-12,8.043791385779564e-13,3.8007283466646897e-13,1.6811589597683402e-13,7.137410378025697e-14,2.869474494538984e-14
0.0,51,51.0,0.0,30.0,0.0,0.0,0.0,0.0,-13.0,0.0,2.0,0.0,0.0,0.0,2.1431822875593115e-11,1.829772234842704e-11,1.5280006849214628e-11,1.248015332230388e-11,9.937031886549017e-12,7.75199820096369e-12,5.909418126974742e-12,4.3569734269519816e-12,3.0878815056383846e-12,2.1069830828805413e-12,1.3754665743999855e-12,8.526209794854871e-13,5.040630848593652e-13,2.8433906496604734e-13,1.543683076750522e-13,8.347757090505278e-14,4.6769775978712943e-14,2.83600770681642e-14,1.850641060454026e-14,1.2872212422475967e-14,9.182687775575594e-15,6.710083711461977e-15,4.887249981444509e-15,3.505894414733152e-15,2.5317460480066476e-15,1.813027131885197e-15,1.7540282492734242e-09,1.0035072616817287e-09,5.948047886862482e-10,3.561554178669247e-10,2.128372409478842e-10,1.2737394707039923e-10,7.673096967530864e-11,4.615249423758475e-11,2.7663435809483484e-11,1.6396519496849602e-11,9.51837856166904e-12,5.451114228080604e-12,3.038746431176214e-12,1.6208337524449044e-12,8.239337748038476e-13,3.922748857667919e-13,1.7477763363665834e-13,7.456153781870196e-14,2.992994342372959e-14
0.0,52,52.0,0.0,30.0,0.0,0.0,0.0,0.0,-13.0,0.0,2.0,0.0,0.0,0.0,2.1704100115935975e-11,1.8523607756483058e-11,1.5462997340642158e-11,1.2626369674046316e-11,1.0052180425278034e-11,7.842815211732305e-12,5.981546835495392e-12,4.41498776170804e-12,3.135006809417947e-12,2.1451376436091014e-12,1.4056125067946616e-12,8.751060827635362e-13,5.195258216499318e-13,2.9387868425225183e-13,1.594444751798292e-13,8.564080459519461e-14,4.730025696178028e-14,2.8149472768566167e-14,1.8047755815245327e-14,1.2416482805545345e-14,8.801167091965295e-15,6.4170192967110334e-15,4.666774556077466e-15,3.3484830090589716e-15,2.4169992221048996e-15,1.730167597902787e-15,1.8011388701814253e-09,1.027444088988591e-09,6.075716531388538e-10,3.6305380443122347e-10,2.165569725565082e-10,1.2938179896989922e-10,7.78220002447663e-11,4.674093990878133e-11,2.797721980077683e-11,1.656142737183723e-11,9.60666989450788e-12,5.503822923921676e-12,3.0749951055946515e-12,1.6474027337543155e-12,8.426322965902815e-13,4.0414234646347484e-13,1.8138237572128805e-13,7.779105918591604e-14,3.1228984176874596e-14
0.0,53,53.0,0.0,30.0,0.0,0.0,0.0,0.0,-13.0,0.0,2.0,0.0,0.0,0.0,2.1978702798246234e-11,1.8750922314304236e-11,1.564658577391287e-11,1.2772490401585703e-11,1.0166638559470588e-11,7.932471601142964e-12,6.05216976263682e-12,4.471320413565704e-12,3.180488603438266e-12,2.1819011823797343e-12,1.4347825902275915e-12,8.970677482266283e-13,5.348319522055826e-13,3.0349046949352614e-13,1.6468920381825338e-13,8.797864346429137e-14,4.797061623546571e-14,2.8035235563826842e-14,1.765112254459931e-14,1.2000395872437576e-14,8.446237646813998e-15,6.142883451039168e-15,4.45957344145832e-15,3.20070932838582e-15,2.30884284861709e-15,1.6520657472351928e-15,1.8498143554505557e-09,1.0520771633165227e-09,6.206708477665705e-10,3.7011401199907133e-10,2.203558492428221e-10,1.3142874675426699e-10,7.893280872221102e-11,4.73395890279361e-11,2.8296275536933583e-11,1.672855202370664e-11,9.6949669484192e-12,5.555178815508701e-12,3.109484149873331e-12,1.6725380921822237e-12,8.604829158232354e-13,4.1565547447951173e-13,1.879095189046884e-13,8.104963590850912e-14,3.2584880632410114e-14
0.0,54,54.0,0.0,30.0,0.0,0.0,0.0,0.0,-13.0,0.0,2.0,0.0,0.0,0.0,2.2255883628628525e-11,1.8979905831225764e-11,1.58310010994021e-11,1.2918738638808369e-11,1.0280625109280005e-11,8.021179974847056e-12,6.121484583727738e-12,4.5261387148580395e-12,3.2244459405595643e-12,2.2173352015269027e-12,1.4629862763552572e-12,9.18481273497861e-13,5.499441015471185e-13,3.131396186834628e-13,1.700770855867766e-13,9.04754839785677e-14,4.8772372175012584e-14,2.8012925663911143e-14,1.7313905362590554e-14,1.1622004934841306e-14,8.116331537636247e-15,5.886427201551151e-15,4.2647273369776245e-15,3.061882474681399e-15,2.206822210300088e-15,1.5784375914746872e-15,1.9001162899342462e-09,1.0774300311430257e-09,6.341122738013536e-10,3.773402967957893e-10,2.2423570002703086e-10,1.3351556009810695e-10,8.006369774138583e-11,4.794854882563027e-11,2.862069195251025e-11,1.6898074552496156e-11,9.783547740670973e-12,5.605465980041434e-12,3.142411402658377e-12,1.6963286474084928e-12,8.775002965377085e-13,4.267989968431147e-13,1.94340663117539e-13,8.432503662834623e-14,3.399070211807242e-14
