Line_number,Fiducial,Easting,Northing,Height,Elevation,tx_pitch,tx_roll,tx_yaw,txrx_dx,txrx_dy,txrx_dz,rx_pitch,rx_roll,rx_yaw,S0Z_time_3.834e-04,S0Z_time_3.924e-04,S0Z_time_4.039e-04,S0Z_time_4.184e-04,S0Z_time_4.364e-04,S0Z_time_4.589e-04,S0Z_time_4.869e-04,S0Z_time_5.224e-04,S0Z_time_5.679e-04,S0Z_time_6.249e-04,S0Z_time_6.969e-04,S0Z_time_7.879e-04,S0Z_time_9.019e-04,S0Z_time_1.046e-03,S0Z_time_1.227e-03,S0Z_time_1.456e-03,S0Z_time_1.744e-03,S0Z_time_2.109e-03,S0Z_time_2.567e-03,S0Z_time_3.145e-03,S0Z_time_3.864e-03,S0Z_time_4.745e-03,S0Z_time_5.821e-03,S0Z_time_7.140e-03,S0Z_time_8.754e-03,S0Z_time_1.073e-02,S1Z_time_2.057e-05,S1Z_time_2.607e-05,S1Z_time_3.307e-05,S1Z_time_4.206e-05,S1Z_time_5.356e-05,S1Z_time_6.807e-05,S1Z_time_8.607e-05,S1Z_time_1.086e-04,S1Z_time_1.366e-04,S1Z_time_1.721e-04,S1Z_time_2.176e-04,S1Z_time_2.746e-04,S1Z_time_3.466e-04,S1Z_time_4.376e-04,S1Z_time_5.516e-04,S1Z_time_6.956e-04,S1Z_time_8.771e-04,S1Z_time_1.106e-03,S1Z_time_1.394e-03
0.0,0,0.0,0.0,30.0,0.0,0.0,0.0,0.0,-13.0,0.0,2.0,0.0,0.0,0.0,6.263307765913941e-11,5.712684618149349e-11,5.112967078616704e-11,4.480982013510056e-11,3.824203622846383e-11,3.180588657432464e-11,2.569203018634117e-11,1.995524154213388e-11,1.4825775919706644e-11,1.0572895752272937e-11,7.21201595647179e-12,4.68773163627127e-12,2.9189353466259677e-12,1.7352717654458878e-12,9.83991749806854e-13,5.31983137957004e-13,2.77405974156752e-13,1.3788421771220208e-13,6.653820219902688e-14,3.041746892445602e-14,1.3721705032042725e-14,5.8811407582624035e-15,2.773231546433214e-15,1.1416263881186257e-15,7.117630100638606e-16,1.92132562023656e-16,3.538989158007325e-09,1.625071976742867e-09,8.136371302340313e-10,4.5288555129533356e-10,2.8639404808600506e-10,2.0242319405503122e-10,1.5134228196546622e-10,1.1308692447044424e-10,8.224055486963263e-11,5.716266387379368e-11,3.763444533501133e-11,2.3634866636510823e-11,1.40855813791818e-11,7.963579169890584e-12,4.282322880035576e-12,2.191901166968253e-12,1.0626645348789753e-12,4.918207202185545e-13,2.2104650163663437e-13
0.0,1,1.0,0.0,30.0,0.0,0.0,0.0,0.0,-13.0,0.0,2.0,0.0,0.0,0.0,6.21649826694707e-11,5.712693853759605e-11,5.165709264549908e-11,4.588325533022569e-11,3.981235995589376e-11,3.375028268536413e-11,2.7850173792878566e-11,2.215572416102727e-11,1.6902289249346007e-11,1.2398019060770127e-11,8.709030712936847e-12,5.835796382794659e-12,3.746180127151506e-12,2.2952876567285798e-12,1.340390809117498e-12,7.458401750177316e-13,3.9882075074849903e-13,2.033639496675095e-13,1.0004711441390551e-13,4.6884680379549716e-14,2.1508442397093427e-14,9.41688742664096e-15,4.360086497703334e-15,1.8917275795874807e-15,1.0663116898716599e-15,3.081119077679937e-16,3.517252019302569e-09,1.6124274372711226e-09,8.073503826806899e-10,4.4597385670292616e-10,2.748969050294232e-10,1.8820219503117154e-10,1.3861782419823026e-10,1.0448451236539773e-10,7.797125723811896e-11,5.6097857905611186e-11,3.8384023871060686e-11,2.508662215217625e-11,1.5573723907107406e-11,9.170395318956331e-12,5.1357445018748e-12,2.731804360202815e-12,1.3748568405245177e-12,6.602205058980609e-13,3.032584236901164e-13
0.0,2,2.0,0.0,30.0,0.0,0.0,0.0,0.0,-13.0,0.0,2.0,0.0,0.0,0.0,6.116280485421907e-11,5.637222132107761e-11,5.123317477691232e-11,4.586450802053616e-11,4.023254069008597e-11,3.457570393222907e-11,2.8993928084067607e-11,2.350019288214854e-11,1.830976018963754e-11,1.3739303391211886e-11,9.88774757067617e-12,6.796971261489021e-12,4.478543088370181e-12,2.8171869543147626e-12,1.6887099557816376e-12,9.643717627214385e-13,5.279759912650471e-13,2.756856456435482e-13,1.3825961528055568e-13,6.624338985608673e-14,3.0884753963145106e-14,1.3820606828010768e-14,6.3478659132499e-15,2.844721991830493e-15,1.4852986568038586e-15,4.690352611629404e-16,3.4949455964287776e-09,1.6001082066723515e-09,8.03517132564192e-10,4.4527842992389563e-10,2.724219305506592e-10,1.8227393553099105e-10,1.3086478386492055e-10,9.745719941505421e-11,7.321525224672884e-11,5.377635963603359e-11,3.785480331690787e-11,2.552845644517593e-11,1.6372507684479873e-11,9.967412756493881e-12,5.774509141337933e-12,3.174123719308952e-12,1.6506198993624883e-12,8.185147584736949e-13,3.8506380048811446e-13
0.0,3,3.0,0.0,30.0,0.0,0.0,0.0,0.0,-13.0,0.0,2.0,0.0,0.0,0.0,6.018555150662027e-11,5.5479691979659165e-11,5.049301032214131e-11,4.535817080354429e-11,4.0032670444207595e-11,3.471366487347332e-11,2.945164103463774e-11,2.421929798772378e-11,1.919285223036364e-11,1.4673187660098282e-11,1.0775106379630474e-11,7.568323960069266e-12,5.099877272310605e-12,3.28260177662637e-12,2.013853845339589e-12,1.1771788547721087e-12,6.587028761505692e-13,3.515550635413383e-13,1.796492472669294e-13,8.782553307576386e-14,4.1601483720261433e-14,1.8999638071436653e-14,8.722424645435526e-15,3.9895892874105826e-15,1.9761625749594014e-15,6.808714785767734e-16,3.4720696045166248e-09,1.587850735440583e-09,8.001890635352902e-10,4.463059920036395e-10,2.7372346115003507e-10,1.8138253547140307e-10,1.275184898734873e-10,9.298261380818214e-11,6.9216686180184e-11,5.115208436724345e-11,3.666066353903722e-11,2.532511374519853e-11,1.667650745075802e-11,1.0437313436250992e-11,6.220573819589359e-12,3.516991340117728e-12,1.882044563308149e-12,9.599117006866125e-13,4.623617127840508e-13
0.0,4,4.0,0.0,30.0,0.0,0.0,0.0,0.0,-13.0,0.0,2.0,0.0,0.0,0.0,5.945496464387808e-11,5.473879537870079e-11,4.978176935559382e-11,4.473812449329807e-11,3.957791435946822e-11,3.448650991047931e-11,2.948346238384737e-11,2.4505713367018114e-11,1.9682827547546045e-11,1.528125371666438e-11,1.1414103508064783e-11,8.165764110894332e-12,5.6099623146615645e-12,3.684277954176589e-12,2.3073401041641203e-12,1.3772586957042423e-12,7.862833544410406e-13,4.2817318350476117e-13,2.2277841727974844e-13,1.1094928147557636e-13,5.337467360639362e-14,2.4835940412911817e-14,1.1452455482587947e-14,5.31143632472465e-15,2.5432765160991156e-15,9.439743953017713e-16,3.448610182021146e-09,1.575687963930991e-09,7.971505450939302e-10,4.4781336561007473e-10,2.763167434522184e-10,1.8293014111465187e-10,1.271190504799608e-10,9.092035494253098e-11,6.652752680168821e-11,4.8850504684104576e-11,3.5246292793705136e-11,2.4746735672206e-11,1.6641322086563964e-11,1.0659815351497078e-11,6.507018740343193e-12,3.769379477284181e-12,2.0682132219721696e-12,1.0813174669630674e-12,5.326092763719962e-13
0.0,5,5.0,0.0,30.0,0.0,0.0,0.0,0.0,-13.0,0.0,2.0,0.0,0.0,0.0,5.902710751437344e-11,5.425292383996894e-11,4.9254808130541225e-11,4.420606076095762e-11,3.909701722292265e-11,3.412176818514423e-11,2.92902178633715e-11,2.4517646536246384e-11,1.989257056201157e-11,1.5638010616466486e-11,1.184946956174132e-11,8.612206832568312e-12,6.016918034369239e-12,4.021954104652112e-12,2.5654332479685536e-12,1.5603823947183937e-12,9.073893688803317e-13,5.033305848551951e-13,2.663976573328158e-13,1.349736389906344e-13,6.591341976092274e-14,3.119979100463504e-14,1.4494730399839833e-14,6.792433502061795e-15,3.187102817772122e-15,1.250853697373795e-15,3.424573467518273e-09,1.563638488188998e-09,7.944229530640349e-10,4.495839551904325e-10,2.7932755648960186e-10,1.8547338087046834e-10,1.283448546370581e-10,9.062977002423724e-11,6.517185168892391e-11,4.7198294190784096e-11,3.393185022658496e-11,2.4005899675565994e-11,1.638974445536159e-11,1.0701419882831472e-11,6.667042954325349e-12,3.944463974382199e-12,2.2121351316892504e-12,1.182060952693848e-12,5.946337910307173e-13
0.0,6,6.0,0.0,30.0,0.0,0.0,0.0,0.0,-13.0,0.0,2.0,0.0,0.0,0.0,5.88904383320756e-11,5.403616567302518e-11,4.8960678653183095e-11,4.385035190379321e-11,3.8714502782416366e-11,3.376500889352501e-11,2.9017603622664474e-11,2.4381444673875275e-11,1.9918201872923648e-11,1.580948978021715e-11,1.2122898746259252e-11,8.931602996672044e-12,6.332375618524752e-12,4.299340292443704e-12,2.7875830610088917e-12,1.7244169000631766e-12,1.0198591244753124e-12,5.75387687908648e-13,3.0948575262623215e-13,1.593308779133175e-13,7.893953286033577e-14,3.795957763600443e-14,1.7798955486623906e-14,8.412517205974055e-15,3.904884277193212e-15,1.5910360677529796e-15,3.3999815283314254e-09,1.5517263113601766e-09,7.920260325756967e-10,4.5161391306122474e-10,2.825309513707267e-10,1.883857712672574e-10,1.3034518283095723e-10,9.143902764694346e-11,6.48898736954912e-11,4.627086749025159e-11,3.291238173154728e-11,2.326838573922947e-11,1.6023482379753114e-11,1.0617270148084129e-11,6.729823723354601e-12,4.0558320335309605e-12,2.3186691249995494e-12,1.263009116198711e-12,6.482040621096067e-13
0.0,7,7.0,0.0,30.0,0.0,0.0,0.0,0.0,-13.0,0.0,2.0,0.0,0.0,0.0,5.901097921177799e-11,5.406638269017243e-11,4.8896140720551844e-11,4.3694302236580585e-11,3.848443394969612e-11,3.3497178997672754e-11,2.8761578018912343e-11,2.419201388957386e-11,1.9839339928390564e-11,1.5853852492840674e-11,1.2272463364542508e-11,9.146795046274007e-12,6.568826193126564e-12,4.522044368711229e-12,2.975210014752049e-12,1.8687344361774e-12,1.122448858400526e-12,6.432028205473853e-13,3.512484684459935e-13,1.8354173509048355e-13,9.220052457219855e-14,4.498869797393232e-14,2.131174627553039e-14,1.0150135588384082e-14,4.69152309971146e-15,1.9589434538441464e-15,3.3748634851250294e-09,1.5399865326857879e-09,7.899752635860443e-10,4.5391707780651206e-10,2.858948453306985e-10,1.9145101808317066e-10,1.326784082646998e-10,9.284964348444389e-11,6.535033465311048e-11,4.598423553094358e-11,3.2266776067489927e-11,2.2648847302923396e-11,1.562678060857655e-11,1.045511923459815e-11,6.7204801552774395e-12,4.115874054843218e-12,2.393193104580582e-12,1.3259221082249005e-12,6.935736256799347e-13
0.0,8,8.0,0.0,30.0,0.0,0.0,0.0,0.0,-13.0,0.0,2.0,0.0,0.0,0.0,5.934995935457133e-11,5.4309828088916573e-11,4.9036639253901665e-11,4.3728570686309844e-11,3.841874286312383e-11,3.335376163108397e-11,2.8577275577606745e-11,2.4014447980941738e-11,1.9718272012193998e-11,1.5821052636124877e-11,1.233276880531101e-11,9.279187175110344e-12,6.738532244198317e-12,4.6963338596570475e-12,3.1308076868101543e-12,1.993719606503804e-12,1.2146106841592568e-12,7.060474786621439e-13,3.910956564231538e-13,2.0721785374094115e-13,1.0547664828141254e-13,5.21703059658172e-14,2.4979717352419777e-14,1.1983076162750961e-14,5.540201501957655e-15,2.356928718015485e-15,3.349253100660172e-09,1.5284605407397466e-09,7.882902379535222e-10,4.565020775846772e-10,2.894250417965941e-10,1.9461439388888333e-10,1.3515308255998747e-10,9.455846041593281e-11,6.626896363167155e-11,4.618815277995847e-11,3.198772481488843e-11,2.220968586321198e-11,1.526412492166779e-11,1.0256732967006079e-11,6.66128140381106e-12,4.1355996171644905e-12,2.440910319313658e-12,1.3729598473698907e-12,7.311728729292419e-13
0.0,9,9.0,0.0,30.0,0.0,0.0,0.0,0.0,-13.0,0.0,2.0,0.0,0.0,0.0,5.987011697173309e-11,5.4731378758351355e-11,4.935122397717525e-11,4.393007770704941e-11,3.850725733543581e-11,3.3341742821216293e-11,2.8489772054234314e-11,2.3888117937067737e-11,1.9599891256325753e-11,1.5751858145154714e-11,1.2334599023959128e-11,9.348782556022972e-12,6.853271805131203e-12,4.828555719656063e-12,3.257352855188915e-12,2.1003743488322927e-12,1.2963013249854213e-12,7.635243042339194e-13,4.286119138666794e-13,2.300564243133707e-13,1.1858300431753396e-13,5.940023717649309e-14,2.8751779843743024e-14,1.3889267885348053e-14,6.442905504861067e-15,2.791785545845401e-15,3.323188998906857e-09,1.517192782439098e-09,7.869946436578797e-10,4.5937667269206295e-10,2.931286368493037e-10,1.978707579971295e-10,1.377012919843427e-10,9.640714407647988e-11,6.744589623461123e-11,4.673010891302061e-11,3.201925528783151e-11,2.1968977902748454e-11,1.4978025108744498e-11,1.0056883328721449e-11,6.5723244419013846e-12,4.125002907504904e-12,2.4666334324716934e-12,1.4063501489593846e-12,7.614834514006597e-13
0.0,10,10.0,0.0,30.0,0.0,0.0,0.0,0.0,-13.0,0.0,2.0,0.0,0.0,0.0,6.053803210138044e-11,5.52985938038483e-11,4.980928934898096e-11,4.4271981638834436e-11,3.873022606288089e-11,3.345242569902965e-11,2.8504341665693043e-11,2.3832414559852677e-11,1.9513205731734256e-11,1.5677240067991035e-11,1.2304173690132114e-11,9.373980216201526e-12,6.924315603491653e-12,4.9249519620961834e-12,3.3579849117617686e-12,2.190030896999714e-12,1.3678204338659078e-12,8.154909576853081e-13,4.635279376034629e-13,2.5183122198526907e-13,1.3136835419042308e-13,6.658835105268143e-14,3.258071150106468e-14,1.5847446362333128e-14,7.391006864152484e-15,3.2686928325471803e-15,3.2967150928691827e-09,1.5062298684953592e-09,7.861142089749269e-10,4.625503061731406e-10,2.970105890996921e-10,2.012251903775964e-10,1.4030600028034004e-10,9.832426599308676e-11,6.875886537142917e-11,4.748631012320993e-11,3.228835355739292e-11,2.191409964109922e-11,1.478996784006186e-11,9.881826676718033e-12,6.471332679897036e-12,4.0933559866182105e-12,2.4748186897364962e-12,1.4282203332221516e-12,7.85029518408466e-13
0.0,11,11.0,0.0,30.0,0.0,0.0,0.0,0.0,-13.0,0.0,2.0,0.0,0.0,0.0,6.13250821083038e-11,5.5983300986915815e-11,5.038343134225606e-11,4.472852649892657e-11,3.906543161313025e-11,3.367002718921055e-11,2.861476783729882e-11,2.385277875435978e-11,1.947412464861653e-11,1.561866801766385e-11,1.2262517721599167e-11,9.371129019578767e-12,6.962329960440591e-12,4.991624445456951e-12,3.4358726943369554e-12,2.2641723704977902e-12,1.4296821019488557e-12,8.619911564088273e-13,4.956940541261547e-13,2.7238255448874614e-13,1.4371233259276327e-13,7.365864434240625e-14,3.6424072024170045e-14,1.7837641376571713e-14,8.37583890594142e-15,3.7869468032420624e-15,3.2698807882785804e-09,1.4956205596304685e-09,7.856754185650388e-10,4.660339799860891e-10,3.0107553426129635e-10,2.0468293934659853e-10,1.4296724302606153e-10,1.0028313393819812e-10,7.014148910875806e-11,4.836931280970497e-11,3.272523094340327e-11,2.201581799842247e-11,1.4704365454698324e-11,9.748677057910526e-12,6.37301520893878e-12,4.049211638498986e-12,2.4696514535650985e-12,1.440549648305668e-12,8.024067201909406e-13
0.0,12,12.0,0.0,30.0,0.0,0.0,0.0,0.0,-13.0,0.0,2.0,0.0,0.0,0.0,6.220774287343154e-11,5.676211227873665e-11,5.105050231842269e-11,4.52771548148719e-11,3.9491854760731464e-11,3.3976889068350874e-11,2.8809303659620452e-11,2.39459944081299e-11,1.9488790658257773e-11,1.558927117363379e-11,1.222528068545162e-11,9.354061990570717e-12,6.977152919205486e-12,5.034495626442153e-12,3.494174907709852e-12,2.324340736355346e-12,1.4825229400914824e-12,9.031955516757561e-13,5.250556026516192e-13,2.9160715707083235e-13,1.5552221137408853e-13,8.054857147557546e-14,4.024458289091414e-14,1.984150666871838e-14,9.389108085777437e-15,4.339203957847717e-15,3.2427410753589714e-09,1.4854158424766748e-09,7.85705058945771e-10,4.698394918604038e-10,3.0532881304816846e-10,2.0824839440730528e-10,1.4568916794130694e-10,1.0227707124000893e-10,7.156201663603801e-11,4.932363574834526e-11,3.327300785137752e-11,2.223946467182846e-11,1.47139084106313e-11,9.666052580899143e-12,6.288519000281927e-12,4.000182386364889e-12,2.455076323210607e-12,1.4451816046418632e-12,8.143000631037661e-13
0.0,13,13.0,0.0,30.0,0.0,0.0,0.0,0.0,-13.0,0.0,2.0,0.0,0.0,0.0,6.316743961761539e-11,5.7616369907933165e-11,5.179178724322358e-11,4.5899206067028873e-11,3.999130490152928e-11,3.435631023905909e-11,2.9074517054682664e-11,2.4104269953323354e-11,1.9556793294859717e-11,1.5595520348250193e-11,1.2203067748059661e-11,9.333807372401039e-12,6.977519153609378e-12,5.0592132756799866e-12,3.5360221706331315e-12,2.3721000483604173e-12,1.5270446272330843e-12,9.393552353541746e-13,5.516302436881678e-13,3.0944834322460966e-13,1.667297194969197e-13,8.720796092342697e-14,4.401012590678207e-14,2.1842531354671888e-14,1.0423052780487663e-14,4.913510658381975e-15,3.215356612638275e-09,1.4756689018746314e-09,7.862301250910328e-10,4.739788938050534e-10,3.09776555955435e-10,2.1192576355063457e-10,1.4847619279469117e-10,1.0430703106307823e-10,7.300777957257228e-11,5.031738903614674e-11,3.389010897530391e-11,2.255212956291535e-11,1.4804779629850114e-11,9.635678048173493e-12,6.2252706822685275e-12,3.952659651834188e-12,2.434751788518525e-12,1.4438475269524117e-12,8.214755078389083e-13
0.0,14,14.0,0.0,30.0,0.0,0.0,0.0,0.0,-13.0,0.0,2.0,0.0,0.0,0.0,6.419007643781669e-11,5.853174700761944e-11,5.259272231982457e-11,4.657989306418612e-11,4.0548917689858194e-11,3.4793855556512943e-11,2.939750840674559e-11,2.4318062943383745e-11,1.9673858604874194e-11,1.5639046502958517e-11,1.220215768735148e-11,9.318558870596626e-12,6.970829339107173e-12,5.071012814985526e-12,3.5644836129851518e-12,2.409023956245483e-12,1.5639831973740933e-12,9.70768915817823e-13,5.754879640045982e-13,3.2588659739411737e-13,1.772879925519679e-13,9.359778726851793e-14,4.769351196422492e-14,2.3826162408147492e-14,1.1470383595135014e-14,5.496432791698123e-15,3.1877938355888914e-09,1.4664350100710193e-09,7.872777967619167e-10,4.784642486325483e-10,3.144254365611614e-10,2.1571955470445882e-10,1.5133238800032094e-10,1.0637624920143475e-10,7.447553061832207e-11,5.1334175385451934e-11,3.454872263322604e-11,2.2926304506225572e-11,1.496081602217637e-11,9.654402843554504e-12,6.187246793713242e-12,3.911609422377132e-12,2.4119580920946537e-12,1.4381759667056396e-12,8.247504305109663e-13
0.0,15,15.0,0.0,30.0,0.0,0.0,0.0,0.0,-13.0,0.0,2.0,0.0,0.0,0.0,6.526537944337602e-11,5.949765399443217e-11,5.3442379375523695e-11,4.730792344171509e-11,4.115305937575781e-11,3.5277763235808404e-11,2.976700488612513e-11,2.4577835515364584e-11,1.983386514454417e-11,1.571830910596756e-11,1.2225418421398213e-11,9.31388666605759e-12,6.963025720339779e-12,5.074575417180326e-12,3.582510562008991e-12,2.43668592719802e-12,1.5940948707071183e-12,9.977624682993784e-13,5.967346748866821e-13,3.4093090293752324e-13,1.8716857728245514e-13,9.96889265132988e-14,5.1272137951009465e-14,2.5779850910823664e-14,1.2524118974156816e-14,6.075844733143544e-15,3.160125083499868e-09,1.4577713793469181e-09,7.888753876907361e-10,4.833075554217381e-10,3.1928243175117173e-10,2.1963469250085648e-10,1.542616640281892e-10,1.0848832344225833e-10,7.596613373151487e-11,5.2366860198234945e-11,3.523175017800818e-11,2.334100009111507e-11,1.5166325299853676e-11,9.716167127441423e-12,6.175556677596858e-12,3.880509945290492e-12,2.3894993897431086e-12,1.4296823271041491e-12,8.249547333047979e-13
0.0,16,16.0,0.0,30.0,0.0,0.0,0.0,0.0,-13.0,0.0,2.0,0.0,0.0,0.0,6.638617749933432e-11,6.050657079115451e-11,5.433285577073e-11,4.807497056755081e-11,4.1794951025938355e-11,3.579886373725028e-11,3.0173747652257196e-11,2.4875008473165547e-11,2.003021046890961e-11,1.5829958921771873e-11,1.2273247936887159e-11,9.323115999437025e-12,6.958591054127713e-12,5.073916797506125e-12,3.5928668083226074e-12,2.4566419246208554e-12,1.6181491381416391e-12,1.0206778794255894e-12,6.154998672412064e-13,3.5461116088932224e-13,1.9635845089754566e-13,1.0546093488424142e-13,5.4727605521662906e-14,2.769302527867481e-14,1.3577438011243864e-14,6.6426498705482875e-15,3.1324287281708096e-09,1.449737003275412e-09,7.910502614445272e-10,4.885207370870651e-10,3.2435467717921514e-10,2.236764492117883e-10,1.572679830525042e-10,1.106467159687724e-10,7.748195791925021e-11,5.341338164355562e-11,3.5929647464018185e-11,2.3781373266340436e-11,1.54076706595697e-11,9.813631605941523e-12,6.189174532692049e-12,3.8614338177933414e-12,2.369632494617882e-12,1.419744327203991e-12,8.228929034512821e-13
0.0,17,17.0,0.0,30.0,0.0,0.0,0.0,0.0,-13.0,0.0,2.0,0.0,0.0,0.0,6.75477130011177e-11,6.155339362952757e-11,5.525866211243944e-11,4.8875111926160093e-11,4.246819073589843e-11,3.635026696937791e-11,3.061047506171936e-11,2.5202371719804594e-11,2.025664064784463e-11,1.596984901519069e-11,1.2344421683901011e-11,9.347787149566854e-12,6.960654749709535e-12,5.072326657661506e-12,3.59806017724762e-12,2.470404164524637e-12,1.6369226597991357e-12,1.0398680368643753e-12,6.319281527907655e-13,3.669719834574824e-13,2.048571056501224e-13,1.1090085586606767e-13,5.804533732760842e-14,2.95569949910583e-14,1.4623630035267533e-14,7.191345733314309e-15,3.1047892934623426e-09,1.4423924949187558e-09,7.93829732041157e-10,4.941156403785074e-10,3.2964940355652866e-10,2.2785033393779627e-10,1.6035544555047004e-10,1.128547308432674e-10,7.902574990642924e-11,5.447420067165966e-11,3.663779093147779e-11,2.4237665449664937e-11,1.5673917587237032e-11,9.939360706542983e-12,6.2256769056086024e-12,3.855239397773547e-12,2.3540386018448837e-12,1.4095728144968245e-12,8.193130681123026e-13
0.0,18,18.0,0.0,30.0,0.0,0.0,0.0,0.0,-13.0,0.0,2.0,0.0,0.0,0.0,6.874703783223106e-11,6.26348519206376e-11,5.6216164595084037e-11,4.9704302140833654e-11,4.3168271881043365e-11,3.692696854171339e-11,3.1071703906294754e-11,2.555415963163971e-11,2.0507681531677326e-11,1.6133718038862432e-11,1.2436784353100959e-11,9.388123158453274e-12,6.971173217057982e-12,5.072362990127078e-12,3.600287975710252e-12,2.4794095965242513e-12,1.6511907659592528e-12,1.0556941973418623e-12,6.461740029046419e-13,3.7806797699339705e-13,2.1267381440004414e-13,1.1600205967029264e-13,6.121420182765679e-14,3.136479454259006e-14,1.5656162807169414e-14,7.71971196580789e-15,3.077297561279638e-09,1.4357999236714618e-09,7.97240966480831e-10,5.001040358672673e-10,3.351739206488209e-10,2.321620038222367e-10,1.6352828545577237e-10,1.1511558804086162e-10,8.060022602288838e-11,5.555087929825764e-11,3.735453597459363e-11,2.470396555359166e-11,1.595686610006834e-11,1.0086570468668056e-11,6.281889099788266e-12,3.861823475677794e-12,2.3438399251364333e-12,1.4001866813861647e-12,8.148852040499093e-13
0.0,19,19.0,0.0,30.0,0.0,0.0,0.0,0.0,-13.0,0.0,2.0,0.0,0.0,0.0,6.998251784034028e-11,6.374902157479138e-11,5.720311087401181e-11,5.05599149127028e-11,4.389214753918263e-11,3.752545760736946e-11,3.1553433332997855e-11,2.592594252162955e-11,2.0778800926073713e-11,1.631760457772207e-11,1.2547768929437259e-11,9.443454465244418e-12,6.991148244695448e-12,5.075894065492858e-12,3.6014036504798153e-12,2.4849883885247287e-12,1.66171594529856e-12,1.068523869401447e-12,6.583987396709157e-13,3.879604387830675e-13,2.1982520510617806e-13,1.2076313242234272e-13,6.422614674877414e-14,3.311098424139482e-14,1.6668844437695093e-14,8.228008133194908e-15,3.050050661371203e-09,1.4300226503083456e-09,8.01310899703902e-10,5.0649762088394e-10,3.4093562516902993e-10,2.366172116383394e-10,1.6679082881208791e-10,1.174324778608666e-10,8.220796983931338e-11,5.664535570205128e-11,3.8079906437032246e-11,2.5177075258748243e-11,1.6250741977388485e-11,1.0249517123659221e-11,6.3543926000805615e-12,3.880390419774164e-12,2.33965354097979e-12,1.3923977413620462e-12,8.101882092301835e-13
0.0,20,20.0,0.0,30.0,0.0,0.0,0.0,0.0,-13.0,0.0,2.0,0.0,0.0,0.0,7.12534470528413e-11,6.489493985935907e-11,5.82182480177149e-11,5.14403664864946e-11,4.463786243348657e-11,3.814336680059862e-11,3.205284220932525e-11,2.63144345118075e-11,2.1066405727907837e-11,1.651806086570639e-11,1.2674754922326989e-11,9.51257272639722e-12,7.020852339365172e-12,5.084175003297684e-12,3.6029066071660427e-12,2.4883371184024254e-12,1.6692343015752823e-12,1.0787278598806823e-12,6.687688321344647e-13,3.967152421108846e-13,2.2633323971020313e-13,1.25186843635568e-13,6.707583950140529e-14,3.4791428601578395e-14,1.7656029731598422e-14,8.718020764179263e-15,3.0231521410140153e-09,1.4251251587865686e-09,8.060661665673253e-10,5.133080312648272e-10,3.469420205650515e-10,2.4122178424931804e-10,1.7014745117429519e-10,1.1980858057474254e-10,8.3851436345825e-11,5.775961246163166e-11,3.8814772595336984e-11,2.565559122582787e-11,1.6551744530559153e-11,1.0423623846940938e-11,6.439883446304155e-12,3.909704165861676e-12,2.341670194369731e-12,1.3868080788727873e-12,8.057044297646897e-13
0.0,21,21.0,0.0,30.0,0.0,0.0,0.0,0.0,-13.0,0.0,2.0,0.0,0.0,0.0,7.255976014567528e-11,6.607231379041286e-11,5.926102801108539e-11,5.234481966533354e-11,4.540425682307551e-11,3.8779179912848644e-11,3.256801571190893e-11,2.671727898763247e-11,2.136774986295132e-11,1.6732229117771918e-11,1.2815292539496713e-11,9.59400462218224e-12,7.060038614759831e-12,5.097944412432088e-12,3.605953052838339e-12,2.490499767277014e-12,1.674441622665234e-12,1.0866760879418408e-12,6.774547220213528e-13,4.044016031264643e-13,2.3222363797815414e-13,1.29279223152714e-13,6.976031557315879e-14,3.6403073242032355e-14,1.8612818766634998e-14,9.192190172207804e-15,2.9967120091194345e-09,1.4211728830493035e-09,8.115330518428345e-10,5.205468658666034e-10,3.5320074405898397e-10,2.459816222411396e-10,1.7360254872480786e-10,1.2224706463329307e-10,8.553297967008342e-11,5.889554781991055e-11,3.956037016051353e-11,2.6139223354319552e-11,1.6857575664387312e-11,1.0605438335306608e-11,6.535395510886603e-12,3.948302451903539e-12,2.3497452124298393e-12,1.3838195651537287e-12,8.018199686952257e-13
0.0,22,22.0,0.0,30.0,0.0,0.0,0.0,0.0,-13.0,0.0,2.0,0.0,0.0,0.0,7.390182615440938e-11,6.728130765527994e-11,6.033138927735714e-11,5.32729598129972e-11,4.619073744251199e-11,3.9431999036866875e-11,3.3097715607656035e-11,2.713284532507103e-11,2.1680803826460414e-11,1.6957832043824424e-11,1.2967224240222077e-11,9.686208984624134e-12,7.108121791691711e-12,5.117528088967224e-12,3.6113833301685534e-12,2.4923578142086426e-12,1.677980698744451e-12,1.0927323538389344e-12,6.846296512551502e-13,4.1109141052530175e-13,2.375247309100737e-13,1.330487724275783e-13,7.227863944175618e-14,3.7943737954309305e-14,1.9535207109672952e-14,9.652937539526393e-15,2.970846748572045e-09,1.418232027471887e-09,8.177374577684442e-10,5.282257252483202e-10,3.597195995033406e-10,2.509027126129933e-10,1.7716052586767669e-10,1.247510781556973e-10,8.725487698092719e-11,6.005494171273862e-11,4.031803939962804e-11,2.6628321225257837e-11,1.716701777799525e-11,1.0792496481875163e-11,6.638414543311318e-12,3.994664184479339e-12,2.363490489959319e-12,1.3836533349114677e-12,7.988292309962231e-13
0.0,23,23.0,0.0,30.0,0.0,0.0,0.0,0.0,-13.0,0.0,2.0,0.0,0.0,0.0,7.528030554922779e-11,6.852239348304909e-11,6.142960007925324e-11,5.422483095508485e-11,4.699710615036045e-11,4.010136580557672e-11,3.364119661538796e-11,2.756005269697677e-11,2.2004117051857685e-11,1.7193115920445084e-11,1.3128733536054237e-11,9.7877076485554e-12,7.164324437409698e-12,5.142939699940565e-12,3.6197603139152686e-12,2.494629227655269e-12,1.6804311426149737e-12,1.0972485580333224e-12,6.904682117984169e-13,4.1685883758179055e-13,2.422666851853159e-13,1.3650582301973994e-13,7.463158480424894e-14,3.9411938312812074e-14,2.0420164964205186e-14,1.010222824304102e-14,2.9456792904313454e-09,1.4163693803308456e-09,8.247048884854887e-10,5.363562641186643e-10,3.6650659549013847e-10,2.559911490792472e-10,1.8082579669946022e-10,1.2732374279943393e-10,8.901934409405488e-11,6.12394602746313e-11,4.1089096973136146e-11,2.7123564234792003e-11,1.7479588741647554e-11,1.0983146665972177e-11,6.746912022623998e-12,4.047329350738609e-12,2.3823594342644007e-12,1.3863760798824933e-12,7.969424045823089e-13
0.0,24,24.0,0.0,30.0,0.0,0.0,0.0,0.0,-13.0,0.0,2.0,0.0,0.0,0.0,7.669605449172334e-11,6.979624923022928e-11,6.255614983149483e-11,5.520071953076228e-11,4.7823435551895624e-11,4.078712836146154e-11,3.419806504900237e-11,2.7998225966024087e-11,2.2336690334901638e-11,1.7436772616264563e-11,1.3298346225948115e-11,9.897163321746591e-12,7.2277880907054125e-12,5.173971681837066e-12,3.631413618226133e-12,2.4978751207992063e-12,1.6823024423183384e-12,1.100558955012091e-12,6.951445412357442e-13,4.2178002310651573e-13,2.464810153886421e-13,1.396620415216892e-13,7.682134125644779e-14,4.080674233515763e-14,2.126564023615002e-14,1.054135383526399e-14,2.9213389436241095e-09,1.4156521204495223e-09,8.324604509930949e-10,5.449502562016181e-10,3.7356998806721313e-10,2.612531566684916e-10,1.846027963404324e-10,1.2996815372978281e-10,9.082854549962012e-11,6.245067243658262e-11,4.187478259568245e-11,2.7625770676577855e-11,1.779527826449886e-11,1.117637013304445e-11,6.859325713544975e-12,4.104976290185175e-12,2.4057198461379195e-12,1.3919298610482663e-12,7.962948179212524e-13
0.0,25,25.0,0.0,30.0,0.0,0.0,0.0,0.0,-13.0,0.0,2.0,0.0,0.0,0.0,7.815006288255862e-11,7.11036917133803e-11,6.371167601301636e-11,5.620107437536338e-11,4.86699812359824e-11,4.148934506902313e-11,3.476817332728733e-11,2.8446982716068147e-11,2.267786626244276e-11,1.768785732016222e-11,1.3474903567056887e-11,1.001341789483295e-11,7.297652417092337e-12,5.2102725877249374e-12,3.646485174574362e-12,2.5025122892679706e-12,1.6840304711096966e-12,1.1029749689843546e-12,6.988302270323212e-13,4.259326832828205e-13,2.5020029385953156e-13,1.4253006810435462e-13,7.88512532165922e-14,4.2127663396339506e-14,2.2070494171149975e-14,1.097088776040068e-14,2.897961273899444e-09,1.416147617928285e-09,8.410288726411823e-10,5.540196698057608e-10,3.809183271169535e-10,2.666951186466848e-10,1.884959984525584e-10,1.3268738601646096e-10,9.26846023251773e-11,6.369006789731909e-11,4.267624481800135e-11,2.8135788023727964e-11,1.811435739797218e-11,1.1371617786493251e-11,6.974509063553044e-12,4.166463889133508e-12,2.4329124147021177e-12,1.4001625166057437e-12,7.969573193633777e-13
0.0,26,26.0,0.0,30.0,0.0,0.0,0.0,0.0,-13.0,0.0,2.0,0.0,0.0,0.0,7.964341579378151e-11,7.244563397641992e-11,6.489691660735512e-11,5.72264532831685e-11,4.953712154178382e-11,4.220821661630283e-11,3.535154335212348e-11,2.8906147620701364e-11,2.302723990038896e-11,1.7945711589592665e-11,1.3657521428284133e-11,1.0135503156743965e-11,7.373107362986097e-12,5.251409514436544e-12,3.664972825123476e-12,2.508829692574492e-12,1.6859772757362024e-12,1.1047809638796008e-12,7.016920595846534e-13,4.2939558571821075e-13,2.5345797485531857e-13,1.4512326736248034e-13,8.072559451855817e-14,4.33745865220642e-14,2.283438646484346e-14,1.1390761150092314e-14,2.8756879262379215e-09,1.417923230699817e-09,8.504345355466071e-10,5.635767523401652e-10,3.885605052412516e-10,2.7232360453870265e-10,1.9250993614997757e-10,1.3548450617814284e-10,9.458960056307077e-11,6.49590731261305e-11,4.3494545320106744e-11,2.8654435640905956e-11,1.843724780726539e-11,1.1568672854343278e-11,7.091666062339644e-12,4.230847060228439e-12,2.4632945682147206e-12,1.4108563972601454e-12,7.989469958351531e-13
0.0,27,27.0,0.0,30.0,0.0,0.0,0.0,0.0,-13.0,0.0,2.0,0.0,0.0,0.0,8.117727058219802e-11,7.382305930379409e-11,6.611268027301806e-11,5.827748845939462e-11,5.042531738447554e-11,4.294403935192161e-11,3.594831222973689e-11,2.937568935361286e-11,2.3384588816906622e-11,1.8209896431711257e-11,1.3845544850809171e-11,1.0262633720812575e-11,7.453423879039332e-12,5.296915950411087e-12,3.68676968443605e-12,2.517007056841409e-12,1.6884336897079939e-12,1.1062312000798315e-12,7.038898004133777e-13,4.32247872373527e-13,2.562882651024571e-13,1.4745556576224037e-13,8.244937940234218e-14,4.454772256561754e-14,2.355762987935802e-14,1.18004078020683e-14,2.8546663856803204e-09,1.4210460996301816e-09,8.607015286493995e-10,5.736341221489232e-10,3.965058079589159e-10,2.781453984304481e-10,1.9664922438169735e-10,1.3836258713284777e-10,9.654560055037351e-11,6.625906504154385e-11,4.4330670611356185e-11,2.9182479523011663e-11,1.8764436708504354e-11,1.1767541829529257e-11,7.210283008522056e-12,4.297373414479974e-12,2.4962708111884598e-12,1.4237538948274487e-12,8.022376994850165e-13
0.0,28,28.0,0.0,30.0,0.0,0.0,0.0,0.0,-13.0,0.0,2.0,0.0,0.0,0.0,8.275284420604025e-11,7.523700623789225e-11,6.735982846481444e-11,5.935486500655034e-11,5.133508628472656e-11,4.369717406315775e-11,3.655869474671992e-11,2.9855675277372315e-11,2.3749819988409692e-11,1.8480136991535857e-11,1.4038503839173597e-11,1.0394189671381094e-11,7.53796858713058e-12,5.346326460838905e-12,3.7116980047135495e-12,2.5271340538292047e-12,1.6916241689945062e-12,1.107548059365725e-12,7.055741221861188e-13,4.345682564606776e-13,2.587259918835689e-13,1.4954134938405547e-13,8.402820815843546e-14,4.564758352512076e-14,2.4241033607840548e-14,1.2198936252109605e-14,2.835049672658965e-09,1.4255829459927718e-09,8.718537184150205e-10,5.842048662407174e-10,4.047639641414055e-10,2.8416752698610413e-10,2.0091858256085744e-10,1.4132472493988606e-10,9.855464775796176e-11,6.759138290804256e-11,4.518554562636179e-11,2.972062540700043e-11,1.909642485776247e-11,1.1968371972333869e-11,7.330064322499846e-12,4.365467896645951e-12,2.5313114697867953e-12,1.4385789118183417e-12,8.067699859993782e-13
0.0,29,29.0,0.0,30.0,0.0,0.0,0.0,0.0,-13.0,0.0,2.0,0.0,0.0,0.0,8.437140698580565e-11,7.668856065955974e-11,6.863926537971628e-11,6.045930815467925e-11,5.226698618817498e-11,4.4468025694559313e-11,3.718295807416473e-11,3.034623967859269e-11,2.412293061713109e-11,1.875627857748625e-11,1.4236073587865058e-11,1.0529694337343075e-11,7.626207120401255e-12,5.399200188159737e-12,3.739537066098059e-12,2.539228859658397e-12,1.6957132011336562e-12,1.108921496311961e-12,7.068848462297924e-13,4.3643414065269506e-13,2.6080643884920856e-13,1.5139539793059102e-13,8.546814377807424e-14,4.6674972118514435e-14,2.4885751370937812e-14,1.2585297963412081e-14,2.8169959703246114e-09,1.431599876298794e-09,8.839148393948543e-10,5.953026427001762e-10,4.1334519583319946e-10,2.9039728681004846e-10,2.0532285671590703e-10,1.4437405607823273e-10,1.00618784467856e-10,6.89573390399107e-11,4.606004678097514e-11,3.0269521586435296e-11,1.9433697331989765e-11,1.2171391643420669e-11,7.450876267152239e-12,4.43471075357899e-12,2.567962093888125e-12,1.4550539775350933e-12,8.124601884184836e-13
0.0,30,30.0,0.0,30.0,0.0,0.0,0.0,0.0,-13.0,0.0,2.0,0.0,0.0,0.0,8.603428031375068e-11,7.817885226797718e-11,6.995193287710417e-11,6.159157619468892e-11,5.322160585689164e-11,4.5257030629423175e-11,3.7821405180273696e-11,3.084756203412052e-11,2.4503979937906504e-11,1.9038252798682352e-11,1.4438040562448065e-11,1.0668790840466999e-11,7.71770002508325e-12,5.455135328192073e-12,3.770045187903981e-12,2.5532552517750735e-12,1.7008126669804147e-12,1.1105095859021458e-12,7.079495626786113e-13,4.3792071274784856e-13,2.6256513634654933e-13,1.5303283508138513e-13,8.677561476143209e-14,4.7630979370139925e-14,2.5493145830732606e-14,1.2958431705891493e-14,2.8006681830354585e-09,1.4391622005907318e-09,8.969086059365638e-10,6.069417867388706e-10,4.222602668640031e-10,2.968422709560041e-10,2.0986704078266265e-10,1.4751377440152534e-10,1.0274006177212716e-10,7.035822869507756e-11,4.695501361798418e-11,3.0829766204306457e-11,1.977670929116157e-11,1.2376869069786881e-11,7.57270013300118e-12,4.504812809881771e-12,2.605845765104844e-12,1.4729131262418782e-12,8.192084538592519e-13
0.0,31,31.0,0.0,30.0,0.0,0.0,0.0,0.0,-13.0,0.0,2.0,0.0,0.0,0.0,8.774283670876743e-11,7.970905371592435e-11,7.129880846535077e-11,6.275245702483233e-11,5.419955955591375e-11,4.606464907322915e-11,3.847436430281087e-11,3.1359852521394184e-11,2.4893069421073753e-11,1.932605220307903e-11,1.464427471855142e-11,1.0811219693351217e-11,7.81209424470515e-12,5.5137766708825175e-12,3.802976335383473e-12,2.5691377245805605e-12,1.706989610001938e-12,1.1124399829648892e-12,7.088826769691516e-13,4.3910007377389014e-13,2.640376060020002e-13,1.544690802396308e-13,8.795733872564722e-14,4.851698505330021e-14,2.606467637640606e-14,1.3317373817782837e-14,2.7862334271199635e-09,1.4483342713350417e-09,9.108588462623224e-10,6.191374194556096e-10,4.315205299163436e-10,3.035103945413975e-10,2.1455629688430507e-10,1.5074714725305857e-10,1.0492055137278319e-10,7.179533933132071e-11,4.7871258892275805e-11,3.1401916056827195e-11,2.0125881079039298e-11,1.2585085273157177e-11,7.695594952502669e-12,4.575590788276386e-12,2.644660358904533e-12,1.4919109215854582e-12,8.269056562667456e-13
0.0,32,32.0,0.0,30.0,0.0,0.0,0.0,0.0,-13.0,0.0,2.0,0.0,0.0,0.0,8.949850125595854e-11,8.128038130132814e-11,7.26809051008032e-11,6.394276690422325e-11,5.520148446590355e-11,4.6891360797927185e-11,3.914218254495039e-11,3.1883342640538566e-11,2.5290329212106296e-11,1.9619711760434883e-11,1.4854707482167675e-11,1.0956798711203814e-11,7.909112410559928e-12,5.574818073340338e-12,3.838092012420857e-12,2.5867743719042693e-12,1.7142739682571882e-12,1.1148120844487423e-12,7.097848894549746e-13,4.4004044587831644e-13,2.6525906826216825e-13,1.5571979175014082e-13,8.902026152329944e-14,4.9334657109083885e-14,2.6601813319269316e-14,1.3661331585790544e-14,2.7738624572773635e-09,1.4591793509449053e-09,9.257896599014728e-10,6.319055584326305e-10,4.4113797194042126e-10,3.104099195563597e-10,2.193959745922766e-10,1.5407753048690465e-10,1.0716235679344521e-10,7.326995925884521e-11,4.880957722646803e-11,3.198649534736637e-11,2.0481598769158896e-11,1.279631741942827e-11,7.819668939831609e-12,4.6469444006397355e-12,2.6841725029678926e-12,1.5118281611216301e-12,8.354391661065224e-13
0.0,33,33.0,0.0,30.0,0.0,0.0,0.0,0.0,-13.0,0.0,2.0,0.0,0.0,0.0,9.130275377502613e-11,8.289409652665642e-11,7.409927204747157e-11,6.516335053033286e-11,5.622803977805532e-11,4.7737663032643154e-11,3.98252222069273e-11,3.241827936421664e-11,2.5695909091962573e-11,1.9919295672135327e-11,1.5069314781433687e-11,1.1105405798693408e-11,8.008541486238267e-12,5.638001439665403e-12,3.875169221188842e-12,2.606047491075767e-12,1.7226659316334863e-12,1.1176996840330282e-12,7.107430853110618e-13,4.408054962077069e-13,2.662641268671959e-13,1.5680079623031515e-13,8.997150707791259e-14,5.0085947427704475e-14,2.7105978364543873e-14,1.3989722272818447e-14,2.763729034576584e-09,1.471759516690224e-09,9.417255990858331e-10,6.452632293151706e-10,4.5112525800178817e-10,3.1754947905959983e-10,2.243916292497248e-10,1.575083823253502e-10,1.0946762376343822e-10,7.478338565957018e-11,4.977075254236182e-11,3.2584003662515936e-11,2.084421758599121e-11,1.301082952682659e-11,7.945058428669015e-12,4.718836161449622e-12,2.724209632448514e-12,1.5324748536789155e-12,8.446975090754331e-13
0.0,34,34.0,0.0,30.0,0.0,0.0,0.0,0.0,-13.0,0.0,2.0,0.0,0.0,0.0,9.315713115373604e-11,8.455150808581243e-11,7.555499642393751e-11,6.641508194789073e-11,5.727990680547103e-11,4.860406965910995e-11,4.0523858874803536e-11,3.296492166888323e-11,2.610997264374424e-11,2.0224888209519408e-11,1.5288104298660792e-11,1.1256964714192714e-11,8.11022177346447e-12,5.703113471079312e-12,3.914005271644765e-12,2.62683201079201e-12,1.7321426896459128e-12,1.1211539233384302e-12,7.118305905829197e-13,4.4145380064860444e-13,2.670864464123283e-13,1.57728002431338e-13,9.081833390666373e-14,5.077308250786626e-14,2.7578508995147468e-14,1.4302183525456486e-14,2.756009244978221e-09,1.486135612269391e-09,9.586918742094735e-10,6.592285775324193e-10,4.6149577381005287e-10,3.249381010260623e-10,2.2954903948811992e-10,1.6104327610176772e-10,1.1183854966838969e-10,7.633693193278398e-11,5.0755564463925325e-11,3.319492290766343e-11,2.1214066583049346e-11,1.3228868151576975e-11,8.071912950915642e-12,4.791274318330818e-12,2.764651210845787e-12,1.5536910576630305e-12,8.545739826135158e-13
0.0,35,35.0,0.0,30.0,0.0,0.0,0.0,0.0,-13.0,0.0,2.0,0.0,0.0,0.0,9.506323046625216e-11,8.625397420416147e-11,7.704920480592799e-11,6.769886567835954e-11,5.8357789620772e-11,4.9491111276595914e-11,4.123848065667097e-11,3.352353862736561e-11,2.653269361967262e-11,2.0536587520102808e-11,1.551110612948238e-11,1.1411433640651122e-11,8.214036872514472e-12,5.769981153549997e-12,3.954420168618075e-12,2.6490019409815976e-12,1.7426644258611161e-12,1.1252063688339052e-12,7.131077368860159e-13,4.420384594306894e-13,2.6775843899631477e-13,1.5851730090202266e-13,9.156809518910558e-14,5.1398548435091995e-14,2.8020643050870217e-14,1.4598562433573878e-14,2.750880780630452e-09,1.5023672555772682e-09,9.767145828426895e-10,6.738209793420614e-10,4.722636673143574e-10,3.325852321559787e-10,2.3487422409004067e-10,1.6468591200829367e-10,1.1427739206482401e-10,7.793193434529653e-11,5.1764793853322536e-11,3.3819723180635826e-11,2.1591453614981532e-11,1.3450661276903671e-11,8.20038514835106e-12,4.8642989193835405e-12,2.805419888523016e-12,1.575346123507984e-12,8.649693237111279e-13
0.0,36,36.0,0.0,30.0,0.0,0.0,0.0,0.0,-13.0,0.0,2.0,0.0,0.0,0.0,9.702271179818202e-11,8.800290503011658e-11,7.858306516989228e-11,6.901563819878538e-11,5.946241602975265e-11,5.03993356715274e-11,4.1969488068514743e-11,3.4094408507548964e-11,2.6964253814876882e-11,2.085450157103103e-11,1.5738366095848063e-11,1.1568796241898903e-11,8.319904898372307e-12,5.8384666926836105e-12,3.9962572154218545e-12,2.672435095187094e-12,1.7541794902987987e-12,1.1298720737396244e-12,7.146226709035873e-13,4.426068661368079e-13,2.683109741690869e-13,1.5918445268017878e-13,9.222820014713052e-14,5.1965070324546214e-14,2.84335191586437e-14,1.4878890540515912e-14,2.7485221998386508e-09,1.5205129121459138e-09,9.958209610985657e-10,6.890611514398505e-10,4.834438898687088e-10,3.4050076197463975e-10,2.4037345835620443e-10,1.6844012800413398e-10,1.1678647632789869e-10,7.956975799362412e-11,5.279922760771453e-11,3.445886767325019e-11,2.1976670073464338e-11,1.3676419133654816e-11,8.330624354033847e-12,4.937970804795712e-12,2.846473121357671e-12,1.5973368163293488e-12,8.757935365916124e-13
0.0,37,37.0,0.0,30.0,0.0,0.0,0.0,0.0,-13.0,0.0,2.0,0.0,0.0,0.0,9.903730128764101e-11,8.979976512456742e-11,8.015778885664896e-11,7.036636947801872e-11,6.059453868643786e-11,5.1329308547704595e-11,4.2717294317896474e-11,3.4677818490445903e-11,2.7404841922881467e-11,2.1178745593468997e-11,1.5969941082385957e-11,1.1729054828563272e-11,8.427771045750202e-12,5.908462387125217e-12,4.039382371403715e-12,2.697016357198774e-12,1.7666287398689073e-12,1.135152515478987e-12,7.164123440108871e-13,4.432006232473601e-13,2.687731236621746e-13,1.5974497135846463e-13,9.280607533781064e-14,5.2475586860809154e-14,2.8818188604678534e-14,1.514335146644475e-14,2.74911218550142e-09,1.540630043296377e-09,1.016039655412196e-09,7.049712584858604e-10,4.950522375691853e-10,3.4869504755066813e-10,2.460532901294912e-10,1.7230991005469795e-10,1.1936820254536657e-10,8.125180211472893e-11,5.385966281905371e-11,3.511281673099739e-11,2.2369995130487564e-11,1.390633607517276e-11,8.462772864957447e-12,5.0123631838864705e-12,2.887795572289519e-12,1.6195847184220424e-12,8.869669963408776e-13
0.0,38,38.0,0.0,30.0,0.0,0.0,0.0,0.0,-13.0,0.0,2.0,0.0,0.0,0.0,1.0110879425276642e-10,9.164607600494548e-11,8.177463257282881e-11,7.175206455439996e-11,6.175493627280517e-11,5.228161437564849e-11,4.348232579831296e-11,3.5274064755510245e-11,2.785465301958684e-11,2.1509440555863354e-11,1.6205895873801672e-11,1.1892225252617413e-11,8.537601467162743e-12,5.979885760322843e-12,4.083682797189084e-12,2.7226397605788307e-12,1.779949079941963e-12,1.1410383293115802e-12,7.185036207104969e-13,4.4385559105398637e-13,2.691719492077144e-13,1.6021400331955198e-13,9.33091251829392e-14,5.2933220868484305e-14,2.917563455063353e-14,1.5392246514487314e-14,2.752828825817752e-09,1.5627753371594311e-09,1.037401012048885e-09,7.215750180724728e-10,5.071053934442967e-10,3.5717893914094443e-10,2.5192055561799034e-10,1.7629940187263053e-10,1.2202505179307429e-10,8.297950480466923e-11,5.4946910382204716e-11,3.578203120576961e-11,2.2771699397447968e-11,1.4140592925548315e-11,8.596964117389419e-12,5.08755540652937e-12,2.9293924657563715e-12,1.6420332342880709e-12,8.984209461216122e-13
0.0,39,39.0,0.0,30.0,0.0,0.0,0.0,0.0,-13.0,0.0,2.0,0.0,0.0,0.0,1.0323905840728744e-10,9.354341874108768e-11,8.343490041980302e-11,7.317376513147561e-11,6.294441469962999e-11,5.325685728886863e-11,4.426502268416563e-11,3.5883452769752744e-11,2.8313888433232074e-11,2.1846712323150646e-11,1.6446301080074575e-11,1.2058333178225681e-11,8.649378351293984e-12,6.052675139010782e-12,4.129064924902808e-12,2.7492096314962265e-12,1.7940762692488392e-12,1.1475117857401937e-12,7.209144507125964e-13,4.4460205257727e-13,2.695323385394732e-13,1.6060621085426926e-13,9.374469163843168e-14,5.334124699591346e-14,2.950679504080729e-14,1.5625962195305173e-14,2.7598489450250903e-09,1.5870050293484431e-09,1.0599373809592998e-09,7.388978029026339e-10,5.19620971236148e-10,3.659638070365358e-10,2.5798239514693017e-10,1.8041291432490418e-10,1.2475959193364134e-10,8.475434721922322e-11,5.606179812623763e-11,3.6466975225426094e-11,2.3182048001536246e-11,1.4379359435237245e-11,8.733322151814317e-12,5.1636285345373915e-12,2.971283953413274e-12,1.6646444487920966e-12,9.100975025871652e-13
0.0,40,40.0,0.0,30.0,0.0,0.0,0.0,0.0,-13.0,0.0,2.0,0.0,0.0,0.0,1.0543003717193312e-10,9.549343660943087e-11,8.513994595240847e-11,7.463255118571856e-11,6.416380830946077e-11,5.425566198881085e-11,4.506583956195096e-11,3.6506297678324214e-11,2.8782755839176338e-11,2.219069125852663e-11,1.6691231830866855e-11,1.2227411420704219e-11,8.763096050776271e-12,6.126785770849974e-12,4.1754523055494114e-12,2.7766410179003213e-12,1.8089470677814188e-12,1.1545489822868026e-12,7.236550572926233e-13,4.4546497477237573e-13,2.6987689168961546e-13,1.6093566242179848e-13,9.412001333783903e-14,5.370305762672554e-14,2.981258690384154e-14,1.5844942194876997e-14,2.7703475155929725e-09,1.6133753181651055e-09,1.0836834300082312e-09,7.569667402617443e-10,5.326175615382029e-10,3.7506156983948566e-10,2.6424626895873556e-10,1.8465493465923412e-10,1.2757448307550532e-10,8.657785733745243e-11,5.7205173537066976e-11,3.7168118487526946e-11,2.3601303128575217e-11,1.4622796628335685e-11,8.87196190609411e-12,5.240662344897198e-12,3.0135004722087605e-12,1.6873960248095505e-12,9.219492775874938e-13
0.0,41,41.0,0.0,30.0,0.0,0.0,0.0,0.0,-13.0,0.0,2.0,0.0,0.0,0.0,1.0768375309191645e-10,9.749783781660419e-11,8.689117427590573e-11,7.612954258916437e-11,6.54139810764052e-11,5.527867464064193e-11,4.588524606232601e-11,3.714292473498184e-11,2.926146947535508e-11,2.2541512098998805e-11,1.694076699960749e-11,1.239949809495518e-11,8.878758096354233e-12,6.202186506891335e-12,4.222783413988022e-12,2.804859596378249e-12,1.8245008156207055e-12,1.1621217389319428e-12,7.267291030744977e-13,4.464643455031128e-13,2.7022585711973783e-13,1.612157336178573e-13,9.444218483414697e-14,5.402212808378944e-14,3.009392833389909e-14,1.6049665076891347e-14,2.7844971863785025e-09,1.641942876782947e-09,1.1086764651888127e-09,7.758108092467947e-10,5.461147810502807e-10,3.8448472434995273e-10,2.7071997317390296e-10,1.8903013569027007e-10,1.3047248281802213e-10,8.84516133696777e-11,5.837790613482081e-11,3.788593816782348e-11,2.4029726101663037e-11,1.487105892729734e-11,9.012990000465457e-12,5.3187334389275646e-12,3.056079025909995e-12,1.710278271706362e-12,9.339387151682763e-13
0.0,42,42.0,0.0,30.0,0.0,0.0,0.0,0.0,-13.0,0.0,2.0,0.0,0.0,0.0,1.1000231137164548e-10,9.95583983056783e-11,8.869004419217702e-11,7.766590075392767e-11,6.669582780447603e-11,5.632656375377808e-11,4.672372747565259e-11,3.7793669737429847e-11,2.975025041341438e-11,2.2899313990570918e-11,1.7194988781342736e-11,1.2574635363314272e-11,8.996374938712493e-12,6.278857030728162e-12,4.271009533744585e-12,2.833801215533262e-12,1.840680531942179e-12,1.1701992009902317e-12,7.301348029139148e-13,4.4761556617452614e-13,2.705971151371629e-13,1.6145902159878104e-13,9.471811672900457e-14,5.43019820863713e-14,3.035175858238806e-14,1.6240628030174424e-14,2.8024679633994536e-09,1.6727654619183948e-09,1.1349567522699858e-09,7.954609366472888e-10,5.601333256672006e-10,3.942463771915914e-10,2.7741165602470054e-10,1.9354338507265783e-10,1.334564513927263e-10,9.037724688715408e-11,5.958088956508093e-11,3.862092051910164e-11,2.446757906946131e-11,1.5124296006738307e-11,9.156505777226482e-12,5.397914180072008e-12,3.0990602921568258e-12,1.7332914703972438e-12,9.460372319988898e-13
0.0,43,43.0,0.0,30.0,0.0,0.0,0.0,0.0,-13.0,0.0,2.0,0.0,0.0,0.0,1.1238790353834307e-10,1.0167696465951608e-10,9.053807040687725e-11,7.9242830306911e-11,6.801027532944223e-11,5.7400021047462036e-11,4.7581785344323044e-11,3.8458879449400456e-11,3.024932684681465e-11,2.3264240608033033e-11,1.745398249816446e-11,1.275286861687774e-11,9.115962273050968e-12,6.356785589803505e-12,4.320092798364835e-12,2.8634112037094152e-12,1.857433619859024e-12,1.1787491637938566e-12,7.338659615948593e-13,4.4892988121752167e-13,2.7100620447278913e-13,1.616772748560845e-13,9.495449753873348e-14,5.4546158286421747e-14,3.058705376663919e-14,1.6418336266110132e-14,2.824427080702481e-09,1.705902615151133e-09,1.1625678354845132e-09,8.159500928295242e-10,5.746950280311006e-10,4.0436027825592953e-10,2.843298344798147e-10,1.9819975477444436e-10,1.3652935679319963e-10,9.235644574369546e-11,6.081504345883346e-11,3.937356222328133e-11,2.491512637414334e-11,1.5382654368662725e-11,9.302602434253485e-12,5.478272232022201e-12,3.1424864436070464e-12,1.7564435041676485e-12,9.582242374483842e-13
0.0,44,44.0,0.0,30.0,0.0,0.0,0.0,0.0,-13.0,0.0,2.0,0.0,0.0,0.0,1.1484281124695625e-10,1.0385545711650143e-10,9.24368258090037e-11,8.086158080296401e-11,6.935828373018504e-11,5.849976230490556e-11,4.8459938031260625e-11,3.9138912001725174e-11,3.075893437443074e-11,2.3636440311758103e-11,1.771783654389854e-11,1.2934245962447546e-11,9.237539819947272e-12,6.435967170602245e-12,4.370004431632311e-12,2.8936435407866396e-12,1.8747122559598895e-12,1.1877391407668134e-12,7.379129212819296e-13,4.504148275243339e-13,2.7146638681342307e-13,1.6188133941406434e-13,9.515775812478822e-14,5.475817856212874e-14,3.080083828830609e-14,1.6583297224861892e-14,2.850539097879189e-09,1.7414164494439581e-09,1.191556849411878e-09,8.373133894244907e-10,5.898229200479741e-10,4.148408560093644e-10,2.9148341139111157e-10,2.030045308505723e-10,1.3969427996774068e-10,9.439095685099925e-11,6.208131511134581e-11,4.014437154910997e-11,2.5372635661333925e-11,1.5646278654921138e-11,9.451368148482872e-12,5.559870514576369e-12,3.1863995691546846e-12,1.7797478160844873e-12,9.70486097190657e-13
0.0,45,45.0,0.0,30.0,0.0,0.0,0.0,0.0,-13.0,0.0,2.0,0.0,0.0,0.0,1.1736941023976816e-10,1.0609587271461426e-10,9.438794383360051e-11,8.252344848403203e-11,7.074084755552014e-11,5.962652822093218e-11,4.9358721267231505e-11,3.983413727077415e-11,3.127931626915781e-11,2.4016066312706895e-11,1.7986642407923496e-11,1.3118817918853012e-11,9.361130455923095e-12,6.516402054532688e-12,4.420723204010581e-12,2.924459969309096e-12,1.8924735347379098e-12,1.1971372008540968e-12,7.422634099119564e-13,4.520746891938693e-13,2.7198874344056873e-13,1.620811217760431e-13,9.533403943335936e-14,5.494151859768052e-14,3.0994191744898355e-14,1.673601852469232e-14,2.8809662577029324e-09,1.7793725097608824e-09,1.221974821188801e-09,8.595881810158899e-10,6.055413007006442e-10,4.2570325468500607e-10,2.988816933123352e-10,2.079632236019781e-10,1.4295442013129641e-10,9.648258886074479e-11,6.338068102527106e-11,4.093386935901239e-11,2.5840378785432545e-11,1.591531272479897e-11,9.60288712685932e-12,5.6427674351419936e-12,3.230840585964027e-12,1.8032216926676229e-12,9.82815092002013e-13
0.0,46,46.0,0.0,30.0,0.0,0.0,0.0,0.0,-13.0,0.0,2.0,0.0,0.0,0.0,1.199701744754542e-10,1.0840028858035188e-10,9.639312091725743e-11,8.422977809086409e-11,7.2158997071941e-11,6.078108524852026e-11,5.0278688681140045e-11,4.054493723603091e-11,3.1810723727776336e-11,2.4403276829417754e-11,1.8260494738507162e-11,1.330663725187078e-11,9.486759606422358e-12,6.598094692192445e-12,4.472234105358228e-12,2.95582909962323e-12,1.910679428626917e-12,1.2069126033806963e-12,7.469032868955219e-13,4.539109453596642e-13,2.725822978656121e-13,1.6228556830297378e-13,9.548916416558609e-14,5.5099581136798307e-14,3.116825151698616e-14,1.687700853811611e-14,2.9158691317793687e-09,1.8198406932888662e-09,1.2538769616009503e-09,8.828141733190398e-10,6.218758092937601e-10,4.369633733807443e-10,3.0653440916159235e-10,2.1308157819082601e-10,1.4631310023678755e-10,9.863321479842679e-11,6.471414835817772e-11,4.174259000124187e-11,2.6318632554858726e-11,1.618990053045566e-11,9.757240551394995e-12,5.727017288338305e-12,3.275848542357249e-12,1.8268848584728534e-12,9.952084117765916e-13
0.0,47,47.0,0.0,30.0,0.0,0.0,0.0,0.0,-13.0,0.0,2.0,0.0,0.0,0.0,1.2264768044373108e-10,1.1077086537919564e-10,9.845411905477819e-11,8.598196473285736e-11,7.361379953712726e-11,6.196422644966923e-11,5.122041231803859e-11,4.127170632024836e-11,3.23534161022663e-11,2.47982352289388e-11,1.853949142066505e-11,1.3497758896949548e-11,9.614454831471711e-12,6.681052838153974e-12,4.524527222664366e-12,2.9877255468953073e-12,1.929296614815871e-12,1.2170362587802042e-12,7.518171866417111e-13,4.559227012846442e-13,2.732541583964219e-13,1.6250266018243535e-13,9.562861285239044e-14,5.5235672169019043e-14,3.1324211427901655e-14,1.700677854983586e-14,2.9554075738112657e-09,1.862896212005501e-09,1.2873229454379022e-09,9.070335404815583e-10,6.388535040592346e-10,4.486379071081554e-10,3.1445172992106943e-10,2.183655857663364e-10,1.4977377263180828e-10,1.0084477468694225e-10,6.608275630953543e-11,4.2571082117118525e-11,2.6807679353696388e-11,1.647018682336666e-11,9.914507404806602e-12,5.812670744707827e-12,3.32146022334576e-12,1.8507583562884447e-12,1.0076672140710558e-12
0.0,48,48.0,0.0,30.0,0.0,0.0,0.0,0.0,-13.0,0.0,2.0,0.0,0.0,0.0,1.2540461168296346e-10,1.1320985094396345e-10,1.0057276846393013e-10,8.778145582074329e-11,7.510636050356083e-11,6.317677235587711e-11,5.218448314962084e-11,4.201485171627401e-11,3.290766111487781e-11,2.5201110148800462e-11,1.882373365370262e-11,1.3692239934253845e-11,9.744245549578036e-12,6.765286894762087e-12,4.577596804820541e-12,3.0201291245520917e-12,1.9482962109200086e-12,1.2274810427218144e-12,7.56989063589056e-13,4.581070952034085e-13,2.740096748537022e-13,1.6273942274153282e-13,9.575750465130817e-14,5.5352980194421736e-14,3.1463317014067676e-14,1.7125845601426966e-14,2.999741989077575e-09,1.9086205786221153e-09,1.3223771836328265e-09,9.322910540776975e-10,6.56502945859099e-10,4.607443898851434e-10,3.226442895840327e-10,2.238214951386596e-10,1.5334002491544753e-10,1.0311927819235396e-10,6.748757747705739e-11,4.3419909387594103e-11,2.7307807669180955e-11,1.6756317722848776e-11,1.0074765176093243e-11,5.899775372511639e-12,3.3677099833019118e-12,1.874863681778809e-12,1.0201957669623545e-12
0.0,49,49.0,0.0,30.0,0.0,0.0,0.0,0.0,-13.0,0.0,2.0,0.0,0.0,0.0,1.2824376351878053e-10,1.1571958409622895e-10,1.0275097036361495e-10,8.962975306613927e-11,7.663782515628611e-11,6.441957184333408e-11,5.317151158174631e-11,4.27747937046707e-11,3.347373506023133e-11,2.5612075600213983e-11,1.9113326020482662e-11,1.389013959201007e-11,9.876162858274054e-12,6.8508094205712544e-12,4.631440493064784e-12,3.0530241084289302e-12,1.9676534532717626e-12,1.2382219893728432e-12,7.624026447195702e-13,4.60459675495537e-13,2.7485260411020056e-13,1.6300194756773973e-13,9.5880583026901e-14,5.545455861574849e-14,3.15868580230724e-14,1.723473531526706e-14,3.049034915340576e-09,1.9571025967078247e-09,1.3591090919932304e-09,9.586342260795447e-10,6.748542865799067e-10,4.733012400360579e-10,3.3112320756546944e-10,2.2945582502087345e-10,1.5701558600234342e-10,1.0545880732000849e-10,6.892971920721496e-11,4.4289651238514345e-11,2.7819312548542242e-11,1.7048441174432452e-11,1.0238090453295028e-11,5.988376154587386e-12,3.414629742883316e-12,1.8992221387123157e-12,1.0328006878163627e-12
0.0,50,50.0,0.0,30.0,0.0,0.0,0.0,0.0,-13.0,0.0,2.0,0.0,0.0,0.0,1.3116804804157116e-10,1.1830249867380977e-10,1.0499069986923918e-10,9.152841455157549e-11,7.820937968879635e-11,6.56935030277533e-11,5.418212796323043e-11,4.355196596597276e-11,3.4051922997983786e-11,2.6031311054427305e-11,1.940837654496533e-11,1.4091519262533749e-11,1.0010239420232158e-11,6.937634766210065e-12,4.686058694713978e-12,3.0863985782611537e-12,1.9873473442349563e-12,1.2492363871921397e-12,7.680417970738422e-13,4.629747446373823e-13,2.7578527969495506e-13,1.6329542571804016e-13,9.600220633088833e-14,5.554331122695979e-14,3.169615878656988e-14,1.7333984188159147e-14,3.1034528953583754e-09,2.0084393374538885e-09,1.3975933635176002e-09,9.8611346756805e-10,6.93939361756236e-10,4.863278079492645e-10,3.3990011278365e-10,2.3527537684268803e-10,1.608043323975544e-10,1.0786551918605133e-10,7.041032495975215e-11,4.518090351968681e-11,2.8342496003813156e-11,1.734670732203797e-11,1.0404559414993708e-11,6.078515976004157e-12,3.4622490991783738e-12,1.9238543805995683e-12,1.0454902828051211e-12
0.0,51,51.0,0.0,30.0,0.0,0.0,0.0,0.0,-13.0,0.0,2.0,0.0,0.0,0.0,1.3418049933941506e-10,1.2096112777400223e-10,1.0729400900771292e-10,9.347905687448183e-11,7.982225272120466e-11,6.699947418354461e-11,5.5216983099839176e-11,4.434681589100022e-11,3.46425189394441e-11,2.6459001515061925e-11,1.9708996737390397e-11,1.4296442521308812e-11,1.0146509392247393e-11,7.025778807177837e-12,4.7414540783653024e-12,3.1202438376635045e-12,2.00736028861045e-12,1.26050379801466e-12,7.738908186937429e-13,4.656456679804273e-13,2.768087813382505e-13,1.6362419020528219e-13,9.612634316771925e-14,5.562198070239718e-14,3.17925671053987e-14,1.7424141031502503e-14,3.16316860572337e-09,2.0627370893366135e-09,1.4379102530815726e-09,1.0147822642312795e-09,7.137917870269064e-10,4.998444266315715e-10,3.48987169591406e-10,2.412872481257555e-10,1.6471029468670735e-10,1.1034164888689813e-10,7.193057570106893e-11,4.609427916918998e-11,2.887766737925471e-11,1.765126881408898e-11,1.0574248234010866e-11,6.1702360684801934e-12,3.510595508730877e-12,1.9487801059597097e-12,1.0582739866743895e-12
0.0,52,52.0,0.0,30.0,0.0,0.0,0.0,0.0,-13.0,0.0,2.0,0.0,0.0,0.0,1.3728427900041466e-10,1.2369810821774241e-10,1.0966302985361125e-10,9.548335736878702e-11,8.147771676520997e-11,6.833842469172484e-11,5.627674877721082e-11,4.5159804892211587e-11,3.524582603111811e-11,2.689533757963173e-11,2.00153016281245e-11,1.4504975143648125e-11,1.028500838092591e-11,7.115258749098713e-12,4.7976311703011245e-12,3.1545539099828437e-12,2.0276777338794143e-12,1.2720060174569788e-12,7.79934661819278e-13,4.68465146738489e-13,2.7792310099073727e-13,1.6399176593703755e-13,9.625657231975218e-14,5.569313994073211e-14,3.1877442246519675e-14,1.7505767396707516e-14,3.2283631926268214e-09,2.1201122729159788e-09,1.4801458843243858e-09,1.0446973688728463e-09,7.344470582443778e-10,5.138724654744024e-10,3.5839710568663865e-10,2.474988464020959e-10,1.687376642509343e-10,1.1288951248685902e-10,7.349169133651893e-11,4.703040887130862e-11,2.94251436928937e-11,1.796228106009427e-11,1.0747233407037246e-11,6.263576404899602e-12,3.559694512428361e-12,1.9740178769624473e-12,1.0711618983027665e-12
0.0,53,53.0,0.0,30.0,0.0,0.0,0.0,0.0,-13.0,0.0,2.0,0.0,0.0,0.0,1.4048268224179663e-10,1.2651618529927189e-10,1.1209997763423443e-10,9.754305629269104e-11,8.317708971507428e-11,6.971132606354327e-11,5.736211831728758e-11,4.599140871580422e-11,3.5862156728932975e-11,2.7340515492868307e-11,2.032740979543258e-11,1.4717185117130234e-11,1.0425773412913633e-11,7.206092985702888e-12,4.854596034077522e-12,3.189325105157273e-12,2.0482878246574344e-12,1.2837269919632863e-12,7.86159097162987e-13,4.714254556481575e-13,2.791273025030457e-13,1.6440092533068018e-13,9.639608691523354e-14,5.575918607968694e-14,3.1952142593896487e-14,1.7579436981176882e-14,3.2992287545899694e-09,2.1806923208692815e-09,1.5243925885472795e-09,1.075919010359292e-09,7.559426554346419e-10,5.284343876873981e-10,3.681432420637052e-10,2.539179036567513e-10,1.728908002245229e-10,1.1551151014126823e-10,7.509493218703572e-11,4.798994171406074e-11,2.9985249961190265e-11,1.8279902450975554e-11,1.0923592023206955e-11,6.358576042389046e-12,3.6095699791454753e-12,1.9995850344069777e-12,1.0841644048974398e-12
0.0,54,54.0,0.0,30.0,0.0,0.0,0.0,0.0,-13.0,0.0,2.0,0.0,0.0,0.0,1.437791430290462e-10,1.2941821750756736e-10,1.146071545325308e-10,9.96599595332946e-11,8.49217364914757e-11,7.111918283934853e-11,5.84738070732399e-11,4.6842117770771913e-11,3.6491833006019755e-11,2.7794737198296172e-11,2.064544337343101e-11,1.4933142644693504e-11,1.0568842916827984e-11,7.298300996801837e-12,4.912356016810511e-12,3.2245556504748243e-12,2.06918107828091e-12,1.2956527054393319e-12,7.925508278174801e-13,4.745186465743603e-13,2.804196727593781e-13,1.648537479320203e-13,9.654770245494069e-14,5.5822336973663044e-14,3.201801342010739e-14,1.764573397160026e-14,3.3759709077069714e-09,2.244616532379151e-09,1.5707492841176655e-09,1.1085111178558713e-09,7.783181513209547e-10,5.435538118406892e-10,3.7823952498846526e-10,2.6055249128572743e-10,1.771742367232802e-10,1.1821012936859627e-10,7.67416005113189e-11,4.897354585054382e-11,3.055831951391504e-11,1.860429455355194e-11,1.110340198333394e-11,6.455273415787342e-12,3.660244351563363e-12,2.0254976855377027e-12,1.0972918860937592e-12
