Line_number,Fiducial,Easting,Northing,Height,Elevation,tx_pitch,tx_roll,tx_yaw,txrx_dx,txrx_dy,txrx_dz,rx_pitch,rx_roll,rx_yaw,S0Z_time_3.834e-04,S0Z_time_3.924e-04,S0Z_time_4.039e-04,S0Z_time_4.184e-04,S0Z_time_4.364e-04,S0Z_time_4.589e-04,S0Z_time_4.869e-04,S0Z_time_5.224e-04,S0Z_time_5.679e-04,S0Z_time_6.249e-04,S0Z_time_6.969e-04,S0Z_time_7.879e-04,S0Z_time_9.019e-04,S0Z_time_1.046e-03,S0Z_time_1.227e-03,S0Z_time_1.456e-03,S0Z_time_1.744e-03,S0Z_time_2.109e-03,S0Z_time_2.567e-03,S0Z_time_3.145e-03,S0Z_time_3.864e-03,S0Z_time_4.745e-03,S0Z_time_5.821e-03,S0Z_time_7.140e-03,S0Z_time_8.754e-03,S0Z_time_1.073e-02,S1Z_time_2.057e-05,S1Z_time_2.607e-05,S1Z_time_3.307e-05,S1Z_time_4.206e-05,S1Z_time_5.356e-05,S1Z_time_6.807e-05,S1Z_time_8.607e-05,S1Z_time_1.086e-04,S1Z_time_1.366e-04,S1Z_time_1.721e-04,S1Z_time_2.176e-04,S1Z_time_2.746e-04,S1Z_time_3.466e-04,S1Z_time_4.376e-04,S1Z_time_5.516e-04,S1Z_time_6.956e-04,S1Z_time_8.771e-04,S1Z_time_1.106e-03,S1Z_time_1.394e-03
0.0,0,0.0,0.0,30.0,0.0,0.0,0.0,0.0,-13.0,0.0,2.0,0.0,0.0,0.0,6.00858667872714e-11,5.278673901955256e-11,4.830136712878227e-11,4.4310962044491596e-11,3.7990054926721364e-11,2.9672621535705727e-11,2.6134420802905272e-11,2.040970245004028e-11,1.5953384043006447e-11,1.2278052154873921e-11,8.948117023773994e-12,6.6073851361563495e-12,4.4746721422296075e-12,2.944610592429109e-12,1.9350444696437115e-12,1.2196608880928177e-12,7.79412801974959e-13,4.4581964606960665e-13,2.660427246164579e-13,1.470927531238888e-13,7.821237244513002e-14,4.864545052522397e-14,2.745686681208445e-14,1.3654937141939424e-14,1.0301922330445107e-14,2.7040625121000554e-15,3.5453102889770484e-09,1.6171986056111525e-09,8.507599374036868e-10,4.679682206962151e-10,2.7639267594018774e-10,1.8780480371551208e-10,1.2937087414789849e-10,9.084080653562106e-11,6.894718339495778e-11,4.916260987842434e-11,3.433872103014667e-11,2.250236578223772e-11,1.3571260069701664e-11,8.293697422664225e-12,4.77750954617434e-12,2.690570784094816e-12,1.4648201435688877e-12,8.786316198799101e-13,4.218087458901369e-13
0.0,1,1.0,0.0,30.0,0.0,0.0,0.0,0.0,-13.0,0.0,2.0,0.0,0.0,0.0,5.625880921745395e-11,5.0301211139847114e-11,4.8324525719549405e-11,3.999756552604082e-11,3.6459195749466286e-11,3.06079116785525e-11,2.6704060636006985e-11,2.1192443128438177e-11,1.637942724790998e-11,1.2994368992658446e-11,9.770533474583546e-12,6.9275479544069294e-12,4.8541812291408966e-12,3.18087226282989e-12,2.0941161882755575e-12,1.3135064017969094e-12,8.185302992629686e-13,4.844363671869431e-13,2.755090205902427e-13,1.6680281323882502e-13,9.192855628679478e-14,4.8620087106740115e-14,2.90756597913299e-14,1.4559718254703642e-14,8.577583553753335e-15,5.1680389906143574e-15,3.532259214190856e-09,1.6689581919822333e-09,7.786058518032528e-10,4.514506360135516e-10,2.6641095242028323e-10,1.76422077632723e-10,1.260682348774122e-10,9.22642748436041e-11,6.791022486246921e-11,4.667605252840806e-11,3.426397873610208e-11,2.262593851382739e-11,1.3712504852371146e-11,9.31044938797514e-12,5.634858037441612e-12,3.182664235204403e-12,1.6955116903991504e-12,8.858826266182663e-13,4.961937743227154e-13
0.0,2,2.0,0.0,30.0,0.0,0.0,0.0,0.0,-13.0,0.0,2.0,0.0,0.0,0.0,5.612412926590204e-11,5.404143381469278e-11,4.747898902638595e-11,4.3362687307279315e-11,3.7344541311827505e-11,3.254496841337836e-11,2.6958318104086035e-11,2.3354672440721143e-11,1.7728210386948477e-11,1.3826984009950503e-11,1.0812105992132466e-11,7.1037433995052565e-12,4.995446499925874e-12,3.6270119959993594e-12,2.2316808681895507e-12,1.5554375434626687e-12,8.971882419236526e-13,5.329459003618604e-13,3.36984009354017e-13,1.8951650167907936e-13,1.0736395292421382e-13,5.774215673320797e-14,2.952150566419522e-14,1.8857460625344082e-14,8.822266238627782e-15,5.5212586699864335e-15,3.5955904144946876e-09,1.5939285862344948e-09,8.195961881102514e-10,4.587158676663119e-10,2.7563445260663293e-10,1.7430266244726285e-10,1.2726420346690056e-10,9.432383309384193e-11,6.456262152978809e-11,4.714791319505583e-11,3.265693811110933e-11,2.3730385767400458e-11,1.5022183561138277e-11,9.390891393244091e-12,5.502538290656105e-12,3.3423293896750573e-12,1.8061902648201269e-12,1.0014751127374623e-12,5.113081830739232e-13
0.0,3,3.0,0.0,30.0,0.0,0.0,0.0,0.0,-13.0,0.0,2.0,0.0,0.0,0.0,5.784584754419408e-11,5.2903018585739985e-11,4.677914519479655e-11,4.256786451182686e-11,3.576463523511506e-11,3.0578697077445434e-11,2.7570082993923332e-11,2.264858330453399e-11,1.8447831522856102e-11,1.5140473526918626e-11,1.0986160817258475e-11,7.586247777175386e-12,5.7041746100841675e-12,3.6255002315685992e-12,2.4585807311459675e-12,1.588773046706909e-12,1.0379281669148628e-12,5.801625895161708e-13,3.37984298914233e-13,1.965177931368108e-13,1.0763275279555952e-13,6.283918679358428e-14,3.1498575175493653e-14,1.6631676319851056e-14,9.240490914541312e-15,4.501045897810448e-15,3.6742850230972416e-09,1.6342661655081897e-09,8.034322818809977e-10,4.3098374273417837e-10,2.8160171162267856e-10,1.7600739521461177e-10,1.2013800565061433e-10,9.281106571164424e-11,6.523833661985488e-11,4.7640695637501665e-11,3.289201462126178e-11,2.2956500212123637e-11,1.4566596737563397e-11,9.200998775612888e-12,5.966641122619882e-12,3.3740128590327942e-12,1.920069215592087e-12,1.058840013048245e-12,5.655076487438836e-13
0.0,4,4.0,0.0,30.0,0.0,0.0,0.0,0.0,-13.0,0.0,2.0,0.0,0.0,0.0,5.613902364453149e-11,4.985409223946994e-11,4.612224241136609e-11,3.920811668482701e-11,3.763087657020838e-11,3.048592304929567e-11,2.6400312179401203e-11,2.2755608861028118e-11,1.796021917199542e-11,1.5114675617730824e-11,1.0586747729064565e-11,8.176428508737313e-12,5.7820964541844185e-12,3.850867521974832e-12,2.6963853201510956e-12,1.6966116732644397e-12,1.0867087725258002e-12,6.563015070509979e-13,3.989385908610082e-13,2.2166478429290868e-13,1.1726109225637717e-13,6.465317344133752e-14,3.703665778762325e-14,1.9951284843872842e-14,1.0983051760341175e-14,3.6753226765022675e-15,3.447125722544912e-09,1.5418118138449393e-09,8.048767604163295e-10,4.4750511062474297e-10,2.8487868726235127e-10,1.8541554950322905e-10,1.3008938900979497e-10,8.840415037059809e-11,6.221507024763474e-11,4.5071875472541603e-11,3.2035821610688464e-11,2.239359834530686e-11,1.5847997167255496e-11,9.588749872280528e-12,5.814464751672906e-12,3.5463859277400494e-12,2.0272362262059595e-12,1.15465823024533e-12,5.712889733441513e-13
0.0,5,5.0,0.0,30.0,0.0,0.0,0.0,0.0,-13.0,0.0,2.0,0.0,0.0,0.0,5.7072941106506704e-11,5.239565833690994e-11,4.744127785541868e-11,4.128239096201333e-11,3.666562211279611e-11,3.064677268110959e-11,2.6920890051593574e-11,2.2425887518690687e-11,1.8742808731878805e-11,1.4138185873414624e-11,1.151035388602178e-11,8.722869554351458e-12,5.633531819715353e-12,4.226981367642273e-12,2.8537049147505454e-12,1.7739108588565658e-12,1.118765580674817e-12,6.828003240943332e-13,3.9826490127122546e-13,2.2670785145104642e-13,1.207854091970141e-13,7.262644881615872e-14,3.9549954782237536e-14,1.9538700111651515e-14,9.40552855267872e-15,6.16098852384081e-15,3.3663110513514825e-09,1.5712111208809956e-09,7.877122271222525e-10,4.5982757483823476e-10,2.86062963488469e-10,1.8226290476378262e-10,1.235475087383581e-10,8.619672776935649e-11,6.526663032371338e-11,4.3674050216969605e-11,3.1164793551047445e-11,2.1480133418125523e-11,1.4719750065160183e-11,9.065433639436446e-12,6.1005997391886855e-12,3.7304116280708084e-12,2.13614779436747e-12,1.1788124417739222e-12,6.388520056434312e-13
0.0,6,6.0,0.0,30.0,0.0,0.0,0.0,0.0,-13.0,0.0,2.0,0.0,0.0,0.0,5.8039436350489e-11,4.809396575392866e-11,5.011203008348043e-11,4.266855270930397e-11,3.62753248196846e-11,3.166481954901417e-11,2.7743304789949627e-11,2.2748609409194446e-11,1.7451641077913517e-11,1.5679893910973793e-11,1.1365793697679301e-11,8.784103703392229e-12,6.049573201958517e-12,4.52456157088953e-12,2.944897937402415e-12,1.9354924600910813e-12,1.1594114930400293e-12,7.546313889662054e-13,4.371679201781619e-13,2.540506041331534e-13,1.3352797183692677e-13,7.35830867524497e-14,4.407216018621712e-14,2.055430441854588e-14,1.1459463301454102e-14,7.117602769931328e-15,3.410743544613695e-09,1.5796703963118935e-09,7.833203016608653e-10,4.574267592292447e-10,2.7221066804905034e-10,1.9857689649440326e-10,1.3057578799928488e-10,8.993704828826216e-11,6.594953624980195e-11,4.469666900091412e-11,3.017499363563147e-11,2.077241098682372e-11,1.4917749619603788e-11,9.551041039662807e-12,6.076292700682403e-12,3.851213941591869e-12,2.1113145226817173e-12,1.2051132554996442e-12,6.573182057611668e-13
0.0,7,7.0,0.0,30.0,0.0,0.0,0.0,0.0,-13.0,0.0,2.0,0.0,0.0,0.0,5.8048794422977634e-11,5.283543448590836e-11,4.727609749465579e-11,4.235310970615003e-11,3.704654338379503e-11,3.1440704186378096e-11,2.671680724886363e-11,2.3044667580618255e-11,1.812532195006945e-11,1.4318973200045379e-11,1.1397274808755448e-11,8.606914774981437e-12,6.736514673187387e-12,4.354368576327536e-12,3.1099119338838413e-12,2.0265728105446387e-12,1.2110047292300988e-12,7.857484455438543e-13,4.3735275762851126e-13,2.386766022042646e-13,1.4753106173153766e-13,7.503883824244245e-14,4.3752680400291e-14,2.2336985980892715e-14,1.4042835981889585e-14,7.39093862385627e-15,3.329635347152092e-09,1.508879990938808e-09,7.618655355166278e-10,4.485921905750956e-10,2.8416819375068217e-10,1.900326585009194e-10,1.33974067582942e-10,9.501274575287001e-11,6.624385923883353e-11,4.462226608900661e-11,3.0073685315170774e-11,2.239529133206664e-11,1.4194491036069086e-11,9.356445278859652e-12,6.008364784349774e-12,3.5542073605623623e-12,2.193428873059426e-12,1.2478734327495373e-12,7.049875885075428e-13
0.0,8,8.0,0.0,30.0,0.0,0.0,0.0,0.0,-13.0,0.0,2.0,0.0,0.0,0.0,5.976590791390085e-11,5.3472361907417704e-11,4.949898219642163e-11,4.323202204373183e-11,3.7411160776077324e-11,3.246236696940277e-11,2.7327897720079065e-11,2.2638379930039805e-11,1.8508824891974105e-11,1.4373870217073998e-11,1.1667161495969344e-11,8.474039389337692e-12,6.5697252977327224e-12,4.512624817489971e-12,3.116430880305203e-12,2.0833522619153777e-12,1.3339702803592664e-12,7.666756642527138e-13,4.743724520426924e-13,2.8141937089170275e-13,1.4531418848453288e-13,8.541922701566305e-14,4.1775192243891344e-14,2.3261927449966488e-14,1.3001015429317437e-14,4.967301410752217e-15,3.2508009389605446e-09,1.4615336546482905e-09,8.278862663571303e-10,4.593471987477862e-10,2.949527397750834e-10,1.9390088368272698e-10,1.3430610526184267e-10,9.050094173278987e-11,6.607748429338787e-11,4.5188893138689847e-11,3.2428069905509274e-11,2.2228099822427518e-11,1.504786177580236e-11,9.728033828097837e-12,5.978632574449914e-12,3.650523408649443e-12,2.3043862354108567e-12,1.3065063998185891e-12,6.696381015569597e-13
0.0,9,9.0,0.0,30.0,0.0,0.0,0.0,0.0,-13.0,0.0,2.0,0.0,0.0,0.0,5.99280363838108e-11,5.545241978071537e-11,4.8801938101553296e-11,4.301228481010448e-11,3.686272834680023e-11,3.114218505787918e-11,2.831035465993339e-11,2.2789672876798632e-11,1.857902744410571e-11,1.5690095840677815e-11,1.185241745459177e-11,8.891584509891267e-12,6.507972327194943e-12,4.83438078527985e-12,3.34819904827005e-12,2.1727133379836077e-12,1.3793951664414338e-12,7.854394675871591e-13,5.015164834573603e-13,2.8690631803764167e-13,1.6200618099700072e-13,9.176221545037853e-14,4.3358385896790745e-14,2.5176799263260446e-14,1.394809805797437e-14,6.546568125260912e-15,3.1824073302153034e-09,1.5572585140400583e-09,7.940389621258581e-10,4.464848698731471e-10,2.9640987488481947e-10,2.0326756633893554e-10,1.3823339683143746e-10,9.924042375894672e-11,6.804489025377995e-11,4.642029619407412e-11,3.084013860604028e-11,2.152359735674544e-11,1.4470382881912277e-11,9.687432629966912e-12,6.04331586870534e-12,3.831125719569247e-12,2.2014173904566333e-12,1.2790810162898788e-12,7.253197946827562e-13
0.0,10,10.0,0.0,30.0,0.0,0.0,0.0,0.0,-13.0,0.0,2.0,0.0,0.0,0.0,5.823397305058781e-11,5.622579346275044e-11,5.004472418687212e-11,4.4153666618391573e-11,3.859025129968206e-11,3.486558007689954e-11,2.7475886556998268e-11,2.1613427421905906e-11,1.890084379541537e-11,1.4937518528222053e-11,1.146943451025892e-11,8.576740567105387e-12,6.447045911560249e-12,4.7082598147947726e-12,3.1936298860018567e-12,2.322133940922175e-12,1.3567741409954434e-12,8.478119282293735e-13,4.845627941060375e-13,3.0349349332821503e-13,1.5902983765284882e-13,9.206155524140068e-14,5.022560849494857e-14,2.634439155231123e-14,1.62554118512746e-14,8.42232970982521e-15,3.427616914907743e-09,1.4667682742236773e-09,8.131705095250073e-10,4.698676936686678e-10,3.0432575694639965e-10,2.0788608882886362e-10,1.3690401523957165e-10,9.75064696434282e-11,7.096919249950445e-11,4.3999695677403124e-11,3.387312597961311e-11,2.2123395658549355e-11,1.4398596420871962e-11,9.478471374750723e-12,5.854410679361107e-12,3.733402480601744e-12,2.3513974075863638e-12,1.3768409781682425e-12,8.067282966993212e-13
0.0,11,11.0,0.0,30.0,0.0,0.0,0.0,0.0,-13.0,0.0,2.0,0.0,0.0,0.0,6.091229726553483e-11,5.4588890356543674e-11,4.9295634120128746e-11,4.30302437179552e-11,3.859742237261528e-11,3.36310174284273e-11,2.8114367896839593e-11,2.4093033281509522e-11,1.8766275995979404e-11,1.4865754887678665e-11,1.1484880942774179e-11,8.435597916822909e-12,6.263111282727842e-12,4.560755213950197e-12,3.417988392178364e-12,2.2680469707078653e-12,1.4921521588328023e-12,8.598913238968995e-13,5.075022494483001e-13,3.0733794086927703e-13,1.780255489141383e-13,9.968568532989029e-14,5.521974951063124e-14,2.898967524236331e-14,1.698583991604059e-14,7.565299190220635e-15,3.1806530413353798e-09,1.420523543134161e-09,7.650701624877098e-10,4.697814370172221e-10,2.934022541531912e-10,2.1081205786126964e-10,1.494092643584125e-10,9.350172327622215e-11,7.234334710047987e-11,4.54292018660987e-11,3.3328287619039646e-11,2.2832379005437298e-11,1.4535046232941522e-11,9.059863617780715e-12,5.920117701195751e-12,3.734752132568362e-12,2.2651280513300294e-12,1.323582977784785e-12,7.48109836362816e-13
0.0,12,12.0,0.0,30.0,0.0,0.0,0.0,0.0,-13.0,0.0,2.0,0.0,0.0,0.0,6.241459065063511e-11,5.450854860108629e-11,5.046252044844854e-11,4.70887280927603e-11,3.8772274397023365e-11,3.32271179626608e-11,2.938616563771175e-11,2.1743286490721174e-11,1.9717438870889697e-11,1.481938547400041e-11,1.1793526995937531e-11,8.927666955639285e-12,6.789630473225526e-12,4.724447874461784e-12,3.259213180125058e-12,2.332080972368994e-12,1.3601862491064797e-12,9.204999593638737e-13,5.342711306143594e-13,3.176654578235496e-13,1.9559963979312074e-13,1.0229855467359419e-13,5.6090853124761825e-14,2.755750213324469e-14,1.4980465612774004e-14,8.39194470430409e-15,3.2775474891095946e-09,1.5132062984561603e-09,7.862065509600393e-10,4.775726108077941e-10,3.09793273062895e-10,1.9710818807981995e-10,1.4616219301709147e-10,1.0495600202645043e-10,7.315551976675428e-11,4.9090947844439574e-11,3.270417051774807e-11,2.1593347394133254e-11,1.4587489587169042e-11,9.779687726153174e-12,5.669879641510424e-12,3.681977741687851e-12,2.1980163726775207e-12,1.369141928398324e-12,7.440981807847086e-13
0.0,13,13.0,0.0,30.0,0.0,0.0,0.0,0.0,-13.0,0.0,2.0,0.0,0.0,0.0,6.214705991007256e-11,5.7102844011906776e-11,5.233060532506085e-11,4.519415930120128e-11,3.6166644590801026e-11,3.469909845768305e-11,2.920653473270091e-11,2.3656673783267747e-11,1.8592113385443873e-11,1.537256516325507e-11,1.1929906925454248e-11,8.810882620112225e-12,6.586592611060424e-12,4.656309420684418e-12,3.3384819226314536e-12,2.168451747784136e-12,1.5092243750851584e-12,9.146389235265314e-13,5.767141974470812e-13,3.21610277767106e-13,1.876925546518162e-13,1.0620524279044577e-13,5.477608850650048e-14,3.142633221522094e-14,1.6077397176815622e-14,6.785879642626191e-15,3.089875533341354e-09,1.5027054429013455e-09,8.076067452626557e-10,4.723509228081154e-10,3.137931159420227e-10,2.1360701545381624e-10,1.5020730006265925e-10,1.0860584498626611e-10,6.996609734261045e-11,5.1616717044608497e-11,3.374039736121976e-11,2.2553185854677672e-11,1.469004533654344e-11,9.416239535014901e-12,5.8124833227071145e-12,3.773502853152597e-12,2.3896523785706024e-12,1.3366746581479977e-12,7.626110566889437e-13
0.0,14,14.0,0.0,30.0,0.0,0.0,0.0,0.0,-13.0,0.0,2.0,0.0,0.0,0.0,6.277871648583701e-11,5.822974828174535e-11,5.322234427628121e-11,4.594817082620638e-11,3.986798816994873e-11,3.506245338602868e-11,2.8416094901580104e-11,2.4289152249255745e-11,1.989735073996956e-11,1.5966590071462767e-11,1.1838220202856821e-11,9.346724173714416e-12,6.862627475164256e-12,4.668863659475022e-12,3.2565864204189452e-12,2.277390296963785e-12,1.5597329143678965e-12,9.57979045823039e-13,5.762489351633779e-13,3.618966929514706e-13,1.9926843548574425e-13,1.0248314119616993e-13,6.109994987152776e-14,3.328429288604423e-14,1.746395489726061e-14,9.441109237696063e-15,3.181555595030078e-09,1.4086262821967048e-09,7.787227451328588e-10,4.650897742764598e-10,3.058288786633891e-10,2.077493079118197e-10,1.5360589913367662e-10,1.0690984028209856e-10,7.36979028960738e-11,5.0562856854438455e-11,3.474762139683507e-11,2.3846917902057623e-11,1.4131925341745202e-11,9.723991622421492e-12,5.962717772015936e-12,3.541762541018828e-12,2.1384871978091177e-12,1.3019723448573813e-12,7.711617136357818e-13
0.0,15,15.0,0.0,30.0,0.0,0.0,0.0,0.0,-13.0,0.0,2.0,0.0,0.0,0.0,6.597182297373079e-11,5.7756748154890616e-11,5.4998170164490204e-11,4.924360999126298e-11,4.1549792218037744e-11,3.4548084520389087e-11,3.0641704001698704e-11,2.4979053546345583e-11,2.015719345797891e-11,1.51850636341981e-11,1.0943329029592434e-11,9.601746559046987e-12,6.361683046113943e-12,4.828064359219332e-12,3.64226171663047e-12,2.3411679444366306e-12,1.5755524199220984e-12,9.323304098221166e-13,5.675472592690634e-13,3.4908393931536677e-13,2.1029274141003542e-13,1.1302924004522528e-13,6.099769247980241e-14,3.409700736436505e-14,1.9141025221028365e-14,7.855510205886475e-15,3.0455141500393447e-09,1.423438856992096e-09,8.149522380871174e-10,4.868807884666617e-10,3.39886097655992e-10,2.2598374285033705e-10,1.5427746249097226e-10,1.1279550837924065e-10,7.663768796644907e-11,5.1451246443817763e-11,3.615164994673699e-11,2.3021530274777146e-11,1.5139236422967934e-11,1.0116965665390097e-11,6.085975895871262e-12,3.67314046636541e-12,2.2404294128569757e-12,1.3822047449426117e-12,7.535393637094965e-13
0.0,16,16.0,0.0,30.0,0.0,0.0,0.0,0.0,-13.0,0.0,2.0,0.0,0.0,0.0,6.557193176872275e-11,5.953386401799457e-11,5.458133973950794e-11,4.746323562314029e-11,3.972564779874321e-11,3.477383592409782e-11,2.9243420740461773e-11,2.5689909029390573e-11,2.0378014288012304e-11,1.5933867651107626e-11,1.1882258393075279e-11,8.865649890635618e-12,6.615290984832189e-12,4.700403205652936e-12,3.671971453098054e-12,2.1771819753050307e-12,1.573946456069643e-12,9.522594614897965e-13,6.089814560723878e-13,3.5223159568779036e-13,2.0164322096520145e-13,1.1361932887650996e-13,6.86870655485084e-14,3.4844781112849345e-14,1.7728567494545115e-14,1.0304149438823288e-14,3.1335292024054236e-09,1.4811869535947024e-09,7.478848523962136e-10,4.931075016472354e-10,3.320151755094023e-10,2.1266144763016535e-10,1.59530728840878e-10,1.16435412738713e-10,7.760306564588838e-11,5.4896558780951236e-11,3.682486834114165e-11,2.343274630686868e-11,1.5544803687342627e-11,9.397409430405428e-12,6.077330877027469e-12,3.811458679744175e-12,2.324859715919566e-12,1.3410433086651384e-12,7.864293937372173e-13
0.0,17,17.0,0.0,30.0,0.0,0.0,0.0,0.0,-13.0,0.0,2.0,0.0,0.0,0.0,6.528165596765662e-11,6.133170465637076e-11,5.525407273081235e-11,5.1544748484404965e-11,4.2150419722493165e-11,3.575452167119395e-11,3.0567580211946326e-11,2.443213701768982e-11,2.0273957738717027e-11,1.566845159465803e-11,1.1528840720449809e-11,9.141491829774764e-12,6.6914046589221815e-12,4.636402072703086e-12,3.4242548796208604e-12,2.453032232696445e-12,1.585432086025687e-12,1.020972011054683e-12,5.958870022782866e-13,3.7585251570898665e-13,2.1525787820416056e-13,1.231353269823166e-13,6.785925360157967e-14,3.4214338711514017e-14,1.923732961809741e-14,9.289119431502827e-15,3.1002264142195506e-09,1.4036632454381286e-09,8.251989026763738e-10,4.814898704462898e-10,3.2086853222093876e-10,2.2847566257899643e-10,1.552890983623349e-10,1.1153886778002591e-10,7.718304245609508e-11,5.692061496093471e-11,3.76470056708554e-11,2.4337596072180648e-11,1.5607713549072432e-11,1.0290150332320412e-11,6.3051472586564965e-12,3.862975824237507e-12,2.2790547866479826e-12,1.2708247344687774e-12,7.660335252334837e-13
0.0,18,18.0,0.0,30.0,0.0,0.0,0.0,0.0,-13.0,0.0,2.0,0.0,0.0,0.0,6.762525262239645e-11,6.382135604984707e-11,5.7895113161767006e-11,4.8694774398247364e-11,4.37420154609842e-11,3.8810823536486614e-11,3.040592015374855e-11,2.6785792602012298e-11,1.9913683954065523e-11,1.605070553932221e-11,1.2310101466631033e-11,9.239830537861484e-12,6.629049144866908e-12,4.812224239043151e-12,3.3768773499225303e-12,2.383109401253977e-12,1.5877488107280255e-12,1.0806014284892955e-12,6.556569092887924e-13,3.715004593457316e-13,2.2121459046340243e-13,1.281156656756174e-13,6.894636976140999e-14,3.726199767502139e-14,2.000912308385188e-14,1.1332092632768093e-14,2.9990607981665658e-09,1.4218559860719745e-09,8.085811019594986e-10,5.048661688057141e-10,3.376742216083287e-10,2.2967856390414104e-10,1.6839876074643601e-10,1.2259192897753358e-10,8.168924941932855e-11,5.5338826078960335e-11,3.8322206596688845e-11,2.4425040792434842e-11,1.570776375577789e-11,1.0174626951625017e-11,5.818538236494562e-12,3.704462985957651e-12,2.266255321607751e-12,1.2864965355477399e-12,7.433464149996632e-13
0.0,19,19.0,0.0,30.0,0.0,0.0,0.0,0.0,-13.0,0.0,2.0,0.0,0.0,0.0,6.904756998719267e-11,6.058889759954994e-11,5.648658082955694e-11,4.9726994837800276e-11,4.390204093981895e-11,3.879711678514019e-11,3.1685025615044735e-11,2.59032424353777e-11,2.0789718616986764e-11,1.635996862841002e-11,1.2075663303698051e-11,9.292487319158395e-12,6.913735097733423e-12,4.723592856967742e-12,3.5510289058835203e-12,2.447626671795066e-12,1.551735866849895e-12,1.0143860332896388e-12,6.206159722509329e-13,3.914443936544255e-13,2.162346338550001e-13,1.2630877819622997e-13,6.872458707578848e-14,3.854610139208001e-14,1.8485459156112262e-14,1.2147335773661215e-14,2.961850194571697e-09,1.432660068123624e-09,7.962718296544466e-10,4.949868948223637e-10,3.319262899873912e-10,2.4334153314476254e-10,1.6423740860803637e-10,1.1847009108856446e-10,8.031490243368488e-11,5.563428215303555e-11,3.8718050126846294e-11,2.5986611434775617e-11,1.6266281859032218e-11,9.88900463570475e-12,6.7788408468265655e-12,3.776330542949874e-12,2.196077782206829e-12,1.4538795471356416e-12,7.598315878615005e-13
0.0,20,20.0,0.0,30.0,0.0,0.0,0.0,0.0,-13.0,0.0,2.0,0.0,0.0,0.0,6.811536120838923e-11,6.3550179797103e-11,5.884492644205448e-11,5.171798988418161e-11,4.3480380762132364e-11,4.0208625254262264e-11,3.1529038167926725e-11,2.5352414881853825e-11,2.1636280749233154e-11,1.7125287853182957e-11,1.2297114673830384e-11,9.024570247337527e-12,7.120200237506106e-12,4.652324950081699e-12,3.349556445831956e-12,2.4500831525939534e-12,1.5873634959290472e-12,1.0212307090108499e-12,6.509873162442727e-13,3.870165235524433e-13,2.184668392522788e-13,1.350368790712372e-13,7.567246364221604e-14,3.9844414267977884e-14,2.1272988164404118e-14,1.3537929250677006e-14,2.99813141726262e-09,1.4140809238597349e-09,8.149371224499592e-10,5.360248588257184e-10,3.6358130492628355e-10,2.3941059042332007e-10,1.7178470624018858e-10,1.149186051524781e-10,8.313563424759567e-11,5.637554732572286e-11,3.7719602336886394e-11,2.7040951940162005e-11,1.624519527470877e-11,1.0333682647311419e-11,6.560000053191068e-12,4.073712319126451e-12,2.354551211811448e-12,1.4660619973081855e-12,7.692459673669003e-13
0.0,21,21.0,0.0,30.0,0.0,0.0,0.0,0.0,-13.0,0.0,2.0,0.0,0.0,0.0,7.311191645015272e-11,6.660734352876654e-11,6.1800299205874e-11,5.31291378750604e-11,4.523310271808679e-11,3.76630978512779e-11,3.279043977083672e-11,2.7819886558533636e-11,2.1079327244842048e-11,1.6961849933719288e-11,1.2859315381330529e-11,9.770569465029934e-12,6.8005912064855755e-12,5.342487899178286e-12,3.3614127658428092e-12,2.3650290684093403e-12,1.6424373083533239e-12,1.0451721403687897e-12,6.662233368747124e-13,3.8776596669297586e-13,2.305355496290591e-13,1.3247162827438887e-13,7.798629909528537e-14,4.1625389450037225e-14,2.2774383561797114e-14,1.0686644323130881e-14,3.08385670931243e-09,1.4308340041127051e-09,8.454004405975965e-10,5.520477295507184e-10,3.4999671899149566e-10,2.4303133226362055e-10,1.6915174080976815e-10,1.2177342181622842e-10,8.460845819304763e-11,5.959152230333028e-11,3.945354127624904e-11,2.5926401731960913e-11,1.747488555110522e-11,1.0376650713921824e-11,6.673274654929342e-12,3.921084822193126e-12,2.392523297723447e-12,1.4156458199349927e-12,7.652103318385012e-13
0.0,22,22.0,0.0,30.0,0.0,0.0,0.0,0.0,-13.0,0.0,2.0,0.0,0.0,0.0,7.487113041950964e-11,6.763362788712428e-11,5.887597151470259e-11,5.3648685231906677e-11,4.6581751893218633e-11,3.9909910662907914e-11,3.288907302367303e-11,2.7195452864751416e-11,2.091691762322536e-11,1.6750906105760948e-11,1.3146509587630193e-11,9.891361052150677e-12,6.947148786762631e-12,5.044988376026326e-12,3.539602597038356e-12,2.4164896872990954e-12,1.630475566555293e-12,9.848387232789725e-13,6.541459718357327e-13,4.008055267910929e-13,2.272546378392453e-13,1.4171990884697778e-13,7.611548557125464e-14,4.4001427191188143e-14,2.144881002883837e-14,1.0721110003136198e-14,2.9908644476778103e-09,1.3468415812128834e-09,8.230477925844099e-10,5.298030783828565e-10,3.707189802815593e-10,2.5621936725769346e-10,1.7498179917100983e-10,1.2068499626269664e-10,9.178500927776956e-11,5.867544648695069e-11,3.9104662078985876e-11,2.5818350022708646e-11,1.780911611495203e-11,1.0687710548626125e-11,6.539012489460139e-12,4.039392412676819e-12,2.3498575450486278e-12,1.3373909802666846e-12,7.944126857465371e-13
0.0,23,23.0,0.0,30.0,0.0,0.0,0.0,0.0,-13.0,0.0,2.0,0.0,0.0,0.0,7.767979685328674e-11,7.054138163738911e-11,6.283635968071002e-11,5.487308902992196e-11,4.448668436241358e-11,4.2101711463600645e-11,3.393757939244875e-11,2.8052861709847152e-11,2.2727135197054225e-11,1.7914216999543504e-11,1.3267238804484728e-11,9.875983977885317e-12,6.980784052578994e-12,5.075935242207115e-12,3.4470271571069024e-12,2.3613027758370054e-12,1.5680103553316493e-12,1.0419010000345615e-12,6.803559263543791e-13,4.400941813071699e-13,2.3870268495965404e-13,1.311929379123232e-13,8.035988163176731e-14,4.193766603013064e-14,2.2153759638244062e-14,1.2198393900801235e-14,2.836067877615068e-09,1.4258496931695698e-09,8.225478057801483e-10,5.379687125570648e-10,3.707308249592548e-10,2.565408943147223e-10,1.8094706698753185e-10,1.2844439948381123e-10,9.016587001830732e-11,5.938269547102286e-11,3.936746650324603e-11,2.712113758429441e-11,1.6779457029871175e-11,1.106836983822003e-11,6.988139708001522e-12,4.153671247136908e-12,2.31508315633248e-12,1.3396179640954106e-12,7.869156643044044e-13
0.0,24,24.0,0.0,30.0,0.0,0.0,0.0,0.0,-13.0,0.0,2.0,0.0,0.0,0.0,7.57684135027305e-11,6.912883325638456e-11,6.367177114082407e-11,5.356125883501411e-11,4.724301148217347e-11,3.980310179588339e-11,3.312233921216577e-11,2.727178949594423e-11,2.2781941250105135e-11,1.745192353208026e-11,1.292991899147391e-11,9.800274193631279e-12,6.83192688454876e-12,5.003493930262369e-12,3.791757250031439e-12,2.4193118925807485e-12,1.6535559226479298e-12,1.0494231770254555e-12,6.704269884675188e-13,4.131952301707087e-13,2.319960495724522e-13,1.387276417871512e-13,8.256739736413523e-14,4.1993521752341407e-14,2.279260047757625e-14,1.1933190227272912e-14,2.94493479059628e-09,1.4379674083281627e-09,8.64137387020891e-10,5.531402839860998e-10,3.72898687653173e-10,2.711481685527132e-10,1.8852900424094816e-10,1.2416277583379916e-10,9.774433769684178e-11,6.580030634079335e-11,4.1698112793959195e-11,2.7978281335385597e-11,1.8548368480042715e-11,1.1166577014999326e-11,7.056441809627581e-12,4.275750730133049e-12,2.3453326207955257e-12,1.3621623107031515e-12,8.06163317094848e-13
0.0,25,25.0,0.0,30.0,0.0,0.0,0.0,0.0,-13.0,0.0,2.0,0.0,0.0,0.0,7.922771624260811e-11,7.307143274309287e-11,6.345549023561477e-11,5.5710919420093925e-11,4.57489018824769e-11,4.005978148128372e-11,3.481361900439259e-11,2.914625927137143e-11,2.303362547344495e-11,1.7611972163507857e-11,1.3352787759832069e-11,1.0058252580830493e-11,7.28271095462412e-12,5.381989971964494e-12,3.604383227764046e-12,2.3310551706310485e-12,1.56305486098392e-12,1.104045157205787e-12,6.435084504939426e-13,4.17470713247658e-13,2.404700211532456e-13,1.3992506959512294e-13,7.944004703222887e-14,4.615011165465534e-14,2.375248921783277e-14,1.2503933714313464e-14,2.7648882916260175e-09,1.4249463693177961e-09,8.544473213784862e-10,5.58013562387386e-10,3.9691309585076685e-10,2.6715685375134283e-10,1.902079561726794e-10,1.3927274168188254e-10,8.839730753826345e-11,6.284446740750564e-11,4.4531560939194144e-11,2.8958347321150803e-11,1.8519942231947877e-11,1.1697527370591763e-11,7.084336991107792e-12,4.405523049034705e-12,2.4784450963555955e-12,1.4116142759157906e-12,7.916253798973729e-13
0.0,26,26.0,0.0,30.0,0.0,0.0,0.0,0.0,-13.0,0.0,2.0,0.0,0.0,0.0,8.010302132164814e-11,6.992980192932736e-11,6.639600145922634e-11,5.70011236880519e-11,5.224310179774985e-11,4.211075162332107e-11,3.579598361420696e-11,2.9117585621782503e-11,2.259192443956635e-11,1.8474878116132113e-11,1.442959573117075e-11,1.0117007833337393e-11,7.283338846312816e-12,5.160076227159019e-12,3.4119790183724423e-12,2.4412034138863225e-12,1.6448991601061838e-12,1.0937778330359895e-12,6.894432496721077e-13,4.055668011364882e-13,2.425547854625117e-13,1.4723308496098406e-13,8.05015450380285e-14,4.4047972634553393e-14,2.619720222330868e-14,1.3922327664284475e-14,2.8773194717660687e-09,1.3926790534935945e-09,7.991203163511624e-10,5.735626458529993e-10,3.7812686673213974e-10,2.56304010979791e-10,2.016805215111662e-10,1.3813634726507638e-10,9.137579913887921e-11,6.261236032332116e-11,4.465434861148593e-11,2.792438921947293e-11,1.9184788226722474e-11,1.1817268864845345e-11,7.2424193001258015e-12,4.314054070514306e-12,2.497218726131967e-12,1.454315472690666e-12,7.815256350841301e-13
0.0,27,27.0,0.0,30.0,0.0,0.0,0.0,0.0,-13.0,0.0,2.0,0.0,0.0,0.0,8.138673181554746e-11,7.548847893914763e-11,6.722932650035387e-11,5.6188208091724786e-11,4.9668159444844297e-11,4.326942943129553e-11,3.5507791773767156e-11,3.0938764358888907e-11,2.310737067450906e-11,1.811876182442243e-11,1.4160247243569643e-11,1.0355066280328649e-11,7.404195334406085e-12,5.149939403964953e-12,3.681129399344712e-12,2.5474264845903645e-12,1.6642236294615275e-12,1.0396596355654972e-12,7.081300836263854e-13,3.950793637208279e-13,2.347313907702903e-13,1.4805531092374108e-13,8.263786478261239e-14,4.4705813519274566e-14,2.35532236892752e-14,1.5567279122985805e-14,2.8647015341571226e-09,1.4438311793021318e-09,8.689228413092001e-10,5.81129252280406e-10,4.0294305448141837e-10,2.842704410663277e-10,1.9444907527534981e-10,1.3716616640447935e-10,9.151736299890702e-11,6.472415032350277e-11,4.4709651172838115e-11,3.011853206805332e-11,1.9125859966427056e-11,1.1674901736739275e-11,6.966500572816786e-12,3.964776349050968e-12,2.60434521005652e-12,1.4057386398342387e-12,7.880507655136831e-13
0.0,28,28.0,0.0,30.0,0.0,0.0,0.0,0.0,-13.0,0.0,2.0,0.0,0.0,0.0,8.30808282134763e-11,7.206572846311935e-11,6.665419158740642e-11,6.295915424062587e-11,5.2114455780333434e-11,4.4169031862392306e-11,3.482377048795715e-11,3.1865701169301785e-11,2.2736115475858305e-11,1.9545090868892713e-11,1.3145540796471204e-11,1.0826560060787514e-11,7.891748221683195e-12,5.1941160067654955e-12,3.727498697734064e-12,2.528677480157623e-12,1.6090288102507984e-12,1.0224555492388952e-12,6.490124740362854e-13,4.2193271199445517e-13,2.476413540337588e-13,1.426394731293767e-13,8.562947157654757e-14,4.7195866125590054e-14,2.4407090234306513e-14,1.2036142986086368e-14,2.8795590320295236e-09,1.4026005755126835e-09,8.74459257286329e-10,6.118417149996729e-10,4.10873874054084e-10,2.7682695327996373e-10,2.0189795344923083e-10,1.3729684661389652e-10,1.0332324914818846e-10,6.646563443669181e-11,4.5481241728706577e-11,3.0011596185770896e-11,1.9206840403470875e-11,1.1286367390921136e-11,7.036743062884181e-12,4.331823939576815e-12,2.5762252034712823e-12,1.4424443604115688e-12,7.818073929874647e-13
0.0,29,29.0,0.0,30.0,0.0,0.0,0.0,0.0,-13.0,0.0,2.0,0.0,0.0,0.0,8.096064834778665e-11,7.57670224649006e-11,6.767682591486577e-11,6.139169907077317e-11,5.1757377660692525e-11,4.527405476616072e-11,3.6521397358920226e-11,3.011477805945111e-11,2.3872267777593023e-11,1.8316685909836823e-11,1.4502558287948203e-11,1.026987330089519e-11,7.499496172677856e-12,5.372504960498233e-12,3.5707093930861767e-12,2.482046269488916e-12,1.6232545887386147e-12,1.0610697560842429e-12,6.771864661004847e-13,4.070484954488405e-13,2.481755190735975e-13,1.5228800612570025e-13,8.38811772355002e-14,4.894903227765936e-14,2.620240407054044e-14,1.4412619895472582e-14,2.7515495902637864e-09,1.436112425285365e-09,8.874747476527089e-10,5.843695083996078e-10,4.031496124341689e-10,2.774222712434498e-10,2.1454772894771753e-10,1.4017119585471613e-10,1.0469253220340285e-10,6.800057931851648e-11,4.487957691611736e-11,3.08482255142649e-11,1.908062644602879e-11,1.2397821578487047e-11,7.398110866776556e-12,4.52224090556119e-12,2.511650161468802e-12,1.5038396609120982e-12,8.275776601291784e-13
0.0,30,30.0,0.0,30.0,0.0,0.0,0.0,0.0,-13.0,0.0,2.0,0.0,0.0,0.0,8.366386033693632e-11,8.438102166999138e-11,7.108865543411442e-11,6.582710177607607e-11,5.577981851663001e-11,4.500350907145344e-11,3.735631372052238e-11,3.047667677795238e-11,2.3160792299912628e-11,1.8642568046956777e-11,1.4545880891585817e-11,1.1156357836754156e-11,7.53455471889271e-12,5.588842885491965e-12,3.610472706230711e-12,2.481927741120784e-12,1.645816366571941e-12,1.0905128256776275e-12,6.903870424430815e-13,4.309883455006041e-13,2.5710385983466563e-13,1.4861322723097013e-13,8.585952879967939e-14,5.033934406509396e-14,2.550092420211644e-14,1.4653121915653095e-14,2.648749254438096e-09,1.456926976737298e-09,8.839128526280443e-10,6.069949061313612e-10,4.354423723235589e-10,2.9831520532653746e-10,2.1544729042335816e-10,1.540433385605222e-10,1.0394707724234931e-10,7.28386195317421e-11,4.6504128854029234e-11,3.083259840210899e-11,1.9478550141888623e-11,1.2779553613827003e-11,7.68518361000964e-12,4.4558370467308086e-12,2.6363127155698725e-12,1.5323791461454374e-12,8.220448328480784e-13
0.0,31,31.0,0.0,30.0,0.0,0.0,0.0,0.0,-13.0,0.0,2.0,0.0,0.0,0.0,8.524897019380492e-11,8.002856337192254e-11,6.706620061138914e-11,6.420371951728144e-11,5.351823913278999e-11,4.541971359457868e-11,3.948873578911386e-11,3.007870427581411e-11,2.635039288919868e-11,1.9050271851395694e-11,1.4416429447152944e-11,1.1143246620667986e-11,7.976254739463332e-12,5.911978911910463e-12,3.765073795121636e-12,2.538212489259856e-12,1.6049892233603396e-12,1.0729007140071306e-12,6.688756494695315e-13,4.1483845894408726e-13,2.3918583739748376e-13,1.5610420530298505e-13,8.166113170903705e-14,4.3208556544458154e-14,2.4996104037903197e-14,1.3387555185115293e-14,2.690145751020829e-09,1.49605982481438e-09,9.070982221319631e-10,6.196138676131368e-10,4.394274041136536e-10,3.0611993568463996e-10,2.2086060717046747e-10,1.4573507507158252e-10,1.0320305973317791e-10,7.323637778218693e-11,4.423788862694712e-11,3.0114223908836136e-11,2.0438155270711096e-11,1.241531814507694e-11,7.927082996330207e-12,4.704523311782612e-12,2.5648801329247452e-12,1.5227370820289624e-12,8.643211225166521e-13
0.0,32,32.0,0.0,30.0,0.0,0.0,0.0,0.0,-13.0,0.0,2.0,0.0,0.0,0.0,8.989916335123336e-11,7.890151277926097e-11,7.460313963277026e-11,6.516636200312732e-11,5.610462616358047e-11,4.790295196612401e-11,3.562953998594172e-11,3.273008444485738e-11,2.6666155290202906e-11,1.9880206723777623e-11,1.4943561959995875e-11,1.1187753757275481e-11,7.989333644761006e-12,5.6798252181064974e-12,3.828262724511685e-12,2.510441662269691e-12,1.640119883531138e-12,1.0566569671215523e-12,6.581206761581981e-13,4.0854381773855837e-13,2.671915222985648e-13,1.5290116801741893e-13,8.453501328621896e-14,4.795844753635579e-14,2.7002875735712647e-14,1.3548272576835404e-14,2.779479864550336e-09,1.493222331181396e-09,9.248018052087954e-10,6.382792762573169e-10,4.5287372996630705e-10,3.0787976962345656e-10,2.2127463291384002e-10,1.526517898737068e-10,1.0707525951464597e-10,7.256112555575957e-11,4.804065900178091e-11,3.2159646673681686e-11,2.083741080607229e-11,1.2861830189402545e-11,7.948835430273316e-12,4.557922026201061e-12,2.6008484306631136e-12,1.543092392625319e-12,8.600577053731696e-13
0.0,33,33.0,0.0,30.0,0.0,0.0,0.0,0.0,-13.0,0.0,2.0,0.0,0.0,0.0,9.144466860752668e-11,8.625192881272612e-11,7.612243722789998e-11,7.040916350713793e-11,5.589432665251326e-11,4.631196202257035e-11,3.894561423136289e-11,3.1872825541908493e-11,2.6067298317216186e-11,1.8633482273856613e-11,1.5669201392073545e-11,1.1028577164341962e-11,7.950625520045788e-12,5.45380275806598e-12,3.855109805013246e-12,2.5937288659562965e-12,1.6971037443390595e-12,1.106416180682457e-12,6.770812024587793e-13,4.122384362299975e-13,2.589679505347578e-13,1.5072504045389902e-13,8.74648892770607e-14,5.1015603868427274e-14,2.5862723198755555e-14,1.3537478698497574e-14,2.867965328313665e-09,1.406288049187903e-09,9.0473615861536e-10,6.61098177897699e-10,4.5435172845847664e-10,3.185550261392397e-10,2.237777111585008e-10,1.5765939769164765e-10,1.091686042107165e-10,7.782830129702507e-11,4.918047119127259e-11,3.243115941714223e-11,2.197262408059895e-11,1.3028819567838151e-11,8.487620792117167e-12,4.715873160885503e-12,2.8504235039238232e-12,1.4652218498602093e-12,8.553631371303585e-13
0.0,34,34.0,0.0,30.0,0.0,0.0,0.0,0.0,-13.0,0.0,2.0,0.0,0.0,0.0,8.873449730851079e-11,8.669939329404017e-11,7.281132527405075e-11,6.698613451904054e-11,5.68004477746246e-11,4.692047581931756e-11,3.85601757041255e-11,3.24645284289873e-11,2.7478514095918003e-11,2.0051351833313238e-11,1.5713108297919903e-11,1.1241323430020594e-11,8.326067779446527e-12,5.390581513038785e-12,3.862505208772494e-12,2.691329362012588e-12,1.7078726397482163e-12,1.0987936535655664e-12,6.83349993137068e-13,4.3991125428493104e-13,2.5804198518970047e-13,1.5123184096613976e-13,8.931021744206649e-14,5.062704036383526e-14,2.776257566959286e-14,1.635850421427476e-14,2.751021747649478e-09,1.4985348698704813e-09,9.402031425372219e-10,6.621993553848167e-10,4.834800874226673e-10,3.186696801690407e-10,2.2174474344498518e-10,1.6586135981756112e-10,1.113419505937711e-10,7.655959069410583e-11,5.069003269616138e-11,3.327744643020787e-11,2.1759995284335075e-11,1.2901177301555366e-11,7.833893036351036e-12,4.813328814890677e-12,2.6412345732083553e-12,1.4982014334582534e-12,9.12975433014399e-13
0.0,35,35.0,0.0,30.0,0.0,0.0,0.0,0.0,-13.0,0.0,2.0,0.0,0.0,0.0,9.722973083783755e-11,8.623404317950688e-11,7.991708931042708e-11,6.55912235314324e-11,5.781107318701333e-11,5.0422647313115154e-11,4.2346160490772217e-11,3.404492774774873e-11,2.4514761971625372e-11,1.9944992812076457e-11,1.573782114184092e-11,1.1293705041277164e-11,8.843536906747619e-12,5.9317975622218e-12,4.018475624937138e-12,2.553227995688066e-12,1.7280485784567913e-12,1.1164681358073836e-12,7.190490589322826e-13,4.380851030250527e-13,2.647074965001646e-13,1.4741632513298866e-13,9.203111425861648e-14,4.7493644247485667e-14,2.7076112049490857e-14,1.53284190460608e-14,2.738507146616652e-09,1.4570247215774973e-09,9.52644389222984e-10,6.425247852296908e-10,4.798018037022695e-10,3.451641645963237e-10,2.3416832992143675e-10,1.6270953600679696e-10,1.0923145960016869e-10,8.006899404197433e-11,5.520130885907007e-11,3.199852388908706e-11,2.0905759183098176e-11,1.3180481905686756e-11,8.067081465509693e-12,4.905485878491688e-12,2.9523439958567107e-12,1.6338116051282466e-12,8.864286086226968e-13
0.0,36,36.0,0.0,30.0,0.0,0.0,0.0,0.0,-13.0,0.0,2.0,0.0,0.0,0.0,9.492183985167182e-11,8.505312550308191e-11,7.671082067645877e-11,7.222738462814548e-11,5.935841100250648e-11,4.9729691870199086e-11,4.1744009046482694e-11,3.4943754849799433e-11,2.590758836198845e-11,2.1745227355355137e-11,1.5817267230267288e-11,1.1498268839949453e-11,8.434375779634579e-12,5.879146012533624e-12,3.954540269835068e-12,2.6473028361274766e-12,1.698633179274152e-12,1.1376212351020469e-12,6.877118793223607e-13,4.160505012724102e-13,2.5888924097605147e-13,1.585813331237534e-13,8.839914734807067e-14,4.9256021962642886e-14,2.8570694486240666e-14,1.7160036243389993e-14,2.6288003068455027e-09,1.5379472651691882e-09,1.0019497513234834e-09,7.130728705683206e-10,4.978159234570169e-10,3.385943870117376e-10,2.2822689395957416e-10,1.7251685826436317e-10,1.1386137072201198e-10,7.73110180401575e-11,5.4619797025970796e-11,3.351906745852277e-11,2.290418094703042e-11,1.3817408838462678e-11,8.414835454183293e-12,4.9898896148089325e-12,2.71329486417114e-12,1.5184079917563389e-12,8.884040979493912e-13
0.0,37,37.0,0.0,30.0,0.0,0.0,0.0,0.0,-13.0,0.0,2.0,0.0,0.0,0.0,1.0073159202024762e-10,9.002885687662537e-11,7.818853117279388e-11,7.041273105003141e-11,6.045173500837508e-11,4.986146180125841e-11,4.4023027672126805e-11,3.288341407827748e-11,2.7894757932052874e-11,2.1428540353833504e-11,1.6459110317802265e-11,1.1380061130185853e-11,8.457755214344658e-12,6.29670059337632e-12,4.120486489758014e-12,2.7021754771600936e-12,1.7873649825082613e-12,1.1261462516990866e-12,7.486993562259474e-13,4.4277408652651497e-13,2.578183240856208e-13,1.5414308560360055e-13,8.787510763298934e-14,5.2905765646729846e-14,2.6451003408870892e-14,1.3440592252996743e-14,2.869412351608748e-09,1.6401444009156664e-09,1.0303155823660519e-09,7.073557280478804e-10,5.048137353435921e-10,3.419266705576285e-10,2.4731771955510707e-10,1.7251148196154884e-10,1.2161254593732852e-10,7.745473958104731e-11,5.3041283970579147e-11,3.6004227172947035e-11,2.1918180431149577e-11,1.3493966495252533e-11,8.985043846426418e-12,5.02296385205435e-12,2.8438616232977597e-12,1.5427208598355775e-12,9.14022678973611e-13
0.0,38,38.0,0.0,30.0,0.0,0.0,0.0,0.0,-13.0,0.0,2.0,0.0,0.0,0.0,1.0323625147393715e-10,9.083122953190489e-11,7.907695413479129e-11,7.170573395399309e-11,6.021267540136922e-11,5.081016952690771e-11,4.335392010376566e-11,3.4167380122600474e-11,2.8066742560577713e-11,2.1907587590177713e-11,1.5802992604607172e-11,1.1408986473546072e-11,8.942361804141225e-12,5.814840763671903e-12,4.004662493038023e-12,2.738647698491615e-12,1.8061722179338704e-12,1.1225248537269601e-12,7.160655989531375e-13,4.265826484456649e-13,2.517540313670024e-13,1.6024005065199072e-13,9.652941765206908e-14,5.412166307538156e-14,2.871863366092797e-14,1.7382781665216815e-14,2.7821993472205834e-09,1.5403977790274482e-09,1.0519167279002398e-09,7.195314244546922e-10,4.921486870825713e-10,3.4755303262559463e-10,2.579821102727969e-10,1.6653311488760372e-10,1.2423677857421882e-10,7.892304369377393e-11,5.145067391126759e-11,3.380866772175344e-11,2.4116555978611506e-11,1.4058838296348632e-11,8.621629286294944e-12,5.308480885244578e-12,3.0175772383304855e-12,1.5782863415133178e-12,9.293254354798727e-13
0.0,39,39.0,0.0,30.0,0.0,0.0,0.0,0.0,-13.0,0.0,2.0,0.0,0.0,0.0,1.0381621284495213e-10,9.259114240849089e-11,8.350231065514376e-11,7.59900316069188e-11,6.127773391047396e-11,5.390384364934475e-11,4.4258509403677415e-11,3.395465056575035e-11,2.7638319173880735e-11,2.1979197216078158e-11,1.7092179404780762e-11,1.2425990409742942e-11,8.80930403074715e-12,5.908685245846298e-12,4.354980225278433e-12,2.7668644130746012e-12,1.7360723311431653e-12,1.1333299676085905e-12,7.294480992666944e-13,4.3372896022816134e-13,2.6724645702879e-13,1.5926950754722353e-13,9.09427526862525e-14,4.9737980106401864e-14,2.893223113517901e-14,1.5564286909590037e-14,2.913788618426013e-09,1.509574507778999e-09,1.0556509778524505e-09,7.259496555113313e-10,5.248440839344274e-10,3.392016222063106e-10,2.666109222921797e-10,1.8048697745735904e-10,1.1785501337985313e-10,8.383603237150309e-11,5.708601900546092e-11,3.472608296875766e-11,2.3184853199462056e-11,1.3923984607255983e-11,8.589101958950028e-12,5.170508513074163e-12,2.9920657536747702e-12,1.646104214589463e-12,9.23368932557751e-13
0.0,40,40.0,0.0,30.0,0.0,0.0,0.0,0.0,-13.0,0.0,2.0,0.0,0.0,0.0,1.0802402204287222e-10,9.470095701566191e-11,8.880331113476011e-11,7.791323137026073e-11,6.334498371770078e-11,5.322374776210136e-11,4.2821916615393245e-11,3.637385589249664e-11,2.8474918463966854e-11,2.2715322629606094e-11,1.5940661108266697e-11,1.2130965814768146e-11,9.022930319355466e-12,5.9968772066996934e-12,4.083104638191939e-12,2.6569924895030152e-12,1.9485105006832997e-12,1.1225386957521002e-12,6.86680713671929e-13,4.2503271081257024e-13,2.550595373379936e-13,1.5328611796926108e-13,9.253076341846507e-14,5.103079799658543e-14,2.773779212944742e-14,1.4052783936858205e-14,2.7721583697390175e-09,1.615432877907358e-09,1.1334552785199468e-09,7.590652722692388e-10,5.310345683413957e-10,3.632391271052545e-10,2.6182019929911756e-10,1.8222531269733004e-10,1.2615724448259895e-10,8.4085908842958e-11,5.812873813317261e-11,3.700917979499715e-11,2.3459601281199294e-11,1.3871147337191694e-11,9.00445480413632e-12,5.3193558693194346e-12,2.9404442000351163e-12,1.7432457601467007e-12,8.864042930888057e-13
0.0,41,41.0,0.0,30.0,0.0,0.0,0.0,0.0,-13.0,0.0,2.0,0.0,0.0,0.0,1.0761964784602255e-10,9.671104476070873e-11,8.346388370537342e-11,7.656929138783995e-11,6.87618679003993e-11,5.5397188980440814e-11,4.525404348351827e-11,3.764727958427182e-11,2.9360319725681796e-11,2.2566146061660894e-11,1.6730064423339597e-11,1.293406892853046e-11,9.00547084715336e-12,6.108357835435987e-12,4.212735215317029e-12,2.744214205450384e-12,1.7899721408480122e-12,1.135093645676648e-12,6.945704694947037e-13,4.4784712774589967e-13,2.598064427314949e-13,1.5770173732156428e-13,8.85486529917233e-14,5.171557299809904e-14,2.8208831737295617e-14,1.6585959102674327e-14,2.7637396564099203e-09,1.6059397681746038e-09,1.0540731663343368e-09,7.822256856192279e-10,5.345078208239453e-10,3.843018473716516e-10,2.667254663856877e-10,1.944403846970598e-10,1.3260159095608775e-10,8.96376395250844e-11,5.7298307975346435e-11,3.841555193232458e-11,2.5265906034677065e-11,1.449983306940257e-11,9.060161511092511e-12,5.056308274892754e-12,3.187712742796105e-12,1.6932478966448564e-12,9.615545102944397e-13
0.0,42,42.0,0.0,30.0,0.0,0.0,0.0,0.0,-13.0,0.0,2.0,0.0,0.0,0.0,1.0432162237914264e-10,1.0493394015107317e-10,8.774681194322817e-11,7.894370350279713e-11,6.700391057381797e-11,5.590105282670713e-11,4.909319597586824e-11,3.593086869461047e-11,3.0022861123970005e-11,2.353086822727306e-11,1.7185187765576422e-11,1.253540980746864e-11,8.962945921156671e-12,6.052149547507211e-12,4.279838448771294e-12,2.8797920251586314e-12,1.844234288187942e-12,1.1571825416940706e-12,7.131149008462687e-13,4.3607676196451293e-13,2.730934209625056e-13,1.456017039002998e-13,9.092167456879987e-14,5.1447123389607336e-14,3.1272951672644914e-14,1.5976521259086376e-14,2.9273053960103314e-09,1.5661807863015478e-09,1.1506051260945571e-09,8.021429602800601e-10,5.834984560854808e-10,3.748325230578869e-10,2.761203578366857e-10,1.939259316654929e-10,1.3147050811498645e-10,9.367491215477719e-11,5.897476998179156e-11,4.097791422253377e-11,2.5241051402592863e-11,1.5555670444574822e-11,9.310426538933251e-12,5.2261109966797835e-12,3.0605922740026093e-12,1.7667600565574887e-12,9.702042253070961e-13
0.0,43,43.0,0.0,30.0,0.0,0.0,0.0,0.0,-13.0,0.0,2.0,0.0,0.0,0.0,1.1680174151842598e-10,1.002572609681073e-10,8.820781011525366e-11,8.12914935630298e-11,6.636436889675637e-11,5.891010675911448e-11,4.930059262519612e-11,3.899119904031618e-11,2.993060843507303e-11,2.3298624931542886e-11,1.777036190378557e-11,1.2762085729907731e-11,9.722566226675762e-12,6.172468212581366e-12,4.194144414000496e-12,2.7822389798069173e-12,1.8251603465096477e-12,1.0994537035277878e-12,7.148823874898764e-13,4.333592758568424e-13,2.647305642168353e-13,1.5805708313506108e-13,8.749939248176499e-14,5.393975971149603e-14,3.190853336882743e-14,1.5801675970583592e-14,2.9578216584468683e-09,1.7160845468462523e-09,1.2319289125415267e-09,8.432981552518801e-10,5.47730591399668e-10,4.0458511121282145e-10,2.9332193602161207e-10,1.9838024924006986e-10,1.3637722349169948e-10,9.587357172010529e-11,5.951905742043341e-11,3.939350189424564e-11,2.515646947614478e-11,1.5228219644935968e-11,9.29688381157403e-12,5.606295885328315e-12,3.1848461993539727e-12,1.7154583551828485e-12,9.277102254799845e-13
0.0,44,44.0,0.0,30.0,0.0,0.0,0.0,0.0,-13.0,0.0,2.0,0.0,0.0,0.0,1.1213002670544199e-10,1.038653694848044e-10,9.19992684090009e-11,7.884920501094177e-11,6.811951903237909e-11,5.58377364538672e-11,4.9073336838078696e-11,3.909769938341086e-11,2.9601920067562035e-11,2.3662314300888496e-11,1.843712671975599e-11,1.2652243766075314e-11,9.607213345477828e-12,6.378204324343435e-12,4.400200440768096e-12,2.90531623624726e-12,1.9548649476464426e-12,1.1919688928651375e-12,7.085998127514788e-13,4.2691162509316947e-13,2.528777549859255e-13,1.483382524747152e-13,9.153638773877916e-14,5.067528677777373e-14,2.95503634568609e-14,1.5361276906673095e-14,2.7846186789065083e-09,1.716294124882629e-09,1.2167076540914009e-09,8.606515407779962e-10,5.963891716398298e-10,4.02521126604939e-10,2.971104093198514e-10,2.0719877676733948e-10,1.4084412590825062e-10,9.268059643252645e-11,6.340052973338876e-11,4.065272677317795e-11,2.299930542856292e-11,1.5948306683902773e-11,8.908116454837858e-12,5.670847792059585e-12,3.1724411514699036e-12,1.8465439632852127e-12,9.701606762606563e-13
0.0,45,45.0,0.0,30.0,0.0,0.0,0.0,0.0,-13.0,0.0,2.0,0.0,0.0,0.0,1.1425322522718747e-10,1.0563263500194101e-10,9.739489418649381e-11,8.259418839968788e-11,7.050391182544186e-11,6.096241538275669e-11,4.9675900292144665e-11,3.983264711142912e-11,3.256694314773326e-11,2.5142166632547114e-11,1.8322970437919998e-11,1.30113423803096e-11,9.78665706768428e-12,6.752543599962991e-12,4.52043477864006e-12,2.8210522010063606e-12,1.9022599240985993e-12,1.1698309971824874e-12,7.355258133775149e-13,4.501781273030943e-13,2.6709183014313593e-13,1.547834274579855e-13,9.541263936326573e-14,4.947568647374497e-14,3.078422856504918e-14,1.4180638009986105e-14,2.9140277775217207e-09,1.7320267761953275e-09,1.2541726827375002e-09,8.618161787595682e-10,6.100396438644934e-10,4.126975189928958e-10,2.930112941390682e-10,2.0925477801909154e-10,1.4545592829723327e-10,1.0495960730604798e-10,6.380337215185906e-11,4.2131530057550553e-11,2.4632561081692427e-11,1.5279581385124044e-11,9.499954137535342e-12,5.439577870096711e-12,3.3761868168382256e-12,1.7820531220463505e-12,1.0281888990291566e-12
0.0,46,46.0,0.0,30.0,0.0,0.0,0.0,0.0,-13.0,0.0,2.0,0.0,0.0,0.0,1.2532707309075048e-10,1.0854496662153241e-10,9.784984134234569e-11,8.409352892814443e-11,7.333017280252422e-11,6.166797210284658e-11,5.009759073197864e-11,4.116462142882575e-11,3.3461278839372816e-11,2.4930618428455905e-11,1.8444137990413246e-11,1.3361432664914179e-11,9.20320144761431e-12,6.3991986596665405e-12,4.51992379292827e-12,2.8378103462149344e-12,1.868894380872128e-12,1.2534114097378378e-12,7.873284609823468e-13,4.270457232582746e-13,2.806115173199739e-13,1.565789055324577e-13,9.192397729956834e-14,5.260740693577892e-14,3.139365907621578e-14,1.455368973951417e-14,2.955766566251042e-09,1.7682535965755966e-09,1.2753478271276521e-09,9.2367278714927e-10,6.218664909663e-10,4.4186690056011195e-10,3.102993971271778e-10,2.0796898777443055e-10,1.5294703016904866e-10,1.0368145627510517e-10,6.60755150965614e-11,4.183337917800472e-11,2.5953058768339568e-11,1.5884833464189958e-11,1.025771999826189e-11,5.970116134365399e-12,3.2697634979028e-12,1.7398328583690367e-12,9.077315208651005e-13
0.0,47,47.0,0.0,30.0,0.0,0.0,0.0,0.0,-13.0,0.0,2.0,0.0,0.0,0.0,1.186664166383022e-10,1.1034206757834333e-10,1.0259672760081765e-10,8.430620481856064e-11,7.473396558361846e-11,6.439217101444706e-11,5.142313614493241e-11,4.110046708000074e-11,3.1088027381978776e-11,2.3908503349047212e-11,1.8775911623777847e-11,1.3421180334960396e-11,9.65447119913739e-12,6.676050870186103e-12,4.618971687287757e-12,2.9209495658875996e-12,1.9123488690110595e-12,1.2869696931339047e-12,7.321594785813735e-13,4.4848535639500267e-13,2.639029623542672e-13,1.6030440433543267e-13,9.525604798231104e-14,5.204934896589527e-14,2.948783418977576e-14,1.6124305079649417e-14,3.0023779692219212e-09,1.8215720615284877e-09,1.2728034181326852e-09,8.424824854198934e-10,6.123700834707995e-10,4.4712331914441686e-10,3.229205239458973e-10,2.2029737220787533e-10,1.4483559655011518e-10,9.660738358359369e-11,6.64279605171737e-11,4.045921552652963e-11,2.7664069787856195e-11,1.6500978365217463e-11,9.435544433383079e-12,5.643527937079489e-12,3.2489084112655012e-12,1.8078056510712811e-12,9.616372485824442e-13
0.0,48,48.0,0.0,30.0,0.0,0.0,0.0,0.0,-13.0,0.0,2.0,0.0,0.0,0.0,1.2211890826431843e-10,1.1089033909926574e-10,9.843159310563074e-11,9.075703468260297e-11,7.534755785743407e-11,6.129906723296783e-11,5.1665515966402545e-11,4.091100179517738e-11,3.2616312335353234e-11,2.5867961754412435e-11,1.8970959016420244e-11,1.4636033571881367e-11,9.858688099606697e-12,6.5840896758941615e-12,4.69302419535262e-12,3.1217717031664184e-12,2.0150698514256706e-12,1.188232218525056e-12,7.526349862839091e-13,4.706632057632023e-13,2.562326342769839e-13,1.5628694617331442e-13,8.831826389182088e-14,5.1388251009659944e-14,2.8822509380385983e-14,1.7916531386117882e-14,2.9786298252732455e-09,1.8591844698302582e-09,1.2812933083281767e-09,9.36251987518511e-10,6.562821828727885e-10,4.793214418307093e-10,3.274829193191866e-10,2.1420632471250363e-10,1.5044543017999915e-10,1.0642847248532196e-10,6.62290410484414e-11,4.567837578882342e-11,2.640710620353709e-11,1.704339452822679e-11,9.813646511433022e-12,5.808923444410492e-12,3.479055339168014e-12,1.8680157392427224e-12,1.0475636100523858e-12
0.0,49,49.0,0.0,30.0,0.0,0.0,0.0,0.0,-13.0,0.0,2.0,0.0,0.0,0.0,1.300694811831121e-10,1.1834154819587848e-10,1.0001771571459253e-10,8.903866054578163e-11,7.7618016866566e-11,6.278324870799429e-11,5.577571813298488e-11,4.178197607984692e-11,3.31770566712679e-11,2.484311683665818e-11,1.7888577440220577e-11,1.46435939098873e-11,9.819917390072607e-12,6.7628899967407885e-12,4.607819153905682e-12,3.1868848230046843e-12,1.913460913494409e-12,1.264967257817996e-12,7.522536519481856e-13,4.4990179478951754e-13,2.7598406581587205e-13,1.6413565617111958e-13,9.129248169155798e-14,5.184673296244246e-14,2.8721013601296594e-14,1.783370610733656e-14,2.996410332588174e-09,1.8485330191205875e-09,1.4165974745739237e-09,9.192372062930258e-10,6.906335486184869e-10,4.759046594471676e-10,3.339821438326882e-10,2.254320495828067e-10,1.587365587354674e-10,1.0018127275687248e-10,7.01446648786736e-11,4.635747314790363e-11,2.855623350798471e-11,1.601457260328683e-11,9.93493672155393e-12,5.954014074303104e-12,3.464441176330453e-12,1.893247975024297e-12,1.0175987687742448e-12
0.0,50,50.0,0.0,30.0,0.0,0.0,0.0,0.0,-13.0,0.0,2.0,0.0,0.0,0.0,1.3351513367472453e-10,1.2243878535124773e-10,1.042634696074858e-10,9.353450155226254e-11,7.216230393106441e-11,6.38501680372084e-11,5.36643171114078e-11,4.291797085489815e-11,3.4396324296920045e-11,2.6827468561168848e-11,1.970774568601679e-11,1.3832622881332098e-11,9.55688953268537e-12,7.057656361561649e-12,4.431307292631469e-12,3.150533279056461e-12,1.979048626594719e-12,1.2068406928021327e-12,7.746832959817869e-13,4.611435389222754e-13,2.72444302125326e-13,1.5951752902357787e-13,9.434768988567266e-14,5.5193521424325895e-14,3.107934651342932e-14,1.780787178887028e-14,3.0993381392783637e-09,2.105955201660434e-09,1.4215388205655954e-09,9.70028005062139e-10,6.711652029079248e-10,4.89329333000352e-10,3.265764964163424e-10,2.2840398589246023e-10,1.6195664888220739e-10,1.0589737718295273e-10,6.843787517258415e-11,4.513323816158581e-11,2.8403420007097362e-11,1.7238764603573922e-11,1.0285932716940218e-11,6.233978244268905e-12,3.4975904973207254e-12,1.910793234634237e-12,1.1272886131443815e-12
0.0,51,51.0,0.0,30.0,0.0,0.0,0.0,0.0,-13.0,0.0,2.0,0.0,0.0,0.0,1.3496497369391875e-10,1.250733210957307e-10,1.0549242886845011e-10,8.966087556198555e-11,7.793033758120621e-11,6.646491732785462e-11,5.4398449752603395e-11,4.612907161242569e-11,3.45218845715972e-11,2.6829466858751923e-11,1.9685576443598187e-11,1.411445745730134e-11,1.0162028156529776e-11,7.39111819875864e-12,4.635868553807217e-12,3.1956352367434294e-12,1.948464785852609e-12,1.2450549923633627e-12,7.743856320326519e-13,4.688990548846652e-13,2.8650939637334557e-13,1.6033213989550436e-13,9.089109103632868e-14,5.48254850649651e-14,3.0014224884003544e-14,1.7013956189585615e-14,3.152134720793463e-09,1.9424706762200753e-09,1.459837054698777e-09,1.0325409219236898e-09,7.336326398434899e-10,5.268419931200217e-10,3.364739573921848e-10,2.4502504012764577e-10,1.6673174369193493e-10,1.0895340226279062e-10,7.278654931347244e-11,4.678432182046663e-11,2.7821007321109908e-11,1.7780880906417387e-11,1.028219394178197e-11,6.048793280726163e-12,3.3224257059727957e-12,1.9206020978391378e-12,1.0519212676194016e-12
0.0,52,52.0,0.0,30.0,0.0,0.0,0.0,0.0,-13.0,0.0,2.0,0.0,0.0,0.0,1.3955286810521735e-10,1.2370536763427248e-10,1.0459280489320358e-10,9.795699612172715e-11,8.119174886707191e-11,6.934362488946004e-11,5.791155991975926e-11,4.7091208345741503e-11,3.732369599598353e-11,2.6840910803199318e-11,2.0205994937957168e-11,1.4039405271390391e-11,1.0616438433458737e-11,6.8658837376916785e-12,4.54118732589485e-12,3.236633231367287e-12,1.9988807437095456e-12,1.3038617091748311e-12,7.902405387946232e-13,4.4466832820396546e-13,2.5308786531083743e-13,1.558390417021801e-13,9.37573398782323e-14,5.142414515221667e-14,2.971786664640498e-14,1.5179390956084183e-14,3.2448112803227514e-09,2.1258879620530507e-09,1.4587701486995124e-09,1.0884816700272762e-09,7.674456788327541e-10,5.225858708462919e-10,3.390452841514635e-10,2.3929567071227404e-10,1.7079768390530163e-10,1.107598762385699e-10,7.241689495244433e-11,4.829795107718966e-11,2.98753452509849e-11,1.866977211208931e-11,1.060809176303346e-11,6.521720599903536e-12,3.499796716198701e-12,2.0638678865734945e-12,1.0749831891721292e-12
0.0,53,53.0,0.0,30.0,0.0,0.0,0.0,0.0,-13.0,0.0,2.0,0.0,0.0,0.0,1.3685964181855493e-10,1.2032838937908253e-10,1.1108974428947312e-10,9.679686650019648e-11,8.532096784699175e-11,6.948368118064268e-11,5.662156430031802e-11,4.748121001199619e-11,3.5623892044095855e-11,2.687144004776958e-11,2.0681493289103378e-11,1.4504452431969668e-11,1.0635453024697928e-11,7.0804855512983526e-12,4.8255239543049715e-12,3.207185014611779e-12,2.028215815608796e-12,1.2854367782947514e-12,8.064423724180033e-13,4.767464362647955e-13,2.81370200865713e-13,1.5881191771946435e-13,9.657839625310257e-14,5.516302632499448e-14,3.2061772777752514e-14,1.606210273818297e-14,3.2821549060291733e-09,2.2221375653814764e-09,1.496550658909424e-09,1.068619457468616e-09,7.99615557764533e-10,5.593749295447411e-10,3.818367036906215e-10,2.6106676814765273e-10,1.676034018735179e-10,1.1728686595168816e-10,7.428508360555076e-11,4.6465136302608193e-11,2.952661319405669e-11,1.8342623575265678e-11,1.0743475718362412e-11,6.252777095760205e-12,3.695208704474437e-12,2.0080812010066852e-12,1.0922322751846543e-12
0.0,54,54.0,0.0,30.0,0.0,0.0,0.0,0.0,-13.0,0.0,2.0,0.0,0.0,0.0,1.442650978799617e-10,1.2679809414357037e-10,1.0989808765679792e-10,1.0059191080902684e-10,8.363332667259106e-11,6.683221900465352e-11,5.778852047795059e-11,4.5310555272356455e-11,3.726015784392044e-11,2.8233139509726373e-11,2.0956637281426747e-11,1.4638513047970777e-11,1.0804220291620805e-11,7.3716363131074e-12,4.855170996804206e-12,3.1838071864248925e-12,2.1275738422729995e-12,1.2794979008323224e-12,8.010122943853203e-13,4.89104405190694e-13,2.95079163954423e-13,1.7099302297828323e-13,9.706030825335952e-14,5.117158218360073e-14,2.984765667350152e-14,1.6320976929625833e-14,3.5433960849105597e-09,2.197524651747652e-09,1.5889467427541836e-09,1.111864708695144e-09,7.564824761442455e-10,5.497794031475587e-10,3.827583621344287e-10,2.5073591510861125e-10,1.8367333347009587e-10,1.1080998170753398e-10,7.53807887162884e-11,5.040088030003877e-11,2.946367738718454e-11,1.8799140690820477e-11,1.0670775712584494e-11,6.436664652959583e-12,3.404676229401684e-12,1.9733068074277967e-12,1.044223705239695e-12
