Line_number,Fiducial,Easting,Northing,Height,Elevation,tx_pitch,tx_roll,tx_yaw,txrx_dx,txrx_dy,txrx_dz,rx_pitch,rx_roll,rx_yaw,S0Z_time_3.834e-04,S0Z_time_3.924e-04,S0Z_time_4.039e-04,S0Z_time_4.184e-04,S0Z_time_4.364e-04,S0Z_time_4.589e-04,S0Z_time_4.869e-04,S0Z_time_5.224e-04,S0Z_time_5.679e-04,S0Z_time_6.249e-04,S0Z_time_6.969e-04,S0Z_time_7.879e-04,S0Z_time_9.019e-04,S0Z_time_1.046e-03,S0Z_time_1.227e-03,S0Z_time_1.456e-03,S0Z_time_1.744e-03,S0Z_time_2.109e-03,S0Z_time_2.567e-03,S0Z_time_3.145e-03,S0Z_time_3.864e-03,S0Z_time_4.745e-03,S0Z_time_5.821e-03,S0Z_time_7.140e-03,S0Z_time_8.754e-03,S0Z_time_1.073e-02,S1Z_time_2.057e-05,S1Z_time_2.607e-05,S1Z_time_3.307e-05,S1Z_time_4.206e-05,S1Z_time_5.356e-05,S1Z_time_6.807e-05,S1Z_time_8.607e-05,S1Z_time_1.086e-04,S1Z_time_1.366e-04,S1Z_time_1.721e-04,S1Z_time_2.176e-04,S1Z_time_2.746e-04,S1Z_time_3.466e-04,S1Z_time_4.376e-04,S1Z_time_5.516e-04,S1Z_time_6.956e-04,S1Z_time_8.771e-04,S1Z_time_1.106e-03,S1Z_time_1.394e-03
0.0,0,0.0,0.0,30.0,0.0,0.0,0.0,0.0,-13.0,0.0,2.0,0.0,0.0,0.0,5.8070373402716224e-11,5.1281113512806755e-11,4.771711466034591e-11,4.116165959496616e-11,3.5416731620169254e-11,3.068629109424479e-11,2.4779335221520717e-11,2.106595987068653e-11,1.6201876541921705e-11,1.2441840179274383e-11,9.204256992020982e-12,5.955981639095742e-12,4.341461456329964e-12,3.009864105891084e-12,1.9856427771373487e-12,1.182269744103892e-12,7.98396951132717e-13,4.597644130231723e-13,2.6704387064288303e-13,1.5648562375696026e-13,8.412994604435227e-14,4.936497795226326e-14,2.671139215245356e-14,1.4074121033600465e-14,7.398423968410977e-15,4.838089674485528e-15,3.734713023969264e-09,1.681145133214335e-09,8.348509383731276e-10,4.6019991732614563e-10,2.805187006512252e-10,1.89685698852825e-10,1.3993004386616957e-10,9.888393544430568e-11,7.086002851713646e-11,4.583254523785061e-11,3.295603764136871e-11,2.2522648206723302e-11,1.469053019023881e-11,8.593145994951655e-12,5.075493155081098e-12,2.869662183200322e-12,1.5007221380085195e-12,8.443755236670633e-13,4.4083894995425664e-13
0.0,1,1.0,0.0,30.0,0.0,0.0,0.0,0.0,-13.0,0.0,2.0,0.0,0.0,0.0,5.8010180540008735e-11,4.911505329313875e-11,4.778493842739863e-11,4.298166639074549e-11,3.603733233512278e-11,3.1286318246786185e-11,2.4983700166575758e-11,2.1281032034352166e-11,1.769377758405333e-11,1.2900692802502774e-11,9.904420049958274e-12,7.082732009458241e-12,4.7518792222779826e-12,3.1107111599460605e-12,2.188543190337268e-12,1.3462952956965958e-12,8.77246295441623e-13,4.780885422577091e-13,3.0227759534408405e-13,1.5524814929966738e-13,9.7014244089722e-14,5.20478233558859e-14,3.0017553927382873e-14,1.6040760659496292e-14,8.896220512581862e-15,4.185480373081833e-15,3.6183829439158692e-09,1.6462529194427294e-09,7.987066474831277e-10,4.596123310597213e-10,2.570183198973752e-10,1.8208701160246382e-10,1.238891184512502e-10,9.405376862031879e-11,6.795415126138249e-11,4.732505822094012e-11,3.310640080859841e-11,2.2957770433645736e-11,1.4522730264035421e-11,8.863454273153602e-12,5.199524054319005e-12,3.169400383851797e-12,1.7369837274384586e-12,9.115086985134778e-13,4.87434911642737e-13
0.0,2,2.0,0.0,30.0,0.0,0.0,0.0,0.0,-13.0,0.0,2.0,0.0,0.0,0.0,5.64562645501097e-11,5.4361048867455647e-11,4.973748582353262e-11,4.053670619731689e-11,3.6633818252790306e-11,3.2487954580606697e-11,2.723611332561274e-11,2.1696320148681862e-11,1.7497785943954706e-11,1.3563427049239017e-11,1.0793163039553185e-11,7.523081535882355e-12,5.262342530934535e-12,3.500426038194111e-12,2.358349993226803e-12,1.4632053620349118e-12,9.502848551527696e-13,5.624466459223535e-13,3.0340272528753004e-13,1.7893068380794554e-13,1.0204589222819731e-13,5.450670288124362e-14,3.0630016385646046e-14,1.6241157507389745e-14,8.623957410398392e-15,4.2780649695760794e-15,3.519919219410591e-09,1.533703924189088e-09,8.290200936505472e-10,4.291861009686208e-10,2.8095970993866847e-10,1.7937122656103928e-10,1.171232769660839e-10,8.976688583969005e-11,6.580995859360972e-11,4.806319334614195e-11,3.263181996088027e-11,2.250464456448454e-11,1.478881724527223e-11,9.721718124505661e-12,5.643062980965965e-12,3.3093622190983406e-12,1.803965938812925e-12,1.0085654235083145e-12,5.39184837863829e-13
0.0,3,3.0,0.0,30.0,0.0,0.0,0.0,0.0,-13.0,0.0,2.0,0.0,0.0,0.0,5.59166579155961e-11,5.205412818701665e-11,4.801616483920338e-11,4.277280042695344e-11,3.641113650922857e-11,3.3799066958384686e-11,2.799619917202463e-11,2.266222136626524e-11,1.88195492370402e-11,1.3800361958609416e-11,1.0921761867131234e-11,7.995651972190534e-12,5.529851101784581e-12,3.804666551350477e-12,2.399685238972515e-12,1.6084114953010457e-12,9.827249991813868e-13,5.964641185152634e-13,3.605321230108017e-13,1.9281110053330205e-13,1.088136453741974e-13,6.499628776597785e-14,3.097336373340564e-14,1.8221589088456833e-14,1.0061645037905422e-14,4.626495567301119e-15,3.445187962657565e-09,1.5814700830199974e-09,7.803707020713768e-10,4.575970943210159e-10,2.7545087930850364e-10,1.7734817339297403e-10,1.2198475523375957e-10,8.934158567440743e-11,6.555080429025589e-11,4.6930951531361716e-11,3.226304275419856e-11,2.2066197002092582e-11,1.4889289013011544e-11,9.182700261252865e-12,5.505132994145196e-12,3.4017159899023897e-12,1.9798834704295135e-12,1.0392039080838797e-12,6.028464968599164e-13
0.0,4,4.0,0.0,30.0,0.0,0.0,0.0,0.0,-13.0,0.0,2.0,0.0,0.0,0.0,5.616698905289032e-11,5.648981088071449e-11,4.75403906401784e-11,4.163019938859197e-11,3.531387761351888e-11,3.1538474240161893e-11,2.8102044617388422e-11,2.3451896127500265e-11,1.9271193614478297e-11,1.427500609504749e-11,1.039371565802716e-11,7.676446511961707e-12,5.657672742800844e-12,3.944667047340847e-12,2.6145999529314333e-12,1.7731381539364584e-12,1.1262800268088699e-12,6.291801904851512e-13,3.7476513094919786e-13,2.0361181380791317e-13,1.1973998471487474e-13,6.2409424838709e-14,3.39713108973285e-14,2.014610337132487e-14,1.0045472397006673e-14,6.048495974401251e-15,3.2672083474528808e-09,1.6079479132205477e-09,7.728940183673412e-10,4.387360930083987e-10,2.7724464009239567e-10,1.720967178724741e-10,1.2765487459147193e-10,8.788744841655583e-11,6.482957785405082e-11,4.615007213802441e-11,3.330399329501309e-11,2.1695761883249443e-11,1.5686243528158655e-11,9.159736468543696e-12,6.22421254034703e-12,3.4933909283111754e-12,2.0254847250155014e-12,1.1670005908549895e-12,5.827993232431515e-13
0.0,5,5.0,0.0,30.0,0.0,0.0,0.0,0.0,-13.0,0.0,2.0,0.0,0.0,0.0,5.414960385927908e-11,5.113638725700752e-11,4.631658897122661e-11,4.285613384280585e-11,3.8104464570965794e-11,3.15159761002364e-11,2.7446213750136624e-11,2.2441933936320975e-11,1.8450499723174324e-11,1.4760593532114078e-11,1.1670077249087545e-11,8.605127966599513e-12,5.712516101258657e-12,4.033554913079995e-12,2.796219711614679e-12,1.9473425502710506e-12,1.1036857082145597e-12,7.10192822778578e-13,3.989229020346708e-13,2.2940974822318195e-13,1.217287713624127e-13,7.160904582982668e-14,3.904237485841371e-14,2.0866479845540665e-14,1.073050147435331e-14,5.854944819678485e-15,3.4094071217427477e-09,1.6427656488970078e-09,8.06853510343574e-10,4.655945294138774e-10,2.8552753152943157e-10,1.799060453457776e-10,1.259288756325335e-10,9.078388350480259e-11,6.212000156999446e-11,4.6121987924319025e-11,3.216468076832729e-11,2.133678057056516e-11,1.4114395152081218e-11,9.326107957996089e-12,5.746639454549417e-12,3.5117298564033464e-12,2.1753849665530004e-12,1.1974047586997033e-12,6.33055319402487e-13
0.0,6,6.0,0.0,30.0,0.0,0.0,0.0,0.0,-13.0,0.0,2.0,0.0,0.0,0.0,5.697914463493661e-11,5.143152762925759e-11,4.791963996514231e-11,4.153285191530523e-11,3.751524559489523e-11,3.236202404339624e-11,2.7417762579793336e-11,2.4359580047322273e-11,1.7342266692656425e-11,1.466014790850597e-11,1.13782108723828e-11,8.541125218958924e-12,6.0976881470513945e-12,4.433968002827308e-12,2.937607219454438e-12,1.9702988822828696e-12,1.1882800005032373e-12,7.582654184785094e-13,4.2349043104011816e-13,2.4629974942729544e-13,1.291074426586632e-13,7.13482507266003e-14,3.86888838880075e-14,2.0635542637324975e-14,1.0971362830635982e-14,6.756994845820215e-15,3.461628696468233e-09,1.4998424158239411e-09,7.895970641301038e-10,4.5968665724705896e-10,2.8773357510535696e-10,1.8878041823996348e-10,1.198483892325706e-10,9.740273005125201e-11,6.793320819610277e-11,4.4383180162467475e-11,2.974472704640837e-11,2.0220521860803494e-11,1.5003539806091737e-11,9.388935634528363e-12,6.209440794068978e-12,3.674036205292439e-12,2.218203563335119e-12,1.2188568553386274e-12,6.437703314274586e-13
0.0,7,7.0,0.0,30.0,0.0,0.0,0.0,0.0,-13.0,0.0,2.0,0.0,0.0,0.0,5.955344283031384e-11,4.95620532341601e-11,4.5872079555167396e-11,4.239780587269852e-11,3.7828248126813415e-11,3.0733504391775544e-11,2.7438946470390615e-11,2.177863815100361e-11,1.9130381374059706e-11,1.527168439889288e-11,1.1625107036353744e-11,8.562547762422855e-12,6.180484180626893e-12,4.238158656406887e-12,3.1412504507489935e-12,1.982112882645917e-12,1.2118705585080812e-12,7.285341414073016e-13,4.452845829853392e-13,2.469819315948926e-13,1.4616305593398237e-13,8.3068674394807e-14,4.469148431148751e-14,2.2088897265510358e-14,1.2129216733871933e-14,6.409181225267367e-15,3.2649138140138772e-09,1.5135073063167292e-09,7.778731479724292e-10,4.451337218968518e-10,2.9233024028906503e-10,1.952443588556975e-10,1.3239561074353419e-10,9.34992693582467e-11,6.278025615775775e-11,4.505206469004764e-11,3.138551244005654e-11,2.1923897728651728e-11,1.519680616442801e-11,9.748674179303756e-12,6.305508089618175e-12,3.668685512339723e-12,2.215945547122482e-12,1.268526142615126e-12,7.01439760848048e-13
0.0,8,8.0,0.0,30.0,0.0,0.0,0.0,0.0,-13.0,0.0,2.0,0.0,0.0,0.0,5.892161503931562e-11,5.45303475422098e-11,4.716433997063872e-11,4.2246615862668865e-11,3.6193131849975485e-11,3.321279632790409e-11,2.6536613453516055e-11,2.333391735648083e-11,1.8694863352664536e-11,1.4909138007101326e-11,1.1408977520748096e-11,9.229867408842421e-12,6.6573130853752765e-12,4.39457102595495e-12,3.131694597896471e-12,2.055768928813039e-12,1.3501924940405524e-12,8.266570155466712e-13,4.84342984086296e-13,2.8293816475178117e-13,1.4792266587793603e-13,8.322500832773737e-14,4.5730383512775907e-14,2.5916586455066465e-14,1.2225394940569884e-14,7.624738725247268e-15,3.2075849743155702e-09,1.4774088045468352e-09,8.070563142335509e-10,4.5707792211108675e-10,2.9303764752021833e-10,2.013340266218271e-10,1.378084632906672e-10,9.450247165140642e-11,6.919490417739583e-11,4.528517664532452e-11,3.005381444488939e-11,2.117837195935641e-11,1.458330729717073e-11,9.441129675078836e-12,6.132017399327444e-12,3.9646300167875706e-12,2.185815154357313e-12,1.2779334164143073e-12,7.256760547250763e-13
0.0,9,9.0,0.0,30.0,0.0,0.0,0.0,0.0,-13.0,0.0,2.0,0.0,0.0,0.0,5.998371718274497e-11,5.527177707288524e-11,5.034855678527719e-11,4.5892258957090466e-11,3.70921949952308e-11,3.186641364112041e-11,2.800456510790944e-11,2.3452639148946864e-11,1.832331470934905e-11,1.522621119948073e-11,1.1777093186145036e-11,9.007091149845006e-12,6.8984929286092145e-12,4.826989579413691e-12,3.2335298645774784e-12,2.059414014347008e-12,1.3326551808046924e-12,7.943392207964171e-13,5.123602103144098e-13,2.873742879398074e-13,1.613450692627305e-13,8.526970816051988e-14,4.507236389004131e-14,2.4963864715544416e-14,1.2296837698669305e-14,8.009420097547177e-15,3.3347185201231133e-09,1.4510828530068503e-09,7.806468241914413e-10,4.711253630029918e-10,3.026720685183891e-10,1.8962155254143157e-10,1.3947400030082028e-10,9.696910271887386e-11,6.581531329665782e-11,4.699959024673925e-11,3.148839046110818e-11,2.074980517082623e-11,1.3881601835101922e-11,9.48337423338644e-12,5.658933615562875e-12,3.931684677383223e-12,2.160507155562453e-12,1.3593748838350897e-12,6.944050099168047e-13
0.0,10,10.0,0.0,30.0,0.0,0.0,0.0,0.0,-13.0,0.0,2.0,0.0,0.0,0.0,6.115281257516614e-11,5.540390650721799e-11,4.7875814160340975e-11,4.459530606580331e-11,3.773413159165714e-11,3.117055048103313e-11,2.7652535858595222e-11,2.1534810423089044e-11,1.7978801074837784e-11,1.5094588026629482e-11,1.1526415105942984e-11,9.11499438921181e-12,6.338742441213327e-12,4.653852216738835e-12,3.138217475693655e-12,2.1430475510974086e-12,1.4147309976332112e-12,8.458476761571914e-13,5.299624346818537e-13,3.0280510122140396e-13,1.661858013303325e-13,9.711567023872007e-14,5.0592311114972756e-14,2.607985981696019e-14,1.419030365975784e-14,5.660475186180928e-15,3.246757151620417e-09,1.5047730747771283e-09,7.911248189055915e-10,4.3915780912041545e-10,3.0984482848727913e-10,2.0032404339969254e-10,1.3868512125677044e-10,1.0109989058768439e-10,6.885202390006941e-11,4.665363272363217e-11,3.1965294586553816e-11,2.296224935979849e-11,1.5075666897363695e-11,9.858335997496773e-12,6.0515524391494775e-12,3.765793783268529e-12,2.2825179564173474e-12,1.3250600656532905e-12,7.397530931674326e-13
0.0,11,11.0,0.0,30.0,0.0,0.0,0.0,0.0,-13.0,0.0,2.0,0.0,0.0,0.0,6.04583403725149e-11,5.393652649850804e-11,5.121430286675978e-11,4.278302742697255e-11,3.810731475599825e-11,3.207448668009687e-11,2.789723541723264e-11,2.294549447037772e-11,1.8286222198303248e-11,1.4863575442322706e-11,1.1968152362596515e-11,8.745111135743407e-12,6.67672730580078e-12,4.844293169687749e-12,3.408734927720328e-12,2.2252589675208275e-12,1.4405477181067506e-12,8.693938276351981e-13,5.286421143782515e-13,3.1722892028696684e-13,1.7455482808968037e-13,1.0340372895770629e-13,5.25465470131142e-14,2.704980762020467e-14,1.3976028792768559e-14,7.750133427906062e-15,3.2227872376019686e-09,1.4637790249670664e-09,7.638013409408653e-10,4.757079312274381e-10,3.045760375329753e-10,2.0559696332036147e-10,1.4401013837582627e-10,1.0242618904648e-10,7.152562362253755e-11,4.900105372047731e-11,3.214029925745497e-11,2.1912914427531166e-11,1.493216404363657e-11,9.68414184871822e-12,6.488078516174247e-12,3.794991737799504e-12,2.2478638461445066e-12,1.3006724524937813e-12,7.215381226005537e-13
0.0,12,12.0,0.0,30.0,0.0,0.0,0.0,0.0,-13.0,0.0,2.0,0.0,0.0,0.0,6.342675098685998e-11,5.649871227410438e-11,4.9601969122645405e-11,4.3496078378562926e-11,4.0909831672891295e-11,3.23565060116733e-11,2.8908052554637887e-11,2.3360196306440894e-11,1.877852538032463e-11,1.5137166494782767e-11,1.1709556853458636e-11,8.670990329446296e-12,6.332380656172627e-12,4.67332998304804e-12,3.1689188364376864e-12,2.167776201810342e-12,1.4381427922397113e-12,8.523871063752846e-13,5.42691941782998e-13,3.2215596093088695e-13,1.893422917502315e-13,1.0290747268463073e-13,5.616305683744621e-14,2.976603792961844e-14,1.6351814792997306e-14,1.0812250241027282e-14,3.1607241114282875e-09,1.567903750033352e-09,7.93066249325526e-10,4.895972678904419e-10,3.0645087399871734e-10,2.098731410591021e-10,1.4890281850616674e-10,1.0075138573786035e-10,7.304487397398285e-11,4.945028702196559e-11,3.301171590592556e-11,2.228303961772558e-11,1.3930902473050013e-11,1.0049497642005415e-11,5.985561647986048e-12,3.837760683886331e-12,2.4099089829308607e-12,1.4296378059994565e-12,7.897397808042236e-13
0.0,13,13.0,0.0,30.0,0.0,0.0,0.0,0.0,-13.0,0.0,2.0,0.0,0.0,0.0,6.065629303480439e-11,6.03370316001224e-11,4.659625486803445e-11,4.446267961865104e-11,4.055547426925848e-11,3.3152621930713457e-11,2.962538565853138e-11,2.278752820349155e-11,1.9949748060357695e-11,1.509165433294637e-11,1.197136800897239e-11,8.741043986754092e-12,6.8185534969054655e-12,4.917696408078481e-12,3.2888569292767068e-12,2.2560016761468522e-12,1.4785307787424555e-12,9.885038687646644e-13,5.977531100790371e-13,3.4110517371228506e-13,1.9555554946677323e-13,1.0715227753028623e-13,5.936759355617538e-14,3.189989134831276e-14,1.4665917267257207e-14,9.175084343507743e-15,3.049263276304888e-09,1.4643997773857954e-09,7.923239457486297e-10,4.673919786281465e-10,3.1191859402523805e-10,2.1531893487495852e-10,1.4910556782259823e-10,1.0495138236937627e-10,7.269233373992252e-11,5.137523378626941e-11,3.3775195504440636e-11,2.1540600869383466e-11,1.4318020900200779e-11,9.9671248684689e-12,5.902061622683216e-12,3.718395499517411e-12,2.3697776008520096e-12,1.3258633544700898e-12,7.97069764077328e-13
0.0,14,14.0,0.0,30.0,0.0,0.0,0.0,0.0,-13.0,0.0,2.0,0.0,0.0,0.0,6.416943903180939e-11,5.915802849196124e-11,5.733739372758433e-11,4.472648685929294e-11,4.06066610508383e-11,3.352683042203275e-11,2.8692872932706412e-11,2.3252510798535524e-11,1.9010390722694647e-11,1.5213922332645698e-11,1.171500809251407e-11,8.61961836569321e-12,6.558147862267035e-12,4.7658341095244e-12,3.335874735091604e-12,2.278701834115974e-12,1.4954471397000407e-12,9.673710013016918e-13,5.493363363632011e-13,3.391238653549873e-13,2.0024747094124702e-13,1.1376729813989442e-13,5.756560806200691e-14,3.3550535655968284e-14,1.7954762978769597e-14,8.79913057429111e-15,3.2702258959181682e-09,1.5034603191529173e-09,7.772157866871887e-10,4.56777326119585e-10,3.183095755505411e-10,2.2333326228979148e-10,1.425674230817036e-10,1.0952164395703648e-10,7.546927172505406e-11,5.132134650450857e-11,3.322356666757559e-11,2.3112232297103098e-11,1.4599999319641804e-11,1.0250423321938095e-11,6.081815231854115e-12,3.863151833434166e-12,2.24617898227446e-12,1.3536774856019754e-12,7.620128795222212e-13
0.0,15,15.0,0.0,30.0,0.0,0.0,0.0,0.0,-13.0,0.0,2.0,0.0,0.0,0.0,6.684299443923066e-11,5.857313048465424e-11,5.267793695427245e-11,4.8645885858488395e-11,3.911174840481941e-11,3.4518092233523114e-11,2.9758786032657465e-11,2.4817751791577378e-11,1.9311624128941424e-11,1.5556115222704717e-11,1.1629454144854946e-11,9.083708062298172e-12,6.523120758611835e-12,4.9720542607719854e-12,3.5658926791888852e-12,2.3089693387826962e-12,1.4823425604450386e-12,9.739053413438352e-13,5.696249202355906e-13,3.563016637238296e-13,1.9653431113304063e-13,1.168214680243859e-13,6.678629093664171e-14,3.1944160013633614e-14,1.6323189615732354e-14,7.538681960897486e-15,3.0035265511219853e-09,1.4628078291339019e-09,8.306325884982832e-10,4.936195708553569e-10,3.202894589299187e-10,2.149976489807562e-10,1.5290137736661505e-10,1.1394612438968938e-10,7.712486651843903e-11,5.104355030657466e-11,3.663648745475888e-11,2.2796049293239768e-11,1.4628305539332842e-11,9.3925431106742e-12,6.043836254696929e-12,3.687162068325216e-12,2.329478070246247e-12,1.3248037939629658e-12,8.133028751934969e-13
0.0,16,16.0,0.0,30.0,0.0,0.0,0.0,0.0,-13.0,0.0,2.0,0.0,0.0,0.0,6.699103413466565e-11,6.035217754564362e-11,5.595461395638272e-11,4.875809558273138e-11,4.0433400706587865e-11,3.522592376828754e-11,3.0329109502435685e-11,2.5102188152614124e-11,2.0133829136817288e-11,1.6226417812807986e-11,1.2131619291480987e-11,9.40015536727264e-12,6.555641340754215e-12,5.004252689992491e-12,3.5227356203695006e-12,2.478351250479003e-12,1.6010923389421047e-12,9.869196888252417e-13,6.301430624580988e-13,3.571633601022515e-13,2.229340554207141e-13,1.1290517202549242e-13,6.221861518527786e-14,3.4600787374527886e-14,1.974255681629014e-14,7.39159869992802e-15,3.1704060883875985e-09,1.4593793745190778e-09,7.934765222603239e-10,4.947497969594545e-10,3.151637108640697e-10,2.2825524625859065e-10,1.5508542147269716e-10,1.1293731381005135e-10,7.764021227817551e-11,5.193383285027458e-11,3.586156179147753e-11,2.3378319697664815e-11,1.5444446821427308e-11,1.0099987442392638e-11,6.232241167847718e-12,3.8118877948792594e-12,2.2168529686004472e-12,1.3740237488302228e-12,7.720563707547914e-13
0.0,17,17.0,0.0,30.0,0.0,0.0,0.0,0.0,-13.0,0.0,2.0,0.0,0.0,0.0,6.492944604269219e-11,6.065401077063723e-11,5.287109989607036e-11,4.713635818721858e-11,4.164752444301536e-11,3.7052723931276135e-11,3.001070438043514e-11,2.6100908422262852e-11,1.8895815919301354e-11,1.6080603863667404e-11,1.1634693856020996e-11,9.536713386627061e-12,6.599792809801677e-12,4.919490859039441e-12,3.3701344562334142e-12,2.3244073034376255e-12,1.5674136084062881e-12,9.931754280151323e-13,6.245738935631548e-13,3.6295606579802393e-13,2.32309883395509e-13,1.197622614416844e-13,6.90061860720053e-14,4.0058809541991815e-14,1.935956823390618e-14,1.0521980319127924e-14,3.1280282177227605e-09,1.4873388251701668e-09,8.185220098106697e-10,4.808003018261865e-10,3.388159417626195e-10,2.2625467184887242e-10,1.6058343625785957e-10,1.1743753501875732e-10,7.686890260131163e-11,5.624539726534881e-11,3.678220928983192e-11,2.477565264503089e-11,1.60446312306202e-11,9.931247617028807e-12,6.476273526621658e-12,3.928525870168193e-12,2.251302512400331e-12,1.3719749084532322e-12,7.780750863641392e-13
0.0,18,18.0,0.0,30.0,0.0,0.0,0.0,0.0,-13.0,0.0,2.0,0.0,0.0,0.0,6.644291275333729e-11,6.59427988559815e-11,5.2728514673290494e-11,5.0915908541928884e-11,4.5625578431330185e-11,3.703431479600021e-11,3.0567266341255445e-11,2.5028485636948014e-11,2.0380199746995666e-11,1.5516611638962737e-11,1.1752475006814169e-11,9.61608551820784e-12,6.750336985244713e-12,4.904874475238676e-12,3.3635963568446003e-12,2.4000254118229684e-12,1.5065181756013026e-12,1.0115939477475569e-12,6.604474404995397e-13,3.7573738925337347e-13,2.1746624789471178e-13,1.2315011033036503e-13,6.93653436759931e-14,3.5117649876017256e-14,1.9323453925657155e-14,9.822981049502389e-15,3.030720088518311e-09,1.4638584322949057e-09,8.021333059591927e-10,4.800945387078143e-10,3.5220215453125956e-10,2.3276480939340525e-10,1.5847441677515285e-10,1.0860506478002741e-10,7.943377148917059e-11,5.707217633246484e-11,3.6691982241351604e-11,2.47267649450025e-11,1.5407386918774042e-11,9.809538011191254e-12,6.310309940863959e-12,3.6312550383945433e-12,2.2771529051859797e-12,1.2933974011681606e-12,7.411726625581912e-13
0.0,19,19.0,0.0,30.0,0.0,0.0,0.0,0.0,-13.0,0.0,2.0,0.0,0.0,0.0,6.790597970011225e-11,6.60165301871698e-11,5.549423422112848e-11,5.077274986234636e-11,4.363643237679293e-11,3.843931735767472e-11,3.116222330833343e-11,2.5923015510670483e-11,2.0962054023942043e-11,1.6685703281201287e-11,1.267780764664983e-11,9.377951433775369e-12,6.84640785491849e-12,4.8064131663291436e-12,3.478793416165859e-12,2.452684321873196e-12,1.6037205747236729e-12,9.9609747751236e-13,6.435759924436217e-13,3.744399283612061e-13,2.2236668045485695e-13,1.2210984365917637e-13,7.140368809575988e-14,3.898307825244813e-14,2.0502545848133267e-14,1.318506756003235e-14,2.9575233665303432e-09,1.4083574712182098e-09,8.27736806212326e-10,4.930436006757582e-10,3.7019708226151313e-10,2.264578439058075e-10,1.7262581415888082e-10,1.1280872308760003e-10,8.308752873455637e-11,5.879509023089816e-11,3.896270188382044e-11,2.4672540552570262e-11,1.5679835579163446e-11,1.0660162302018407e-11,6.109653291549036e-12,4.1621952635831545e-12,2.466055951009895e-12,1.3631990659599072e-12,7.836305628983588e-13
0.0,20,20.0,0.0,30.0,0.0,0.0,0.0,0.0,-13.0,0.0,2.0,0.0,0.0,0.0,7.200725937687365e-11,6.528497515176262e-11,6.210725702418002e-11,5.110163356448668e-11,4.5157814682715225e-11,3.641753573191442e-11,3.188225010480404e-11,2.66292981585323e-11,2.071707604296476e-11,1.636500762230923e-11,1.2428302972635628e-11,8.964250081485564e-12,7.056409170759462e-12,4.709303565610561e-12,3.419787043193734e-12,2.2885490215122812e-12,1.5253841278721535e-12,1.005939781524946e-12,6.34672868473617e-13,3.9014736871198206e-13,2.2194447185651162e-13,1.2355994684468954e-13,7.410217083758074e-14,4.001707527887738e-14,2.146193838841462e-14,1.0235157913626106e-14,2.9490732218245196e-09,1.4030612538565117e-09,8.231209172158637e-10,5.053606837424109e-10,3.3492180631899764e-10,2.3768006288586365e-10,1.582207353601139e-10,1.2225307971663758e-10,8.465539747509773e-11,5.597814491893456e-11,3.997938165074588e-11,2.516369640948222e-11,1.6504679000821828e-11,1.0511384491601201e-11,6.747365492316808e-12,3.9583910217559086e-12,2.3178123714527567e-12,1.297209734098198e-12,7.270373798465041e-13
0.0,21,21.0,0.0,30.0,0.0,0.0,0.0,0.0,-13.0,0.0,2.0,0.0,0.0,0.0,7.37754492072067e-11,6.493346476927187e-11,5.888300952697766e-11,5.2652043012056865e-11,4.4616770698285116e-11,3.787705582731584e-11,3.378678952929021e-11,2.778208646424656e-11,2.2568384416347125e-11,1.7132388870744918e-11,1.3002414817341231e-11,9.443308041531958e-12,7.110434900943317e-12,4.957817659641625e-12,3.5076520913798966e-12,2.3218364791852973e-12,1.5861388705599995e-12,1.025243349335542e-12,6.152979599250773e-13,4.122592600523849e-13,2.285675724276222e-13,1.367033673883298e-13,7.169933299844347e-14,4.1570159592460455e-14,2.1860973426191917e-14,9.70586961026284e-15,3.049406621961731e-09,1.4017297284961723e-09,7.856991704705777e-10,5.095047868811772e-10,3.440011893874651e-10,2.447516172227196e-10,1.7060717515955996e-10,1.2358873190636628e-10,8.611261995276324e-11,6.036488005243188e-11,4.1609315963216537e-11,2.6497004167122545e-11,1.596308210261471e-11,1.0879148850767393e-11,6.785121375890734e-12,4.069478599266194e-12,2.2792524777302048e-12,1.3126565209440055e-12,7.920906567869327e-13
0.0,22,22.0,0.0,30.0,0.0,0.0,0.0,0.0,-13.0,0.0,2.0,0.0,0.0,0.0,7.521580259404492e-11,6.484682211901004e-11,6.26013919183705e-11,5.2865699019886e-11,4.4602954420717894e-11,4.2056645937069996e-11,3.293894162244532e-11,2.7609322360519298e-11,2.1387619806213263e-11,1.789694129062096e-11,1.2371521849537656e-11,1.0075294194776093e-11,7.2179494171719084e-12,5.273427920068559e-12,3.630547833198495e-12,2.509759471558868e-12,1.670703736412329e-12,1.0680996809413125e-12,6.553900309882918e-13,4.058098197205559e-13,2.445090196020871e-13,1.3431468117129785e-13,7.440690994972747e-14,3.889477289687809e-14,2.4112308910195833e-14,1.2536911208189602e-14,2.9720266757802004e-09,1.4270008338601189e-09,7.8496392120019e-10,5.299995392846852e-10,3.457700689068816e-10,2.626001239103809e-10,1.8897709992760366e-10,1.2472368532288983e-10,8.647724029187174e-11,5.943013343434905e-11,4.0400541550755e-11,2.7147797123442508e-11,1.719522464452408e-11,1.1105058942830903e-11,6.621526254059773e-12,3.927139948108894e-12,2.350144390085212e-12,1.4344749058152445e-12,7.501465341521609e-13
0.0,23,23.0,0.0,30.0,0.0,0.0,0.0,0.0,-13.0,0.0,2.0,0.0,0.0,0.0,7.497482603113536e-11,6.974943804871845e-11,6.074697583293337e-11,5.7902355600934835e-11,4.743135217612881e-11,4.122716812447095e-11,3.364192025357934e-11,2.953458142989195e-11,2.2229256575434223e-11,1.7222043937513888e-11,1.3048823821770638e-11,9.9268132367511e-12,7.279727567326423e-12,5.018989984208682e-12,3.4270499669635603e-12,2.326067686397277e-12,1.6422532334218865e-12,1.0561340325448054e-12,6.774017353255795e-13,4.0547367626284255e-13,2.3074782958766283e-13,1.3919817797939063e-13,8.093387353746976e-14,4.450577299329469e-14,2.4243167094038238e-14,1.1727734548719234e-14,2.831070798502586e-09,1.4106872819326909e-09,8.105003330301204e-10,5.337046364903015e-10,3.4555150415007533e-10,2.535303856158113e-10,1.7537235609447623e-10,1.262516028907567e-10,8.874064945380066e-11,5.835354579179866e-11,4.100592079119392e-11,2.7079899984981165e-11,1.7894882245999494e-11,1.0906457408641686e-11,6.759167309143539e-12,3.893807059855379e-12,2.6251791027280875e-12,1.376857448009621e-12,7.645710176370821e-13
0.0,24,24.0,0.0,30.0,0.0,0.0,0.0,0.0,-13.0,0.0,2.0,0.0,0.0,0.0,7.456270324910114e-11,6.88091466229817e-11,5.975583990511923e-11,5.5068341219681544e-11,4.83655238356595e-11,4.1051207508455685e-11,3.482571631748487e-11,2.8757670390851805e-11,2.3149848229241838e-11,1.7540462251485515e-11,1.3473331869457276e-11,9.946594703672666e-12,7.273124016516545e-12,5.447657430959622e-12,3.6086521050005075e-12,2.4883767991964483e-12,1.6057057748499091e-12,1.0442550434019397e-12,6.456402891895407e-13,3.9426004135759864e-13,2.527061762610932e-13,1.371972843601881e-13,8.062780111445582e-14,4.1610926690509125e-14,2.213166657139194e-14,1.1890267081983101e-14,2.9475294285868494e-09,1.4700312111922956e-09,8.452842041958493e-10,5.49144238905309e-10,3.7226034510144595e-10,2.6987368978762517e-10,1.9126427410842026e-10,1.3086239968939801e-10,9.254817568108875e-11,6.017160317987899e-11,4.3451253324345844e-11,2.689284600173811e-11,1.7336985206197602e-11,1.1300492004269199e-11,7.200322709196079e-12,4.256143719079517e-12,2.485432675392795e-12,1.3537605065098779e-12,8.460681007154892e-13
0.0,25,25.0,0.0,30.0,0.0,0.0,0.0,0.0,-13.0,0.0,2.0,0.0,0.0,0.0,7.938974828692814e-11,6.541763154561354e-11,5.995440788135133e-11,5.726479931753317e-11,4.552589432291627e-11,4.059951766112873e-11,3.4322580155401227e-11,2.7536071499140013e-11,2.283715689946183e-11,1.7753713090526324e-11,1.3527173979895648e-11,9.804448247038023e-12,7.31128022546182e-12,5.33418446200112e-12,3.5855973509993744e-12,2.5442697798835337e-12,1.627276106759254e-12,1.087906176840676e-12,6.614286204703262e-13,4.149138656832382e-13,2.2219517444741792e-13,1.5197491169700502e-13,7.576857480880652e-14,4.452241693230715e-14,2.5711023356599963e-14,1.2500907597221229e-14,2.7569339514381415e-09,1.3846331080355978e-09,8.58851324886568e-10,5.53472819568614e-10,3.757404430489874e-10,2.856424921564323e-10,1.9600330376295215e-10,1.3338282628501314e-10,8.94829635462822e-11,6.233845450257272e-11,4.1919650999994314e-11,2.8191324598906565e-11,1.768365400837729e-11,1.1713057672544113e-11,6.58643440553077e-12,4.298828834645766e-12,2.4507519237586755e-12,1.4086926355951576e-12,7.987256563062979e-13
0.0,26,26.0,0.0,30.0,0.0,0.0,0.0,0.0,-13.0,0.0,2.0,0.0,0.0,0.0,7.701484548663411e-11,7.663927469911868e-11,6.391092320203424e-11,5.864269579314579e-11,4.994941851672565e-11,4.026937306189639e-11,3.58401686022318e-11,2.817487709265186e-11,2.3578225559050648e-11,1.845638188064969e-11,1.3407929952319249e-11,1.0110722531420399e-11,7.52831874869407e-12,5.22707332733611e-12,3.6306728365387724e-12,2.4092944710242564e-12,1.6245064555708135e-12,1.0927779628403785e-12,6.743365172201292e-13,4.078287519819494e-13,2.378568648803716e-13,1.3892296468722232e-13,8.085378215664875e-14,4.756065458711421e-14,2.5003975621197432e-14,1.451969734998258e-14,2.885793066515263e-09,1.455313835698557e-09,8.491797655674246e-10,5.326345074131837e-10,3.7629253207049765e-10,2.742548776895362e-10,1.974104545899958e-10,1.3717135052092774e-10,9.230456750599538e-11,6.670332685950461e-11,4.6335014108433177e-11,2.925679139104457e-11,1.774219177155256e-11,1.1990538090612217e-11,7.155451027386439e-12,4.29009636045645e-12,2.587183910325608e-12,1.3869061432144296e-12,8.195146296481224e-13
0.0,27,27.0,0.0,30.0,0.0,0.0,0.0,0.0,-13.0,0.0,2.0,0.0,0.0,0.0,8.054984616264564e-11,7.184338235363334e-11,6.829730628920042e-11,5.7873972153395786e-11,5.2746554258406835e-11,4.372520568244393e-11,3.616165812356497e-11,2.9294306290259384e-11,2.371750156578571e-11,1.7624170745503813e-11,1.3932964393763615e-11,1.0151024958540868e-11,7.742067030878407e-12,5.184730453000531e-12,3.6940229925536545e-12,2.5128574243347913e-12,1.7485026729789629e-12,1.097609147791559e-12,6.538354422195331e-13,4.0623083304207307e-13,2.558035413856793e-13,1.4532730038363076e-13,8.13679545329523e-14,4.5266955940942375e-14,2.5232729022113034e-14,1.4043186506883594e-14,2.8614854819190916e-09,1.3992664184074844e-09,9.001977518509841e-10,5.775329643207029e-10,4.1499205096242647e-10,2.749780337843671e-10,1.9508669645592205e-10,1.3492806425368134e-10,9.36442401486803e-11,6.788744532604495e-11,4.508721044153367e-11,2.8839370168665893e-11,1.8878642261327344e-11,1.120528791144138e-11,7.334438277597718e-12,4.209439506197526e-12,2.6397877434023096e-12,1.4709162748271377e-12,8.029963321476358e-13
0.0,28,28.0,0.0,30.0,0.0,0.0,0.0,0.0,-13.0,0.0,2.0,0.0,0.0,0.0,8.253169299562432e-11,7.41232949045179e-11,7.164137949299326e-11,5.834418926299574e-11,5.1062667471739104e-11,4.4283876701237824e-11,3.474914253338275e-11,2.9156005615620925e-11,2.4476568623469407e-11,1.883120348245222e-11,1.4228780567518113e-11,1.0030400529226952e-11,7.269584699743052e-12,5.621519173665058e-12,3.7507731727156474e-12,2.5645451527238363e-12,1.631927580794858e-12,1.0693680233190006e-12,6.398174651001045e-13,4.0608499490992823e-13,2.518159409990507e-13,1.3991412997687674e-13,8.323279944854926e-14,4.408643082431507e-14,2.5187596038609334e-14,1.3009840027871226e-14,2.9204025275510547e-09,1.4409130960942239e-09,9.136689807874145e-10,6.049414817540078e-10,4.1526983671630955e-10,2.742805834758644e-10,2.0370081968284503e-10,1.3954362230772815e-10,1.0191506148276014e-10,6.770681830572857e-11,4.710911408549872e-11,2.9862008935866985e-11,1.9540446653226914e-11,1.1885975166365455e-11,7.2383207309822605e-12,4.450502721189541e-12,2.6045832733596234e-12,1.4844532459331777e-12,8.092699601007198e-13
0.0,29,29.0,0.0,30.0,0.0,0.0,0.0,0.0,-13.0,0.0,2.0,0.0,0.0,0.0,8.07739400885592e-11,6.884971493296041e-11,6.37212238172018e-11,6.107244121106071e-11,5.570214275087821e-11,4.490692228455181e-11,3.622590879953601e-11,3.1005408842777856e-11,2.318072438667972e-11,1.852510668811806e-11,1.3804168128636368e-11,1.0624441865712774e-11,7.485155199724032e-12,5.2343924070497534e-12,3.757424527062912e-12,2.39449140676231e-12,1.6789808852614733e-12,1.0825405260937273e-12,6.910735195816813e-13,3.960315827811115e-13,2.436336523801325e-13,1.5421646402535354e-13,8.281662035545128e-14,4.7280296897804337e-14,2.6932856932218927e-14,1.563847813320375e-14,2.766378877619523e-09,1.4714672028915745e-09,8.294952860701833e-10,5.643438800793495e-10,4.0492233577984964e-10,2.9615060005278936e-10,2.02782645362692e-10,1.4237235430371466e-10,9.57968602302743e-11,6.86175341855343e-11,4.478628435555964e-11,3.122946984942479e-11,1.9820194251709915e-11,1.3077260008641902e-11,7.699245498664198e-12,4.519299028465722e-12,2.6412522758567398e-12,1.4544064499538688e-12,8.482440504955445e-13
0.0,30,30.0,0.0,30.0,0.0,0.0,0.0,0.0,-13.0,0.0,2.0,0.0,0.0,0.0,8.623151650437133e-11,7.533515572035415e-11,6.786489305686297e-11,6.075484031097978e-11,5.5663254202448134e-11,4.503801939485025e-11,3.8928401360334456e-11,3.008127459146821e-11,2.479838782668328e-11,1.8970006560973154e-11,1.4256379553395093e-11,1.1047841056983323e-11,7.922141244723585e-12,5.167530393155582e-12,3.63985688670642e-12,2.5760027140920814e-12,1.6600477510137667e-12,1.0896119157725894e-12,6.964524709811805e-13,4.3501336218000687e-13,2.561558491517693e-13,1.4398695825174493e-13,8.856919051106117e-14,4.69384585842021e-14,2.659812771557463e-14,1.3643962586302212e-14,2.796195376588739e-09,1.497801371709716e-09,9.23861225575895e-10,5.931744609584032e-10,4.2317626772053664e-10,3.1169706739244303e-10,2.0247624540120843e-10,1.4707065178968975e-10,9.547924697231097e-11,6.951959659406109e-11,4.551139817003947e-11,3.095530551781854e-11,2.0370623687813702e-11,1.2600367493530524e-11,7.705230107352073e-12,4.602049605277514e-12,2.4298318056656914e-12,1.4645772632360858e-12,7.792201391845853e-13
0.0,31,31.0,0.0,30.0,0.0,0.0,0.0,0.0,-13.0,0.0,2.0,0.0,0.0,0.0,8.780215774090089e-11,7.796241704690658e-11,7.133838555660905e-11,6.103286758258315e-11,5.432122285919965e-11,4.490969776306115e-11,3.710212301979268e-11,3.288996926318392e-11,2.5497122976368997e-11,2.0496081090284508e-11,1.4864015315371293e-11,1.0407663742110474e-11,7.799736543910046e-12,5.68314484637198e-12,3.842378791036482e-12,2.5839684768298337e-12,1.6121141447603365e-12,1.0771845258489067e-12,6.938724671388121e-13,4.3820565110501583e-13,2.5778306703337434e-13,1.4842152172179964e-13,8.886295960890295e-14,4.89822904824004e-14,2.8059079101528324e-14,1.2515896330307008e-14,2.792407694211408e-09,1.4827137809536733e-09,9.196736340647073e-10,6.590729079687127e-10,4.3752339463055367e-10,3.0436645381598585e-10,2.1683031029701194e-10,1.4965218111404143e-10,1.0713894744314512e-10,7.255628509495239e-11,4.8005240764405284e-11,3.201599541607234e-11,1.9758109044150648e-11,1.2285900505915239e-11,7.703410292127876e-12,4.6647424630482386e-12,2.7136524949496654e-12,1.5361555883225985e-12,8.491257797090487e-13
0.0,32,32.0,0.0,30.0,0.0,0.0,0.0,0.0,-13.0,0.0,2.0,0.0,0.0,0.0,9.103695186932399e-11,8.023945677812639e-11,7.464788851144517e-11,6.73461153122187e-11,5.579720969216144e-11,4.758204359366269e-11,4.008157529327391e-11,3.151774742646524e-11,2.5200168019073183e-11,1.9164780394612148e-11,1.4879784267643583e-11,1.1308730749176388e-11,7.976651288123748e-12,5.5613059010508e-12,3.814048942660176e-12,2.654384208328155e-12,1.616661029693073e-12,1.0848145432803542e-12,6.930280430966053e-13,3.9555169328526453e-13,2.4454662974540767e-13,1.5955227959175757e-13,8.753102887060029e-14,4.918061280310516e-14,2.7127352217326425e-14,1.3961796446317646e-14,2.8534946317113846e-09,1.4690436701192376e-09,9.038093819645273e-10,6.09224657893037e-10,4.559873904820378e-10,2.8839613926009095e-10,2.1537940300861747e-10,1.5688621256035285e-10,1.1323757920925151e-10,7.694863575022085e-11,4.9804399222807274e-11,3.134818415597505e-11,2.0201292595006416e-11,1.270867098698428e-11,7.788622665052233e-12,4.551525353551172e-12,2.7446405442823368e-12,1.5330491568184087e-12,8.299783758268236e-13
0.0,33,33.0,0.0,30.0,0.0,0.0,0.0,0.0,-13.0,0.0,2.0,0.0,0.0,0.0,9.229377311744659e-11,7.829322956724977e-11,7.311161015418691e-11,6.450388744803435e-11,5.587533760912872e-11,4.6506871716714835e-11,4.141177170860159e-11,3.177068533153322e-11,2.5571329739958744e-11,2.0788401300239738e-11,1.5317396411152315e-11,1.122034110729133e-11,7.374644431134056e-12,5.484874922009027e-12,4.0487074505214875e-12,2.5241668537167648e-12,1.6355026371822731e-12,1.1035851607026783e-12,6.966476189795303e-13,4.229764774243683e-13,2.508859027187323e-13,1.5735403335637177e-13,8.963337152758753e-14,4.941195586327642e-14,2.6086369840552215e-14,1.2991722305426157e-14,2.824650028293607e-09,1.5736079999294e-09,9.236862338603602e-10,6.518321395723613e-10,4.631790030367778e-10,3.2450661834330994e-10,2.2107989929994544e-10,1.5097536059308117e-10,1.0819362237916836e-10,7.417188285515364e-11,4.852629608154092e-11,3.2084984721337924e-11,2.1391990616818865e-11,1.3155789193994553e-11,7.937915910347507e-12,4.57390130924344e-12,2.689265690356166e-12,1.4773453483714352e-12,8.741773884548346e-13
0.0,34,34.0,0.0,30.0,0.0,0.0,0.0,0.0,-13.0,0.0,2.0,0.0,0.0,0.0,9.63031193198822e-11,8.31239500341339e-11,7.628712547376166e-11,6.708947931304256e-11,5.923028906045197e-11,4.8370688018598684e-11,4.1651559149197735e-11,3.223058192212429e-11,2.6002136212410468e-11,2.0533695190502506e-11,1.5767643911831052e-11,1.1748893028204052e-11,8.113703163638444e-12,5.708229559374986e-12,3.7480964420681664e-12,2.5380027036632782e-12,1.7457690526584375e-12,1.0676410882046423e-12,7.039073516026073e-13,4.0941281887567075e-13,2.4634516250011197e-13,1.634023321821304e-13,8.887397123142347e-14,4.871345540245942e-14,2.5203182215307597e-14,1.4559856592025794e-14,2.978594425830038e-09,1.4544390836926278e-09,9.311309160545042e-10,6.511757937881283e-10,4.795948191204707e-10,3.3058534612468314e-10,2.2378232109129915e-10,1.5191056814035558e-10,1.1113558257459371e-10,7.696612979416939e-11,5.0183986434787096e-11,3.264874853608457e-11,2.1193049045945226e-11,1.2953182414520346e-11,7.967938085513334e-12,4.772056075754446e-12,2.844719809803309e-12,1.5579595596371732e-12,8.42125102138625e-13
0.0,35,35.0,0.0,30.0,0.0,0.0,0.0,0.0,-13.0,0.0,2.0,0.0,0.0,0.0,9.161260136203044e-11,8.612740567628186e-11,7.858197136043182e-11,6.814789855427896e-11,5.317017166460113e-11,5.089238942052261e-11,4.157070188987545e-11,3.311686005846527e-11,2.663884119971354e-11,2.057647414610693e-11,1.616302034770798e-11,1.1685756761320004e-11,8.09191494320073e-12,5.815542857423697e-12,3.9400684308624694e-12,2.518146314981406e-12,1.7264376146206666e-12,1.1099864513308617e-12,6.960072907598149e-13,4.3724427526484523e-13,2.4781072930940586e-13,1.5352537370169975e-13,8.915464132702885e-14,5.146431335238005e-14,2.9283610712115376e-14,1.596302798307024e-14,2.6553570316046795e-09,1.467797876981255e-09,1.0042151590816037e-09,6.658631144381855e-10,4.853842005661056e-10,3.177253086978507e-10,2.2780914717313874e-10,1.6259629867850587e-10,1.1588110600781457e-10,7.880116848073804e-11,5.146693671956746e-11,3.256752005492668e-11,2.156385551861422e-11,1.2973463680459046e-11,8.532690863542654e-12,4.6259762835754314e-12,2.761069387931123e-12,1.6059440242704314e-12,8.839108424072243e-13
0.0,36,36.0,0.0,30.0,0.0,0.0,0.0,0.0,-13.0,0.0,2.0,0.0,0.0,0.0,1.0106777874287439e-10,8.35675142378465e-11,7.967441133310446e-11,7.2702481595634e-11,5.972900714373704e-11,5.321747119492191e-11,4.2514737505589054e-11,3.400414817223238e-11,2.661544716282136e-11,2.0699115717492925e-11,1.5864981481989833e-11,1.13477764536717e-11,8.46949782287353e-12,5.761976250925195e-12,3.99466327909071e-12,2.6474424026450736e-12,1.7476902842048232e-12,1.1514748407808177e-12,6.916723906083323e-13,4.4043385431740254e-13,2.495349089160992e-13,1.4952788625760808e-13,8.555287012551464e-14,4.957890521608028e-14,3.030368144625843e-14,1.42630758567491e-14,2.570551176722835e-09,1.4917624428849557e-09,9.744675065836985e-10,6.79782733767201e-10,4.874661004444686e-10,3.346740326188917e-10,2.401638709434193e-10,1.6610427295281687e-10,1.1300826582519685e-10,7.700764490402189e-11,5.2243697841853013e-11,3.4850794110549355e-11,2.0615419473088604e-11,1.3768633882817403e-11,8.786498543540783e-12,5.193228870114236e-12,2.8523637190059378e-12,1.6994170553445191e-12,8.785917528857608e-13
0.0,37,37.0,0.0,30.0,0.0,0.0,0.0,0.0,-13.0,0.0,2.0,0.0,0.0,0.0,1.0046102444220502e-10,9.175576450956785e-11,7.804127059103484e-11,6.454955460075998e-11,6.24318607403781e-11,4.846808623084908e-11,4.4575863504674284e-11,3.40046572057855e-11,2.8831740168540132e-11,2.107484902199336e-11,1.5891403233640077e-11,1.1592418013176225e-11,8.268776394547956e-12,5.6247949341175905e-12,3.979228784420358e-12,2.5284125520876076e-12,1.7038222810792765e-12,1.1217914401938377e-12,7.277739908809624e-13,4.3158341416134083e-13,2.3771290363344553e-13,1.4783996048689153e-13,9.134912885073299e-14,5.0218955449920435e-14,2.8321114615140028e-14,1.3925720598380681e-14,2.902139305340576e-09,1.5661338187599203e-09,1.096126397122243e-09,7.059680757422626e-10,5.040621839579845e-10,3.3840148552201025e-10,2.3501647561324807e-10,1.771964810101294e-10,1.2454610825418314e-10,7.717331993106146e-11,5.5995458221539546e-11,3.5549513943704976e-11,2.2695699008285948e-11,1.3500104600829665e-11,8.175006713629252e-12,5.079424791823367e-12,2.8699934279567498e-12,1.6461375655630279e-12,8.877931373484034e-13
0.0,38,38.0,0.0,30.0,0.0,0.0,0.0,0.0,-13.0,0.0,2.0,0.0,0.0,0.0,1.0003230231254086e-10,9.457452130961065e-11,7.820769547744742e-11,6.890157993974798e-11,6.206769075897287e-11,5.299304552429079e-11,4.1369074589763185e-11,3.5671602290154504e-11,2.8950999678492266e-11,2.2901629209682618e-11,1.616993432437339e-11,1.2174559367378814e-11,8.688882757980841e-12,5.726304963209217e-12,4.261881211890257e-12,2.627257506087993e-12,1.7890308159376804e-12,1.1406141408352594e-12,6.755207432713306e-13,4.4943405172638743e-13,2.6614783869796583e-13,1.4821541818892944e-13,8.586884094706708e-14,5.2814978352397657e-14,2.71263594826051e-14,1.3700152479721504e-14,2.9176374300457317e-09,1.5821634740441797e-09,1.046939980531208e-09,7.29775625137785e-10,4.935279121269442e-10,3.764359834562583e-10,2.6074727578568827e-10,1.862289366858648e-10,1.2633566996005932e-10,8.520168321247266e-11,5.307972809931795e-11,3.6229262668363603e-11,2.3589120689136995e-11,1.3980648317460273e-11,8.821207084601032e-12,5.246868913529672e-12,2.8181987731849653e-12,1.611489296150303e-12,8.836351430977481e-13
0.0,39,39.0,0.0,30.0,0.0,0.0,0.0,0.0,-13.0,0.0,2.0,0.0,0.0,0.0,1.024872190468105e-10,9.229396031540345e-11,8.043673191906761e-11,7.121121457609067e-11,6.211015217429898e-11,5.4452752625830255e-11,4.3152917916812163e-11,3.629476513160423e-11,2.950082649193385e-11,2.2188737086692403e-11,1.6958667196721287e-11,1.1924773925653771e-11,8.90575652123506e-12,5.769859489370319e-12,4.421827601057834e-12,2.672719563554523e-12,1.845574714427511e-12,1.1110057840542767e-12,7.36260330717672e-13,4.519260224290326e-13,2.432968215111103e-13,1.580229317270263e-13,8.875428447682918e-14,4.932999992813314e-14,2.9262350647237584e-14,1.6307552055334302e-14,2.6690444310968603e-09,1.6571479797618184e-09,1.0616470888279974e-09,7.324057741993305e-10,5.395114090761396e-10,3.7335602490759557e-10,2.493397910201516e-10,1.9023665878597081e-10,1.2429819172917426e-10,8.073078595459947e-11,5.779964043883098e-11,3.665467089006518e-11,2.3451276900109635e-11,1.415299629678048e-11,8.389913764856871e-12,5.476948460678532e-12,3.082473887284647e-12,1.638075286830287e-12,9.222739748513938e-13
0.0,40,40.0,0.0,30.0,0.0,0.0,0.0,0.0,-13.0,0.0,2.0,0.0,0.0,0.0,1.0590796289508105e-10,9.656386705112836e-11,8.944767201098699e-11,7.525777007935003e-11,6.319473208190505e-11,5.467298836203208e-11,4.385400046402324e-11,3.799529332434919e-11,2.8395074758710524e-11,2.1577970559231537e-11,1.708714782234033e-11,1.2200678292225269e-11,8.642750299239764e-12,6.0707794113391346e-12,4.288279419450729e-12,2.89436496109948e-12,1.86401521625691e-12,1.1028631785814728e-12,7.254377010388275e-13,4.3500268602695223e-13,2.55127310515276e-13,1.548967948317255e-13,8.48465943182476e-14,5.331024059836214e-14,2.9965818445217134e-14,1.5825880616080312e-14,2.7344786330525634e-09,1.6257935856154267e-09,1.0735790920390203e-09,7.837434241456472e-10,5.507752776632554e-10,3.743431644273688e-10,2.609980153562329e-10,1.8394865320152352e-10,1.2745028141745374e-10,8.72069697466154e-11,5.575395430266037e-11,3.7211849759457094e-11,2.37836464007326e-11,1.455397843948906e-11,8.78684205916248e-12,4.9675156060112505e-12,3.0972310257596704e-12,1.555300689622427e-12,9.060636010325058e-13
0.0,41,41.0,0.0,30.0,0.0,0.0,0.0,0.0,-13.0,0.0,2.0,0.0,0.0,0.0,1.0753109721668994e-10,9.895409536642651e-11,8.745361304929533e-11,7.596806378964828e-11,6.729470724823702e-11,5.433788754384707e-11,4.457170949411035e-11,3.658828629585717e-11,2.9145437116477726e-11,2.2519753998737787e-11,1.6979095318791583e-11,1.3075434249254857e-11,9.097011298312461e-12,5.98641188338724e-12,4.121045250246838e-12,2.8912076115611302e-12,1.9028047109112823e-12,1.153992890392006e-12,7.366825972465457e-13,4.2694911220970737e-13,2.6424148109934003e-13,1.5595911635619817e-13,9.619979673505757e-14,5.2461931414964765e-14,2.908424410784818e-14,1.7436128139421278e-14,2.7417414734144562e-09,1.6750836434235896e-09,1.0871415556230407e-09,7.866157835233986e-10,5.518455656246196e-10,3.888103577764276e-10,2.6403191346716724e-10,1.791630371570464e-10,1.3215847602976978e-10,8.70793116512152e-11,5.7984445931441446e-11,3.744842450577148e-11,2.426120407465454e-11,1.4992779286235553e-11,8.83527785340535e-12,5.225839027871771e-12,2.959632257975018e-12,1.7198086368029874e-12,9.698582067070026e-13
0.0,42,42.0,0.0,30.0,0.0,0.0,0.0,0.0,-13.0,0.0,2.0,0.0,0.0,0.0,1.1239114196221182e-10,1.0357352117948817e-10,9.160983431339048e-11,7.814031621416601e-11,6.893981480806038e-11,5.663219311279321e-11,4.687871808294815e-11,3.868411983666043e-11,3.00814643961835e-11,2.2201823355092314e-11,1.7772317952293273e-11,1.2210238068012458e-11,8.842055337299573e-12,6.327242987149137e-12,4.29107260268685e-12,2.677866566423887e-12,1.825152917618681e-12,1.1681863463433661e-12,7.185603193519243e-13,3.949162463317204e-13,2.534740652881157e-13,1.5508176096029072e-13,8.893951598546249e-14,5.125747866935565e-14,3.1727775569258214e-14,1.6039031622317043e-14,2.907146082221155e-09,1.674374714217891e-09,1.1433985611092395e-09,7.755132020851368e-10,5.493178133035411e-10,4.096966467252337e-10,2.6713004729338046e-10,1.8639993890610145e-10,1.3707908067096897e-10,8.455653563961637e-11,5.947255229656806e-11,3.795415864211899e-11,2.4806316042632125e-11,1.5691032288139488e-11,9.23673975883005e-12,5.1315660068253954e-12,3.054343136458671e-12,1.7601465986335673e-12,9.390363467699362e-13
0.0,43,43.0,0.0,30.0,0.0,0.0,0.0,0.0,-13.0,0.0,2.0,0.0,0.0,0.0,1.0976686597353111e-10,1.043742454305349e-10,8.958546466156652e-11,7.75327667669395e-11,6.932784517362849e-11,5.9220782842549e-11,4.817542140964948e-11,3.7695580540016026e-11,3.0623637984953513e-11,2.2623447433029123e-11,1.7675727720548132e-11,1.2712317069385104e-11,9.025832827015756e-12,6.194200617927111e-12,4.407698215011322e-12,2.794580396888975e-12,1.8666724944178076e-12,1.1665064301322643e-12,7.255097363464828e-13,4.56809262576978e-13,2.7711748060146773e-13,1.560104521711569e-13,9.409563441385684e-14,5.105582607928867e-14,3.0560037078135926e-14,1.3862234438317934e-14,2.7020926779693796e-09,1.6488071068237987e-09,1.08754118239175e-09,8.128182640754934e-10,5.901800467642409e-10,4.04319872759441e-10,2.9495799404269374e-10,2.1331822676829788e-10,1.357443275840631e-10,8.790008845914291e-11,5.898223243309762e-11,3.8522133244656e-11,2.6199587960861286e-11,1.4933930902750477e-11,9.697156058042408e-12,5.407869250770101e-12,3.255100641944144e-12,1.8273804250774202e-12,9.514685262522876e-13
0.0,44,44.0,0.0,30.0,0.0,0.0,0.0,0.0,-13.0,0.0,2.0,0.0,0.0,0.0,1.1397383038837339e-10,1.0423960741280042e-10,9.241101873287195e-11,8.23277973861455e-11,6.630959980648901e-11,5.885960243624108e-11,4.94333604472929e-11,4.051812059853958e-11,3.138585156952263e-11,2.450947697131304e-11,1.6400616362994453e-11,1.3160722374086089e-11,9.594993938894826e-12,6.532597706102677e-12,4.4490731693495676e-12,3.03245167592023e-12,1.7123254774914127e-12,1.2222484073448471e-12,7.222296184427581e-13,4.24464291511171e-13,2.6423401650508243e-13,1.6035176154225044e-13,9.471433731677922e-14,5.53573423027123e-14,2.7856496889580094e-14,1.5133646967963536e-14,2.679579496650325e-09,1.7188711755194808e-09,1.1698900322544933e-09,8.309865539367608e-10,6.135865961389585e-10,4.231071614327393e-10,2.7353637795875226e-10,1.9841967698616927e-10,1.377697650228869e-10,9.376201468035103e-11,6.094690423076178e-11,4.109646389716478e-11,2.7168760830656742e-11,1.6286920359537115e-11,9.214915997576815e-12,5.852320740452396e-12,3.2572611609872087e-12,1.7377123042300641e-12,9.871479682501031e-13
0.0,45,45.0,0.0,30.0,0.0,0.0,0.0,0.0,-13.0,0.0,2.0,0.0,0.0,0.0,1.2241175180079402e-10,9.88139488971254e-11,9.359710494690991e-11,8.349882321091985e-11,7.192429836795737e-11,6.128952490534721e-11,5.00488551859518e-11,3.8915713158434174e-11,3.108429135635356e-11,2.377884555814975e-11,1.665891354110914e-11,1.4172524338856287e-11,9.486082806883128e-12,6.949900818847223e-12,4.367984264903861e-12,3.05288058261321e-12,1.9308838042209784e-12,1.2125680592098954e-12,7.821500573009397e-13,4.5192941525656317e-13,2.6371331450992215e-13,1.6057882517103142e-13,9.765028667660791e-14,5.2850822395456534e-14,2.86058690742753e-14,1.4644436452760113e-14,2.882673941727763e-09,1.8082317588333753e-09,1.1450357206236915e-09,8.557599595945145e-10,6.134593338349337e-10,4.341439501673217e-10,2.9531676349108735e-10,2.1029746845506245e-10,1.3994043892844178e-10,9.935926464032908e-11,6.410449000078354e-11,4.164089109380658e-11,2.5674406945277238e-11,1.565115737608053e-11,9.816654686916065e-12,5.8032312210995255e-12,3.341009510792024e-12,1.924979615394595e-12,9.730303278122702e-13
0.0,46,46.0,0.0,30.0,0.0,0.0,0.0,0.0,-13.0,0.0,2.0,0.0,0.0,0.0,1.218679253091737e-10,1.0884670994926049e-10,8.887176376105087e-11,8.314267039474982e-11,7.282708412081056e-11,6.01679406211863e-11,5.0408369777151416e-11,4.224614433959533e-11,3.391249052831193e-11,2.4955836576486135e-11,1.891782848986562e-11,1.3505470531317525e-11,9.218209511146018e-12,6.661136244048031e-12,4.363648033788629e-12,3.017565752395788e-12,1.847676963705343e-12,1.1493935179815367e-12,7.497425211633984e-13,4.649898428116494e-13,2.7682925322371204e-13,1.5792704999874487e-13,9.120395691127341e-14,5.120503610397268e-14,3.020780120471558e-14,1.6808703397669673e-14,2.9094701710886e-09,1.8362567374977526e-09,1.2546555217522152e-09,9.080564752479522e-10,6.479282821388662e-10,4.397901134153839e-10,2.9910872677873695e-10,2.1232566359810746e-10,1.4661009554999783e-10,1.011271197454804e-10,7.085089539506963e-11,4.255614929204462e-11,2.5704330243184e-11,1.5815713660008645e-11,9.960489569432336e-12,5.506287800314055e-12,3.1823190427122258e-12,1.727943014482958e-12,9.953466069192514e-13
0.0,47,47.0,0.0,30.0,0.0,0.0,0.0,0.0,-13.0,0.0,2.0,0.0,0.0,0.0,1.2499655663083372e-10,1.1644148684077973e-10,9.879814891635585e-11,8.777842320643638e-11,6.849519245581767e-11,5.896087885327873e-11,5.340439973028796e-11,4.15894425527044e-11,3.194257581455753e-11,2.520855331812339e-11,1.8873003904452077e-11,1.3703334948827783e-11,9.424776621616888e-12,6.698253921975273e-12,4.194608251843268e-12,3.0889410509709345e-12,2.001162793861147e-12,1.2393927252070274e-12,7.331960155493603e-13,4.4750086620105926e-13,2.673442090664388e-13,1.5694727366117826e-13,8.789362711393395e-14,5.447131391083522e-14,2.982726872693002e-14,1.6002890096748443e-14,3.119745807805843e-09,1.769937673819697e-09,1.2866249947396632e-09,9.127449858038149e-10,5.936020104904832e-10,4.3736616883694054e-10,3.0874212746234625e-10,2.0897964085226632e-10,1.5057709666039455e-10,1.0135774862499702e-10,6.716896581403142e-11,4.1245901788949803e-11,2.7636006820914412e-11,1.6811102212551727e-11,9.883983573485258e-12,5.784761410482573e-12,3.406386406010846e-12,1.8167705819862155e-12,9.868008754732918e-13
0.0,48,48.0,0.0,30.0,0.0,0.0,0.0,0.0,-13.0,0.0,2.0,0.0,0.0,0.0,1.2979171628316818e-10,1.0804069102333483e-10,1.0200888409651017e-10,8.472318191283434e-11,7.6854232006401e-11,6.042940850933497e-11,5.166297820830066e-11,4.2308836589329895e-11,3.2446703358373356e-11,2.557140344973121e-11,1.9038577156703404e-11,1.375270710657401e-11,9.969447730394752e-12,6.920796289115415e-12,4.4796256316529424e-12,3.1990812514714905e-12,1.8809752310291753e-12,1.1752665651701454e-12,7.345660131851269e-13,4.429229595698362e-13,2.657874621418719e-13,1.5794233373456903e-13,9.486090449272281e-14,5.365907068602605e-14,2.856302940616514e-14,1.5699164881265e-14,2.949499993157254e-09,1.85402625970161e-09,1.302572489894019e-09,9.343152378374114e-10,6.617456428472715e-10,4.325255149321601e-10,3.0852242650719316e-10,2.1937402450566653e-10,1.533801240895222e-10,9.796809597698251e-11,7.06359090504441e-11,4.518417525122597e-11,2.7400940883729878e-11,1.623803151648849e-11,1.0278004127722193e-11,5.7944703095005714e-12,3.429876903877034e-12,1.7556324495384805e-12,1.0142935594792171e-12
0.0,49,49.0,0.0,30.0,0.0,0.0,0.0,0.0,-13.0,0.0,2.0,0.0,0.0,0.0,1.307530731274824e-10,1.1119570909995031e-10,1.0367849874035694e-10,8.75933497414799e-11,7.3382665692727e-11,6.712633130437333e-11,5.352699637727663e-11,4.2831251737919624e-11,3.4776609099977685e-11,2.5834003631868562e-11,1.887148606771712e-11,1.3506134945612762e-11,1.0143351739985747e-11,6.9989859330438374e-12,4.417753526934439e-12,3.083112924136927e-12,1.9721222272747054e-12,1.2765760979358432e-12,7.857090154074023e-13,4.555267865834622e-13,2.569046881571631e-13,1.65771221049871e-13,9.360630904039732e-14,5.328389068177211e-14,2.960550051210761e-14,1.677048628714387e-14,2.9508541147592183e-09,2.110314316393064e-09,1.3100868912225667e-09,9.680920433612303e-10,7.115503380534298e-10,5.062586230663026e-10,3.551948362028909e-10,2.3029517672202487e-10,1.6341853717004478e-10,1.0701081021608853e-10,6.99290430523069e-11,4.3765709675234306e-11,2.7226580765286147e-11,1.6988253207872624e-11,1.0027903913305003e-11,5.977261844518715e-12,3.3775696912942936e-12,1.8879889537489155e-12,1.1054630634958012e-12
0.0,50,50.0,0.0,30.0,0.0,0.0,0.0,0.0,-13.0,0.0,2.0,0.0,0.0,0.0,1.3040137096737605e-10,1.2168979301747618e-10,1.0586635880833473e-10,9.279907048549861e-11,8.26304584415964e-11,6.607033153104831e-11,5.508182689405667e-11,4.36245596651338e-11,3.444175017950403e-11,2.4356825591075868e-11,1.9640511512691688e-11,1.5028667855269477e-11,1.0259897306402492e-11,6.85111116952007e-12,4.8788941400865465e-12,3.0262473002388553e-12,1.9828968793385593e-12,1.299655295445114e-12,7.586726501591644e-13,4.54697906972149e-13,2.729247515719868e-13,1.5819748932514268e-13,8.676392435147587e-14,5.5388627745233103e-14,2.888098631390402e-14,1.728583999808072e-14,3.0493126243876304e-09,1.984733624458774e-09,1.3186422672603874e-09,9.381507181404736e-10,7.016271180075665e-10,4.911078015763561e-10,3.3678765348305837e-10,2.405488036019285e-10,1.6095582544872798e-10,1.1366165569715644e-10,6.94064231413354e-11,4.5560445914626225e-11,2.8321047667178555e-11,1.7513388072998408e-11,9.963431025585926e-12,5.89431092054801e-12,3.3714277359514054e-12,1.9070138743273327e-12,1.0431876244371413e-12
0.0,51,51.0,0.0,30.0,0.0,0.0,0.0,0.0,-13.0,0.0,2.0,0.0,0.0,0.0,1.3886697020194798e-10,1.2301448704814314e-10,1.1027274029048371e-10,9.025798638659986e-11,7.837984763037049e-11,6.627497108164514e-11,5.558688265964742e-11,4.33193256582381e-11,3.4958130551911624e-11,2.6069907702636068e-11,1.9441724535695742e-11,1.4807432260889223e-11,1.0056453857004123e-11,6.948757176607736e-12,4.26189184711082e-12,3.0377721733620284e-12,2.071048126239638e-12,1.2251865399598994e-12,7.820167029145199e-13,4.763495960772866e-13,2.8389983191636965e-13,1.6178135948288254e-13,8.981900379901671e-14,5.231240170875642e-14,3.0487804590465974e-14,1.7066259333662413e-14,3.1718687598964254e-09,1.9738919214943534e-09,1.4772496833335927e-09,1.0063304356920722e-09,6.861991076945399e-10,4.874374805278992e-10,3.3801966268531294e-10,2.466372813781573e-10,1.7097286617008756e-10,1.1379231938982692e-10,6.818588327922658e-11,4.6470659604937456e-11,2.9529363962964146e-11,1.7495563503057385e-11,1.0230174946428736e-11,6.041756831639034e-12,3.4589775979704987e-12,1.905571352608938e-12,1.0556820540906076e-12
0.0,52,52.0,0.0,30.0,0.0,0.0,0.0,0.0,-13.0,0.0,2.0,0.0,0.0,0.0,1.373697141745847e-10,1.238566893872001e-10,1.1076031317511316e-10,9.350578110071086e-11,8.038312242159455e-11,6.745920485198988e-11,5.7681240094900894e-11,4.6627523053727083e-11,3.430700385765807e-11,2.7106297183996545e-11,2.000743286855325e-11,1.4306800807408997e-11,1.029237271526019e-11,7.0826465461042515e-12,4.763963012398642e-12,3.065561145748991e-12,2.043240237686826e-12,1.2255489639177169e-12,7.706184995646896e-13,4.4871542491617755e-13,2.790117158629143e-13,1.6420498903667686e-13,1.0038641065701287e-13,5.026142025172751e-14,3.073216836163563e-14,1.7339606783942418e-14,3.320207380815681e-09,2.1738408832921393e-09,1.4461568095651956e-09,1.059120884167773e-09,6.86731139483273e-10,5.037046242917865e-10,3.822245056588015e-10,2.571185548556911e-10,1.5922095750465276e-10,1.1567411630752312e-10,7.215674523368079e-11,4.734010445246907e-11,2.9471959438194635e-11,1.7491180041975547e-11,1.1025399999056677e-11,6.373691211932711e-12,3.5140012819551795e-12,1.9251657455495837e-12,1.1068613600542902e-12
0.0,53,53.0,0.0,30.0,0.0,0.0,0.0,0.0,-13.0,0.0,2.0,0.0,0.0,0.0,1.3536409020564334e-10,1.306631846739628e-10,1.1636999675034487e-10,9.559436910092542e-11,8.551369452471031e-11,7.044897523124744e-11,5.68095093628397e-11,4.7031001358545444e-11,3.584957113742463e-11,2.8303110032694166e-11,1.9884641512075468e-11,1.4898955020867362e-11,1.129873933392575e-11,7.061461564525078e-12,5.009901603100504e-12,3.0852506059696623e-12,2.005263311988118e-12,1.3209437101750644e-12,7.870442236939892e-13,4.701464603342926e-13,2.8107944957575554e-13,1.5807931242069504e-13,9.696422588412386e-14,5.381361065318923e-14,2.901103040385806e-14,1.591096655003753e-14,3.3191047738871386e-09,2.1504602534543825e-09,1.5799291987074826e-09,1.0088361610390485e-09,7.744910057659205e-10,5.228862714337713e-10,3.7705853597748375e-10,2.591457649855037e-10,1.7381370158198365e-10,1.1297017449157076e-10,7.755731800274977e-11,4.861830053556328e-11,2.855481313223703e-11,1.8916188131499853e-11,1.1346079590276426e-11,6.408568892103418e-12,3.637264698464903e-12,1.9619232719317e-12,1.0602348673689977e-12
0.0,54,54.0,0.0,30.0,0.0,0.0,0.0,0.0,-13.0,0.0,2.0,0.0,0.0,0.0,1.4533243228157296e-10,1.3082479975862578e-10,1.1525376808141327e-10,9.630401811409791e-11,8.926705451915628e-11,7.640002500930076e-11,5.684051239849677e-11,4.631476476973173e-11,3.5036155856564627e-11,2.7267513433553892e-11,2.151134650447207e-11,1.4951970548800898e-11,1.0119071403850325e-11,7.17307863099843e-12,4.970857533646773e-12,3.33319814702574e-12,2.0588960194038555e-12,1.2602344932970174e-12,8.017272841057944e-13,4.552633890070266e-13,2.8730287141978287e-13,1.6465834740793303e-13,8.792313553246289e-14,5.483936142022836e-14,3.4944435482781003e-14,1.7164084434638503e-14,3.3054490726904564e-09,2.2331862827079914e-09,1.4858766348272283e-09,1.1130365463447932e-09,7.326193098052026e-10,5.2968177779283e-10,3.8166545608901187e-10,2.672075511614899e-10,1.682551200525958e-10,1.2192500173912025e-10,7.476302116067938e-11,5.123503757638025e-11,3.0178655741421336e-11,1.9415732902323875e-11,1.1485979490408364e-11,6.427399792189585e-12,3.45475767208143e-12,2.093356020964145e-12,1.01684432402612e-12
