Line_number,Fiducial,Easting,Northing,Height,Elevation,tx_pitch,tx_roll,tx_yaw,txrx_dx,txrx_dy,txrx_dz,rx_pitch,rx_roll,rx_yaw,S0Z_time_3.834e-04,S0Z_time_3.924e-04,S0Z_time_4.039e-04,S0Z_time_4.184e-04,S0Z_time_4.364e-04,S0Z_time_4.589e-04,S0Z_time_4.869e-04,S0Z_time_5.224e-04,S0Z_time_5.679e-04,S0Z_time_6.249e-04,S0Z_time_6.969e-04,S0Z_time_7.879e-04,S0Z_time_9.019e-04,S0Z_time_1.046e-03,S0Z_time_1.227e-03,S0Z_time_1.456e-03,S0Z_time_1.744e-03,S0Z_time_2.109e-03,S0Z_time_2.567e-03,S0Z_time_3.145e-03,S0Z_time_3.864e-03,S0Z_time_4.745e-03,S0Z_time_5.821e-03,S0Z_time_7.140e-03,S0Z_time_8.754e-03,S0Z_time_1.073e-02,S1Z_time_2.057e-05,S1Z_time_2.607e-05,S1Z_time_3.307e-05,S1Z_time_4.206e-05,S1Z_time_5.356e-05,S1Z_time_6.807e-05,S1Z_time_8.607e-05,S1Z_time_1.086e-04,S1Z_time_1.366e-04,S1Z_time_1.721e-04,S1Z_time_2.176e-04,S1Z_time_2.746e-04,S1Z_time_3.466e-04,S1Z_time_4.376e-04,S1Z_time_5.516e-04,S1Z_time_6.956e-04,S1Z_time_8.771e-04,S1Z_time_1.106e-03,S1Z_time_1.394e-03
0.0,0,0.0,0.0,30.0,0.0,0.0,0.0,0.0,-13.0,0.0,2.0,0.0,0.0,0.0,6.826107304567341e-10,6.270711997208965e-10,5.769296331148683e-10,5.384278113626201e-10,4.681561319321882e-10,4.063057944115768e-10,3.598559282028766e-10,3.0839841535863156e-10,2.7098955275265796e-10,2.254763956260055e-10,1.7382151538084605e-10,1.3711162830752087e-10,9.622685258631693e-11,7.63116834606466e-11,6.273137778073032e-11,4.423949680019118e-11,2.9028195351159e-11,1.9056385153078636e-11,1.3433142057166073e-11,8.623759613517373e-12,5.074536167805534e-12,2.9293567593107297e-12,1.7097026545086614e-12,9.1518985434196e-13,4.962609889905953e-13,2.428935377285353e-13,5.292403394234067e-09,4.202846372117403e-09,3.292038108742959e-09,2.6366995538386297e-09,2.0662966348103066e-09,1.5526055046337904e-09,1.229003920066748e-09,9.449079708416567e-10,6.480570132052966e-10,5.237613042147248e-10,3.669193215451663e-10,2.5852193916755894e-10,1.7603333123625323e-10,1.222965765817403e-10,7.910920769532175e-11,5.130726220480223e-11,3.218413545191845e-11,2.0602090866636775e-11,1.2258130329102886e-11
0.0,1,1.0,0.0,30.0,0.0,0.0,0.0,0.0,-13.0,0.0,2.0,0.0,0.0,0.0,6.127550231316628e-10,5.900598162354535e-10,5.822585548574137e-10,5.236426474913675e-10,4.79921337049318e-10,4.375773650499698e-10,3.630690805598275e-10,3.1348760666952143e-10,2.580324405293858e-10,2.264705656616115e-10,1.718507142210611e-10,1.3433922995631047e-10,1.0364050977068943e-10,8.149166055056523e-11,5.943628423936753e-11,4.1913630107352265e-11,2.7218353957475043e-11,2.02258222361059e-11,1.3363001543858498e-11,8.354046588399747e-12,4.914045626212837e-12,2.9157975524879888e-12,1.5697645124004444e-12,9.07140185225201e-13,4.651786247019308e-13,2.376192808283548e-13,5.1894578784067e-09,3.783708484145038e-09,3.3130991553493913e-09,2.574920739904552e-09,2.090983319246004e-09,1.6137863544156698e-09,1.2350709569005463e-09,9.891539930421656e-10,7.050675475429185e-10,5.472058911027844e-10,3.7386320618170014e-10,2.5478510483277093e-10,1.841868405935926e-10,1.2594933838849296e-10,8.068455171263365e-11,5.160341818869398e-11,3.341659164304911e-11,2.0239785528844655e-11,1.2216153665612013e-11
0.0,2,2.0,0.0,30.0,0.0,0.0,0.0,0.0,-13.0,0.0,2.0,0.0,0.0,0.0,6.886740854105733e-10,6.116404331885061e-10,5.548502802907609e-10,5.158033531854858e-10,4.809589909481178e-10,4.269638182782765e-10,3.5611263977229424e-10,3.065167495938589e-10,2.5466126138300417e-10,2.1275854966187196e-10,1.6233394492513648e-10,1.3944539433223697e-10,1.0281817179244304e-10,7.819736061019916e-11,5.707947277657161e-11,4.168062316312275e-11,3.097951353481238e-11,2.1369568252018244e-11,1.3794598804122164e-11,8.729827083562313e-12,4.949036604366332e-12,2.8224617699453657e-12,1.6050921798328995e-12,9.07397711902591e-13,4.667118768411061e-13,2.3892062871837957e-13,5.565948537926873e-09,4.083040177705971e-09,3.544267525950382e-09,2.55146857953131e-09,2.0513224320672515e-09,1.5259282665424718e-09,1.2032719908453125e-09,9.426517218309391e-10,6.787300123420716e-10,5.12346205992083e-10,3.510502990490398e-10,2.7045089037969794e-10,1.7645579825866002e-10,1.16914440987369e-10,8.119742668207054e-11,5.2106035198304e-11,3.152163864852507e-11,2.1387176051765736e-11,1.2665707500359462e-11
0.0,3,3.0,0.0,30.0,0.0,0.0,0.0,0.0,-13.0,0.0,2.0,0.0,0.0,0.0,6.660930456124813e-10,6.289322633000879e-10,5.72403603751547e-10,5.273422959562688e-10,4.664870157883887e-10,4.1205135461732896e-10,3.595709121177093e-10,3.125637390484813e-10,2.661610852541259e-10,2.1446694819007668e-10,1.704189981825088e-10,1.3692053062972874e-10,1.0536741451657437e-10,7.663833000216845e-11,6.115604887333705e-11,4.195940184549725e-11,2.923379863767165e-11,2.0155022380283197e-11,1.3453719027885626e-11,8.121826483537007e-12,5.086795027112067e-12,2.983629411647717e-12,1.5644383754090576e-12,8.643528665978678e-13,4.723042841258133e-13,2.3276566767326893e-13,5.525369166522271e-09,4.444996149622237e-09,3.2991294196945676e-09,2.6755892190197117e-09,2.022689010508693e-09,1.6022159735907126e-09,1.1993499003199584e-09,8.924677888771675e-10,6.806185164610507e-10,4.960807844856516e-10,3.769573042547532e-10,2.6805181096455176e-10,1.7100085248075425e-10,1.257095110799902e-10,7.996233101365556e-11,5.237495880620633e-11,3.416545098643995e-11,2.1197572442053154e-11,1.3189658788657273e-11
0.0,4,4.0,0.0,30.0,0.0,0.0,0.0,0.0,-13.0,0.0,2.0,0.0,0.0,0.0,6.576081605473683e-10,6.282065694148994e-10,5.523367724532773e-10,5.137115692422431e-10,4.755216286239428e-10,3.888656659002861e-10,3.730200744353501e-10,3.19127798466779e-10,2.714465398568941e-10,2.0974064107988145e-10,1.7752149406004863e-10,1.376107864787849e-10,1.04489137453454e-10,8.213504134878652e-11,5.791687001599367e-11,4.414573339520016e-11,3.0207339603815384e-11,2.0130610545573612e-11,1.3283480302868177e-11,8.681280309710574e-12,4.916488705328736e-12,2.6960335178231797e-12,1.642892110921918e-12,8.910465534557265e-13,4.598235529396769e-13,2.377577634113417e-13,5.2710287989576e-09,4.253094134225825e-09,3.2176279225763227e-09,2.7222935326122582e-09,2.0554467878646137e-09,1.491598939621167e-09,1.1779028352383554e-09,9.052978285237923e-10,7.237772970155232e-10,5.143372716997669e-10,3.802854574030864e-10,2.5402145309566876e-10,1.9525506529971346e-10,1.1882634717330102e-10,7.531041822374719e-11,5.305897003695292e-11,3.3019260786527457e-11,2.060169488122459e-11,1.3187486541290102e-11
0.0,5,5.0,0.0,30.0,0.0,0.0,0.0,0.0,-13.0,0.0,2.0,0.0,0.0,0.0,6.715914199160584e-10,6.310147546628995e-10,5.471101231250366e-10,4.947200356460624e-10,4.842394221226812e-10,4.1895116003137045e-10,3.5154653745116504e-10,3.1814676977862353e-10,2.69466835822623e-10,2.2222733765228697e-10,1.7313299379177389e-10,1.3666095575224227e-10,1.0410182572174898e-10,7.529373331328325e-11,5.891439131636159e-11,4.359917044091855e-11,3.1531213518793226e-11,2.05175601721318e-11,1.3829780388719051e-11,7.894255472096932e-12,4.910388203290967e-12,2.795165424245264e-12,1.632181514145115e-12,8.964176272150029e-13,4.385728152235669e-13,2.228731631119269e-13,5.293135321406e-09,4.181149560776795e-09,3.3948846739956398e-09,2.87624725960592e-09,2.1494283821252097e-09,1.5467368324914518e-09,1.1979353873200325e-09,9.159509265560463e-10,7.173284775367109e-10,5.322183532423427e-10,3.7458171783238703e-10,2.6027051528426847e-10,1.8539963030331106e-10,1.1933025665758445e-10,7.97363450286332e-11,5.099479767306485e-11,3.42582298982378e-11,1.9707872081027784e-11,1.3462655832694102e-11
0.0,6,6.0,0.0,30.0,0.0,0.0,0.0,0.0,-13.0,0.0,2.0,0.0,0.0,0.0,6.701560205660641e-10,6.286857905114573e-10,5.761423696248557e-10,5.152659224298818e-10,4.5154859748608694e-10,4.0143004328986837e-10,3.6897461203228943e-10,3.154385444754612e-10,2.4960082404286006e-10,2.0383088869680643e-10,1.6274854198759798e-10,1.442713259583394e-10,1.0938994039158383e-10,7.992830377059251e-11,6.067865890142956e-11,4.3719402298168466e-11,2.885666624092042e-11,2.0787820608343692e-11,1.2648238417093084e-11,8.134137119142419e-12,4.8862869410594854e-12,2.820564492561735e-12,1.5574283716434138e-12,8.324714270755774e-13,4.526246160290691e-13,2.2605537010790349e-13,5.3343913488993856e-09,4.233274258945455e-09,3.2301048583642135e-09,2.549404879853516e-09,2.0505515412900435e-09,1.4905105526276203e-09,1.2071156285222063e-09,9.158827729819411e-10,6.798697351058516e-10,4.890401173226889e-10,3.7377229073892045e-10,2.675413796419042e-10,1.8282180037136212e-10,1.2074651501299367e-10,8.139031148396848e-11,4.9346199286969944e-11,3.337979060815223e-11,2.2032064387696467e-11,1.2886122423204603e-11
0.0,7,7.0,0.0,30.0,0.0,0.0,0.0,0.0,-13.0,0.0,2.0,0.0,0.0,0.0,6.571081587828515e-10,6.259282802535831e-10,5.92872221651692e-10,5.22277936302168e-10,4.908386351191791e-10,4.07199812763372e-10,3.4130356016371196e-10,3.071057578011718e-10,2.643864076505016e-10,2.2476096696657702e-10,1.7302720915481286e-10,1.3839436923508458e-10,1.0407615589221103e-10,8.235942383961272e-11,5.941968592301023e-11,4.582817739611484e-11,3.026436736560995e-11,1.9892673189926983e-11,1.3636584436447996e-11,8.253930845231064e-12,4.956006411335658e-12,2.867221384262493e-12,1.550436170248188e-12,7.900426209354751e-13,4.500559033776686e-13,2.188586370744139e-13,5.5365373163233e-09,4.156044536068604e-09,3.3145119225967985e-09,2.487804480910212e-09,2.0116203062603256e-09,1.5532158483180344e-09,1.2237277990791676e-09,9.861749621335202e-10,7.141237965406323e-10,5.122135974459731e-10,3.4994159802119727e-10,2.580730053966767e-10,1.7563442308810538e-10,1.2083462573850668e-10,8.281404609578612e-11,5.398874361152821e-11,3.1561781801529185e-11,2.082073369878768e-11,1.329282444263206e-11
0.0,8,8.0,0.0,30.0,0.0,0.0,0.0,0.0,-13.0,0.0,2.0,0.0,0.0,0.0,6.678223034849205e-10,6.448552159400168e-10,5.682819342276478e-10,5.204575226615819e-10,4.939658346126566e-10,4.1500302855377253e-10,3.667768399547176e-10,3.168565410460095e-10,2.593356151974466e-10,2.2052905648473568e-10,1.703390495529074e-10,1.237280436333439e-10,1.0497211053002498e-10,8.083194611153714e-11,6.016174542400917e-11,4.1989600331601796e-11,3.179543091644502e-11,1.9998062368237885e-11,1.388494517815825e-11,8.161228010489895e-12,4.895705282096262e-12,2.7959940574791853e-12,1.5664280017816827e-12,8.037310789296767e-13,4.2464793625342497e-13,2.2064779715919628e-13,5.219081803455153e-09,4.097127364850717e-09,3.306704895231216e-09,2.5914212542539596e-09,1.989713450337133e-09,1.510329647911183e-09,1.2299179704679814e-09,8.944894304870431e-10,6.762971852485248e-10,5.159792025527123e-10,3.57805655250404e-10,2.550406331671576e-10,1.7965908894774756e-10,1.199982896411184e-10,7.984212119923047e-11,4.9180226447309794e-11,3.53925001131009e-11,1.9520366844845832e-11,1.34033085394504e-11
0.0,9,9.0,0.0,30.0,0.0,0.0,0.0,0.0,-13.0,0.0,2.0,0.0,0.0,0.0,6.643265200704202e-10,6.161912062082533e-10,5.669437703025201e-10,5.260478349370908e-10,4.6422820767855437e-10,4.2552185424526814e-10,3.5892401111145536e-10,3.121324362168952e-10,2.6804016765597417e-10,2.161481038834517e-10,1.7923521156923008e-10,1.35896812759868e-10,1.0353940152582235e-10,8.582473971415139e-11,6.095451579762442e-11,4.177502906509051e-11,3.090027746419507e-11,2.0621696858557168e-11,1.3656216762503969e-11,8.524088237738285e-12,4.958620055404387e-12,2.8068362591737307e-12,1.5248372484505686e-12,8.138584283682701e-13,4.089421345924477e-13,2.161648934166565e-13,5.6658219042732626e-09,4.3470438423958336e-09,3.3879182158038264e-09,2.591043311336772e-09,1.93639857899206e-09,1.62874650755689e-09,1.2411510842224854e-09,9.195402364830329e-10,7.235495683196896e-10,4.875560670247923e-10,3.714152095065886e-10,2.695914332867156e-10,1.8699310752317484e-10,1.272233634106358e-10,8.338574980558159e-11,5.206972026908785e-11,3.5568804817490625e-11,2.1321101457400053e-11,1.3245342463048588e-11
0.0,10,10.0,0.0,30.0,0.0,0.0,0.0,0.0,-13.0,0.0,2.0,0.0,0.0,0.0,6.440647035556199e-10,6.471138902923159e-10,5.726026717228197e-10,5.232745419846705e-10,4.736225803648344e-10,4.3267795839986285e-10,3.2856994406812753e-10,3.1462423384642885e-10,2.606963189875572e-10,2.1773096722613777e-10,1.7702417718250425e-10,1.3775239352944866e-10,1.056024975081136e-10,8.23872302093227e-11,6.344362291299608e-11,4.191033453851175e-11,3.28314872824929e-11,2.1069550437130784e-11,1.355535717935611e-11,7.835922259504988e-12,4.702951465121102e-12,2.577107453744063e-12,1.478626517874012e-12,7.821532765231904e-13,4.062701095681292e-13,2.1564537164913042e-13,5.594156438105115e-09,4.074282765258896e-09,3.254624213854977e-09,2.5371840488906587e-09,1.98209265805174e-09,1.5228875367948872e-09,1.2614655107440877e-09,8.999854130025093e-10,6.808444529117298e-10,5.166098578412063e-10,3.7531447066183716e-10,2.816578408551319e-10,1.83381388147151e-10,1.2372291173081626e-10,7.819930543002717e-11,5.2207119807524046e-11,3.502094647354738e-11,2.239296546826444e-11,1.3485046133957042e-11
0.0,11,11.0,0.0,30.0,0.0,0.0,0.0,0.0,-13.0,0.0,2.0,0.0,0.0,0.0,6.657747266474197e-10,6.618724143924102e-10,5.711559403497304e-10,5.174234875782137e-10,4.672898846335425e-10,4.445885308587449e-10,3.4484508281384863e-10,2.922039794607417e-10,2.562580864715867e-10,2.2058067897761335e-10,1.7199741648392727e-10,1.310755352941378e-10,1.0148841037843453e-10,8.231857428589136e-11,6.269519345385394e-11,4.3564494815696805e-11,3.0959796936455987e-11,1.9579716964569486e-11,1.3672613611513465e-11,7.748766577240458e-12,5.009655396635601e-12,2.649316123168416e-12,1.5757797293169577e-12,7.899270312158248e-13,3.7351616658208186e-13,2.1296018631183486e-13,5.349538452543944e-09,4.235918046408807e-09,3.24377118898925e-09,2.6816647345916765e-09,2.0696030460920254e-09,1.5747168116982336e-09,1.1875020849715237e-09,9.748465004608247e-10,7.484139525831795e-10,5.277709220975601e-10,3.861261622023451e-10,2.568402525720976e-10,1.8597034251982427e-10,1.2054251784792375e-10,8.023650737874096e-11,5.3025437635876904e-11,3.375251745746482e-11,2.1437008768751967e-11,1.4065881259285254e-11
0.0,12,12.0,0.0,30.0,0.0,0.0,0.0,0.0,-13.0,0.0,2.0,0.0,0.0,0.0,6.72202187902699e-10,6.453116371266427e-10,5.989136774919453e-10,5.158568342986028e-10,5.020171717781853e-10,4.071393617678523e-10,3.6295039163373677e-10,3.0686002499357185e-10,2.6400621944029937e-10,2.0939187662815805e-10,1.656425494087945e-10,1.4063033588448994e-10,1.0404497534363916e-10,8.662034032496067e-11,6.224043197362913e-11,4.472207388753632e-11,3.045308250522376e-11,2.0453549109888855e-11,1.312162770293586e-11,8.334746564963253e-12,4.699780384056858e-12,2.6822289404257905e-12,1.4167061689497994e-12,7.929318640810066e-13,4.1028245490693253e-13,1.928359139497631e-13,5.36163506370625e-09,4.239147572778829e-09,3.3267963751113764e-09,2.5194461858387933e-09,1.9898867298096295e-09,1.4949773033618267e-09,1.2032078143126974e-09,9.261264259841503e-10,6.847688468020348e-10,4.5309497285171276e-10,3.855984903997895e-10,2.5893092419029346e-10,1.7360877001946967e-10,1.27218939154024e-10,8.155601447018147e-11,5.270046974904915e-11,3.334719533888721e-11,2.173796628257113e-11,1.360597416306339e-11
0.0,13,13.0,0.0,30.0,0.0,0.0,0.0,0.0,-13.0,0.0,2.0,0.0,0.0,0.0,6.714095949127626e-10,6.375991403101498e-10,5.301495676586755e-10,5.173907858533777e-10,4.78735606919059e-10,4.0517913727501036e-10,3.5546145876176984e-10,2.956999350893112e-10,2.6432134675218703e-10,2.1649216356091012e-10,1.8097449439337124e-10,1.3643810356292716e-10,1.1044609907808451e-10,8.167993715451995e-11,6.198962160393017e-11,4.5612483678219824e-11,3.1427684802513805e-11,2.0990187535407284e-11,1.3667178474455688e-11,7.70889570183361e-12,4.724386755636827e-12,2.477891873711847e-12,1.4236759869429207e-12,7.531440105134161e-13,4.0074929926600346e-13,1.9108087373520745e-13,5.490427918869974e-09,4.162667290327446e-09,3.3349316049690703e-09,2.7375561365750318e-09,2.0389711413048122e-09,1.5383188903570156e-09,1.1936372632024227e-09,9.306126089402043e-10,6.831890287871108e-10,4.881776836408587e-10,3.6764307186578405e-10,2.5659022287958946e-10,1.8388034416823446e-10,1.194449954992969e-10,7.780440360160583e-11,5.3565242160722455e-11,3.5303425060672253e-11,2.283897144455421e-11,1.3413497387176555e-11
0.0,14,14.0,0.0,30.0,0.0,0.0,0.0,0.0,-13.0,0.0,2.0,0.0,0.0,0.0,6.673456110709935e-10,6.186371868065625e-10,5.553478240541212e-10,5.077344471372991e-10,4.5549526486568156e-10,4.224141535106083e-10,3.8200171464844e-10,3.0796179475579087e-10,2.541769485077321e-10,2.1001644736268743e-10,1.726213187961876e-10,1.3472018437152456e-10,1.0967347668126536e-10,8.401628505895118e-11,6.133943995883187e-11,4.104892562657876e-11,3.164283555301716e-11,2.0652311835555054e-11,1.291884420870173e-11,7.68198991652418e-12,4.687627685434193e-12,2.5101018955990626e-12,1.3578342796659353e-12,7.185041938697512e-13,3.910298320490297e-13,1.9545442854847255e-13,5.45844141205356e-09,4.1304446691070515e-09,3.3301504870043592e-09,2.5269494128488066e-09,2.026054048705117e-09,1.4937923337762922e-09,1.215573577345108e-09,9.149775333947816e-10,7.106374911538295e-10,4.925060894545376e-10,3.604408876480332e-10,2.468528027652691e-10,1.7308680923383308e-10,1.2223000046119812e-10,7.906147978024782e-11,5.4789528000577525e-11,3.4336337582726724e-11,2.1873366455072072e-11,1.3803875818207471e-11
0.0,15,15.0,0.0,30.0,0.0,0.0,0.0,0.0,-13.0,0.0,2.0,0.0,0.0,0.0,6.579310856291226e-10,6.301062792706912e-10,5.76803659131289e-10,5.402948887945005e-10,4.667861358171549e-10,4.01517139846289e-10,3.52013650642877e-10,3.213253575542962e-10,2.6153412040808596e-10,2.1987561012677433e-10,1.7264411959508502e-10,1.343202813342884e-10,1.1420623964966323e-10,8.13868248982899e-11,6.05652047563314e-11,4.4733444141440894e-11,3.140978325643243e-11,2.116392437529912e-11,1.3626991333978199e-11,7.89692591079364e-12,4.4158379823261e-12,2.6134884688362418e-12,1.4350825215328394e-12,7.34362394595368e-13,3.7429641421022745e-13,1.8185389590802024e-13,5.275815909427964e-09,4.426895466545594e-09,3.376499158824667e-09,2.6406020562112636e-09,1.981749629935857e-09,1.5699810246725873e-09,1.2102231005195264e-09,9.29005068142926e-10,6.659257925994581e-10,5.093485662532444e-10,3.5709960432112226e-10,2.661752192830116e-10,1.79566144281253e-10,1.1938169301788072e-10,8.155009702062274e-11,5.3746602379728077e-11,3.35816242866781e-11,2.3460359854830733e-11,1.442305829215419e-11
0.0,16,16.0,0.0,30.0,0.0,0.0,0.0,0.0,-13.0,0.0,2.0,0.0,0.0,0.0,6.680460143073245e-10,5.929414323514259e-10,5.985856998632151e-10,5.254994572125273e-10,4.557769724958764e-10,4.1651191914437985e-10,3.73080475972371e-10,3.0481620433644614e-10,2.5940580386729967e-10,2.16143011173885e-10,1.7927048537650545e-10,1.371970509707904e-10,1.0865859608286691e-10,8.557165870708e-11,6.297701704989459e-11,4.601380970964053e-11,3.0721152602020594e-11,2.0632551581448475e-11,1.3296314756746318e-11,8.237936359179957e-12,4.3622115023179656e-12,2.580941118636428e-12,1.3461664069001331e-12,7.252344355796194e-13,3.634183563453759e-13,1.7389356638467744e-13,5.4837095477343305e-09,4.158840716252584e-09,3.298638098032774e-09,2.550864655993748e-09,2.0175451486304135e-09,1.560158072913046e-09,1.193258576361869e-09,9.145607307978053e-10,6.881189539552276e-10,5.001222947304258e-10,3.819589919471581e-10,2.6588569756779134e-10,1.7669714411670252e-10,1.2033998414357794e-10,7.75832259738185e-11,5.166486346995708e-11,3.705594384166408e-11,2.162156569036777e-11,1.4732298300634725e-11
0.0,17,17.0,0.0,30.0,0.0,0.0,0.0,0.0,-13.0,0.0,2.0,0.0,0.0,0.0,6.902285177601794e-10,6.117108775421864e-10,6.050699170109969e-10,4.902258568772127e-10,4.6374595808871753e-10,4.0831900186364747e-10,3.659974384789342e-10,3.30131918103789e-10,2.51459301468507e-10,2.167625677815189e-10,1.7368583738988348e-10,1.4227289354242945e-10,1.0910391992524305e-10,8.432006382509342e-11,6.264253028747039e-11,4.3548618652129244e-11,2.9925765952947193e-11,2.0420013291454365e-11,1.2267015708120949e-11,8.281216604032155e-12,4.70146493620712e-12,2.4702346674489464e-12,1.381218699486248e-12,6.855177110323718e-13,3.548494274072092e-13,1.7369557006059374e-13,5.403422416427033e-09,4.216942323852035e-09,3.3852033418021505e-09,2.5275938893582564e-09,2.1083969569055893e-09,1.4865739618169144e-09,1.208948962837262e-09,8.957303046558934e-10,7.149300373622804e-10,5.524365735558285e-10,3.516609903890717e-10,2.615528142336711e-10,1.8868511351742542e-10,1.2538001074346694e-10,8.011926100326916e-11,5.500156666195604e-11,3.4558004263485595e-11,2.2720855413369494e-11,1.335252404445385e-11
0.0,18,18.0,0.0,30.0,0.0,0.0,0.0,0.0,-13.0,0.0,2.0,0.0,0.0,0.0,6.728756805519013e-10,5.82232166419502e-10,5.933409401305631e-10,5.197361026682562e-10,4.985637807573402e-10,4.1985641370475184e-10,3.761943868804436e-10,3.0385050400464867e-10,2.537150471192347e-10,2.1916720912387667e-10,1.7270070816655515e-10,1.4148658200780163e-10,1.1061343575110483e-10,8.410638591881537e-11,6.039657064385857e-11,4.5665247055176325e-11,3.135931322155684e-11,2.1830400805040867e-11,1.2713427152101342e-11,7.712926003736639e-12,4.21254438665551e-12,2.5420565031707087e-12,1.2130473239948251e-12,6.803853023880694e-13,3.5404451918999946e-13,1.7399471573096025e-13,5.435632514646836e-09,4.436111686999034e-09,3.242206785442634e-09,2.5541865386328633e-09,1.9980661388483322e-09,1.6431762392661368e-09,1.247567316419476e-09,9.205209610368034e-10,6.937698870630958e-10,5.144637956872827e-10,3.5940656310036613e-10,2.7277259568845664e-10,1.704770672765843e-10,1.2509041072246647e-10,8.518217634124062e-11,5.292260160392813e-11,3.474389652482611e-11,2.183118262719019e-11,1.3462298790194028e-11
0.0,19,19.0,0.0,30.0,0.0,0.0,0.0,0.0,-13.0,0.0,2.0,0.0,0.0,0.0,6.870784603783232e-10,6.207899003176585e-10,5.476432553451658e-10,5.13659858340965e-10,4.697410022332057e-10,4.319149843211281e-10,3.616927362390149e-10,3.1845050430998723e-10,2.698191790008981e-10,2.2129826250012236e-10,1.7429893767883203e-10,1.549557040626262e-10,1.1629505030315956e-10,8.7191207716809e-11,6.353844854285301e-11,4.440730576783369e-11,3.205777588511404e-11,2.0096483577687833e-11,1.2577816533513293e-11,8.078827921231464e-12,4.148990629264321e-12,2.3899060797931276e-12,1.296277049922037e-12,6.636985556161153e-13,3.359364289875822e-13,1.681133631458574e-13,5.392409926749388e-09,4.319786648588248e-09,3.409758331591005e-09,2.627696581212875e-09,2.1260762436557756e-09,1.4822433113445446e-09,1.2683914535776637e-09,9.76748229084312e-10,6.762850497218021e-10,4.806424913118107e-10,3.6539354133146436e-10,2.7299168804281425e-10,1.806593058756018e-10,1.2087023188977815e-10,8.137916736609029e-11,5.4038882710246764e-11,3.815677405673911e-11,2.1210699875137384e-11,1.4253294912939025e-11
0.0,20,20.0,0.0,30.0,0.0,0.0,0.0,0.0,-13.0,0.0,2.0,0.0,0.0,0.0,6.616811942368525e-10,6.135032480624792e-10,5.975331167052507e-10,5.267668934233807e-10,4.912897447216647e-10,4.3793574675728613e-10,3.2741917904353386e-10,2.9838956709770513e-10,2.598537150180852e-10,2.2523906459972258e-10,1.7119305342068724e-10,1.4132430497668597e-10,1.1886480421322702e-10,8.700608594198938e-11,6.552005615753949e-11,4.595861394719541e-11,3.2226593464977195e-11,2.1033446954271776e-11,1.3013862892871644e-11,7.574986657516421e-12,4.3195741522590164e-12,2.2842332825676696e-12,1.248370742681839e-12,6.45678568131128e-13,3.371876066531175e-13,1.550072964752676e-13,5.025133660416556e-09,4.226158749872681e-09,3.29356472926219e-09,2.5952523116836396e-09,2.0426684179246927e-09,1.576301058265992e-09,1.1805730487942169e-09,9.49506740076074e-10,6.657823234812372e-10,5.055370074713635e-10,3.6897902718368123e-10,2.621615424861127e-10,1.7854292334719322e-10,1.1784671556906682e-10,7.989732086179525e-11,5.59936453281846e-11,3.6182623523560415e-11,2.254485946854953e-11,1.4917979323711173e-11
0.0,21,21.0,0.0,30.0,0.0,0.0,0.0,0.0,-13.0,0.0,2.0,0.0,0.0,0.0,6.889739554715151e-10,6.255057376192764e-10,5.544470936897288e-10,5.476351463592603e-10,4.691069060356442e-10,4.2486206619111073e-10,3.69320923269655e-10,3.1129721547913393e-10,2.6806060637371043e-10,2.25621099194008e-10,1.7900480465786864e-10,1.4438365170266986e-10,1.1291751387469529e-10,8.973452060683612e-11,6.333531757065114e-11,4.50967834239984e-11,3.0468934735205694e-11,1.9449999502391497e-11,1.2044827347299274e-11,7.648890847624922e-12,4.381944505379777e-12,2.384346825338463e-12,1.2883667435465907e-12,6.54613452423449e-13,3.1625382846801533e-13,1.564754210413351e-13,5.6799451613565265e-09,4.080244085549274e-09,3.1846922740638884e-09,2.5200338513480335e-09,2.115326467530287e-09,1.5757694803143793e-09,1.2358631139759953e-09,9.167435768387352e-10,6.838232161536295e-10,5.225368375165109e-10,3.5424334801099644e-10,2.5784130520902185e-10,1.760197755766606e-10,1.1984461788088073e-10,8.689771203677784e-11,5.77178938597366e-11,3.7888933884720255e-11,2.3664679758530795e-11,1.466423419673456e-11
0.0,22,22.0,0.0,30.0,0.0,0.0,0.0,0.0,-13.0,0.0,2.0,0.0,0.0,0.0,6.679000190033328e-10,6.222883974299127e-10,5.61510037112716e-10,5.11525041584576e-10,4.878014427077669e-10,4.3527814720399997e-10,3.7486172178059033e-10,3.118993623835961e-10,2.652730799136242e-10,2.2768001827786582e-10,1.862216682589792e-10,1.4330398061845635e-10,1.1252098127610199e-10,8.35024751196811e-11,6.456196362118181e-11,4.420453658159129e-11,3.0042032242783226e-11,1.9599461498976737e-11,1.2759324473627105e-11,7.845985902001514e-12,4.3282800639357455e-12,2.3007765072703717e-12,1.2720857113042994e-12,6.303176687145532e-13,3.195772848163237e-13,1.563234135143867e-13,5.2358630517357904e-09,4.1218926598680225e-09,3.2477909418658453e-09,2.647176853094603e-09,1.8053231820951836e-09,1.530808829576693e-09,1.199064127029987e-09,9.216392858113829e-10,7.170300094575326e-10,5.160560186812594e-10,3.7119463525772126e-10,2.688048984812495e-10,1.7178503252352683e-10,1.247928397877875e-10,8.385969038659304e-11,5.627748907631392e-11,3.617851139035372e-11,2.2565897122775694e-11,1.5039838036434337e-11
0.0,23,23.0,0.0,30.0,0.0,0.0,0.0,0.0,-13.0,0.0,2.0,0.0,0.0,0.0,6.617788205113089e-10,5.875946662684896e-10,5.826450002688199e-10,5.139104057313482e-10,4.581378726774633e-10,4.1487247864772996e-10,3.7208238858877944e-10,3.0301062399636906e-10,2.7240083905973494e-10,2.1801458769968072e-10,1.8132794871298925e-10,1.3654275231616705e-10,1.173955807942122e-10,8.528861373909214e-11,6.641341389039919e-11,4.489249574425779e-11,3.054772345565272e-11,1.967922257632732e-11,1.2096946473183175e-11,7.57936159618826e-12,4.251239009833545e-12,2.35362921449474e-12,1.2206112609704287e-12,6.267447276329897e-13,3.1059339346490903e-13,1.4893530716184251e-13,5.590498079067851e-09,4.187145247686097e-09,3.330992578617899e-09,2.5956028207730422e-09,2.071016873401425e-09,1.557347176054569e-09,1.2376991106215772e-09,9.10051466816652e-10,7.100678986344845e-10,4.854122496588262e-10,3.3950744994495704e-10,2.616234309366447e-10,1.8204029956462656e-10,1.2526607034630595e-10,8.163836218564389e-11,5.784056220419341e-11,3.6457482172641515e-11,2.4079295359686212e-11,1.4260097889027743e-11
0.0,24,24.0,0.0,30.0,0.0,0.0,0.0,0.0,-13.0,0.0,2.0,0.0,0.0,0.0,6.680088903568564e-10,6.089066145574279e-10,5.772287208170953e-10,4.998345251372623e-10,4.4397445800343636e-10,4.292862085105467e-10,3.715045046146171e-10,3.278397574698786e-10,2.76835064560757e-10,2.2014804941682809e-10,1.8297692213152016e-10,1.4681603730673578e-10,1.0976962235917639e-10,8.471425392477076e-11,6.396558243103288e-11,4.6093766466936265e-11,3.1083761527779996e-11,1.9736784866419236e-11,1.2352325351567219e-11,7.330764248817153e-12,4.1616918512015575e-12,2.25701916697653e-12,1.18931901842868e-12,6.056796362501909e-13,2.884073489800588e-13,1.4099169053707627e-13,5.5514358574679375e-09,4.235000559233576e-09,3.301446155617845e-09,2.5763179279133006e-09,2.0155193295661187e-09,1.6555655873094725e-09,1.2134304835011533e-09,9.43088758685015e-10,6.891077071935301e-10,4.838955580587034e-10,3.600810030276431e-10,2.5807520537314623e-10,1.7774144069519247e-10,1.2671029221999247e-10,8.557170163287524e-11,5.713483440401527e-11,3.7489233317391716e-11,2.3912325724545104e-11,1.4505866628632927e-11
0.0,25,25.0,0.0,30.0,0.0,0.0,0.0,0.0,-13.0,0.0,2.0,0.0,0.0,0.0,6.719015183496907e-10,6.733827979100846e-10,5.86520269503739e-10,5.235674896815583e-10,4.812877584566839e-10,4.171429028313446e-10,3.7083042455878774e-10,2.9761159146424045e-10,2.796118226710329e-10,2.323495554306469e-10,1.8150956494678075e-10,1.458910869379122e-10,1.165747640852314e-10,8.691002226217161e-11,6.248571412342697e-11,4.282935195425137e-11,3.030375375130615e-11,1.985061315151617e-11,1.2569420315097031e-11,7.2128455186348845e-12,3.992171934938748e-12,2.0927260560757856e-12,1.1466125153053353e-12,5.841175198134412e-13,2.9201399391996463e-13,1.5096306146000455e-13,5.397549937199155e-09,4.405784211378914e-09,3.2623027597263514e-09,2.6643707946935187e-09,2.0248740343864348e-09,1.5373915546953328e-09,1.312253557981598e-09,8.658723253516735e-10,6.546349976827435e-10,5.214094341726131e-10,3.609851120095716e-10,2.6025111790014394e-10,1.852137880621249e-10,1.232020298545579e-10,8.316630107795537e-11,5.742681022013555e-11,3.856496486036999e-11,2.3450770395413696e-11,1.5001456554092595e-11
0.0,26,26.0,0.0,30.0,0.0,0.0,0.0,0.0,-13.0,0.0,2.0,0.0,0.0,0.0,6.639004418905902e-10,6.132041622581411e-10,5.484750447650616e-10,5.521433174591123e-10,4.4584472006500907e-10,4.129493034859596e-10,3.710165447418956e-10,3.1289768132632567e-10,2.795956025205565e-10,2.3750781993939206e-10,1.8358690024431441e-10,1.4884235809234379e-10,1.1540415736343186e-10,9.140301114703496e-11,6.232523123896019e-11,4.704815229576699e-11,2.983195863724115e-11,1.9608294203621363e-11,1.1842290458554565e-11,7.37174133971162e-12,3.9746917776053395e-12,2.224961640145486e-12,1.0871967240532072e-12,5.987661497571271e-13,2.530955301074042e-13,1.3251099698026161e-13,5.6663087204431e-09,4.184256278424546e-09,3.1935094621244187e-09,2.624327656009271e-09,1.9519754868913685e-09,1.4889055200360048e-09,1.1946857490856666e-09,9.420925697241879e-10,6.890362030821529e-10,5.126444608523915e-10,3.626777489405052e-10,2.4779474945316645e-10,1.8162715922130774e-10,1.2314473984685844e-10,8.714282068356307e-11,5.979642453200444e-11,3.8656417436688845e-11,2.405675729926525e-11,1.535993637141801e-11
0.0,27,27.0,0.0,30.0,0.0,0.0,0.0,0.0,-13.0,0.0,2.0,0.0,0.0,0.0,6.435835352426649e-10,6.17058751990339e-10,5.617407960093337e-10,5.059034076678909e-10,4.838298455146624e-10,4.218324640152751e-10,3.836680384660765e-10,3.20052476798337e-10,2.6678603362243867e-10,2.2152795204675345e-10,1.9675165212343565e-10,1.5277693625656506e-10,1.1688072759469703e-10,9.238626334684617e-11,6.395253387059621e-11,4.585955949634965e-11,2.9045186875021646e-11,1.9562972434562942e-11,1.2165338095108523e-11,7.640920889970966e-12,3.857574069752235e-12,2.1426258940101984e-12,1.101895311338988e-12,5.639051067109238e-13,2.6127984146998366e-13,1.3306350751189532e-13,5.513557311920331e-09,4.066229242426661e-09,3.279078306121743e-09,2.703423926650542e-09,1.9672705080532184e-09,1.4960604964706307e-09,1.2481111389422571e-09,9.256073764331782e-10,7.23006042805059e-10,5.121299915654658e-10,3.6782235341806575e-10,2.7163302514849826e-10,1.8400265824539125e-10,1.2750227955374865e-10,8.794512320339604e-11,6.285935311479766e-11,3.915207616842209e-11,2.4385107376947396e-11,1.535025159940941e-11
0.0,28,28.0,0.0,30.0,0.0,0.0,0.0,0.0,-13.0,0.0,2.0,0.0,0.0,0.0,6.537497156815445e-10,6.522048115285705e-10,5.726829646746225e-10,5.241133995142004e-10,4.840347438636293e-10,4.26613082273093e-10,3.48603376120351e-10,3.2757032374660484e-10,2.8591616253539676e-10,2.242060561132436e-10,1.8432100532699312e-10,1.4768172135263708e-10,1.1414540110485295e-10,8.733629673649146e-11,6.936079692639704e-11,4.464461226436763e-11,3.03844392043984e-11,2.0390040226322235e-11,1.2085528566814129e-11,7.172287906139727e-12,3.739931965277014e-12,2.1613600934516235e-12,1.0314325365781678e-12,5.3844070852806e-13,2.4928380648290774e-13,1.2469949773300776e-13,5.29718814842527e-09,4.234199222804184e-09,3.3265599780940564e-09,2.6706548051253355e-09,1.9695476041887617e-09,1.6555623831122012e-09,1.1645242091426082e-09,9.193390305558781e-10,6.932676257882764e-10,5.291265897700712e-10,3.833980004865133e-10,2.6268927178529405e-10,1.8259528485080568e-10,1.2816699628414203e-10,8.677803078294689e-11,6.196316362854844e-11,3.7232536892043244e-11,2.4087529677471878e-11,1.4864468136034794e-11
0.0,29,29.0,0.0,30.0,0.0,0.0,0.0,0.0,-13.0,0.0,2.0,0.0,0.0,0.0,6.586388610521931e-10,6.281033229428059e-10,5.545837779680565e-10,5.279525774252944e-10,5.039406731522008e-10,4.241837314214902e-10,3.6925657110388333e-10,3.3064022777741346e-10,2.729783350901419e-10,2.167201484698065e-10,1.9295607201354953e-10,1.4874233439596346e-10,1.1947332129763812e-10,8.834291725558944e-11,6.440216755170701e-11,4.3001138401910734e-11,2.9945216436350544e-11,1.9588188963812627e-11,1.1780464686737712e-11,7.06886797800691e-12,3.6293409851980223e-12,2.0134353107386837e-12,1.0590367277316913e-12,5.070827342636886e-13,2.400081777671125e-13,1.177421666675783e-13,5.503623062589602e-09,4.279715431470899e-09,3.324454947905015e-09,2.5345778911724645e-09,2.0284278953033247e-09,1.4827927985442464e-09,1.195766473419043e-09,9.200807281094623e-10,6.465505312107453e-10,5.140975885392463e-10,3.5925243366097674e-10,2.529497540356199e-10,1.7184210038421888e-10,1.3314647978671074e-10,9.111880695452122e-11,6.067203200742126e-11,4.0570799029408505e-11,2.6334413160441673e-11,1.5312699725471157e-11
0.0,30,30.0,0.0,30.0,0.0,0.0,0.0,0.0,-13.0,0.0,2.0,0.0,0.0,0.0,6.654477551693813e-10,6.169679962498393e-10,5.817527340427317e-10,5.174554373576486e-10,4.800606352868471e-10,4.342100958383264e-10,3.8805012118539266e-10,3.2353411575936896e-10,2.5773188551012923e-10,2.2881184798059467e-10,1.865946500729992e-10,1.4682319275907495e-10,1.1993226907583486e-10,9.150315072840795e-11,6.656365435974134e-11,4.391420970140843e-11,2.8537440368509416e-11,1.9831008053988484e-11,1.2018051321315556e-11,6.957045387888788e-12,3.7016111522961705e-12,2.039711701445747e-12,9.760141325841456e-13,5.020918053206258e-13,2.484632572404147e-13,1.1510173917685497e-13,5.462664189765726e-09,4.045439988589054e-09,3.2918819606215196e-09,2.668270779711381e-09,1.9764450761349905e-09,1.5481835424268182e-09,1.1707958213142261e-09,8.843941834326501e-10,6.869499801912724e-10,5.196638557444846e-10,3.709203772238299e-10,2.6994052686293333e-10,1.868612219410189e-10,1.319679096156222e-10,8.806238916206882e-11,6.236775212347769e-11,4.112220303170822e-11,2.5569430084710306e-11,1.5143236096251094e-11
0.0,31,31.0,0.0,30.0,0.0,0.0,0.0,0.0,-13.0,0.0,2.0,0.0,0.0,0.0,6.713001878501895e-10,6.129844524456758e-10,5.550529750671779e-10,5.516126189364659e-10,4.856684419494659e-10,4.0574541594204174e-10,4.0130651194245174e-10,3.2246942542292106e-10,2.845480592560423e-10,2.372607956155523e-10,1.9269202696946007e-10,1.5450244605975828e-10,1.1592395616068678e-10,9.236881771390457e-11,6.1606211390186e-11,4.3921076997117027e-11,2.984757001714051e-11,1.9382936133356285e-11,1.1268642916234979e-11,6.569664881730726e-12,3.9146626132370855e-12,1.900976888336424e-12,9.706027080883464e-13,4.750724576325485e-13,2.286780544608286e-13,1.0827974767724373e-13,5.468705530095246e-09,4.319774093792142e-09,3.397872507200381e-09,2.4804851566836194e-09,2.0027700953139368e-09,1.4917967372201776e-09,1.163137915593604e-09,9.269511435722499e-10,7.006573861827359e-10,4.786000512649271e-10,3.333101818927482e-10,2.4287215396631426e-10,1.9025957206155096e-10,1.2573586310190996e-10,9.202776443160627e-11,6.191505316378617e-11,4.1688742184767124e-11,2.4280746013279622e-11,1.5481889970987438e-11
0.0,32,32.0,0.0,30.0,0.0,0.0,0.0,0.0,-13.0,0.0,2.0,0.0,0.0,0.0,6.595938856551884e-10,6.584329357833069e-10,5.969436357133877e-10,5.297746024615241e-10,4.758125843472455e-10,4.3725383667194754e-10,3.6960863745208707e-10,3.2911384268006695e-10,2.7412307919143984e-10,2.320341442436068e-10,1.959829440597856e-10,1.5428611258454064e-10,1.1965824530653059e-10,8.93299404881124e-11,6.562243500925197e-11,4.579120433245333e-11,2.9319543560895486e-11,1.8066361789623616e-11,1.1631512900439031e-11,6.405074135318498e-12,3.446133667844445e-12,1.9477478369135875e-12,9.604172987394061e-13,4.4511910392002686e-13,2.3745332545402236e-13,1.0973222750847667e-13,5.498519498049007e-09,4.222132425315878e-09,3.357717714148961e-09,2.5477980206989657e-09,1.9220082332687054e-09,1.599953220516284e-09,1.2147693662663536e-09,9.709378143715574e-10,6.82331359287891e-10,4.778590533951546e-10,3.6486458288528156e-10,2.3537736787342425e-10,1.8305326017139394e-10,1.3405975568675357e-10,9.397385792807308e-11,6.163673048803191e-11,4.191826799586509e-11,2.5661040131269745e-11,1.4676541905197966e-11
0.0,33,33.0,0.0,30.0,0.0,0.0,0.0,0.0,-13.0,0.0,2.0,0.0,0.0,0.0,6.949373488883489e-10,6.46127668330733e-10,5.551743416208902e-10,5.554897244904514e-10,4.822114658318616e-10,4.29386324071202e-10,3.7937830286249285e-10,3.2818468855151633e-10,2.769074585463671e-10,2.196920577161423e-10,1.9434546862378696e-10,1.5828700910222386e-10,1.1468322779581982e-10,8.715496337098596e-11,6.379506378585054e-11,4.4280655681121536e-11,2.973118043501601e-11,1.841197053931971e-11,1.1536067199053579e-11,6.179724532026953e-12,3.531697256581806e-12,1.8080089997022939e-12,8.662500795068595e-13,4.647012386005616e-13,2.0677866600536496e-13,1.0938414529451984e-13,5.369722617902104e-09,4.335483935004462e-09,3.324495253558907e-09,2.690883734715272e-09,2.0811756820585616e-09,1.5743378574915007e-09,1.2602999015771464e-09,9.038255254441998e-10,6.974993514146933e-10,5.023522929352255e-10,3.7006303146411156e-10,2.703709744947999e-10,1.8485212644917185e-10,1.3418116652220425e-10,9.371496672373072e-11,6.24876459426167e-11,4.008415479237983e-11,2.6129605596281215e-11,1.4292061130284309e-11
0.0,34,34.0,0.0,30.0,0.0,0.0,0.0,0.0,-13.0,0.0,2.0,0.0,0.0,0.0,6.805302928266994e-10,6.348787847710031e-10,5.725280681111034e-10,4.983957428091328e-10,5.115564584371134e-10,4.254692129336389e-10,3.783289124723792e-10,3.424268020862074e-10,2.9812441080191965e-10,2.372485861157034e-10,1.9459699921477242e-10,1.493031218580793e-10,1.1558186181212946e-10,8.947749723547736e-11,6.569060999549685e-11,4.528780100674388e-11,2.946398180059413e-11,1.7889855320203443e-11,1.0454317327533727e-11,6.338851056906803e-12,3.517373614303285e-12,1.7344046187872211e-12,9.664818848466641e-13,4.4486970687626325e-13,2.0936867863922476e-13,9.96169885183156e-14,5.354481606814878e-09,4.173788273020282e-09,3.262468497827712e-09,2.58776152569068e-09,1.9727215522849862e-09,1.5413128648634531e-09,1.2010636348361671e-09,9.11068107750298e-10,6.888313789496862e-10,5.275386569456194e-10,3.746852775347498e-10,2.507800762572507e-10,1.8510684993217108e-10,1.3439880632523968e-10,9.534271596345282e-11,6.365269822928993e-11,4.293015378116815e-11,2.553047642629962e-11,1.5106008256188624e-11
0.0,35,35.0,0.0,30.0,0.0,0.0,0.0,0.0,-13.0,0.0,2.0,0.0,0.0,0.0,6.721557042358763e-10,6.255632298341379e-10,5.722304320078698e-10,5.464913174761055e-10,4.703625572213753e-10,4.094280925233799e-10,3.8455389740700967e-10,3.332946601893843e-10,2.6977320999685125e-10,2.2860104489209382e-10,1.959577389112805e-10,1.638374886525207e-10,1.282165230330338e-10,9.371026353008401e-11,6.177208393895415e-11,4.432005254092567e-11,2.8820588065407023e-11,1.822281330742619e-11,1.1070754530800247e-11,5.7701281299780435e-12,3.3435731425961304e-12,1.695341164272686e-12,8.387020423932053e-13,4.230586963196194e-13,1.916709399082138e-13,9.280332536523877e-14,5.572005781739816e-09,3.970306967247859e-09,3.349309305182642e-09,2.5240144134599706e-09,2.0456174602628268e-09,1.5177021960530882e-09,1.1619412478340456e-09,8.867581875290055e-10,6.922378582673356e-10,5.136323918046601e-10,3.787098589007957e-10,2.81274528204955e-10,1.985919048644786e-10,1.3094245599392315e-10,8.826610633414002e-11,6.636737920772416e-11,4.445706870678073e-11,2.6233952657935746e-11,1.4120241708006602e-11
0.0,36,36.0,0.0,30.0,0.0,0.0,0.0,0.0,-13.0,0.0,2.0,0.0,0.0,0.0,6.873540887365156e-10,6.398940723890824e-10,5.977989887391938e-10,5.314349015927513e-10,4.845684229683498e-10,4.458951881549187e-10,3.8399094457416257e-10,3.2419955321599937e-10,2.9744847622253326e-10,2.355109446359591e-10,1.9875582374550257e-10,1.540707897893317e-10,1.1875299278914827e-10,8.658017481524302e-11,6.232066441495644e-11,4.5116115665590435e-11,2.8760552025190007e-11,1.730059059860264e-11,1.0870748302634276e-11,6.150082744789181e-12,3.143696724821049e-12,1.6464670915140515e-12,7.913638732328954e-13,4.079163353460862e-13,1.9113551652331322e-13,8.819360617592987e-14,5.639350075760714e-09,4.238923049852607e-09,3.454554829158896e-09,2.57447411228728e-09,2.0796499373695277e-09,1.5938397684317912e-09,1.179499452012507e-09,8.621415726758806e-10,6.623791229573045e-10,5.068969505009168e-10,3.6465896478460837e-10,2.675116002502966e-10,1.8868311242550794e-10,1.3776669085308012e-10,9.58045247150264e-11,6.722925323476887e-11,4.2255491270104216e-11,2.419868806989785e-11,1.4743359490466077e-11
0.0,37,37.0,0.0,30.0,0.0,0.0,0.0,0.0,-13.0,0.0,2.0,0.0,0.0,0.0,6.998996405268128e-10,6.499589228117815e-10,5.908598288481472e-10,5.283176413412052e-10,4.878074735096413e-10,4.3058859350480007e-10,3.68921564094735e-10,3.2953718402212916e-10,2.8961901680226586e-10,2.352727807119679e-10,1.9363795011674244e-10,1.5799553119210423e-10,1.167273482009274e-10,8.813438875238826e-11,5.950787736879245e-11,4.474504212066447e-11,2.915317024797612e-11,1.8059580513772247e-11,1.0512384148332487e-11,5.8304836715777e-12,3.0143083038178607e-12,1.567227631720274e-12,8.069578976381741e-13,4.0730378043964467e-13,1.920156456989231e-13,9.127169279207412e-14,5.818871327420266e-09,4.594169985923053e-09,3.326051104417415e-09,2.693986790062801e-09,2.077158509077379e-09,1.592079131413987e-09,1.1931345275529308e-09,9.255614730094632e-10,7.028443098950711e-10,4.850813098365655e-10,3.3625796183299356e-10,2.662325201627714e-10,1.9283948551199805e-10,1.432856405454606e-10,9.831428104539816e-11,6.824089093253833e-11,4.225530619750618e-11,2.6010600158367945e-11,1.4283572050676164e-11
0.0,38,38.0,0.0,30.0,0.0,0.0,0.0,0.0,-13.0,0.0,2.0,0.0,0.0,0.0,6.796212927970517e-10,6.578367505612211e-10,6.00608324714921e-10,5.37530058822078e-10,5.002517547013169e-10,4.284823864261944e-10,3.878637522631886e-10,3.4401476137104105e-10,2.786750820071606e-10,2.5199067737485946e-10,2.0717204017655925e-10,1.5002100086062308e-10,1.193229772946847e-10,9.401599004621894e-11,6.625791124170474e-11,4.3142822557295605e-11,2.6832394155325667e-11,1.7700796983117395e-11,1.0011238696042964e-11,5.65717255425854e-12,3.005854739810608e-12,1.547435921731901e-12,7.712178999056299e-13,3.788539002759516e-13,1.8112523760847565e-13,7.88277356088002e-14,5.295819108466576e-09,4.06275624542872e-09,3.379449442167843e-09,2.426818223224338e-09,2.0190793526224833e-09,1.5981243884131247e-09,1.1802501954918992e-09,8.823344391717958e-10,6.531163688504361e-10,5.03780499404624e-10,3.7627935311051934e-10,2.7870111099296416e-10,1.9953776925931842e-10,1.4380769975104741e-10,9.786509069874966e-11,6.557761149870229e-11,4.244660866598268e-11,2.6410325691795005e-11,1.5082473462551648e-11
0.0,39,39.0,0.0,30.0,0.0,0.0,0.0,0.0,-13.0,0.0,2.0,0.0,0.0,0.0,6.975125319524494e-10,6.326712059601936e-10,6.350393028652264e-10,5.413717904067158e-10,5.084082245760965e-10,4.579310973642017e-10,3.8061584588943673e-10,3.219756558930928e-10,3.003546262342382e-10,2.4509808088366763e-10,1.98776417101298e-10,1.497258687750971e-10,1.1251211184589749e-10,9.050854281024329e-11,6.25892653304104e-11,4.281332565878377e-11,2.7301366292071066e-11,1.62316897972415e-11,1.0050518334928802e-11,5.301855882772562e-12,2.900425985502548e-12,1.5496692953457065e-12,7.086042682364716e-13,3.7435301980593714e-13,1.7259594945418876e-13,8.350462476243405e-14,5.439061983651284e-09,4.260178533881709e-09,3.0639790863122186e-09,2.592121410906017e-09,2.036089905656456e-09,1.5220828244170162e-09,1.1514697202603406e-09,9.338253305065234e-10,6.642061645479227e-10,5.142676374853724e-10,3.7780012353253746e-10,2.8175519237110355e-10,2.0154841979832604e-10,1.4129995990436295e-10,1.0235000779589173e-10,6.737361255293746e-11,4.4519829845970204e-11,2.5821793369241294e-11,1.5211712095825227e-11
0.0,40,40.0,0.0,30.0,0.0,0.0,0.0,0.0,-13.0,0.0,2.0,0.0,0.0,0.0,6.59006674614634e-10,6.372245041597301e-10,6.0646601036918e-10,5.310276736512342e-10,4.829665147318556e-10,4.443871746539993e-10,4.018028136068504e-10,3.4351542308126105e-10,2.948720366234982e-10,2.460887361987745e-10,2.086356558390614e-10,1.591839268809112e-10,1.2255631517854263e-10,9.126926681365806e-11,6.197869061198577e-11,4.3383854914524176e-11,2.8077472288349736e-11,1.5999242736946615e-11,9.623268481001231e-12,5.468325917133425e-12,2.7996937294653406e-12,1.4402457824516586e-12,7.099289691649905e-13,3.447396913042753e-13,1.5437941511203067e-13,7.019869657036228e-14,5.192582445240012e-09,4.233823154808491e-09,3.1546112269525926e-09,2.5817645031077057e-09,1.9066606899101534e-09,1.5815884024205396e-09,1.1243536190289929e-09,9.277321328477783e-10,6.5189159209512e-10,4.999275534105538e-10,3.968404920560852e-10,2.6272387284526543e-10,1.9418655934905046e-10,1.4904742758890086e-10,1.0002133339353018e-10,6.965311755391906e-11,4.3643885527655854e-11,2.490972791845538e-11,1.468816652237371e-11
0.0,41,41.0,0.0,30.0,0.0,0.0,0.0,0.0,-13.0,0.0,2.0,0.0,0.0,0.0,7.091796976899991e-10,6.444979165995438e-10,5.867012185883197e-10,5.438855106000815e-10,4.896057047528934e-10,4.4236433835740563e-10,3.8879737933841573e-10,3.5488217693566094e-10,3.045981580271145e-10,2.539037163754884e-10,1.9997831020209275e-10,1.5957922685599425e-10,1.2079722686697922e-10,8.88811627570353e-11,6.420900098369246e-11,4.1664922257973166e-11,2.6161878287104996e-11,1.6163932224913692e-11,9.050472037800351e-12,4.896766649044229e-12,2.6623521865582184e-12,1.3256547047357667e-12,6.606280272481769e-13,3.307270056422098e-13,1.6330079141942127e-13,6.985223737073593e-14,5.4295110716090224e-09,4.176917216832791e-09,3.2746384647316356e-09,2.5850599383973093e-09,1.945009403157703e-09,1.6093347433057437e-09,1.1943879997969803e-09,8.857474309192891e-10,6.77944730162229e-10,4.992010450108376e-10,3.882720163911307e-10,2.975419061344366e-10,2.0896209147259625e-10,1.4473657632877715e-10,1.0653379724650019e-10,6.888499402058476e-11,4.231550086257816e-11,2.5756301154918053e-11,1.473813770565638e-11
0.0,42,42.0,0.0,30.0,0.0,0.0,0.0,0.0,-13.0,0.0,2.0,0.0,0.0,0.0,7.232347760380424e-10,6.366182398977055e-10,6.194679843508763e-10,5.662217369552166e-10,5.054844795916109e-10,4.5515064115262235e-10,3.938053635748528e-10,3.6901462070228105e-10,3.0199897014695376e-10,2.549025389093694e-10,2.0160307505009626e-10,1.6290377185368592e-10,1.1868262976937155e-10,9.176224904264894e-11,6.533665735150799e-11,4.3120409377572076e-11,2.5753170472696273e-11,1.4711181633691038e-11,9.359572315764401e-12,5.113067706803929e-12,2.668349060129312e-12,1.3377566576415493e-12,6.659772165123987e-13,3.1711025049338097e-13,1.5666240657960884e-13,6.804863171914198e-14,5.472994700796726e-09,4.097516186247923e-09,3.4547284150670775e-09,2.6568614157186608e-09,2.080796873062577e-09,1.5778749222386184e-09,1.1939161962124886e-09,8.702642091132943e-10,7.047946005139307e-10,5.08655939086505e-10,3.797917715769245e-10,2.930002734284147e-10,2.1112789967540735e-10,1.47319204682059e-10,1.047779171945012e-10,7.049346868467164e-11,4.3349111377195395e-11,2.470366789157869e-11,1.4798509336547643e-11
0.0,43,43.0,0.0,30.0,0.0,0.0,0.0,0.0,-13.0,0.0,2.0,0.0,0.0,0.0,6.817575384532664e-10,6.7826940639196e-10,6.027478132845361e-10,5.594464161303073e-10,5.145540556818932e-10,4.76891642354763e-10,3.84599239679469e-10,3.8053441102956237e-10,3.09391850142679e-10,2.376035869530622e-10,1.9560691662441025e-10,1.5881129218539738e-10,1.198587742773886e-10,9.061220702121908e-11,6.063324896148875e-11,3.882955244721118e-11,2.645198262719799e-11,1.5835889455402466e-11,8.550912744501184e-12,4.904175623469245e-12,2.522646026299135e-12,1.2567922307236397e-12,6.18167682459187e-13,2.917537051361144e-13,1.3194748661133645e-13,6.437634606796986e-14,5.323982796198621e-09,4.112835429579755e-09,3.1013467891543367e-09,2.441719092782252e-09,2.081587470104423e-09,1.5649924501106827e-09,1.1345238133323448e-09,9.07897365403511e-10,6.687769410262001e-10,5.051408050505435e-10,3.735775037053325e-10,2.951508260160381e-10,2.0914698973331165e-10,1.5083761751686293e-10,1.0431322440434374e-10,6.971376904090026e-11,4.5016690093115035e-11,2.6285266399771987e-11,1.465010966986478e-11
0.0,44,44.0,0.0,30.0,0.0,0.0,0.0,0.0,-13.0,0.0,2.0,0.0,0.0,0.0,6.807924782066035e-10,6.473873260026337e-10,6.247883691669844e-10,5.651122362328294e-10,5.344699827473655e-10,4.820683985134372e-10,4.099411025758735e-10,3.5791189062949675e-10,2.9875375692078737e-10,2.54700552810878e-10,1.9995414935606843e-10,1.58113899180671e-10,1.2384795336617548e-10,8.694632236577056e-11,6.06840208743902e-11,4.187104311555665e-11,2.5418503729286074e-11,1.5657729562318445e-11,8.448716698734129e-12,4.742811215110561e-12,2.347582715746424e-12,1.2078738388327487e-12,5.897493108257361e-13,2.739081726444278e-13,1.3755536127701889e-13,5.837829499435011e-14,5.5972243511521716e-09,4.1716872029042365e-09,3.467503328218021e-09,2.435085234891663e-09,2.0600935871922646e-09,1.5108864687664265e-09,1.1866081657549093e-09,8.924601012884253e-10,6.856988934532667e-10,4.980693265140114e-10,3.640435342486905e-10,3.075935639712442e-10,2.2347106409439408e-10,1.5720525443629885e-10,1.0768844465558721e-10,6.91602583071252e-11,4.220268166759362e-11,2.568455322758883e-11,1.4582788669369783e-11
0.0,45,45.0,0.0,30.0,0.0,0.0,0.0,0.0,-13.0,0.0,2.0,0.0,0.0,0.0,6.892369373019237e-10,6.565953454671522e-10,6.120365277962742e-10,5.356940393081968e-10,5.128372333516083e-10,4.6060158798859246e-10,4.117663400437092e-10,3.925943248601997e-10,2.957547180940168e-10,2.6190860735790245e-10,1.9409987250923574e-10,1.64117292374659e-10,1.1935080961497844e-10,9.058075436094442e-11,5.997355754561439e-11,3.990754444913474e-11,2.426469030548699e-11,1.5255538596331183e-11,7.944313415098401e-12,4.482287554258451e-12,2.3945797000627647e-12,1.1061519621942798e-12,5.518514207651262e-13,2.702202129824259e-13,1.2961753252001534e-13,5.5897757941682164e-14,5.429259445823605e-09,4.361447010662017e-09,3.2574698491924193e-09,2.58735356644075e-09,1.97426273768029e-09,1.5628847938724685e-09,1.1462057216907769e-09,8.84304429408136e-10,6.790370291160964e-10,5.31851170185422e-10,4.3154547812177997e-10,2.886506573838449e-10,2.2214989565848995e-10,1.5898704440297777e-10,1.0421386447594576e-10,7.176936687205233e-11,4.413189254567494e-11,2.5115149066263834e-11,1.3207446053923907e-11
0.0,46,46.0,0.0,30.0,0.0,0.0,0.0,0.0,-13.0,0.0,2.0,0.0,0.0,0.0,7.16586976550061e-10,6.452528838979706e-10,6.253634075640924e-10,5.883664594634703e-10,5.436693844004077e-10,4.678200820413365e-10,4.027383644550001e-10,3.5016469404016623e-10,3.2243725792522084e-10,2.4240379884136453e-10,2.0114001822052515e-10,1.6563244624652531e-10,1.1938399352061626e-10,8.721302071278027e-11,5.6482388888121326e-11,3.9087954869350577e-11,2.4581457371202875e-11,1.3854969744831657e-11,8.504610204140742e-12,4.27867306939792e-12,2.202112404038059e-12,1.0757311197410643e-12,5.342746662764161e-13,2.6288746270509167e-13,1.1621011051247356e-13,4.884914707791406e-14,5.415874038612057e-09,4.285231596855701e-09,3.151305336676735e-09,2.518922294233542e-09,1.9660871567991654e-09,1.537694686160051e-09,1.234398259193928e-09,9.000423153325943e-10,6.834458470963424e-10,5.113304566040144e-10,4.0262272688809775e-10,3.0549281849830633e-10,2.2698435810417344e-10,1.4274159149286767e-10,1.0672508952510511e-10,7.378114788226294e-11,4.321960230112198e-11,2.501743728302852e-11,1.39183856327386e-11
0.0,47,47.0,0.0,30.0,0.0,0.0,0.0,0.0,-13.0,0.0,2.0,0.0,0.0,0.0,7.011568480043716e-10,6.979643854233115e-10,6.197729628342701e-10,5.861937785352188e-10,5.29404571058439e-10,4.634313665091394e-10,4.0793817250344853e-10,3.682656640665409e-10,3.067074819211258e-10,2.53964081106689e-10,2.0356047796117354e-10,1.5728857637791174e-10,1.2257226255819698e-10,8.375849397453536e-11,5.551154235380833e-11,3.840978681468075e-11,2.3633485450511554e-11,1.3503349130411788e-11,7.38262302246453e-12,4.131949604888127e-12,2.1422429465320344e-12,1.0381851418827493e-12,5.078945176699849e-13,2.2397115279527312e-13,1.0725846882123068e-13,4.916106314583502e-14,5.479398078737733e-09,4.104686561476628e-09,3.3437682379297294e-09,2.5008084058421803e-09,2.0065875025690363e-09,1.5642329557354931e-09,1.1706624524566411e-09,9.220556088371016e-10,7.122115156372875e-10,5.402049704380903e-10,4.1062468454782493e-10,3.1266373017841624e-10,2.2901814831342715e-10,1.643219411982337e-10,1.0777353228025567e-10,7.090020830437501e-11,4.2334418482242034e-11,2.4773355050560665e-11,1.3258082708347853e-11
0.0,48,48.0,0.0,30.0,0.0,0.0,0.0,0.0,-13.0,0.0,2.0,0.0,0.0,0.0,7.382798534279841e-10,6.643918893673406e-10,6.29960991328554e-10,5.840744840176793e-10,5.355240055861326e-10,4.840698868390947e-10,4.3581002460984473e-10,3.6514533866790286e-10,3.0893733137239543e-10,2.479791713649643e-10,2.0460912442604895e-10,1.6153010805955374e-10,1.2033168525336723e-10,8.662393185518085e-11,5.526361855658528e-11,3.782742101779528e-11,2.2103083068036025e-11,1.3151629712387737e-11,7.535103694512839e-12,4.184368236142764e-12,2.0057888685629195e-12,1.0262013779622323e-12,4.700941988484402e-13,2.237806149175777e-13,1.0698516279986976e-13,4.5776806522558404e-14,5.3720032665932235e-09,4.339326536270699e-09,3.3071699017308583e-09,2.5588171836317728e-09,1.988795729274794e-09,1.564035962877189e-09,1.173014419894889e-09,9.35795244137211e-10,6.794342194051328e-10,5.3669344542041e-10,4.160022717630064e-10,3.0559769646241585e-10,2.3426963657065725e-10,1.6034202332169413e-10,1.1020224160939514e-10,7.038884868190426e-11,4.28264186290843e-11,2.468432908254356e-11,1.3365427006089586e-11
0.0,49,49.0,0.0,30.0,0.0,0.0,0.0,0.0,-13.0,0.0,2.0,0.0,0.0,0.0,7.30695205308215e-10,6.798930404149498e-10,6.366528723813188e-10,5.992064616427158e-10,5.711025103890133e-10,4.691106509745486e-10,4.2528744843843e-10,3.5981578963495105e-10,3.0402908760758167e-10,2.65459511758708e-10,2.073560952312203e-10,1.5616592709781925e-10,1.1138668154352658e-10,8.160457737102329e-11,5.3260643504776424e-11,3.550382136291745e-11,2.1018196118281168e-11,1.270968794605762e-11,7.1343815574801505e-12,3.5494142610514625e-12,1.847965138713103e-12,9.401332680776359e-13,4.1270698729707564e-13,1.992745170340256e-13,9.402060203672753e-14,4.130421778884446e-14,5.550811366411391e-09,3.992264675279356e-09,3.2947249963914274e-09,2.5581748595655716e-09,1.898408180987953e-09,1.5421946973944357e-09,1.210342779117416e-09,9.60705414134631e-10,7.279303656874619e-10,5.566397414943808e-10,4.3467600090953033e-10,3.1686924879160884e-10,2.3038737932527046e-10,1.6336987265723822e-10,1.1419985641172123e-10,7.15991396522281e-11,4.390859894794172e-11,2.294180595839815e-11,1.3229196499068185e-11
0.0,50,50.0,0.0,30.0,0.0,0.0,0.0,0.0,-13.0,0.0,2.0,0.0,0.0,0.0,7.149483547260494e-10,6.733354153052312e-10,6.450170674402407e-10,5.91005517304437e-10,5.865995691046872e-10,5.038644143973208e-10,4.414601057370737e-10,3.770140495507876e-10,3.257834889671089e-10,2.641792312252138e-10,2.2030595322880767e-10,1.5465567875462618e-10,1.2115630000896272e-10,8.455454132969396e-11,5.4095153659123374e-11,3.3386363040589243e-11,2.2286469796670303e-11,1.2867960459058287e-11,6.878536540065208e-12,3.3836258675031626e-12,1.7035022824982691e-12,8.61598024134584e-13,4.278303576956795e-13,2.003524585548545e-13,9.16718790119866e-14,3.9285158268764465e-14,5.473885991985819e-09,4.364957493982961e-09,3.2307813232363412e-09,2.445694324427426e-09,2.1100048674307286e-09,1.5330891311433321e-09,1.1395711623671233e-09,9.41001010577422e-10,6.96782459582617e-10,5.727133151859501e-10,4.2964279520809545e-10,3.0283022844478735e-10,2.4214866875778297e-10,1.722628928674932e-10,1.0888356550336396e-10,6.935705485096761e-11,4.3295756833386575e-11,2.4199244910080128e-11,1.3184968115702048e-11
0.0,51,51.0,0.0,30.0,0.0,0.0,0.0,0.0,-13.0,0.0,2.0,0.0,0.0,0.0,7.499083693799409e-10,6.934763972585768e-10,6.520932854666597e-10,6.119969113421516e-10,5.461292125269443e-10,5.14500659291286e-10,4.329284363298873e-10,3.9510400399370213e-10,3.2116068472645815e-10,2.6094812675622406e-10,2.0521699280058783e-10,1.5562423524496718e-10,1.1809600471815943e-10,8.27744718650317e-11,4.9783430920596114e-11,3.41835177100668e-11,1.9067519719425614e-11,1.1609118289932755e-11,6.259673724223307e-12,3.188953630896685e-12,1.6194607234528476e-12,8.220461435771299e-13,4.0802802014592367e-13,1.7937920051165022e-13,8.647092011653462e-14,3.7564973754059404e-14,5.505438090554114e-09,4.4717385872054115e-09,3.2138638170571416e-09,2.469942568909819e-09,1.921042421394172e-09,1.5571667417581592e-09,1.1917830562878187e-09,9.426535902218493e-10,7.171138095492809e-10,5.520047736941521e-10,4.370356346529786e-10,3.427070686269209e-10,2.4341320118130576e-10,1.6492340810869984e-10,1.1633283210798175e-10,6.939331677468856e-11,4.280687421383269e-11,2.2665031886078294e-11,1.2758338615392318e-11
0.0,52,52.0,0.0,30.0,0.0,0.0,0.0,0.0,-13.0,0.0,2.0,0.0,0.0,0.0,7.612251271664296e-10,7.383795651685753e-10,6.51631387482696e-10,6.200600000743401e-10,5.69788030942946e-10,5.175161403659483e-10,4.535714968648612e-10,3.648888056210639e-10,3.1621339416173213e-10,2.6924916693348756e-10,2.1325978784924543e-10,1.5218865660722715e-10,1.1587565138077883e-10,7.965361405834889e-11,5.394852946705677e-11,3.1403928057068595e-11,1.9714215616755393e-11,1.0691416827667073e-11,5.990675579956087e-12,3.0420605808586856e-12,1.6108076442617687e-12,7.258534929984092e-13,3.6831170951012624e-13,1.7209404570758185e-13,7.954812886007708e-14,3.160689425461742e-14,5.319427495778567e-09,4.11803429245791e-09,3.284447255423455e-09,2.6931522844066188e-09,1.918294776072133e-09,1.5547635902828792e-09,1.2405667006688725e-09,9.686138406008234e-10,7.119747130136105e-10,5.660196218978527e-10,4.694154554139999e-10,3.5074783013025355e-10,2.526319693268618e-10,1.7446853320739914e-10,1.0737567371372085e-10,6.864631043167223e-11,4.1320955872678313e-11,2.1353068512221852e-11,1.1928128907095491e-11
0.0,53,53.0,0.0,30.0,0.0,0.0,0.0,0.0,-13.0,0.0,2.0,0.0,0.0,0.0,7.278958177365722e-10,7.074006441337891e-10,6.692025437627886e-10,6.054922913747436e-10,5.846917131425274e-10,5.072799720492794e-10,4.460626590829595e-10,3.6924615482048617e-10,3.2987492519539116e-10,2.7677232096067765e-10,2.1208143869511856e-10,1.5570202118525877e-10,1.0858771687222747e-10,7.6708652708857e-11,4.99369324092462e-11,2.995052085184851e-11,1.8109711102767873e-11,1.0438027785104521e-11,5.904911247057167e-12,2.9068854946565237e-12,1.4869217996118925e-12,6.699570771945152e-13,3.2482506865807715e-13,1.530893246586126e-13,7.34282803782921e-14,3.071792372625437e-14,5.232741744637421e-09,4.323096300246257e-09,3.1665454073379926e-09,2.515777149363292e-09,2.0176578684042107e-09,1.5298979382759062e-09,1.2488464944993215e-09,9.996469468751439e-10,7.570247856193161e-10,6.183769647468679e-10,4.648948902769796e-10,3.500889915696045e-10,2.433845429149811e-10,1.7052286386690167e-10,1.1123197199119328e-10,6.834497942741423e-11,4.3083370425137426e-11,2.295091630669229e-11,1.1261096650583886e-11
0.0,54,54.0,0.0,30.0,0.0,0.0,0.0,0.0,-13.0,0.0,2.0,0.0,0.0,0.0,7.706634650120444e-10,7.52688325071045e-10,6.847464194240137e-10,6.193261381769224e-10,5.793484521799673e-10,5.1243486813672e-10,4.6276718111747515e-10,4.082846965571263e-10,3.3333136669454913e-10,2.715355586355797e-10,2.119035372095612e-10,1.4435499195558517e-10,1.1081107900810364e-10,7.732116851697829e-11,4.763689310692193e-11,2.917931004991051e-11,1.7290435360408572e-11,1.0394472558431561e-11,4.962265037748388e-12,2.7789157036443853e-12,1.3112391362545878e-12,6.74429788905413e-13,3.2086487819230616e-13,1.4455694144325224e-13,6.822236537474008e-14,2.639037889730209e-14,5.647644717169181e-09,4.240938673786224e-09,3.24951478073945e-09,2.5215067077401764e-09,1.9458604153973875e-09,1.6069818229708605e-09,1.2256538613572915e-09,9.033526539721168e-10,7.822002244949256e-10,6.032555989962361e-10,4.901125403434884e-10,3.75331453487486e-10,2.581576098730176e-10,1.7326823257271677e-10,1.1605677061587653e-10,7.126184038663788e-11,3.969170591346229e-11,2.1958465979193707e-11,1.1447190970160163e-11
