Line_number,Fiducial,Easting,Northing,Height,Elevation,tx_pitch,tx_roll,tx_yaw,txrx_dx,txrx_dy,txrx_dz,rx_pitch,rx_roll,rx_yaw,S0Z_time_3.834e-04,S0Z_time_3.924e-04,S0Z_time_4.039e-04,S0Z_time_4.184e-04,S0Z_time_4.364e-04,S0Z_time_4.589e-04,S0Z_time_4.869e-04,S0Z_time_5.224e-04,S0Z_time_5.679e-04,S0Z_time_6.249e-04,S0Z_time_6.969e-04,S0Z_time_7.879e-04,S0Z_time_9.019e-04,S0Z_time_1.046e-03,S0Z_time_1.227e-03,S0Z_time_1.456e-03,S0Z_time_1.744e-03,S0Z_time_2.109e-03,S0Z_time_2.567e-03,S0Z_time_3.145e-03,S0Z_time_3.864e-03,S0Z_time_4.745e-03,S0Z_time_5.821e-03,S0Z_time_7.140e-03,S0Z_time_8.754e-03,S0Z_time_1.073e-02,S1Z_time_2.057e-05,S1Z_time_2.607e-05,S1Z_time_3.307e-05,S1Z_time_4.206e-05,S1Z_time_5.356e-05,S1Z_time_6.807e-05,S1Z_time_8.607e-05,S1Z_time_1.086e-04,S1Z_time_1.366e-04,S1Z_time_1.721e-04,S1Z_time_2.176e-04,S1Z_time_2.746e-04,S1Z_time_3.466e-04,S1Z_time_4.376e-04,S1Z_time_5.516e-04,S1Z_time_6.956e-04,S1Z_time_8.771e-04,S1Z_time_1.106e-03,S1Z_time_1.394e-03
0.0,0,0.0,0.0,30.0,0.0,0.0,0.0,0.0,-13.0,0.0,2.0,0.0,0.0,0.0,3.376347987545656e-11,2.9312693843544976e-11,2.5427344505826326e-11,2.2516672165845633e-11,1.8726913425562726e-11,1.5769325697766964e-11,1.3761843829599748e-11,1.1835895129731789e-11,1.0622619482171679e-11,9.151420413569991e-12,7.408138442785424e-12,6.197278330830136e-12,4.640704488061765e-12,3.942405032328442e-12,3.481491838660603e-12,2.649173167496602e-12,1.889562646554064e-12,1.365474991633891e-12,1.0767937862295132e-12,7.884774766362669e-13,5.386496826789761e-13,3.6672613776388383e-13,2.556560645619611e-13,1.662173711769579e-13,1.1009832404222551e-13,6.681031902197553e-14,3.4505190773554757e-09,1.6188715469610043e-09,8.134802115021389e-10,4.5370135444662194e-10,2.6580644026899055e-10,1.5483984720431963e-10,9.590603777657962e-11,5.766152551735433e-11,3.151491828510764e-11,2.1082653436086736e-11,1.2980016899785192e-11,8.591528633484433e-12,5.794248702685602e-12,4.164944443098418e-12,2.8583865470313036e-12,2.0013700113677497e-12,1.359811757075712e-12,9.432648440555573e-13,6.029060261393552e-13
0.0,1,1.0,0.0,30.0,0.0,0.0,0.0,0.0,-13.0,0.0,2.0,0.0,0.0,0.0,3.4010376866466675e-11,3.087454942364975e-11,2.851495339874493e-11,2.3981394263221787e-11,2.056344338131371e-11,1.768473510581686e-11,1.4011492348040486e-11,1.1759974069121013e-11,9.606957184499796e-12,8.5338353401736e-12,6.6864035922102745e-12,5.475731525075538e-12,4.468480714458166e-12,3.740700336419289e-12,2.91921910081555e-12,2.2169297960588e-12,1.5653220852557841e-12,1.2830377940883713e-12,9.517119323662244e-13,6.818612205722764e-13,4.682463944191049e-13,3.2975489230749277e-13,2.1330883502883302e-13,1.508921589841945e-13,9.49538341109912e-14,6.056774032380597e-14,3.3614869349597753e-09,1.4454108745840054e-09,8.151415618936674e-10,4.4816769968125025e-10,2.8179016432843215e-10,1.777822154622764e-10,1.127631187968953e-10,7.388535298476415e-11,4.2625303195607e-11,2.6752184574372454e-11,1.515302792871292e-11,9.030103281331618e-12,6.068553005760687e-12,4.103298101813687e-12,2.704137841259897e-12,1.829809470745136e-12,1.2662273834104252e-12,8.196266149065101e-13,5.289589648742984e-13
0.0,2,2.0,0.0,30.0,0.0,0.0,0.0,0.0,-13.0,0.0,2.0,0.0,0.0,0.0,4.242301164774466e-11,3.5671062033915966e-11,3.0354316806130644e-11,2.6329940816625438e-11,2.2775610765396418e-11,1.8764629403125484e-11,1.4594544769616194e-11,1.1844733781295653e-11,9.44475035554687e-12,7.740126692622936e-12,5.941093349007427e-12,5.241363694866987e-12,4.030605526957808e-12,3.231952148239823e-12,2.508125884233133e-12,1.9650591865898586e-12,1.5865813995741208e-12,1.2082753996604266e-12,8.781612894724908e-13,6.394156721122214e-13,4.252781818351399e-13,2.8942164622598067e-13,1.9910032962463308e-13,1.3867568141832608e-13,8.818502046818261e-14,5.677012113728618e-14,3.58135536883898e-09,1.5467699465190098e-09,8.670280813209492e-10,4.450614175914014e-10,2.81725611479781e-10,1.7652261001689252e-10,1.2025546299186885e-10,8.06618859418649e-11,4.8792219498715613e-11,3.029205915436309e-11,1.696394558307816e-11,1.092431882813798e-11,6.229430073326778e-12,3.843459257726387e-12,2.6222209422445168e-12,1.7254856416998844e-12,1.0880912016263483e-12,7.818055734459494e-13,4.931942693902316e-13
0.0,3,3.0,0.0,30.0,0.0,0.0,0.0,0.0,-13.0,0.0,2.0,0.0,0.0,0.0,4.472846537289965e-11,4.023145299376588e-11,3.455762677927542e-11,2.984025964802873e-11,2.451834548136091e-11,2.0014377971718092e-11,1.610101876843058e-11,1.2930832539726856e-11,1.0269801324539262e-11,7.856144418573502e-12,6.080092511451217e-12,4.879067645744194e-12,3.833530061014786e-12,2.896066904083704e-12,2.432932029256303e-12,1.7802847722209517e-12,1.344045097729105e-12,1.0227076791535827e-12,7.701301060356998e-13,5.364928150316813e-13,3.9601420088935057e-13,2.7864299604490434e-13,1.77648276024792e-13,1.215339083325967e-13,8.292656285748121e-14,5.146735128377888e-14,3.530921185696768e-09,1.6699256796787855e-09,8.026624206034975e-10,4.670325089691551e-10,2.8043810753351753e-10,1.8993591672682694e-10,1.2593852262336558e-10,8.303349577794261e-11,5.5218589803665604e-11,3.416523360170145e-11,2.1542614610073245e-11,1.2668854076488161e-11,6.804815249898571e-12,4.409567422008625e-12,2.605999265481126e-12,1.6744959129174595e-12,1.1060252379982898e-12,7.075209431010005e-13,4.692635561210449e-13
0.0,4,4.0,0.0,30.0,0.0,0.0,0.0,0.0,-13.0,0.0,2.0,0.0,0.0,0.0,4.732310370726423e-11,4.331585516225096e-11,3.6183965325666034e-11,3.175538726353778e-11,2.7464066690128145e-11,2.082090818968171e-11,1.838378952795264e-11,1.4402245427669156e-11,1.1221243299171711e-11,8.017324809380392e-12,6.401481690360258e-12,4.797989046164682e-12,3.616756290050683e-12,2.8904456460648268e-12,2.11457393852252e-12,1.703475227226268e-12,1.2574035761821876e-12,9.232254120571236e-13,6.878991402356949e-13,5.199757727989006e-13,3.482600477042303e-13,2.29912795648448e-13,1.716081301982989e-13,1.159363083203919e-13,7.502955664448217e-14,4.9516765013582375e-14,3.344730810495576e-09,1.584653923393254e-09,7.789347034032359e-10,4.757336149230189e-10,2.8709420121496204e-10,1.7944863599749894e-10,1.2717392060853579e-10,8.852560176941796e-11,6.356032284555854e-11,3.959024439297546e-11,2.495090329117458e-11,1.3950260523611002e-11,8.938824008517692e-12,4.629573091491024e-12,2.5926500956609598e-12,1.7026784934127467e-12,1.0258657699520398e-12,6.389224076852572e-13,4.303659920187021e-13
0.0,5,5.0,0.0,30.0,0.0,0.0,0.0,0.0,-13.0,0.0,2.0,0.0,0.0,0.0,5.1075360927533586e-11,4.620029655565033e-11,3.827993353561348e-11,3.287902979537334e-11,3.0283922798794294e-11,2.4445851965768623e-11,1.896036953433857e-11,1.5707422454751416e-11,1.2094374426743578e-11,9.072636467115495e-12,6.500832502330413e-12,4.808775312898841e-12,3.5235563137004296e-12,2.5214923108463094e-12,2.0059762134665914e-12,1.5483824286626139e-12,1.1992572311292816e-12,8.568280704666261e-13,6.519803085388152e-13,4.3084937241110767e-13,3.179600537191764e-13,2.1876708454471162e-13,1.5724286025982434e-13,1.0819309661274517e-13,6.652731627363715e-14,4.305418495572929e-14,3.3345617000825884e-09,1.545106547592637e-09,8.181518014575593e-10,5.036158647691313e-10,3.025268066033674e-10,1.8830570947616876e-10,1.316808341088831e-10,9.231636024796003e-11,6.625339503710159e-11,4.4247043142807364e-11,2.730392452685575e-11,1.623642695854655e-11,9.722633572006041e-12,5.2592328073650615e-12,3.0036371520713324e-12,1.7045100947832005e-12,1.0588450338326746e-12,5.801585729781819e-13,4.111636503923358e-13
0.0,6,6.0,0.0,30.0,0.0,0.0,0.0,0.0,-13.0,0.0,2.0,0.0,0.0,0.0,5.3286518938218776e-11,4.830026411495616e-11,4.249530885724059e-11,3.630329009177707e-11,3.013800663403103e-11,2.517681505110848e-11,2.153232501518493e-11,1.6927729664397825e-11,1.217675807813372e-11,8.980854426398047e-12,6.488051858142919e-12,5.2555810562364635e-12,3.718535606760656e-12,2.6081001585533463e-12,1.9627854464500584e-12,1.4487853145086286e-12,1.0130352082857567e-12,7.968050779378187e-13,5.46202839469651e-13,4.068396062072346e-13,2.905545775561565e-13,2.0335708911205795e-13,1.3872206607030768e-13,9.308851070611821e-14,6.46039722850961e-14,4.135301834556852e-14,3.3357377493233563e-09,1.5517166450641544e-09,7.753398632042897e-10,4.476138855535323e-10,2.9105765894166836e-10,1.8359083019948883e-10,1.3460704324211105e-10,9.41950765167e-11,6.486641664305431e-11,4.282854108234812e-11,2.941835219023398e-11,1.846900180800939e-11,1.0800523752956695e-11,6.017049204329716e-12,3.4130854350987744e-12,1.7706312602966657e-12,1.0567028597786897e-12,6.466926129186413e-13,3.671364378336239e-13
0.0,7,7.0,0.0,30.0,0.0,0.0,0.0,0.0,-13.0,0.0,2.0,0.0,0.0,0.0,5.4190893807138635e-11,5.000962624177579e-11,4.5635118110184784e-11,3.8570903460009724e-11,3.453181202199062e-11,2.7096269127648386e-11,2.128211069750686e-11,1.7727605294984423e-11,1.3935846388521218e-11,1.0696189433771348e-11,7.39137893799854e-12,5.310366764545489e-12,3.6338209553862004e-12,2.679958473755689e-12,1.863208029982249e-12,1.439520194817514e-12,9.921258139837483e-13,7.059521886820194e-13,5.432367714360932e-13,3.8044505361505764e-13,2.719332499727458e-13,1.9122280741538676e-13,1.2826061433406975e-13,8.211953796007867e-14,6.040220219308516e-14,3.7518127352098634e-14,3.435965919535818e-09,1.5112616894221855e-09,7.928633312252467e-10,4.3834543882078636e-10,2.881946868090329e-10,1.9367799599141576e-10,1.3832559158566246e-10,1.0304441430559132e-10,6.96689589589803e-11,4.646517764019629e-11,2.908954584154284e-11,1.924837106291932e-11,1.1449314696965722e-11,6.731324998124339e-12,3.87670931212829e-12,2.120666217613219e-12,1.050130939292852e-12,6.123365299867503e-13,3.6982783756617174e-13
0.0,8,8.0,0.0,30.0,0.0,0.0,0.0,0.0,-13.0,0.0,2.0,0.0,0.0,0.0,5.678620859236674e-11,5.322647890302229e-11,4.5305093695823815e-11,3.994153998688894e-11,3.627081501733991e-11,2.898027410257538e-11,2.415623210730271e-11,1.9455777415640052e-11,1.463526828104872e-11,1.1279110227581016e-11,7.808054452156702e-12,5.046545013408284e-12,3.825656952221365e-12,2.676428239000249e-12,1.8660339427936866e-12,1.271782113940996e-12,9.861428595710525e-13,6.635112070773525e-13,5.139415277686583e-13,3.4866800855637027e-13,2.4901757926770094e-13,1.730865956219777e-13,1.208499591975991e-13,7.829614821966919e-14,5.329526367472111e-14,3.599378751169748e-14,3.2139006690160584e-09,1.4781667143655184e-09,7.887271795255742e-10,4.585836051827418e-10,2.87945122864773e-10,1.908022951043337e-10,1.4097491506705628e-10,9.482465601050963e-11,6.711851108157024e-11,4.7978318480235754e-11,3.0916497733567893e-11,2.0152586848801065e-11,1.2667178475526538e-11,7.355063925993341e-12,4.143218129457291e-12,2.1224888302037285e-12,1.2696578605530235e-12,5.890095639943204e-13,3.6981447486588943e-13
0.0,9,9.0,0.0,30.0,0.0,0.0,0.0,0.0,-13.0,0.0,2.0,0.0,0.0,0.0,5.7998378305642164e-11,5.229181235156919e-11,4.655526358626845e-11,4.168215211025781e-11,3.530978026833278e-11,3.0912467086520774e-11,2.4725290917805008e-11,2.0177586409403972e-11,1.603681704814869e-11,1.1789765405153438e-11,8.78444570638854e-12,5.906934389576661e-12,3.9765073324545214e-12,2.936811133012111e-12,1.9047965750121058e-12,1.2416698388944918e-12,9.198105749956377e-13,6.466786109115991e-13,4.733940479658785e-13,3.3974040328867933e-13,2.3503145653579337e-13,1.6204476940309894e-13,1.0994768627225912e-13,7.4570303549664e-14,4.8219141937599624e-14,3.331467648558694e-14,3.4614309893068328e-09,1.5563072170084606e-09,8.062653995950928e-10,4.608727337204979e-10,2.8328614258714243e-10,2.086162537451103e-10,1.4435424340424712e-10,9.889840443319164e-11,7.289414384715223e-11,4.6194307352942635e-11,3.2999951975293544e-11,2.22302467788554e-11,1.4013660029952024e-11,8.439319961136826e-12,4.742015576011883e-12,2.4672597190243875e-12,1.3816717208179223e-12,6.857281714143269e-13,3.6817243104580476e-13
0.0,10,10.0,0.0,30.0,0.0,0.0,0.0,0.0,-13.0,0.0,2.0,0.0,0.0,0.0,5.7559329570920395e-11,5.6268945902116554e-11,4.823980811053521e-11,4.2609549255793934e-11,3.710793136701187e-11,3.2481444272034365e-11,2.348993651020107e-11,2.1224856798101835e-11,1.6384467381664507e-11,1.2557811300609146e-11,9.219123565764902e-12,6.368562792480926e-12,4.2909884124135075e-12,2.943663481406095e-12,2.0278384192527478e-12,1.2429795750943668e-12,9.52249373397094e-13,6.319692478834569e-13,4.4398506135574384e-13,2.9311555191648334e-13,2.0865994771033954e-13,1.3905059314870229e-13,9.995733046513203e-14,6.72935859523561e-14,4.5406897113270994e-14,3.172937965306267e-14,3.39009389785114e-09,1.447757078952191e-09,7.732717828968052e-10,4.5397174488000003e-10,2.93349555573991e-10,1.9789763876961254e-10,1.4897937823527537e-10,9.825602063669248e-11,6.959542658864626e-11,4.972731389072399e-11,3.4056517394222256e-11,2.397203611997187e-11,1.4401216865751007e-11,8.74642472597198e-12,4.8071557125494045e-12,2.6936647892418663e-12,1.474604183049243e-12,7.712797393217489e-13,3.8907404736975073e-13
0.0,11,11.0,0.0,30.0,0.0,0.0,0.0,0.0,-13.0,0.0,2.0,0.0,0.0,0.0,6.07807968978843e-11,5.882977451591987e-11,4.922845392989773e-11,4.3154393452048295e-11,3.755994304457478e-11,3.4318238553937894e-11,2.5431299341590005e-11,2.0424639862441188e-11,1.6782942429409933e-11,1.3342253414032947e-11,9.449475225142653e-12,6.416115851578095e-12,4.362433440520698e-12,3.0882863534077982e-12,2.0726330345755267e-12,1.3081986352887714e-12,8.879957867557158e-13,5.688180120107529e-13,4.27279246202295e-13,2.741193424239938e-13,2.095139955044022e-13,1.3457411184576393e-13,1.007690290870316e-13,6.439313294001179e-14,3.886055435655203e-14,2.9894758011297127e-14,3.2152281329629684e-09,1.4942910447115015e-09,7.699304300070449e-10,4.830522802386631e-10,3.1008927863099774e-10,2.077434185873287e-10,1.4250042171084485e-10,1.0810926495280339e-10,7.764489599149623e-11,5.155352014932969e-11,3.564381167834909e-11,2.2392388961276182e-11,1.5136161638457045e-11,8.962031892779098e-12,5.2626247405518885e-12,2.949119667770181e-12,1.5343602355999953e-12,7.877884115186063e-13,4.3011331750572444e-13
0.0,12,12.0,0.0,30.0,0.0,0.0,0.0,0.0,-13.0,0.0,2.0,0.0,0.0,0.0,6.260168251665484e-11,5.853567568824045e-11,5.271030222704014e-11,4.3963525929579364e-11,4.127639903837374e-11,3.2197983364876666e-11,2.7485712999557197e-11,2.2099557834974182e-11,1.7897760488656466e-11,1.3185248483103985e-11,9.530960700850951e-12,7.246084789543539e-12,4.717879427983159e-12,3.4184129138197197e-12,2.143632858495498e-12,1.3758657444235191e-12,8.758049127905098e-13,5.831344507360966e-13,3.953062083487076e-13,2.8122657087332774e-13,1.8606570589017273e-13,1.288451183759616e-13,8.514953425196675e-14,6.145229708543874e-14,4.1902646062307024e-14,2.4613499819855058e-14,3.195582253758804e-09,1.4849924327887932e-09,7.893914768653019e-10,4.572424871881691e-10,3.0203755716032836e-10,2.0033955212401064e-10,1.4679517270798405e-10,1.0439824354488377e-10,7.214661384627524e-11,4.490963768350341e-11,3.614049931171543e-11,2.3012363217707088e-11,1.4524378966017355e-11,9.839413534460175e-12,5.638179847381726e-12,3.12458207659753e-12,1.6267352490491016e-12,8.568778523437242e-13,4.357358490289697e-13
0.0,13,13.0,0.0,30.0,0.0,0.0,0.0,0.0,-13.0,0.0,2.0,0.0,0.0,0.0,6.372724166383081e-11,5.895996507603449e-11,4.758077062927245e-11,4.4984890215352196e-11,4.018288572232782e-11,3.274326294644914e-11,2.7549384292766646e-11,2.1847425835702758e-11,1.844920490420807e-11,1.4102584428808268e-11,1.0832683105761364e-11,7.354206578164879e-12,5.260303207635752e-12,3.3878497986586154e-12,2.232858501014945e-12,1.4502091365766098e-12,9.172410342978423e-13,5.947246267824684e-13,4.0143204095000413e-13,2.4993843080681956e-13,1.7837712906635418e-13,1.1275738908504362e-13,8.130542183343163e-14,5.523191945520176e-14,3.902711565290746e-14,2.3394971844963295e-14,3.244598749245558e-09,1.4484599160423718e-09,7.916334776559188e-10,5.009469559425346e-10,3.137318083249688e-10,2.0951947893155035e-10,1.4813815329212807e-10,1.0669795405606596e-10,7.314925399741507e-11,4.9118882980175313e-11,3.496130838540815e-11,2.317948752398771e-11,1.5721552936852143e-11,9.526098837116082e-12,5.608920232308537e-12,3.349948409313635e-12,1.834976793868813e-12,9.643603093028639e-13,4.548061029408081e-13
0.0,14,14.0,0.0,30.0,0.0,0.0,0.0,0.0,-13.0,0.0,2.0,0.0,0.0,0.0,6.451967294689574e-11,5.827756561586921e-11,5.078381957527857e-11,4.4988077896787815e-11,3.897476945206314e-11,3.4818232902355074e-11,3.022666632047955e-11,2.3267456862416758e-11,1.8189079194461986e-11,1.4078914796956098e-11,1.0685087706289378e-11,7.5507150144262e-12,5.459000135253741e-12,3.652913043394337e-12,2.3134711370488817e-12,1.3565536148171825e-12,9.46409477976213e-13,5.883096823901082e-13,3.7396623276250623e-13,2.416470319919112e-13,1.6993367112264138e-13,1.091547922771041e-13,7.366323369144525e-14,4.9998039138991474e-14,3.6399018262455583e-14,2.3629419822670284e-14,3.1979907808473214e-09,1.428133351333813e-09,7.913871586068678e-10,4.665990961511068e-10,3.1621535511673246e-10,2.068889419845429e-10,1.5353688081420107e-10,1.0675814480626578e-10,7.737454079030119e-11,5.033528993261188e-11,3.477903751335346e-11,2.263308511093511e-11,1.5063979429580962e-11,9.98519811083621e-12,5.890924391026691e-12,3.578942301622693e-12,1.8821297375247234e-12,9.784614882597261e-13,5.007143100409214e-13
0.0,15,15.0,0.0,30.0,0.0,0.0,0.0,0.0,-13.0,0.0,2.0,0.0,0.0,0.0,6.477080751619813e-11,6.044335137849684e-11,5.37125838957789e-11,4.8752123805300675e-11,4.067807002540686e-11,3.371420383254165e-11,2.8388168103432623e-11,2.476646511158215e-11,1.9125874996011868e-11,1.5104909600356833e-11,1.099475037978511e-11,7.784705074550262e-12,5.910245437914314e-12,3.69589262858139e-12,2.3900706724206426e-12,1.541677598290725e-12,9.698743125379355e-13,6.124187517262431e-13,3.9316700898386466e-13,2.4337055050359796e-13,1.5467673898675829e-13,1.0939563288645466e-13,7.500463092020748e-14,4.9317943811443686e-14,3.3136098352935113e-14,2.0277500215907038e-14,3.0641617768771007e-09,1.5215091096831032e-09,8.039094186875841e-10,4.92375313674383e-10,3.13922952833601e-10,2.2121744324500823e-10,1.5564295074300527e-10,1.1036354819460232e-10,7.37756316261974e-11,5.291237545648173e-11,3.497697812330904e-11,2.47559932630504e-11,1.5869041653466058e-11,9.93943652172552e-12,6.234405078753494e-12,3.634374473179381e-12,1.9249648301800003e-12,1.111344524712742e-12,5.591849674380019e-13
0.0,16,16.0,0.0,30.0,0.0,0.0,0.0,0.0,-13.0,0.0,2.0,0.0,0.0,0.0,6.695525430134299e-11,5.7903894995210005e-11,5.674335572048794e-11,4.8265527755908664e-11,4.042624507454109e-11,3.559569622154758e-11,3.062680789658077e-11,2.392586845029678e-11,1.9338381113950075e-11,1.516532030948602e-11,1.1696155619304673e-11,8.181908057115416e-12,5.817302509463338e-12,4.0420958283026805e-12,2.5951257311288595e-12,1.6558173089845815e-12,9.844106515772577e-13,6.116365484581723e-13,3.8614676125592397e-13,2.511603152368704e-13,1.4894698705797532e-13,1.0439432913145788e-13,6.731100121274214e-14,4.688647614699579e-14,3.083792263500575e-14,1.824585188748562e-14,3.1570322751458924e-09,1.4214647207754424e-09,7.874589705402486e-10,4.806729739958462e-10,3.245540426807321e-10,2.2375225298556436e-10,1.5631883719164514e-10,1.1066970218448643e-10,7.760963592764204e-11,5.284161732148324e-11,3.799964866582349e-11,2.508529341337022e-11,1.583384013176648e-11,1.017475420513177e-11,6.048937578413143e-12,3.589108268679497e-12,2.2070729461373774e-12,1.0696221795027277e-12,6.049842477154137e-13
0.0,17,17.0,0.0,30.0,0.0,0.0,0.0,0.0,-13.0,0.0,2.0,0.0,0.0,0.0,7.042336304337434e-11,6.080608904054395e-11,5.837802568408245e-11,4.58182552104019e-11,4.184852108516806e-11,3.549545342878715e-11,3.0558021918957514e-11,2.63560012846765e-11,1.9074386253197818e-11,1.549260705324346e-11,1.1568708584704667e-11,8.693589044849835e-12,6.0152095811036764e-12,4.125699559375914e-12,2.6879466255484815e-12,1.6358724091080178e-12,9.98312966010513e-13,6.243340518374245e-13,3.617884000590717e-13,2.520442342925328e-13,1.5810151111001574e-13,9.701564110670865e-14,6.706575202886135e-14,4.2363386086038716e-14,2.902619850457935e-14,1.7985480877000407e-14,3.083440646845022e-09,1.4340193397211503e-09,8.109195616846655e-10,4.816782999757201e-10,3.446218867740775e-10,2.1709196071804027e-10,1.6138537608927263e-10,1.1045249698793884e-10,8.212623777036757e-11,5.940069398296497e-11,3.555740014035603e-11,2.504022033121687e-11,1.7133011670749743e-11,1.0738906615527192e-11,6.342203397715768e-12,3.902057458907927e-12,2.1189073370359472e-12,1.1728945317636764e-12,5.680029326418374e-13
0.0,18,18.0,0.0,30.0,0.0,0.0,0.0,0.0,-13.0,0.0,2.0,0.0,0.0,0.0,6.98873331612616e-11,5.890859276591933e-11,5.82583005568276e-11,4.9422843968872815e-11,4.576075360511866e-11,3.7110908028690264e-11,3.1926026231642037e-11,2.4649982895214683e-11,1.9555499917524708e-11,1.5924362883607112e-11,1.1710589941007292e-11,8.826813921838152e-12,6.254573159315752e-12,4.245509928695728e-12,2.6900278206395505e-12,1.7883948855462832e-12,1.0909012941781014e-12,6.919155047553769e-13,3.839353131962164e-13,2.362672988902898e-13,1.4006064672841975e-13,9.800264279426949e-14,5.63472986900699e-14,4.084674496490702e-14,2.8358393316296592e-14,1.797332655805288e-14,3.0744706535652178e-09,1.501685649436371e-09,7.79990397127664e-10,4.926105633664427e-10,3.320131406859884e-10,2.4444127130935656e-10,1.697675794891323e-10,1.1571038236404592e-10,8.120427401452165e-11,5.632401179358881e-11,3.695723735509565e-11,2.6511888442199577e-11,1.568160389516009e-11,1.0835546477625774e-11,6.822378649372968e-12,3.812828887774475e-12,2.181283388045957e-12,1.1643584226194483e-12,5.999373732137845e-13
0.0,19,19.0,0.0,30.0,0.0,0.0,0.0,0.0,-13.0,0.0,2.0,0.0,0.0,0.0,7.264753505575196e-11,6.39301478775766e-11,5.471927815615494e-11,4.9691197361132726e-11,4.3845792195846426e-11,3.880665334695079e-11,3.118677965529392e-11,2.6234463414734963e-11,2.110973965851719e-11,1.632032151935381e-11,1.2005181577781167e-11,9.840522867363873e-12,6.720296456874747e-12,4.523567715196838e-12,2.9278320089180204e-12,1.8095919698937063e-12,1.1633310998788415e-12,6.624418330813621e-13,3.913736367637203e-13,2.514035761096264e-13,1.3783554434128858e-13,9.060777084219726e-14,5.952819225580005e-14,3.869262425181163e-14,2.5707932638989392e-14,1.675340122164645e-14,3.0231632852148616e-09,1.4564815012398461e-09,8.245015798520403e-10,5.132590065165415e-10,3.593348112353461e-10,2.2470317797343646e-10,1.7600453008294642e-10,1.252008127733204e-10,8.068617300310433e-11,5.360257581870185e-11,3.823126373439884e-11,2.6950488407812804e-11,1.6836338620904925e-11,1.057756222544548e-11,6.5765205501766994e-12,3.937899308595977e-12,2.441870519519421e-12,1.1627399050909294e-12,6.656490817836234e-13
0.0,20,20.0,0.0,30.0,0.0,0.0,0.0,0.0,-13.0,0.0,2.0,0.0,0.0,0.0,7.12254110569329e-11,6.43080464205264e-11,6.075583433002068e-11,5.1839034728684595e-11,4.662880715584666e-11,3.998895781090104e-11,2.8674491446594542e-11,2.4949939624174844e-11,2.0619703804565632e-11,1.683958816942462e-11,1.1955777844279769e-11,9.113692754829242e-12,6.998491209621211e-12,4.623834364387377e-12,3.113501809362272e-12,1.944163665541018e-12,1.2192622161269277e-12,7.226956699905382e-13,4.19414344760352e-13,2.409617761423548e-13,1.4475147840848408e-13,8.584973574596169e-14,5.617696632540822e-14,3.668286664802912e-14,2.56242240066645e-14,1.4023559546851114e-14,2.792572514432777e-09,1.4201140111177893e-09,8.011694594070335e-10,5.137537754307279e-10,3.5132255731839813e-10,2.436056657706204e-10,1.671014126225676e-10,1.2414897402481495e-10,8.099411169972544e-11,5.745316725298754e-11,3.930155984151039e-11,2.6300548421970927e-11,1.6860128258355453e-11,1.0412515499889042e-11,6.502946713751695e-12,4.113673901462302e-12,2.3461601754050037e-12,1.2677540017275176e-12,7.244953695108409e-13
0.0,21,21.0,0.0,30.0,0.0,0.0,0.0,0.0,-13.0,0.0,2.0,0.0,0.0,0.0,7.550680170512323e-11,6.673935370246387e-11,5.736826698905934e-11,5.4821469272008146e-11,4.5268970770712723e-11,3.942170226551612e-11,3.2843592633540945e-11,2.640872790333172e-11,2.1560689150463916e-11,1.708416407361233e-11,1.2658031466840728e-11,9.436526167306654e-12,6.756758226976565e-12,4.870506539673504e-12,3.0943583201025693e-12,1.9754347004841806e-12,1.2004268684842343e-12,6.972209524314248e-13,4.0343655281512294e-13,2.5045202389468376e-13,1.4913008395654614e-13,9.002548359430416e-14,5.780954202087807e-14,3.695747801097857e-14,2.2899750118393642e-14,1.45968367548608e-14,3.12906947226609e-09,1.3673789382034006e-09,7.799971405776486e-10,5.059346356997324e-10,3.704070520676416e-10,2.483433230814414e-10,1.7848623514178928e-10,1.223037168626141e-10,8.484980836804662e-11,6.053794513253142e-11,3.842686984533385e-11,2.629664941638492e-11,1.684598540462746e-11,1.0687604775693071e-11,7.114763671025195e-12,4.264060867054808e-12,2.482507012722101e-12,1.3580348349612767e-12,7.320935610355042e-13
0.0,22,22.0,0.0,30.0,0.0,0.0,0.0,0.0,-13.0,0.0,2.0,0.0,0.0,0.0,7.45279043027706e-11,6.758679891003539e-11,5.912353951847874e-11,5.2088104264630034e-11,4.785824237750268e-11,4.103549963362298e-11,3.3844319878241924e-11,2.683704676732266e-11,2.1616433875251808e-11,1.744778131815876e-11,1.331872589997132e-11,9.477433490800452e-12,6.828662173409858e-12,4.617158326184908e-12,3.2341212743183013e-12,2.0000767515128683e-12,1.230638644198706e-12,7.332151748314387e-13,4.4553457831806336e-13,2.658537357425162e-13,1.5052836214478026e-13,8.743478302631894e-14,5.690348923163498e-14,3.491837193169428e-14,2.337658654854036e-14,1.4925684706999847e-14,2.859747052948435e-09,1.3785973507794008e-09,8.016098312856458e-10,5.393573737991312e-10,3.2199588457257054e-10,2.4611634102487213e-10,1.7674562473654617e-10,1.254927447190791e-10,9.077249752059647e-11,6.096675019296285e-11,4.102122125769674e-11,2.7878831643229986e-11,1.666504420817304e-11,1.1230103669466539e-11,6.899599124392302e-12,4.172316885795562e-12,2.3861302250566677e-12,1.3127014575549569e-12,7.718483774560678e-13
0.0,23,23.0,0.0,30.0,0.0,0.0,0.0,0.0,-13.0,0.0,2.0,0.0,0.0,0.0,7.519191596981942e-11,6.496577556378137e-11,6.243157698884529e-11,5.323092362484485e-11,4.569514788079572e-11,3.9734321145246616e-11,3.409920457072921e-11,2.643662426726847e-11,2.2479173208233007e-11,1.6898145974544816e-11,1.3105390149232661e-11,9.126510826259608e-12,7.2136105481007476e-12,4.794075298256018e-12,3.4027456513921184e-12,2.093020172295466e-12,1.2987683182721416e-12,7.679868478157383e-13,4.4097582014069495e-13,2.667456014000808e-13,1.519952526239559e-13,9.101074983698365e-14,5.453214177321367e-14,3.4676862174471534e-14,2.2422352954356117e-14,1.3664983796243874e-14,3.027831958160613e-09,1.3987220772724084e-09,8.29247117580281e-10,5.370625467693574e-10,3.7641499988828015e-10,2.555104145097236e-10,1.8625753066872307e-10,1.2650361420552252e-10,9.173661022714552e-11,5.849438353262852e-11,3.8233893055884295e-11,2.7599226675849144e-11,1.790274090216311e-11,1.137316008223196e-11,6.745617206894845e-12,4.298277753582214e-12,2.4161526217966953e-12,1.4200585481037693e-12,7.441049772614157e-13
0.0,24,24.0,0.0,30.0,0.0,0.0,0.0,0.0,-13.0,0.0,2.0,0.0,0.0,0.0,7.728873204110667e-11,6.853453562754423e-11,6.294338272716091e-11,5.266221257104326e-11,4.50159906482293e-11,4.1764758068295146e-11,3.4552988382636205e-11,2.89952692662007e-11,2.3126810783371662e-11,1.7249944467240722e-11,1.3354687408678875e-11,9.908248559730403e-12,6.820362031276627e-12,4.832258282290836e-12,3.344984424322554e-12,2.2094924315092663e-12,1.3690694503428472e-12,8.028231202943831e-13,4.706277514995687e-13,2.6884938271997114e-13,1.5377617607417305e-13,8.899166256544419e-14,5.35545585860839e-14,3.3290374123090276e-14,1.984077477970508e-14,1.2301363943171846e-14,2.9821079858551837e-09,1.4141507526057425e-09,8.297329717719535e-10,5.417021530042051e-10,3.734629107103587e-10,2.772769688026334e-10,1.8647615835175491e-10,1.3386841338026768e-10,9.087939169655647e-11,5.94939387844979e-11,4.1332362286642575e-11,2.769526922381058e-11,1.7719942360872965e-11,1.1604938766728301e-11,7.0985903332138095e-12,4.251447549749053e-12,2.492755826306568e-12,1.423058151930437e-12,7.722367625610006e-13
0.0,25,25.0,0.0,30.0,0.0,0.0,0.0,0.0,-13.0,0.0,2.0,0.0,0.0,0.0,7.916572733533028e-11,7.715876466788079e-11,6.5086137682329e-11,5.610867480859811e-11,4.960441104443222e-11,4.12202715277493e-11,3.4997616742423515e-11,2.667630284731318e-11,2.3638926472970063e-11,1.839696775296574e-11,1.3370512330669115e-11,9.933875396064836e-12,7.316644719441566e-12,5.023848181149771e-12,3.329096822532263e-12,2.1065076882308407e-12,1.3801206307148991e-12,8.406926576568944e-13,5.007050826068992e-13,2.763627575784787e-13,1.5307890771991024e-13,8.444331679453174e-14,5.227764308681827e-14,3.204295235214254e-14,2.0773131918706442e-14,1.538106136124876e-14,2.87653159825688e-09,1.471876726547644e-09,8.284608899375046e-10,5.696469792490868e-10,3.826665836762573e-10,2.6292618221622095e-10,2.0599206711349664e-10,1.2553755458848148e-10,8.81490076103392e-11,6.542100285587515e-11,4.224180534075432e-11,2.8412410687451642e-11,1.8716549688997515e-11,1.1379865706715187e-11,6.9237907733847654e-12,4.276646210277418e-12,2.569696371253034e-12,1.4050155529081593e-12,8.136015731627567e-13
0.0,26,26.0,0.0,30.0,0.0,0.0,0.0,0.0,-13.0,0.0,2.0,0.0,0.0,0.0,7.966188394505655e-11,7.153217678024544e-11,6.19388354382334e-11,6.018350291234406e-11,4.6706013875747855e-11,4.1441186648368205e-11,3.55238067673275e-11,2.841717246759387e-11,2.3913438088238447e-11,1.8995372575149843e-11,1.3642883240915451e-11,1.0219760703759704e-11,7.311049521212288e-12,5.348461184463764e-12,3.37807086853072e-12,2.370148150289885e-12,1.4023830210060833e-12,8.635209768577958e-13,4.930922379168623e-13,2.956782596808328e-13,1.5889850138081817e-13,9.325145954469812e-14,5.034338083793268e-14,3.3870529122432163e-14,1.60214918709275e-14,1.1487419264518699e-14,2.996879029520489e-09,1.3998119609066154e-09,8.20199272250198e-10,5.708851073137187e-10,3.76391286444542e-10,2.6009612421300766e-10,1.916122722699682e-10,1.3954403712459544e-10,9.475465499624896e-11,6.56538290724709e-11,4.327009640579045e-11,2.7519476668297302e-11,1.8600086353613725e-11,1.1468751958890775e-11,7.27994867953788e-12,4.455856739313602e-12,2.578694278247862e-12,1.4505740011318763e-12,8.45956346942894e-13
0.0,27,27.0,0.0,30.0,0.0,0.0,0.0,0.0,-13.0,0.0,2.0,0.0,0.0,0.0,7.864709656150082e-11,7.328246057914411e-11,6.45557948130568e-11,5.608412125698884e-11,5.1512981919708784e-11,4.2985822507410834e-11,3.726154520451576e-11,2.9443651991678316e-11,2.3076999499479344e-11,1.7890128799094088e-11,1.474481992945461e-11,1.0573469332288604e-11,7.469916897529741e-12,5.467965993876115e-12,3.5221864442874438e-12,2.362718085762237e-12,1.4070749678447841e-12,8.946902386761724e-13,5.293601595657701e-13,3.2121202514180287e-13,1.6119057145527818e-13,9.310251534176728e-14,5.2794864020956705e-14,3.190309344682602e-14,1.7806736324242216e-14,1.24117079956875e-14,2.895111785610662e-09,1.3635236711511842e-09,8.525010613718304e-10,5.987254728750223e-10,3.872120726826804e-10,2.670341959508461e-10,2.045837718287173e-10,1.4010186761536955e-10,1.0156335727122646e-10,6.695887119188709e-11,4.474522878185159e-11,3.068370361395515e-11,1.908997703468066e-11,1.196919845650792e-11,7.370865071326635e-12,4.686605298137076e-12,2.613873648709314e-12,1.4777361218710822e-12,8.553989884827689e-13
0.0,28,28.0,0.0,30.0,0.0,0.0,0.0,0.0,-13.0,0.0,2.0,0.0,0.0,0.0,8.136332343026772e-11,7.885578156028433e-11,6.697201061209517e-11,5.909032150859094e-11,5.2370856156948796e-11,4.413694069789196e-11,3.4334028485851956e-11,3.051767845253038e-11,2.500492977268256e-11,1.8277156939045614e-11,1.3925849992919328e-11,1.0299247216758212e-11,7.356805151671915e-12,5.225367935752332e-12,3.878188029974227e-12,2.349391853402025e-12,1.514715746548887e-12,9.671896783737596e-13,5.492011932768118e-13,3.1604104819190913e-13,1.6374476779188405e-13,9.806382051258448e-14,5.0662650319764167e-14,3.081671813991775e-14,1.6873487106293547e-14,1.1057433493122203e-14,2.7627309445551894e-09,1.4246077103159235e-09,8.762267342685378e-10,6.025201373425139e-10,3.9586257139597475e-10,3.0202740292425525e-10,1.9513043449063658e-10,1.4223047193979637e-10,9.9500490698818e-11,7.063819903325483e-11,4.755591304949123e-11,3.0174803435948686e-11,1.9183960215605425e-11,1.2122640307346899e-11,7.29545773657172e-12,4.621677152417306e-12,2.4861786220501065e-12,1.4650766946895542e-12,8.350580951537217e-13
0.0,29,29.0,0.0,30.0,0.0,0.0,0.0,0.0,-13.0,0.0,2.0,0.0,0.0,0.0,8.348484994989607e-11,7.731247698820067e-11,6.599428495770224e-11,6.052987978056319e-11,5.540234717109527e-11,4.45481527389009e-11,3.687316964089951e-11,3.1185876492018714e-11,2.4129684325212265e-11,1.782820780282432e-11,1.4693479181082278e-11,1.0450807178482642e-11,7.76374288069807e-12,5.3412663379013335e-12,3.653350483949554e-12,2.309058226670818e-12,1.5342394118533528e-12,9.624784779374376e-13,5.586463961899185e-13,3.267019965755179e-13,1.668249975212178e-13,9.528323401245007e-14,5.4527826670708596e-14,2.9326975533475475e-14,1.6395217814551853e-14,1.0070516904775961e-14,2.852499112487637e-09,1.4462448776889277e-09,8.87977448310404e-10,5.828421257921107e-10,4.1648674137881147e-10,2.7656366926315784e-10,2.048760795414051e-10,1.4552655848674733e-10,9.482985457407966e-11,7.008635998100055e-11,4.5433714060189717e-11,2.953788168687902e-11,1.827365590075151e-11,1.2683451067039313e-11,7.683390646948407e-12,4.527857129116629e-12,2.712909037908298e-12,1.6109286833101185e-12,8.704785926359268e-13
0.0,30,30.0,0.0,30.0,0.0,0.0,0.0,0.0,-13.0,0.0,2.0,0.0,0.0,0.0,8.590433750736529e-11,7.731014606781374e-11,7.043862797483057e-11,6.032383017115051e-11,5.3618972053577315e-11,4.628061956600858e-11,3.927822332822064e-11,3.0885211302960894e-11,2.3019378996669417e-11,1.8989494976724223e-11,1.4318552744593826e-11,1.0392049345762615e-11,7.857313056130595e-12,5.589655191866665e-12,3.829333108056177e-12,2.40436433317566e-12,1.501096153225289e-12,1.008270918537552e-12,5.943144298589436e-13,3.3727019752267515e-13,1.7905288193781557e-13,1.0149182935402826e-13,5.190481494308437e-14,3.0245037128321834e-14,1.870498165726335e-14,1.0316107004546757e-14,2.8152605829775013e-09,1.37454685996006e-09,8.924083626200225e-10,6.257660417577562e-10,4.1472263203225954e-10,2.9531186656570636e-10,2.0516529188313271e-10,1.4304094864463683e-10,1.0298441603607344e-10,7.235380808368262e-11,4.7822909248815975e-11,3.203226879950738e-11,2.0101098829724255e-11,1.2654443360448125e-11,7.446355530693897e-12,4.65865932303089e-12,2.7528911756029422e-12,1.5687055102723882e-12,8.679865760741887e-13
0.0,31,31.0,0.0,30.0,0.0,0.0,0.0,0.0,-13.0,0.0,2.0,0.0,0.0,0.0,8.825709633679114e-11,7.819120207908682e-11,6.837629860079164e-11,6.5379257000061e-11,5.510167332267937e-11,4.388164320809287e-11,4.116290624560406e-11,3.114686713806436e-11,2.567134359607398e-11,1.9859823769708534e-11,1.489812704209951e-11,1.101592913055782e-11,7.657145594462917e-12,5.700930306661819e-12,3.593431404251308e-12,2.450618737999689e-12,1.6105589466926972e-12,1.01872928632482e-12,5.8059126306792e-13,3.3398204327700014e-13,1.995777883918802e-13,9.925760267924355e-14,5.4276229336088995e-14,2.9320454697864615e-14,1.6767843851752873e-14,9.38493077891889e-15,2.8042720492246047e-09,1.4773986636310461e-09,9.356988797882576e-10,5.936015577583052e-10,4.2963607194672195e-10,2.9109920055610346e-10,2.0851688612457758e-10,1.5334436752966771e-10,1.0738314120345765e-10,6.80596400027709e-11,4.380276039356409e-11,2.927245394547203e-11,2.0690206210166755e-11,1.2130200789188057e-11,7.80291914286283e-12,4.630012223727782e-12,2.7952423930011023e-12,1.4935288493040105e-12,8.966469384209648e-13
0.0,32,32.0,0.0,30.0,0.0,0.0,0.0,0.0,-13.0,0.0,2.0,0.0,0.0,0.0,8.831302913476208e-11,8.54920848276073e-11,7.481008265111431e-11,6.383022379449948e-11,5.4825481142326714e-11,4.7972187449970413e-11,3.8407236855159907e-11,3.21535614844036e-11,2.4973098654946478e-11,1.958453308190302e-11,1.5265377097029836e-11,1.108177985882153e-11,7.969911976784789e-12,5.571136693819808e-12,3.880816917385436e-12,2.6028829511349346e-12,1.6218913910745732e-12,9.807436799742387e-13,6.240386324209259e-13,3.414459462396698e-13,1.847921755937588e-13,1.0749553570906488e-13,5.6621712341873375e-14,2.815604399480446e-14,1.9462737538812442e-14,1.0984754626954503e-14,2.8074912847906853e-09,1.4551151567731544e-09,9.400434964316831e-10,6.224917843825563e-10,4.216815339598491e-10,3.1947740903837075e-10,2.228438926123647e-10,1.6432221322997923e-10,1.0692614040527277e-10,6.940722931689369e-11,4.8862356150327904e-11,2.879810618279724e-11,2.0109475247704006e-11,1.3005380045402896e-11,7.988587401544154e-12,4.6159571870126715e-12,2.8165120528758106e-12,1.587085080628369e-12,8.543810694295079e-13
0.0,33,33.0,0.0,30.0,0.0,0.0,0.0,0.0,-13.0,0.0,2.0,0.0,0.0,0.0,9.475118211325137e-11,8.538890657120596e-11,7.077170467491285e-11,6.802530897119998e-11,5.641758566076139e-11,4.777681470608035e-11,3.9925596927005475e-11,3.242019600910725e-11,2.54661945381779e-11,1.8693722713427102e-11,1.524957767983106e-11,1.1454359221172416e-11,7.704195821866497e-12,5.493809063973772e-12,3.8255829105339084e-12,2.5638955673284094e-12,1.6853704224501467e-12,1.031757100614072e-12,6.44041321667176e-13,3.45353113133986e-13,1.9977883635288764e-13,1.0514234332156955e-13,5.3211704807096136e-14,3.191428108746334e-14,1.569847632151379e-14,1.21669729455532e-14,2.7321763342344442e-09,1.507389681902925e-09,9.47025962588512e-10,6.71587094700943e-10,4.671527110784593e-10,3.217810545285899e-10,2.3663965630677857e-10,1.565234608098385e-10,1.1177819643616074e-10,7.452293156858334e-11,5.0484984407260395e-11,3.355816424722598e-11,2.049858593476847e-11,1.308232602939224e-11,7.98631048375348e-12,4.688534441558802e-12,2.6996993027421396e-12,1.6244479108073138e-12,8.381046257004173e-13
0.0,34,34.0,0.0,30.0,0.0,0.0,0.0,0.0,-13.0,0.0,2.0,0.0,0.0,0.0,9.448091746676516e-11,8.53878943211035e-11,7.42281313027416e-11,6.202224165687595e-11,6.075737852416699e-11,4.7998363870829965e-11,4.031022376260597e-11,3.419270229110125e-11,2.7669559194282712e-11,2.034819872842014e-11,1.5381788099752648e-11,1.088704659889582e-11,7.833724283878112e-12,5.7027621523182596e-12,3.9955175038014205e-12,2.6712197192893408e-12,1.7111876697099976e-12,1.0343561677126097e-12,6.069606214757181e-13,3.7137750289277036e-13,2.098869665428726e-13,1.0662740100273702e-13,6.413358844590331e-14,3.1970642472339775e-14,1.7583870266275467e-14,1.0336623785265439e-14,2.717298773215063e-09,1.4656816241267913e-09,9.463777671332064e-10,6.600759254017382e-10,4.5320638386648184e-10,3.225603065132274e-10,2.3088540519423733e-10,1.6148422502750786e-10,1.1290347641983315e-10,7.99237869949523e-11,5.204914956756523e-11,3.1553374163787596e-11,2.0703749769782843e-11,1.3162077816678839e-11,8.144758299546581e-12,4.787012914905052e-12,2.9026968363998784e-12,1.595177545249474e-12,8.979254372298459e-13
0.0,35,35.0,0.0,30.0,0.0,0.0,0.0,0.0,-13.0,0.0,2.0,0.0,0.0,0.0,9.501270083598917e-11,8.561361491214908e-11,7.544174500764675e-11,6.909449704493607e-11,5.669615692085486e-11,4.681567412517214e-11,4.1468763763532176e-11,3.362904173666898e-11,2.526140804841893e-11,1.9759528602830703e-11,1.560396795499464e-11,1.2041210494813809e-11,8.77083617893858e-12,6.041512427262781e-12,3.812372530188843e-12,2.66360185433211e-12,1.7148324077199107e-12,1.0868281538877978e-12,6.683245909574085e-13,3.5415929665572456e-13,2.1041007234352002e-13,1.1042946669716141e-13,5.806834249902015e-14,3.186535042312875e-14,1.5925937207165215e-14,9.40417139833775e-15,2.8229605986492187e-09,1.4097958385214967e-09,9.901400721813005e-10,6.583280665856555e-10,4.811633408478461e-10,3.253060094188472e-10,2.2873989625614818e-10,1.6090160151711565e-10,1.1605782383862075e-10,7.946000868488825e-11,5.354139439746222e-11,3.5846585106463655e-11,2.238507203081747e-11,1.2874152156213774e-11,7.557738702536707e-12,5.005230807205958e-12,3.0192499853744844e-12,1.6505087196347291e-12,8.441990232508924e-13
0.0,36,36.0,0.0,30.0,0.0,0.0,0.0,0.0,-13.0,0.0,2.0,0.0,0.0,0.0,9.891334784945e-11,8.91002841325973e-11,8.012747980197732e-11,6.824867936601254e-11,5.926073612267261e-11,5.1660422191018134e-11,4.1893647934308795e-11,3.304236435585993e-11,2.809388360111887e-11,2.0513391650493352e-11,1.5945276876966656e-11,1.141613634220926e-11,8.202703296572443e-12,5.649351403701707e-12,3.904783898906236e-12,2.7638298501645607e-12,1.753484789162321e-12,1.0642450967136482e-12,6.82145907944522e-13,3.956644377733818e-13,2.0867621606845414e-13,1.1372605571299846e-13,5.801155048926849e-14,3.253395172942443e-14,1.7455610863782743e-14,9.205027715382259e-15,2.855199346381517e-09,1.5237461564320572e-09,1.0415712753214316e-09,6.869642878094225e-10,5.01017205856323e-10,3.499962798276999e-10,2.3784463276135127e-10,1.6017579096195359e-10,1.1359976501020886e-10,8.005548679940849e-11,5.2436961207553677e-11,3.4501226633572334e-11,2.141551604142028e-11,1.3592382037150021e-11,8.223558558840499e-12,5.086624713734921e-12,2.883167567212184e-12,1.5309758382325288e-12,8.940982841488068e-13
0.0,37,37.0,0.0,30.0,0.0,0.0,0.0,0.0,-13.0,0.0,2.0,0.0,0.0,0.0,1.0252023363514469e-10,9.206157812247443e-11,8.050098470292637e-11,6.889827490560469e-11,6.050840292487923e-11,5.052961967456537e-11,4.0706590672026536e-11,3.391485394520225e-11,2.7584591560831222e-11,2.0648909895912877e-11,1.565324635664415e-11,1.1807002869819473e-11,8.14569606789072e-12,5.823970401576888e-12,3.787700470190628e-12,2.795546170661526e-12,1.821910042360565e-12,1.1460206413012346e-12,6.856418289124099e-13,3.929833597312393e-13,2.1117735158141716e-13,1.1481911532630871e-13,6.344487985868363e-14,3.500969904662132e-14,1.942660006567621e-14,1.1888116049571781e-14,2.9473421893924548e-09,1.6737446716039067e-09,1.0235397763193815e-09,7.357770429022726e-10,5.127215564138503e-10,3.5828168433653444e-10,2.465092364227886e-10,1.7610340672193765e-10,1.233071442959306e-10,7.81849055185978e-11,4.914468206137827e-11,3.471463428744671e-11,2.2020587301172142e-11,1.418016398459021e-11,8.460167251150298e-12,5.182588809102635e-12,2.900089085264005e-12,1.6618436326597569e-12,8.750945689648762e-13
0.0,38,38.0,0.0,30.0,0.0,0.0,0.0,0.0,-13.0,0.0,2.0,0.0,0.0,0.0,1.0131315009976543e-10,9.476382324649008e-11,8.315556162516004e-11,7.116361323490664e-11,6.291645299787199e-11,5.091118316645496e-11,4.326635584739607e-11,3.5739486486592955e-11,2.6760184036262357e-11,2.228444094378264e-11,1.687856142421664e-11,1.1311618912486955e-11,8.417438375992294e-12,6.296149421768246e-12,4.287434331002782e-12,2.7508324302951637e-12,1.7197024587258045e-12,1.159044156202216e-12,6.787463438760772e-13,3.9955172326472077e-13,2.2243502517191308e-13,1.2053584903425915e-13,6.457413537749313e-14,3.423182569812701e-14,1.911535568965559e-14,8.716908991074961e-15,2.686628404623806e-09,1.5018408684166717e-09,1.0622214317897968e-09,6.787336666007821e-10,5.108214279044371e-10,3.6867176748591626e-10,2.499053090865464e-10,1.7195387146974633e-10,1.17208303355248e-10,8.283322797889305e-11,5.5848097513450115e-11,3.670371298586329e-11,2.29054509703365e-11,1.4270101865488112e-11,8.44365308595261e-12,5.0013082138530615e-12,2.933013317720636e-12,1.7037769210271782e-12,9.398108993226474e-13
0.0,39,39.0,0.0,30.0,0.0,0.0,0.0,0.0,-13.0,0.0,2.0,0.0,0.0,0.0,1.0580097736120859e-10,9.266861835173169e-11,8.932316874157255e-11,7.273669660016187e-11,6.480952401043222e-11,5.506912316699798e-11,4.290759807493574e-11,3.375563650611555e-11,2.9074059827549936e-11,2.1840667944749686e-11,1.6325856690438305e-11,1.13961564992919e-11,8.028636792251982e-12,6.147532714232651e-12,4.120773145482308e-12,2.7881686682121214e-12,1.7957016907418376e-12,1.0972161742572096e-12,7.08579787047014e-13,3.924240528790804e-13,2.2671461455559927e-13,1.285081297822178e-13,6.299863456385108e-14,3.650818724661929e-14,1.9290533234244166e-14,1.2271471053528535e-14,2.7669754058014052e-09,1.5997116114679056e-09,9.84359455429479e-10,7.42731130916065e-10,5.281653264732484e-10,3.600520625820841e-10,2.4993044722578173e-10,1.8643204762523105e-10,1.2191536589996047e-10,8.621348588333882e-11,5.689118173936466e-11,3.743711493002911e-11,2.3239691838504558e-11,1.4054873947570222e-11,8.856030535553515e-12,5.163835730256668e-12,3.100844212546308e-12,1.682682511350777e-12,9.623323977674585e-13
0.0,40,40.0,0.0,30.0,0.0,0.0,0.0,0.0,-13.0,0.0,2.0,0.0,0.0,0.0,1.016875551903556e-10,9.487742549830414e-11,8.66365519577903e-11,7.238130568883222e-11,6.237724266590112e-11,5.406581688596443e-11,4.575870339637806e-11,3.633277427203998e-11,2.8769629267807995e-11,2.209888308566097e-11,1.7280370344694495e-11,1.2237444852834064e-11,8.852833341727508e-12,6.292839481266515e-12,4.155714445491123e-12,2.88840544771043e-12,1.8968333587569246e-12,1.1172588471241165e-12,7.058112215462972e-13,4.2446729637253893e-13,2.3127379945112553e-13,1.2693481301585967e-13,6.784296828994901e-14,3.546479895710054e-14,1.7222867793782674e-14,8.43523667527967e-15,2.6522795192063667e-09,1.6167357457740536e-09,1.036595803187372e-09,7.582399549066895e-10,5.072900616784703e-10,3.83748551849604e-10,2.502298668778861e-10,1.8975661606731923e-10,1.22357047227147e-10,8.53942965081013e-11,6.056608254693914e-11,3.5181566572780234e-11,2.2474228954580068e-11,1.485834929850342e-11,8.681539088885802e-12,5.368719449471084e-12,3.0657983822616316e-12,1.6412447211503938e-12,9.42210761918859e-13
0.0,41,41.0,0.0,30.0,0.0,0.0,0.0,0.0,-13.0,0.0,2.0,0.0,0.0,0.0,1.1129186332543522e-10,9.751702495099815e-11,8.509375145814205e-11,7.518044303840337e-11,6.404154319421491e-11,5.442724964206132e-11,4.4713530912912806e-11,3.7857914850963454e-11,2.9952264636152535e-11,2.2981247431474278e-11,1.671009514928225e-11,1.2398528191627795e-11,8.840065193361755e-12,6.226572355597044e-12,4.389049805344907e-12,2.8388834982656407e-12,1.8171341873832366e-12,1.1670812631272855e-12,6.91009075741829e-13,3.9865559538928307e-13,2.325281351491662e-13,1.2425958558771375e-13,6.738306501497481e-14,3.653911969589504e-14,2.153009398375287e-14,1.0031006717505959e-14,2.7881739075714243e-09,1.623777986072299e-09,1.1013140343817843e-09,7.785225234168712e-10,5.309663445003167e-10,4.0064004617894725e-10,2.726152675912795e-10,1.8562001222722657e-10,1.3007995658962768e-10,8.681340828359004e-11,5.999037539811145e-11,4.011206947735634e-11,2.4258347731598692e-11,1.445872637083472e-11,9.279637618001977e-12,5.342908211560885e-12,3.0007065523064805e-12,1.7202975549825653e-12,9.622657931129018e-13
0.0,42,42.0,0.0,30.0,0.0,0.0,0.0,0.0,-13.0,0.0,2.0,0.0,0.0,0.0,1.1539614545865095e-10,9.785569071115335e-11,9.11858907542035e-11,7.934101888439248e-11,6.693374526349601e-11,5.660921814289277e-11,4.571949570413814e-11,3.9695870061382007e-11,2.993014583322319e-11,2.3260025490881743e-11,1.700342943186723e-11,1.2800660771532712e-11,8.806806005240025e-12,6.5382708150310756e-12,4.558174944006905e-12,3.010378476612844e-12,1.8411906810858385e-12,1.099334746464913e-12,7.446141188659475e-13,4.3711502405391335e-13,2.467087510154056e-13,1.3390243328671012e-13,7.324453053925748e-14,3.771443008452553e-14,2.2266990851122707e-14,1.1071866638522298e-14,2.829397132601499e-09,1.6233678667919824e-09,1.1899440547088567e-09,8.208696985790774e-10,5.830279432389981e-10,4.031466601976907e-10,2.795358956617583e-10,1.8685252719092755e-10,1.3818192471542663e-10,8.99736692336749e-11,5.933155069203599e-11,3.972197651937239e-11,2.4570239793928635e-11,1.4747553185654052e-11,9.162772104253005e-12,5.506737178472468e-12,3.1074890244039283e-12,1.672466665787294e-12,9.849583178087015e-13
0.0,43,43.0,0.0,30.0,0.0,0.0,0.0,0.0,-13.0,0.0,2.0,0.0,0.0,0.0,1.1056287754396779e-10,1.0587752254525424e-10,9.001238919329312e-11,7.943267603704818e-11,6.894465767161589e-11,5.993355645999898e-11,4.5060214475698e-11,4.127204699326238e-11,3.090601127130683e-11,2.1865572982149605e-11,1.6661503624929142e-11,1.2630767791697431e-11,9.027122799466577e-12,6.5739147239556805e-12,4.322503103996092e-12,2.7811458263302136e-12,1.949146443522364e-12,1.2263328705427968e-12,7.094918804307065e-13,4.4053590921849355e-13,2.469826327851462e-13,1.3417483352177886e-13,7.279214505391658e-14,3.6949236841776605e-14,1.811944367447832e-14,1.1264853380600902e-14,2.774702171215058e-09,1.6623102236819041e-09,1.0947146088318532e-09,7.742795037028686e-10,5.988535520108932e-10,4.104985085998823e-10,2.7252999137505857e-10,1.9969767989897315e-10,1.3390280348623498e-10,9.078382070316091e-11,5.893123330439921e-11,4.0196100482318015e-11,2.4387775406700878e-11,1.513298559637447e-11,9.163253868664972e-12,5.4890741070123805e-12,3.266039112100925e-12,1.8097017165316783e-12,9.948152652045762e-13
0.0,44,44.0,0.0,30.0,0.0,0.0,0.0,0.0,-13.0,0.0,2.0,0.0,0.0,0.0,1.1217877357038692e-10,1.0258733860725452e-10,9.461838871435592e-11,8.12665562833323e-11,7.243235649679967e-11,6.119352811098955e-11,4.845606130965935e-11,3.913414976013488e-11,3.0084442561350665e-11,2.3647627593012186e-11,1.7212181133247727e-11,1.273918914494135e-11,9.476957013419464e-12,6.43051734524952e-12,4.426576714421769e-12,3.081232312771905e-12,1.9332222276147637e-12,1.2582486475437462e-12,7.320831292789588e-13,4.4816531894206683e-13,2.4360739215958045e-13,1.3780145427527243e-13,7.468255977328895e-14,3.7297098428485144e-14,2.214359952080951e-14,1.024205787797785e-14,2.9449341460121124e-09,1.721841417962378e-09,1.2550805425684056e-09,7.928718558809387e-10,6.087388180629939e-10,4.069708380641958e-10,2.9248586913124715e-10,2.0105842774172464e-10,1.4009976132045468e-10,9.083415026720347e-11,5.7909331672139473e-11,4.203971511706987e-11,2.609984946901354e-11,1.5810012830217027e-11,9.508647283279013e-12,5.49386672667048e-12,3.1008319753265386e-12,1.7982076767791649e-12,1.0123362110513623e-12
0.0,45,45.0,0.0,30.0,0.0,0.0,0.0,0.0,-13.0,0.0,2.0,0.0,0.0,0.0,1.1534983375319531e-10,1.0557871887740788e-10,9.395142765683999e-11,7.798852727275407e-11,7.026451400916549e-11,5.903459922383575e-11,4.909267635631101e-11,4.327426993473454e-11,3.003006796212785e-11,2.4545698032304065e-11,1.6897823781056645e-11,1.3408016112931286e-11,9.289615202134894e-12,6.838334685104991e-12,4.482795673656538e-12,3.0219662741541203e-12,1.907880690131848e-12,1.2741400362316788e-12,7.19886157955149e-13,4.4609063054683204e-13,2.638952348832665e-13,1.34853990757471e-13,7.514555778634126e-14,4.026687884168828e-14,2.24475002950303e-14,1.0981014564500416e-14,2.8879296486717323e-09,1.8401177302528222e-09,1.209759315699083e-09,8.654056795122412e-10,5.99402696090402e-10,4.3242261136769613e-10,2.899289170798016e-10,2.0397814148006575e-10,1.4144546384750538e-10,9.82896059005251e-11,6.912667262048995e-11,3.955450498486385e-11,2.5980485605581898e-11,1.603317386159799e-11,9.255816313833205e-12,5.758038135726281e-12,3.2899489582264557e-12,1.7908542754718403e-12,9.341208255780532e-13
0.0,46,46.0,0.0,30.0,0.0,0.0,0.0,0.0,-13.0,0.0,2.0,0.0,0.0,0.0,1.217566921679651e-10,1.0523659723803179e-10,9.726134410203845e-11,8.667518553021595e-11,7.527487599241303e-11,6.051970109647806e-11,4.842295425548563e-11,3.891237802873711e-11,3.302241724178848e-11,2.2945314929464373e-11,1.7724371176861827e-11,1.3735693083000903e-11,9.463369744135432e-12,6.73013348602478e-12,4.332871808176602e-12,3.0509867596073917e-12,2.0017122747132022e-12,1.2047562713567544e-12,8.07362108989765e-13,4.491776682328851e-13,2.5786813691729107e-13,1.4059309583828001e-13,7.860851046724741e-14,4.274742833703707e-14,2.0924514232632013e-14,9.154603968244184e-15,2.9166341269309706e-09,1.849832344497596e-09,1.2015082244023336e-09,8.65846326894863e-10,6.135320580972003e-10,4.37129654750015e-10,3.2041700634131427e-10,2.1245850707870136e-10,1.449775375247683e-10,9.561197644307205e-11,6.485315297194469e-11,4.1938423017888815e-11,2.6578647654622738e-11,1.4440680891205058e-11,9.542710541024028e-12,5.984995010694545e-12,3.2722991265213576e-12,1.8204491811888005e-12,1.0134396751360005e-12
0.0,47,47.0,0.0,30.0,0.0,0.0,0.0,0.0,-13.0,0.0,2.0,0.0,0.0,0.0,1.208997192480635e-10,1.1540563685180298e-10,9.76143007677144e-11,8.734064477261992e-11,7.404256532639159e-11,6.049400256622822e-11,4.9458340525530294e-11,4.1263919363295103e-11,3.169677555764236e-11,2.4297573859651456e-11,1.817373759125657e-11,1.3255576598378534e-11,9.908348188027416e-12,6.616963933729059e-12,4.377794650821878e-12,3.0960202810789008e-12,1.99699890641577e-12,1.2248895487249053e-12,7.354424423238113e-13,4.5836205110266e-13,2.671025427228719e-13,1.4566706616550818e-13,8.075782004012803e-14,3.841489109489478e-14,2.0636844382472537e-14,1.1485742246690172e-14,2.9918428123431754e-09,1.8145844484582935e-09,1.3095997694444108e-09,8.838008139511772e-10,6.438177656697302e-10,4.5697735685161807e-10,3.1180037174629366e-10,2.2258457217188164e-10,1.5364709734108273e-10,1.0203447228282337e-10,6.641964177325502e-11,4.297108782144951e-11,2.685072666623039e-11,1.6687389035113004e-11,9.710388398799925e-12,5.821335613575306e-12,3.2601551085031373e-12,1.842700108442789e-12,9.903693957478627e-13
0.0,48,48.0,0.0,30.0,0.0,0.0,0.0,0.0,-13.0,0.0,2.0,0.0,0.0,0.0,1.2912685283760582e-10,1.1131782265631337e-10,1.0042789743123901e-10,8.797721987995837e-11,7.562840647177332e-11,6.374440151542857e-11,5.327837113635104e-11,4.1264655417889255e-11,3.2234817453566e-11,2.3999254539148006e-11,1.8527379300959477e-11,1.3851649813925442e-11,9.934182689088585e-12,7.017330873933751e-12,4.48867261084933e-12,3.1550275372154575e-12,1.9421152639989792e-12,1.2471792073434553e-12,7.89436190733364e-13,4.914989788189684e-13,2.666860293216202e-13,1.5494692991252524e-13,8.07685125129475e-14,4.243835795565206e-14,2.3383860940070107e-14,1.1682419266953472e-14,2.9782255644291055e-09,1.9662627081038788e-09,1.3312778955498667e-09,9.301352048962865e-10,6.563142928459611e-10,4.696404281457854e-10,3.2049816164258016e-10,2.3080509297295534e-10,1.488350887475554e-10,1.0222036237382822e-10,6.748368676490941e-11,4.202440363554698e-11,2.750631572724023e-11,1.6356433785594235e-11,1.0015968722791415e-11,5.857729415173977e-12,3.3603650045184253e-12,1.8805639725511767e-12,1.0295931731076798e-12
0.0,49,49.0,0.0,30.0,0.0,0.0,0.0,0.0,-13.0,0.0,2.0,0.0,0.0,0.0,1.2957059103952609e-10,1.1537471246797793e-10,1.0268081134775727e-10,9.12035706839723e-11,8.141149669476887e-11,6.230843707291536e-11,5.242997651005197e-11,4.102566153851913e-11,3.204969766348625e-11,2.601244507672092e-11,1.9065830243211662e-11,1.3645344895032374e-11,9.406318205844225e-12,6.790957586312761e-12,4.464327880362316e-12,3.0707788328962105e-12,1.9248162994969407e-12,1.2629870366546343e-12,7.878434536592331e-13,4.4221992691648803e-13,2.6251174687640557e-13,1.5279407169489303e-13,7.646978061806891e-14,4.063112123945582e-14,2.1400545509877373e-14,1.1115903538765119e-14,3.1290386535380407e-09,1.855798318615492e-09,1.3638937042366885e-09,9.568721998724954e-10,6.445676265021484e-10,4.760180535818519e-10,3.3909578161888016e-10,2.4180782857446787e-10,1.6163016852595683e-10,1.0671608259330634e-10,7.06314532531606e-11,4.3583678158314055e-11,2.7099066205745373e-11,1.6754488885197054e-11,1.0482316271261348e-11,6.048179232471664e-12,3.516608603659338e-12,1.791846986310916e-12,1.0523761931239477e-12
0.0,50,50.0,0.0,30.0,0.0,0.0,0.0,0.0,-13.0,0.0,2.0,0.0,0.0,0.0,1.284696598828778e-10,1.1566728658636401e-10,1.0519454018341621e-10,9.086166780806858e-11,8.43838242437308e-11,6.74983019088086e-11,5.489293162134509e-11,4.339213236361853e-11,3.472471759881734e-11,2.623895795262162e-11,2.059602054882636e-11,1.3790410766422125e-11,1.04838867032775e-11,7.242434174999607e-12,4.689422020819931e-12,3.001536130140749e-12,2.1325467478991995e-12,1.3434216643051958e-12,8.026793839303263e-13,4.483716689297365e-13,2.591392856892307e-13,1.5107822031519218e-13,8.680399199282582e-14,4.5406952914570256e-14,2.3444399142568044e-14,1.211349029009138e-14,3.141907507304897e-09,2.083252082847225e-09,1.3761116111738122e-09,9.4172829068305e-10,7.373080542699176e-10,4.864191023865313e-10,3.271629041720846e-10,2.4135267377397376e-10,1.565133744687553e-10,1.1032008509489278e-10,6.985659018098894e-11,4.165372755746955e-11,2.854834884244421e-11,1.777858347274062e-11,1.0106254166476306e-11,5.9559676784815644e-12,3.5452861016899872e-12,1.945767615951838e-12,1.0861693551575889e-12
0.0,51,51.0,0.0,30.0,0.0,0.0,0.0,0.0,-13.0,0.0,2.0,0.0,0.0,0.0,1.3647889001657982e-10,1.2053122662587566e-10,1.0748941503925573e-10,9.500217045115216e-11,7.926350126895774e-11,6.951680558873915e-11,5.431373444264019e-11,4.593237547143661e-11,3.464504992922904e-11,2.6302243231089808e-11,1.9535239768201038e-11,1.4185034326684513e-11,1.0491267441790701e-11,7.313083076140655e-12,4.473817893829593e-12,3.2026259725279794e-12,1.9115310476787388e-12,1.2768578192910396e-12,7.740089635373671e-13,4.506429647552201e-13,2.6454745895094606e-13,1.5605690590782973e-13,9.027516131420345e-14,4.408299446563136e-14,2.4344499805568618e-14,1.3342520532491572e-14,3.222054518763907e-09,2.192983048059001e-09,1.4092585645909872e-09,9.794689051567426e-10,6.910347092769227e-10,5.077687686385419e-10,3.5028835203109503e-10,2.459413064203229e-10,1.6260688820472093e-10,1.0664882268311594e-10,7.10392578678781e-11,4.714076684340919e-11,2.8783304239248e-11,1.714805370310183e-11,1.0935049066443883e-11,6.068781428235913e-12,3.5912475129957516e-12,1.8772110783497108e-12,1.0898260876077774e-12
0.0,52,52.0,0.0,30.0,0.0,0.0,0.0,0.0,-13.0,0.0,2.0,0.0,0.0,0.0,1.4024119996336522e-10,1.2978412811501406e-10,1.0851912921318732e-10,9.715907255556514e-11,8.342749163340797e-11,7.053826771190131e-11,5.743964168147153e-11,4.2880940353867515e-11,3.4560743156846185e-11,2.757882897063037e-11,2.0704359878750037e-11,1.4206261102995788e-11,1.0590305587114973e-11,7.275756765322217e-12,5.038735323526383e-12,3.0746416015083606e-12,2.0767721163287842e-12,1.242652756927683e-12,7.873374216064116e-13,4.598135909673735e-13,2.8345064327998823e-13,1.4934814970087269e-13,8.877518089664195e-14,4.673166009517816e-14,2.437544004020608e-14,1.1369872270910982e-14,3.178613553078883e-09,2.0767393489833415e-09,1.4834476650210188e-09,1.1003255979378269e-09,7.104871310497972e-10,5.208628675439017e-10,3.728289227976311e-10,2.5653630442488206e-10,1.626049981361827e-10,1.0950059842045342e-10,7.622987750594915e-11,4.825958742011632e-11,2.998852486063531e-11,1.8299553591901868e-11,1.0237263946496752e-11,6.125627206134425e-12,3.5592464977001893e-12,1.826629619437614e-12,1.0579540789198476e-12
0.0,53,53.0,0.0,30.0,0.0,0.0,0.0,0.0,-13.0,0.0,2.0,0.0,0.0,0.0,1.3567936431369086e-10,1.256835900267364e-10,1.1255077485164842e-10,9.574850188039956e-11,8.636760952168753e-11,6.977207558130995e-11,5.7056914750498576e-11,4.390668590141264e-11,3.657491011636148e-11,2.8853085436848463e-11,2.1036754830932942e-11,1.491495655555415e-11,1.0233355412585593e-11,7.262647098206738e-12,4.8610183234964785e-12,3.0736386549409265e-12,2.0110798382009474e-12,1.286347518270988e-12,8.276483109080805e-13,4.715071560955427e-13,2.8257806647710366e-13,1.5002018310011586e-13,8.542550643586149e-14,4.53641940849089e-14,2.463709387594548e-14,1.3132507474434733e-14,3.1967550364569094e-09,2.2436054704183873e-09,1.4739047931381105e-09,1.05939095483692e-09,7.694846001520773e-10,5.262276190098709e-10,3.831340891848421e-10,2.6812390754772184e-10,1.7373703584685176e-10,1.196057799193139e-10,7.539025989833248e-11,4.8202995267165614e-11,2.9032123901478602e-11,1.8068437792420617e-11,1.0776364691598767e-11,6.2361676768702606e-12,3.820899955766867e-12,2.03741258446507e-12,1.0408898025914764e-12
0.0,54,54.0,0.0,30.0,0.0,0.0,0.0,0.0,-13.0,0.0,2.0,0.0,0.0,0.0,1.4527055047798358e-10,1.3511911391442055e-10,1.1627306297845478e-10,9.882652242538503e-11,8.635045174077307e-11,7.115645859589645e-11,5.983746379870723e-11,4.9179294329615685e-11,3.7546345852072434e-11,2.8859655788708138e-11,2.151791132149449e-11,1.422230317091282e-11,1.0795473617615758e-11,7.609315874761407e-12,4.847791351278196e-12,3.1491772975068766e-12,2.031192013023493e-12,1.3631514306748103e-12,7.443529830053182e-13,4.854388738710067e-13,2.699593943140904e-13,1.6521542784413814e-13,9.303979861661417e-14,4.7503171559962037e-14,2.524199961859914e-14,1.207765676475775e-14,3.531960888840091e-09,2.2666826694894707e-09,1.5595528777812754e-09,1.094759178128295e-09,7.640795097730125e-10,5.669548774152821e-10,3.830639523518565e-10,2.447332520807438e-10,1.799747529419266e-10,1.1650557230361483e-10,7.935391782565551e-11,5.1749748808395017e-11,3.098319916884001e-11,1.8577436502855646e-11,1.1448543714930693e-11,6.664973767121933e-12,3.6323301627418185e-12,2.025777761788471e-12,1.1103316152838132e-12
