Line_number,Fiducial,Easting,Northing,Height,Elevation,tx_pitch,tx_roll,tx_yaw,txrx_dx,txrx_dy,txrx_dz,rx_pitch,rx_roll,rx_yaw,S0Z_time_3.834e-04,S0Z_time_3.924e-04,S0Z_time_4.039e-04,S0Z_time_4.184e-04,S0Z_time_4.364e-04,S0Z_time_4.589e-04,S0Z_time_4.869e-04,S0Z_time_5.224e-04,S0Z_time_5.679e-04,S0Z_time_6.249e-04,S0Z_time_6.969e-04,S0Z_time_7.879e-04,S0Z_time_9.019e-04,S0Z_time_1.046e-03,S0Z_time_1.227e-03,S0Z_time_1.456e-03,S0Z_time_1.744e-03,S0Z_time_2.109e-03,S0Z_time_2.567e-03,S0Z_time_3.145e-03,S0Z_time_3.864e-03,S0Z_time_4.745e-03,S0Z_time_5.821e-03,S0Z_time_7.140e-03,S0Z_time_8.754e-03,S0Z_time_1.073e-02,S1Z_time_2.057e-05,S1Z_time_2.607e-05,S1Z_time_3.307e-05,S1Z_time_4.206e-05,S1Z_time_5.356e-05,S1Z_time_6.807e-05,S1Z_time_8.607e-05,S1Z_time_1.086e-04,S1Z_time_1.366e-04,S1Z_time_1.721e-04,S1Z_time_2.176e-04,S1Z_time_2.746e-04,S1Z_time_3.466e-04,S1Z_time_4.376e-04,S1Z_time_5.516e-04,S1Z_time_6.956e-04,S1Z_time_8.771e-04,S1Z_time_1.106e-03,S1Z_time_1.394e-03
0.0,0,0.0,0.0,30.0,0.0,0.0,0.0,0.0,-13.0,0.0,2.0,0.0,0.0,0.0,6.600852721878727e-10,6.171079984055551e-10,5.703948813212513e-10,5.202742590782053e-10,4.675051027087186e-10,4.1440741131509714e-10,3.6196416456914887e-10,3.096339744742055e-10,2.589141775822947e-10,2.1239538545888548e-10,1.7054447014207956e-10,1.3400889703431625e-10,1.0350870510090097e-10,7.84803741775044e-11,5.833493069112744e-11,4.2383087018155566e-11,2.998572890725653e-11,2.0497025049838332e-11,1.3454141855566763e-11,8.451377330343323e-12,5.094948701999502e-12,2.9695326803218693e-12,1.6740971306839787e-12,9.100472942509728e-13,4.822396046422004e-13,2.4592975526142203e-13,5.4452138001086754e-09,4.246565606683304e-09,3.3195382955841953e-09,2.599164289845936e-09,2.023673744662688e-09,1.5676837485436347e-09,1.2092691521893527e-09,9.238949453743956e-10,6.973227809881266e-10,5.16853130070482e-10,3.7352669942930213e-10,2.6473339053663087e-10,1.8292512912745417e-10,1.2290405379942246e-10,8.067554490052482e-11,5.172304612787099e-11,3.262421799190494e-11,2.0364652024331788e-11,1.2518497244898657e-11
0.0,1,1.0,0.0,30.0,0.0,0.0,0.0,0.0,-13.0,0.0,2.0,0.0,0.0,0.0,6.60122825156361e-10,6.171464418317462e-10,5.704346328933246e-10,5.203160167243102e-10,4.67549984408512e-10,4.144570766235578e-10,3.620211762689324e-10,3.0970286973695516e-10,2.5900248257963173e-10,2.1251362617082992e-10,1.7070495008439451e-10,1.342187683566783e-10,1.0376010244381245e-10,7.874723509565283e-11,5.857956711631817e-11,4.257190423216727e-11,3.01041837578859e-11,2.0551464614210212e-11,1.3464061133460173e-11,8.437868527356239e-12,5.0739633777559164e-12,2.949633691678877e-12,1.6582971518008815e-12,8.989964098961743e-13,4.750857849679847e-13,2.419448227834705e-13,5.445100422083908e-09,4.246450741524581e-09,3.3194215526265257e-09,2.5990450661053266e-09,2.023551354854724e-09,1.5675576176577486e-09,1.2091381782211648e-09,9.237574871584734e-10,6.971779906947022e-10,5.167002731826981e-10,3.733624793368637e-10,2.645558948386913e-10,1.8274701566655662e-10,1.227601721387032e-10,8.060543660447999e-11,5.174114836002119e-11,3.270579599727501e-11,2.046394899227181e-11,1.2599172472076057e-11
0.0,2,2.0,0.0,30.0,0.0,0.0,0.0,0.0,-13.0,0.0,2.0,0.0,0.0,0.0,6.601621308528995e-10,6.171868271515185e-10,5.704765895747358e-10,5.203603557081252e-10,4.675979845072172e-10,4.145106074780295e-10,3.620830969126145e-10,3.0977820096765127e-10,2.590994024621424e-10,2.1264318650688172e-10,1.7087935349893678e-10,1.3444375136346588e-10,1.0402507858696588e-10,7.902326826055189e-11,5.882753254943928e-11,4.275899983879446e-11,3.021822193425916e-11,2.060115216668151e-11,1.3470280304258712e-11,8.422025605228933e-12,5.051713861313573e-12,2.9291337140768795e-12,1.6422506403374746e-12,8.878934961709738e-13,4.679277075103296e-13,2.3798579174954106e-13,5.444979885503051e-09,4.2463286559941305e-09,3.31929750592875e-09,2.5989184272913175e-09,2.0234214428329665e-09,1.5674238374478131e-09,1.2089993317595467e-09,9.236119376793271e-10,6.970250428771277e-10,5.165391103736911e-10,3.7318953789781953e-10,2.643701897826822e-10,1.8256434529202783e-10,1.2261880962912074e-10,8.054496958430541e-11,5.177189171660506e-11,3.279776252033849e-11,2.0568784905477832e-11,1.268152272003851e-11
0.0,3,3.0,0.0,30.0,0.0,0.0,0.0,0.0,-13.0,0.0,2.0,0.0,0.0,0.0,6.602035809528776e-10,6.172295809287782e-10,5.705212243682898e-10,5.204078118083272e-10,4.676497230367185e-10,4.145687345444539e-10,3.6215080379853676e-10,3.098610458261746e-10,2.5920626768030676e-10,2.1278564760349844e-10,1.7106940676166883e-10,1.3468549718706763e-10,1.0430496372517541e-10,7.930934205678836e-11,5.907925753908839e-11,4.29445005818076e-11,3.0327805992910255e-11,2.064597216730022e-11,1.347265059886768e-11,8.40369938480019e-12,5.028073877385049e-12,2.907941161778585e-12,1.6258984450079423e-12,8.767035364922297e-13,4.607470701417435e-13,2.340421028998599e-13,5.444851263253919e-09,4.246198418427813e-09,3.3191652164600376e-09,2.5987834269178268e-09,2.0232830567783843e-09,1.5672814417896915e-09,1.2088516252091608e-09,9.234573061775445e-10,6.968629497040741e-10,5.163686114250945e-10,3.730068241947822e-10,2.641754757357323e-10,1.823769795269281e-10,1.224806210628027e-10,8.049524513865094e-11,5.181630245332301e-11,3.290077730674849e-11,2.0679482752957885e-11,1.2765702943445661e-11
0.0,4,4.0,0.0,30.0,0.0,0.0,0.0,0.0,-13.0,0.0,2.0,0.0,0.0,0.0,6.60247592392333e-10,6.172751596109201e-10,5.705690458518859e-10,5.204589632999848e-10,4.677058706706398e-10,4.1463224832685623e-10,3.6222524407854035e-10,3.099525609039232e-10,2.5932448812081903e-10,2.129426478022062e-10,1.7127683528864632e-10,1.349455659756791e-10,1.0460090648616119e-10,7.960609232578943e-11,5.933495086294938e-11,4.3128372444161966e-11,3.043281437701419e-11,2.0685787474262194e-11,1.3471037085483965e-11,8.382766696759435e-12,5.002941412188678e-12,2.8859822948666883e-12,1.6091931163460238e-12,8.653981477629654e-13,4.535292931451601e-13,2.301044376685332e-13,5.444713650460311e-09,4.246059120735448e-09,3.3190237703119e-09,2.598639146379231e-09,2.0231352760390925e-09,1.5671294978251887e-09,1.208694108902805e-09,9.2329264967695e-10,6.966907774602448e-10,5.161878011411731e-10,3.7281336844004717e-10,2.6397111447161556e-10,1.8218503709390042e-10,1.2234653752469142e-10,8.045754309555608e-11,5.1875432515096967e-11,3.3015415296893374e-11,2.0796253676785678e-11,1.2851784593844072e-11
0.0,5,5.0,0.0,30.0,0.0,0.0,0.0,0.0,-13.0,0.0,2.0,0.0,0.0,0.0,6.602946223745462e-10,6.173240650813101e-10,5.706206143903101e-10,5.205144479755315e-10,4.677671667717805e-10,4.1470201854693703e-10,3.6230745582212276e-10,3.1005400466301193e-10,2.5945557754887934e-10,2.1311590793177996e-10,1.7150338999814994e-10,1.352254565668157e-10,1.0491390864683224e-10,7.991396037144912e-11,5.95946344735466e-11,4.33104450849315e-11,3.0533051864196396e-11,2.0720437992643467e-11,1.3465311145379979e-11,8.359121999528986e-12,4.976232302999021e-12,2.8631971398160735e-12,1.592096511199628e-12,8.539543617715832e-13,4.462628788675103e-13,2.2616454658992394e-13,5.4445661453692584e-09,4.2459098590265355e-09,3.318872259055914e-09,2.5984846750412426e-09,2.022977190582398e-09,1.5669670846390562e-09,1.2085258495651589e-09,9.23117050766123e-10,6.96507621908711e-10,5.159957335194341e-10,3.7260826118211324e-10,2.6375661710304497e-10,1.8198888578177083e-10,1.2221775657951898e-10,8.043331418749257e-11,5.195036330521079e-11,3.314218357638147e-11,2.091921848825232e-11,1.2939771427636758e-11
0.0,6,6.0,0.0,30.0,0.0,0.0,0.0,0.0,-13.0,0.0,2.0,0.0,0.0,0.0,6.603451830915996e-10,6.173768599085385e-10,5.706765579981059e-10,5.205749797247324e-10,4.678344368345481e-10,4.147790126422382e-10,3.6239858771344814e-10,3.1016675808362416e-10,2.5960117407947224e-10,2.1330725004161206e-10,1.717508639748742e-10,1.3552662331512797e-10,1.0524484545553954e-10,8.023321748072494e-11,5.985816834904555e-11,4.3490430931580324e-11,3.062825906153679e-11,2.0749741195128726e-11,1.3455345799603562e-11,8.332671540584928e-12,4.9478755703858924e-12,2.8395364273931226e-12,1.5745779483991062e-12,8.423536586865171e-13,4.3893889801144914e-13,2.2221511110722325e-13,5.444407835775846e-09,4.245749719852597e-09,3.31870976583629e-09,2.598319096211201e-09,2.022807886456567e-09,1.5667932781658852e-09,1.2083459153739487e-09,9.229296022351249e-10,6.963125906587064e-10,5.157914737683859e-10,3.723906424102984e-10,2.6353164372753e-10,1.8178914512800443e-10,1.2209573864858142e-10,8.042417193836813e-11,5.204220326406925e-11,3.3281529805146845e-11,2.1048421889183377e-11,1.3029610906898716e-11
0.0,7,7.0,0.0,30.0,0.0,0.0,0.0,0.0,-13.0,0.0,2.0,0.0,0.0,0.0,6.603998563484788e-10,6.174341825018611e-10,5.707375880945507e-10,5.20641364964102e-10,4.679086096914851e-10,4.148643138699938e-10,3.6249991803640257e-10,3.102923439250976e-10,2.5976305798941156e-10,2.1351861156647245e-10,1.7202110231018998e-10,1.358504841738123e-10,1.0559447639163182e-10,8.056398056351575e-11,6.012526848589838e-11,4.366794015908584e-11,3.0718120510905215e-11,2.0773493382020512e-11,1.3441012864859801e-11,8.303329362577762e-12,4.917810040041945e-12,2.81495927592444e-12,1.5566127799480072e-12,8.305811943659977e-13,4.315505820914825e-13,2.1824962190023427e-13,5.444237789180578e-09,4.24557777023492e-09,3.3185353553369823e-09,2.5981414770780542e-09,2.0226264352895107e-09,1.5666071403138099e-09,1.208153365533718e-09,9.227293963174659e-10,6.961047901821454e-10,5.155740859315207e-10,3.7215969840507144e-10,2.6329601236052e-10,1.8158669730379414e-10,1.219822078278651e-10,8.043188432531067e-11,5.215208151945552e-11,3.3433845114528743e-11,2.118384173762805e-11,1.3121202403726279e-11
0.0,8,8.0,0.0,30.0,0.0,0.0,0.0,0.0,-13.0,0.0,2.0,0.0,0.0,0.0,6.604593089019145e-10,6.174967629746944e-10,5.708045159416244e-10,5.207145196980657e-10,4.679907352648271e-10,4.149591398055657e-10,3.6261287375056187e-10,3.1043244542827536e-10,2.599431677781416e-10,2.1375205605961158e-10,1.7231600669387127e-10,1.3619842212702967e-10,1.0596344874132371e-10,8.090622108798748e-11,6.039551961127249e-11,4.384249244059074e-11,3.080227166242059e-11,2.079147137814883e-11,1.3422181294097229e-11,8.271014540959011e-12,4.885981888416816e-12,2.7894314484852705e-12,1.5381812859772879e-12,8.186251860697097e-13,4.2409299190628113e-13,2.1426228483613784e-13,5.444055045534101e-09,4.245393050315376e-09,3.3183480664426077e-09,2.5979508614045136e-09,2.0224318865623275e-09,1.5664077110254013e-09,1.207947243032166e-09,9.225155170704109e-10,6.958833159551787e-10,5.153426247766784e-10,3.719146651442791e-10,2.63049715700812e-10,1.8138270438114475e-10,1.2187915568304442e-10,8.045836503311336e-11,5.228113886120016e-11,3.359946337858195e-11,2.1325394959410157e-11,1.3214403096906278e-11
0.0,9,9.0,0.0,30.0,0.0,0.0,0.0,0.0,-13.0,0.0,2.0,0.0,0.0,0.0,6.605243088654296e-10,6.175654400629098e-10,5.708782701071597e-10,5.207954875525181e-10,4.680820032085723e-10,4.150648615909887e-10,3.627390500214326e-10,3.105889248282121e-10,2.60143614890825e-10,2.1400978108377596e-10,1.7263753573294568e-10,1.3657178147721612e-10,1.0635229590716683e-10,8.125976925346035e-11,6.066838411461775e-11,4.401352624884924e-11,3.088030482199481e-11,2.0803434360154856e-11,1.3398716273689316e-11,8.235649285876694e-12,4.8523428669053656e-12,2.7629240438108974e-12,1.5192678193393916e-12,8.064764240959082e-13,4.1656274576293747e-13,2.1024795178860192e-13,5.4438586118281205e-09,4.2451945678782914e-09,3.318146906830143e-09,2.5977462641793862e-09,2.0222232618348513e-09,1.5661940024525634e-09,1.207726569714495e-09,9.222870349078121e-10,6.956472447333909e-10,5.150961312126139e-10,3.716548377151178e-10,2.6279294489191946e-10,1.8117863067321894e-10,1.2178884679912647e-10,8.050566393882155e-11,5.243051673133403e-11,3.377865809221318e-11,2.1472941204733838e-11,1.3309032208501857e-11
0.0,10,10.0,0.0,30.0,0.0,0.0,0.0,0.0,-13.0,0.0,2.0,0.0,0.0,0.0,6.605957434832243e-10,6.17641179391686e-10,5.709599152369768e-10,5.208854590555911e-10,4.681837627092818e-10,4.151830241929064e-10,3.628802304406847e-10,3.1076384186958345e-10,2.6036669727198107e-10,2.142941235173437e-10,1.7298770153420164e-10,1.3697185994188292e-10,1.067614317557466e-10,8.16243147736489e-11,6.094320829552838e-11,4.418040631845085e-11,3.095177421013884e-11,2.080912564489738e-11,1.3370478799191765e-11,8.19715765431544e-12,4.81684902754678e-12,2.735412516551785e-12,1.4998601434958341e-12,7.941278837615395e-13,4.089577949818995e-13,2.0620207379586381e-13,5.443647458044867e-09,4.244981294249321e-09,3.3179308489904205e-09,2.5975266677036214e-09,2.0219995503767767e-09,1.5659649947126148e-09,1.2074903431026651e-09,9.220430025995565e-10,6.953956283234599e-10,5.148336309222102e-10,3.7137958562573936e-10,2.6252611983774956e-10,1.8097626915548027e-10,1.2171382504043064e-10,8.05759564052652e-11,5.2601344610797943e-11,3.3971637669422104e-11,2.1626285008486005e-11,1.3404874051231914e-11
0.0,11,11.0,0.0,30.0,0.0,0.0,0.0,0.0,-13.0,0.0,2.0,0.0,0.0,0.0,6.606746385409315e-10,6.1772509334675e-10,5.71050672377864e-10,5.209857923934359e-10,4.682975436590582e-10,4.153153678606147e-10,3.63038408079853e-10,3.109594723893943e-10,2.606149117462707e-10,2.1460756231282252e-10,1.733685628097495e-10,1.3739989717124295e-10,1.0719114191509921e-10,8.199940525991041e-11,6.121922673562719e-11,4.4342429738551194e-11,3.101620026864649e-11,2.0808274350766678e-11,1.3337325550086225e-11,8.155464696592825e-12,4.7794598219620276e-12,2.7068759488286545e-12,1.479948920685497e-12,7.815744175100539e-13,4.0127723707815703e-13,2.021206741786431e-13,5.443420514139589e-09,4.244752161242686e-09,3.317698827346359e-09,2.597291018752731e-09,2.0217597058365725e-09,1.5657196328822495e-09,1.207237534569351e-09,9.21782452240026e-10,6.95127488464588e-10,5.145541362287475e-10,3.710883742337907e-10,2.622499258781015e-10,1.8077777115533806e-10,1.2165691959499464e-10,8.067153095864606e-11,5.2794726017180406e-11,3.41785397135624e-11,2.1785176981706107e-11,1.3501680229634347e-11
0.0,12,12.0,0.0,30.0,0.0,0.0,0.0,0.0,-13.0,0.0,2.0,0.0,0.0,0.0,6.60762179655234e-10,6.178184627768595e-10,5.71151941061087e-10,5.210980358328607e-10,4.684250793721949e-10,4.154638509214121e-10,3.63215807447282e-10,3.111783269296662e-10,2.608909650924166e-10,2.1495271859130716e-10,1.7378221458682244e-10,1.3785706008345855e-10,1.0764157268086149e-10,8.238444293507182e-11,6.149556539374673e-11,4.4498831033484936e-11,3.107307333727373e-11,2.0800596891038972e-11,1.3299108948692678e-11,8.110495915415634e-12,4.740137480240754e-12,2.6772965144938905e-12,1.459527317411812e-12,7.688125111257882e-13,3.935211591971996e-13,1.980003393306969e-13,5.443176667835561e-09,4.244506058935775e-09,3.3174497362437725e-09,2.5970382265672213e-09,2.0215026436986296e-09,1.5654568250124078e-09,1.206967088590328e-09,9.215043928081044e-10,6.948418126261702e-10,5.142566514835422e-10,3.7078079275622297e-10,2.619653567751656e-10,1.805856785820146e-10,1.216212499482737e-10,8.079477494592733e-11,5.3011723244034675e-11,3.439942464852605e-11,2.1949314403816984e-11,1.3599171246068968e-11
0.0,13,13.0,0.0,30.0,0.0,0.0,0.0,0.0,-13.0,0.0,2.0,0.0,0.0,0.0,6.608597356628669e-10,6.179227607301365e-10,5.712653233290628e-10,5.212239519725421e-10,4.685683309816219e-10,4.156306740041436e-10,3.6341490735271075e-10,3.1142316925327046e-10,2.6119778356838956e-10,2.153323528433255e-10,1.7423077448758688e-10,1.383444252824701e-10,1.0811271802907723e-10,8.277868023212919e-11,6.177124387254396e-11,4.4648786500051346e-11,3.112185680326899e-11,2.078579828572236e-11,1.3255677331242526e-11,8.062176953277683e-12,4.69884660165019e-12,2.6466590919181395e-12,1.4385907018931485e-12,7.558400913167261e-13,3.856905060692031e-13,1.9383822492918005e-13,5.442914763081778e-09,4.244241834122935e-09,3.3171824286623917e-09,2.5967671614925635e-09,2.0212272393593455e-09,1.5651754410332097e-09,1.2066779228666172e-09,9.212078080196624e-10,6.945375506948407e-10,5.139401825096599e-10,3.7045658952110553e-10,2.6167376403291824e-10,1.8040295798222038e-10,1.21610228966449e-10,8.09481577995564e-11,5.3253340936978906e-11,3.4634268998174034e-11,2.211834147629711e-11,1.3697037696711242e-11
0.0,14,14.0,0.0,30.0,0.0,0.0,0.0,0.0,-13.0,0.0,2.0,0.0,0.0,0.0,6.609688843099741e-10,6.180396784046315e-10,5.713926498631404e-10,5.21365543957159e-10,4.687295136187425e-10,4.158183057378179e-10,3.636384646205064e-10,3.1169703455085157e-10,2.6153852055034723e-10,2.157493589191259e-10,1.7471636547100598e-10,1.3886295874624506e-10,1.0860440513269306e-10,8.318121471123769e-11,6.204517719379249e-11,4.4791418000774395e-11,3.116198980709925e-11,2.076357329387042e-11,1.3206875187533111e-11,8.010433450173276e-12,4.655553907200576e-12,2.614950991850989e-12,1.4171364139036576e-12,7.426563745058683e-13,3.7778696805161946e-13,1.8963207527781576e-13,5.4426335990686486e-09,4.243958289347417e-09,3.3168957155412206e-09,2.596476654136156e-09,2.0209323267105147e-09,1.564874312477748e-09,1.2063689291432862e-09,9.208916542285917e-10,6.942136126859287e-10,5.136037508760268e-10,3.7011571528211253e-10,2.6137691258192906e-10,1.8023303566817198e-10,1.2162756328046145e-10,8.113421157493118e-11,5.3520508595523734e-11,3.48829585381425e-11,2.229184942216079e-11,1.3794941195470877e-11
0.0,15,15.0,0.0,30.0,0.0,0.0,0.0,0.0,-13.0,0.0,2.0,0.0,0.0,0.0,6.610914404227976e-10,6.181711534709464e-10,5.715360083457036e-10,5.215250837616473e-10,4.689111244476209e-10,4.1602950992682936e-10,3.6388953852669237e-10,3.120032470407166e-10,2.6191656185832586e-10,2.1620675442175618e-10,1.752410948845727e-10,1.3941349293374142e-10,1.0911627871799815e-10,8.35909836445222e-11,6.231617733675698e-11,4.4925796357875404e-11,3.119288957007104e-11,2.073360737708222e-11,1.315254344456788e-11,7.955191031898909e-12,4.6102281172350625e-12,2.58216177491661e-12,1.3951635918451928e-12,7.292617486966812e-13,3.698128858528738e-13,1.853802534049883e-13,5.442331929729252e-09,4.243654182444748e-09,3.3165883656431103e-09,2.5961654949374474e-09,2.0206166971608094e-09,1.5645522329941998e-09,1.206038974563977e-09,9.205548581776922e-10,6.938688677878279e-10,5.132464140214672e-10,3.697583755466168e-10,2.610770428205368e-10,1.8007983308394512e-10,1.2167725015693244e-10,8.135550846890993e-11,5.381406210115595e-11,3.514528150476298e-11,2.246937656099548e-11,1.389251512989365e-11
0.0,16,16.0,0.0,30.0,0.0,0.0,0.0,0.0,-13.0,0.0,2.0,0.0,0.0,0.0,6.612294867185292e-10,6.183194009002417e-10,5.716977741635e-10,5.217051426242065e-10,4.691159725896188e-10,4.16267374154836e-10,3.6417151576321357e-10,3.1234543657314537e-10,2.623355282549114e-10,2.1670766705979352e-10,1.7580702965186092e-10,1.3999670144610748e-10,1.09647784563431e-10,8.400675855885717e-11,6.258295473063759e-11,4.505094444962915e-11,3.121395339459553e-11,2.0695577509860335e-11,1.3092519782339381e-11,7.896375402024715e-12,4.562839926739357e-12,2.548283139318977e-12,1.372673045271016e-12,7.156576818758725e-13,3.617711693321589e-13,1.810817793838244e-13,5.442008463673668e-09,4.243328226552172e-09,3.316259105901326e-09,2.5958324340658868e-09,2.0202790990610877e-09,1.5642079596427317e-09,1.2056869033942877e-09,9.20196314447139e-10,6.935021452472463e-10,5.128672925072861e-10,3.693850929699403e-10,2.6077693891188994e-10,1.7994780146202023e-10,1.2176357002895309e-10,8.161463507621422e-11,5.4134724395014704e-11,3.542092202095607e-11,2.2650408449051032e-11,1.3989365328688086e-11
0.0,17,17.0,0.0,30.0,0.0,0.0,0.0,0.0,-13.0,0.0,2.0,0.0,0.0,0.0,6.613854073893332e-10,6.184869464030719e-10,5.718806435298081e-10,5.219086236751202e-10,4.69347210935592e-10,4.1653533971326246e-10,3.644881356526432e-10,3.1272755375351826e-10,2.62799274517374e-10,2.1725531647141723e-10,1.76416167418406e-10,1.406130713847637e-10,1.1019815242735692e-10,8.442713998326933e-11,6.284411984197632e-11,4.516584007656285e-11,3.122456037584402e-11,2.0649152855482044e-11,1.3026638978528486e-11,7.83391251957378e-12,4.513362057991491e-12,2.513308863860955e-12,1.3496671636822895e-12,7.018466516766665e-13,3.5366522839526104e-13,1.767363741393852e-13,5.441661864516812e-09,4.242979090554498e-09,3.3159066222013747e-09,2.595476181573183e-09,2.0199182375293817e-09,1.5638402149883958e-09,1.2053115389272012e-09,9.198148825069872e-10,6.931122378411259e-10,5.124656059541774e-10,3.6899678093851085e-10,2.6048000309521257e-10,1.798419546803143e-10,1.2189107384496957e-10,8.191416319610644e-11,5.448308545835326e-11,3.570945388242674e-11,2.2834378143116212e-11,1.4085070702788466e-11
0.0,18,18.0,0.0,30.0,0.0,0.0,0.0,0.0,-13.0,0.0,2.0,0.0,0.0,0.0,6.615619245617109e-10,6.186766625520564e-10,5.72087669069732e-10,5.221387967727908e-10,4.696083697979822e-10,4.168372326854816e-10,3.6484351524537516e-10,3.1315388299334373e-10,2.633118843985875e-10,2.1785299099724006e-10,1.7707040349137852e-10,1.4126287357146583e-10,1.1076637868739434e-10,8.48505526139473e-11,6.309818495683822e-11,4.5269418637631525e-11,3.122407285442957e-11,2.0593995328112602e-11,1.295473328473822e-11,7.767728850687615e-12,4.46176937521257e-12,2.4772347948104884e-12,1.3261498544221922e-12,6.878320920259536e-13,3.454989144947962e-13,1.7234450576527406e-13,5.441290751569344e-09,4.242605399946684e-09,3.315529560554507e-09,2.5950954077339953e-09,2.0195327746997723e-09,1.5634476900044406e-09,1.204911685353275e-09,9.194093833627476e-10,6.926979089697606e-10,5.120407195161189e-10,3.685948294970358e-10,2.601903355763328e-10,1.7976789906600837e-10,1.2206456438352564e-10,8.225661706571732e-11,5.4859581783148634e-11,3.6010334835261714e-11,2.3020666622393335e-11,1.4179183908776618e-11
0.0,19,19.0,0.0,30.0,0.0,0.0,0.0,0.0,-13.0,0.0,2.0,0.0,0.0,0.0,6.617621376963827e-10,6.188918076234423e-10,5.723222978746452e-10,5.223993355174039e-10,4.699033923028221e-10,4.171772959416609e-10,3.6524217382714443e-10,3.1362905278376064e-10,2.638776607079844e-10,2.1850401885669452e-10,1.7777149343696917e-10,1.419461308299941e-10,1.1135120897700655e-10,8.527524108164867e-11,6.334356622255455e-11,4.5360575634688525e-11,3.1211837633394324e-11,2.052976006367583e-11,1.2876632840839802e-11,7.697751686865258e-12,4.408039049561412e-12,2.4400588677586062e-12,1.3021265040433132e-12,6.736183532929796e-13,3.372764716117187e-13,1.6790743511064308e-13,5.440893700865677e-09,4.242205738099625e-09,3.3151265286173663e-09,2.594688743515824e-09,2.0191213304481167e-09,1.5630290477916704e-09,1.2044861293409291e-09,9.18978595902788e-10,6.922579047571574e-10,5.115922030589905e-10,3.6818120475983086e-10,2.5991281931380083e-10,1.797318587112453e-10,1.2228907068138035e-10,8.264443697029081e-11,5.526447555661744e-11,3.632290146519815e-11,2.320860338214029e-11,1.4271232073548357e-11
0.0,20,20.0,0.0,30.0,0.0,0.0,0.0,0.0,-13.0,0.0,2.0,0.0,0.0,0.0,6.619895659498528e-10,6.191360671484664e-10,5.725884119879442e-10,5.226943563653902e-10,4.702366713601311e-10,4.175602217097723e-10,3.656890562455127e-10,3.1415804236202213e-10,2.6450110966216413e-10,2.1921173317332486e-10,1.7852101124315526e-10,1.4266258457331112e-10,1.119511211118314e-10,8.569926648039553e-11,6.35785859827795e-11,4.543816900629732e-11,3.118718697898239e-11,2.0456095823819045e-11,1.2792166136656296e-11,7.62390952528582e-12,4.3521507655084165e-12,2.4017811576109172e-12,1.2776039587249456e-12,6.592106730915988e-13,3.2900249586784277e-13,1.6342725714078923e-13,5.44046924650626e-09,4.24177864791942e-09,3.3146960975071466e-09,2.594254781126981e-09,2.0186824836764487e-09,1.5625829280956985e-09,1.204033641033098e-09,9.185212532296603e-10,6.917909729714207e-10,5.111199055396543e-10,3.6775856287163786e-10,2.596532087090921e-10,1.7974069467277605e-10,1.2256981473801856e-10,8.307993926543263e-11,5.569783382017428e-11,3.6646364807421263e-11,2.3397467195093584e-11,1.436071761118867e-11
0.0,21,21.0,0.0,30.0,0.0,0.0,0.0,0.0,-13.0,0.0,2.0,0.0,0.0,0.0,6.622481934669161e-10,6.194135981144197e-10,5.728903712341382e-10,5.230284597131633e-10,4.706130879783642e-10,4.179911842827696e-10,3.6618955432788746e-10,3.1474618380797017e-10,2.6518691857771704e-10,2.1997943030023494e-10,1.793203030147534e-10,1.4341165999174463e-10,1.125643086055781e-10,8.612050379035494e-11,6.380147541125706e-11,4.550102127864829e-11,3.114943942327873e-11,2.0372645359324736e-11,1.2701160531908096e-11,7.546132508651746e-12,4.294086961613063e-12,2.3624039513938074e-12,1.2525905202460251e-12,6.446151553981103e-13,3.2068190310671786e-13,1.5890693434427926e-13,5.440015882294353e-09,4.2413226338918e-09,3.314236803851684e-09,2.5937920746021264e-09,2.018214774267893e-09,1.562107952564298e-09,1.2035529741333012e-09,9.180360395035849e-10,6.912958910910634e-10,5.106240474131763e-10,3.6733037943328285e-10,2.594182208388057e-10,1.7980191622946425e-10,1.229121696966987e-10,8.356527294292281e-11,5.6159507898762725e-11,3.697980677218583e-11,2.3586487020757756e-11,1.4447119156259528e-11
0.0,22,22.0,0.0,30.0,0.0,0.0,0.0,0.0,-13.0,0.0,2.0,0.0,0.0,0.0,6.625425175132344e-10,6.197290756973126e-10,5.732330582465933e-10,5.234067727554474e-10,4.710380506024164e-10,4.184758722978893e-10,3.6674952550919347e-10,3.1539915846559516e-10,2.659399259093502e-10,2.208103209208339e-10,1.8017043624254513e-10,1.4419243019485412e-10,1.1318866508063013e-10,8.653664029994307e-11,6.401037742325131e-11,4.554792151172163e-11,3.109790038761197e-11,2.0279045761566463e-11,1.2603442846331506e-11,7.46435292318616e-12,4.233833100203977e-12,2.321931839750522e-12,1.2270959547385178e-12,6.298387560579168e-13,3.1231990389510623e-13,1.5435031829670894e-13,5.4395320636498135e-09,4.240836164503177e-09,3.3137471520033657e-09,2.5932991404024672e-09,2.017716705852983e-09,1.5616027306270567e-09,1.2030428647374507e-09,9.175215881690779e-10,6.907715064534718e-10,5.101053342174573e-10,3.6690109506431093e-10,2.5921562743089653e-10,1.7992368217622693e-10,1.233216087666562e-10,8.410237297978202e-11,5.66491134285412e-11,3.732217746473159e-11,2.3774843028054095e-11,1.4529892631397286e-11
0.0,23,23.0,0.0,30.0,0.0,0.0,0.0,0.0,-13.0,0.0,2.0,0.0,0.0,0.0,6.628775992885118e-10,6.200877423429133e-10,5.736219254855122e-10,5.238349938504779e-10,4.715175350525207e-10,4.1902051987841624e-10,3.673753076130771e-10,3.1612298643599547e-10,2.6676508257823434e-10,2.2170747344489455e-10,1.8107214477896252e-10,1.4500357971990247e-10,1.1382176987927456e-10,8.694517510115426e-11,6.420334981874563e-11,4.557762701281944e-11,3.1031862648515246e-11,2.0174928833035573e-11,1.2498840032294102e-11,7.378505754095342e-12,4.171377961583692e-12,2.2803718239303336e-12,1.201131511996077e-12,6.148892730884293e-13,3.039219854466629e-13,1.4976215542689185e-13,5.439016209787708e-09,4.24031767502739e-09,3.313225616332054e-09,2.592774458032749e-09,2.017186749554215e-09,1.5610658657972197e-09,1.2025020285834436e-09,9.169764829033645e-10,6.902167921374964e-10,5.095650947756155e-10,3.66476277417472e-10,2.590543452846079e-10,1.8011478995018897e-10,1.2380364424879748e-10,8.469291082960008e-11,5.716601133750649e-11,3.7672293456986285e-11,2.39616676833739e-11,1.460847246072781e-11
0.0,24,24.0,0.0,30.0,0.0,0.0,0.0,0.0,-13.0,0.0,2.0,0.0,0.0,0.0,6.632591171840148e-10,6.204954589410372e-10,5.740630439668063e-10,5.243194380399689e-10,4.720581245203405e-10,4.1963193575814977e-10,3.680737285356866e-10,3.169240077351361e-10,2.6766740349329133e-10,2.226737492889587e-10,1.820257697589914e-10,1.4584336788063392e-10,1.1446087517535782e-10,8.734341969701772e-11,6.437836858834006e-11,4.558886478722437e-11,3.0950606672841145e-11,2.005992151048764e-11,1.2387179942169295e-11,7.288529298102062e-12,4.106713959250747e-12,2.237733435803208e-12,1.174709953530118e-12,5.997753404583311e-13,2.954938999645503e-13,1.4514807311208485e-13,5.4384667061556e-09,4.239765570663551e-09,3.3126706435001294e-09,2.592216470713712e-09,2.016623348894222e-09,1.5604959620890359e-09,1.2019291564613532e-09,9.163992632510616e-10,6.896309230578564e-10,5.090054476896235e-10,3.660627994659031e-10,2.589445222665256e-10,1.8038465022648922e-10,1.2436375616387481e-10,8.533824254396008e-11,5.770929015232404e-11,3.8028837042796255e-11,2.4146046843796998e-11,1.4682272933685633e-11
0.0,25,25.0,0.0,30.0,0.0,0.0,0.0,0.0,-13.0,0.0,2.0,0.0,0.0,0.0,6.636934221640211e-10,6.209587577599695e-10,5.745631533441112e-10,5.248670832739968e-10,4.726670489350127e-10,4.20317529310807e-10,3.6885210936524395e-10,3.178088535564238e-10,2.686519081473871e-10,2.2371172972654968e-10,1.8303119682584857e-10,1.4670959248830087e-10,1.1510289487078783e-10,8.772849972042809e-11,6.45333312916897e-11,4.558033269724706e-11,3.0853400855157095e-11,1.993364637674005e-11,1.2268292202245706e-11,7.194365832689493e-12,4.0398374733415316e-12,2.1940288689990137e-12,1.1478455878747622e-12,5.845064242472778e-13,2.8704165884366874e-13,1.4051454249751827e-13,5.437881907132605e-09,4.239178230001913e-09,3.312080654610735e-09,2.5916235861987753e-09,2.0160249260579286e-09,1.5598916301128164e-09,1.2013229076838789e-09,9.157884377321865e-10,6.890133776836925e-10,5.084294999380141e-10,3.656690332285732e-10,2.5889761538770465e-10,1.8074324450129335e-10,1.2500731016302368e-10,8.60393551478163e-11,5.827775001276606e-11,3.8390356477491115e-11,2.4327020784308533e-11,1.4750689716038297e-11
0.0,26,26.0,0.0,30.0,0.0,0.0,0.0,0.0,-13.0,0.0,2.0,0.0,0.0,0.0,6.641875948604655e-10,6.214848967246745e-10,5.751297128999125e-10,5.254856167773323e-10,4.733522228417718e-10,4.210853321775239e-10,3.6971825923437863e-10,3.187844059293669e-10,2.697235491773685e-10,2.248236341204611e-10,1.8408779015493753e-10,1.4759955452898668e-10,1.1574439553447945e-10,8.809735771933949e-11,6.466606040006084e-11,4.555070030652681e-11,3.0739501698590816e-11,1.9795722299432216e-11,1.2142009204093997e-11,7.0959623415573146e-12,3.970749200094855e-12,2.149273119709531e-12,1.1205543118592236e-12,5.690928202735844e-13,2.7857153208143725e-13,1.3586881493352593e-13,5.4372601390051256e-09,4.2385540087845175e-09,3.311454047114025e-09,2.5909941778886814e-09,2.015389889681378e-09,1.5592514922591237e-09,1.2006819018029316e-09,9.151425082727847e-10,6.883640718269919e-10,5.078415813899597e-10,3.6530505725792395e-10,2.5892645678878855e-10,1.8120106311485582e-10,1.2573946463031116e-10,8.67968120319263e-11,5.886988876972914e-11,3.8755267166367966e-11,2.450358507867278e-11,1.481310149601149e-11
0.0,27,27.0,0.0,30.0,0.0,0.0,0.0,0.0,-13.0,0.0,2.0,0.0,0.0,0.0,6.647495038757341e-10,6.220819145353931e-10,5.757709529070505e-10,5.261834808609859e-10,4.741222807340575e-10,4.219440139220661e-10,3.706804599471155e-10,3.1985774392803814e-10,2.7088712781871544e-10,2.2601122950921764e-10,1.8519432391397482e-10,1.4851002442295652e-10,1.1638158960093274e-10,8.844675691485953e-11,6.477430648015202e-11,4.5498609396446984e-11,3.060815398958018e-11,1.9645765236970323e-11,1.2008167223131307e-11,6.993271295555574e-12,3.899454515677562e-12,2.1034841360196094e-12,1.0928536567110395e-12,5.535456524263881e-13,2.7009005212235733e-13,1.312188296979525e-13,5.436599703246147e-09,4.237891243909575e-09,3.310789196356962e-09,2.5903265864801583e-09,2.0147166442892795e-09,1.5585741862230453e-09,1.200004709230205e-09,9.144600111559107e-10,6.876835320572347e-10,5.072475188511858e-10,3.649828751616529e-10,2.590453027465261e-10,1.817690211767296e-10,1.2656506716888842e-10,8.761069826283536e-11,5.948389052072624e-11,3.9121853725331376e-11,2.4674691246657644e-11,1.486887174332069e-11
0.0,28,28.0,0.0,30.0,0.0,0.0,0.0,0.0,-13.0,0.0,2.0,0.0,0.0,0.0,6.653878646927272e-10,6.227586860335652e-10,5.764959257173406e-10,5.269699173262574e-10,4.749866085408153e-10,4.229028898422117e-10,3.7174743815147343e-10,3.210360744649159e-10,2.7214719526986044e-10,2.2727573171437085e-10,1.8634891194811212e-10,1.494372105182865e-10,1.1701033098990807e-10,8.877328578711012e-11,6.485575108700998e-11,4.5422674156134834e-11,3.0458591027177424e-11,1.9483389253228163e-11,1.1866607672664505e-11,6.8862514880909774e-12,3.825963853206928e-12,2.056682974868273e-12,1.0647628379335624e-12,5.378768710599987e-13,2.6160402122021573e-13,1.2657309174589824e-13,5.435898880138795e-09,4.237188257605607e-09,3.3100844566764307e-09,2.589619122482196e-09,2.014003601404757e-09,1.5578583659710338e-09,1.19928984215263e-09,9.1373958137294e-10,6.86973117447207e-10,5.066549527946889e-10,3.6471664114662787e-10,2.5926986008872843e-10,1.8245834995975177e-10,1.27488540998064e-10,8.848056683952829e-11,6.011761689476975e-11,3.948827279102567e-11,2.483924707624384e-11,1.4917350547654648e-11
0.0,29,29.0,0.0,30.0,0.0,0.0,0.0,0.0,-13.0,0.0,2.0,0.0,0.0,0.0,6.661122984975045e-10,6.235249771312925e-10,5.77314555817778e-10,5.278550094227449e-10,4.759553696874012e-10,4.239719187245449e-10,3.729283225468544e-10,3.2232664561717973e-10,2.735079391161077e-10,2.2861769836518583e-10,1.875489366308838e-10,1.5037673047686082e-10,1.176261132362037e-10,8.907336329042152e-11,6.490800923116658e-11,4.5321481066914117e-11,3.0290034978261106e-11,1.93082077831959e-11,1.171717850002754e-11,6.774868923753028e-12,3.750293092272596e-12,2.0088939658818857e-12,1.036302807925447e-12,5.220992509017012e-13,2.5312052125480133e-13,1.2194051963200673e-13,5.4351559327947405e-09,4.236443361670787e-09,3.309338161970097e-09,2.5888700700437385e-09,2.013249192193522e-09,1.5571026991523801e-09,1.198535748222429e-09,9.129800493158047e-10,6.862352994813917e-10,5.060736991200844e-10,3.6452288704129075e-10,2.5961728369640743e-10,1.8328046155196606e-10,1.2851376217695005e-10,8.940538703716957e-11,6.076860133362943e-11,3.985255640835426e-11,2.4996116529031e-11,1.495787649097453e-11
0.0,30,30.0,0.0,30.0,0.0,0.0,0.0,0.0,-13.0,0.0,2.0,0.0,0.0,0.0,6.669333901317073e-10,6.243914985294788e-10,5.782376879629213e-10,5.288497200985855e-10,4.770395238130703e-10,4.2516168794667477e-10,3.7423258332983223e-10,3.2373664038568794e-10,2.749730541565404e-10,2.3003691450134078e-10,1.887909779677836e-10,1.5132358619023506e-10,1.1822407012870368e-10,8.9343244446778e-11,6.492863129066325e-11,4.5193588526243644e-11,3.010169744073944e-11,1.911983519150368e-11,1.1559735729642672e-11,6.659097758721089e-12,3.672463960699793e-12,1.9601448813787905e-12,1.0074963102901838e-12,5.06226387994258e-13,2.4464692480143734e-13,1.173302654717536e-13,5.434369111625175e-09,4.2356548616355765e-09,3.3085486257423537e-09,2.588077692651156e-09,2.012451881264176e-09,1.5563058599644448e-09,1.197740811065665e-09,9.12180581225918e-10,6.854740109736141e-10,5.055161570358952e-10,3.64420743466417e-10,2.601061381228708e-10,1.8424678492015637e-10,1.2964392900679233e-10,9.038349606179408e-11,6.143404652574339e-11,4.021261577182666e-11,2.5144119141166846e-11,1.4989778495384716e-11
0.0,31,31.0,0.0,30.0,0.0,0.0,0.0,0.0,-13.0,0.0,2.0,0.0,0.0,0.0,6.678627443137547e-10,6.253699573583942e-10,5.792771323389761e-10,5.299659250107688e-10,4.782508358319353e-10,4.264833829054595e-10,3.756699508027168e-10,3.252730487958423e-10,2.765455972368966e-10,2.315322717089652e-10,1.900707441700227e-10,1.5227214280967196e-10,1.1879897875086822e-10,8.957902601750577e-11,6.491510425416961e-11,4.5037526284940974e-11,2.989278030703545e-11,1.8917888664459546e-11,1.1394145156025e-11,6.5389212914331466e-12,3.5925044486941634e-12,1.9104671118136113e-12,9.783679347217382e-13,4.902726952409128e-13,2.3619090613581025e-13,1.1275151082596223e-13,5.433536659321149e-09,4.234821060665778e-09,3.3077141407258412e-09,2.5872402413576156e-09,2.011610180912689e-09,1.5554665166855353e-09,1.1969033638370881e-09,9.113408777238924e-10,6.84695075620772e-10,5.049977623653192e-10,3.644321457891451e-10,2.6075631582219914e-10,1.8536857206844649e-10,1.3088142543946075e-10,9.141255528320765e-11,6.211082503056333e-11,4.0566245045900736e-11,2.528202884175992e-11,1.5012377575999103e-11
0.0,32,32.0,0.0,30.0,0.0,0.0,0.0,0.0,-13.0,0.0,2.0,0.0,0.0,0.0,6.689130392032113e-10,6.264731057806363e-10,5.804457055318545e-10,5.312164384325484e-10,4.79601872557799e-10,4.2794873728376673e-10,3.772503098097213e-10,3.26942516330278e-10,2.7822782602343325e-10,2.331016420643065e-10,1.913830050204399e-10,1.532161123829194e-10,1.1934526469218291e-10,8.977665191184602e-11,6.486485220863451e-11,4.485179480438621e-11,2.9662477029235645e-11,1.8701990473878715e-11,1.1220284188055522e-11,6.4143330020342196e-12,3.5104492358396294e-12,1.8598958458121253e-12,9.489441712603435e-13,4.742533961452179e-13,2.2776045077854476e-13,1.0821324464038261e-13,5.432656816390903e-09,4.233940262983947e-09,3.306832978333619e-09,2.586355966277068e-09,2.0107226646673936e-09,1.5545833136258807e-09,1.1960217250241197e-09,9.104614480749923e-10,6.839067301978136e-10,5.045374831263719e-10,3.6458201323659986e-10,2.615889041185846e-10,1.8665667369195247e-10,1.3222768081896655e-10,9.248951230263368e-11,6.279548298377307e-11,4.091112494123047e-11,2.5408572126919157e-11,1.5024988417242474e-11
0.0,33,33.0,0.0,30.0,0.0,0.0,0.0,0.0,-13.0,0.0,2.0,0.0,0.0,0.0,6.700980763342932e-10,6.277147854952711e-10,5.817572658450094e-10,5.326150297873882e-10,4.811059835664718e-10,4.2956996016630215e-10,3.7898356644302974e-10,3.287511668532933e-10,2.800210220613302e-10,2.3474174849228626e-10,1.927215294183134e-10,1.541485424545856e-10,1.198570090648749e-10,8.993191796195756e-11,6.477523602535687e-11,4.4634864676641026e-11,2.940997439460561e-11,1.8471770647516065e-11,1.1038043844397603e-11,6.285337639294056e-12,3.426340131655779e-12,1.808470253742538e-12,9.192534625935889e-13,4.581845163419977e-13,2.193638621606789e-13,1.0372403174331267e-13,5.4317278272812284e-09,4.233010776558921e-09,3.3059033884140325e-09,2.5854231320764393e-09,2.0097879784712433e-09,1.5536548483059372e-09,1.1950942696624982e-09,9.095439815426104e-10,6.831202511592303e-10,5.041583510190984e-10,3.648983871128864e-10,2.626259929405811e-10,1.881212846454021e-10,1.3368302878456126e-10,9.361057003177181e-11,6.348424659825153e-11,4.12448256821084e-11,2.55224255513361e-11,1.502692068276833e-11
0.0,34,34.0,0.0,30.0,0.0,0.0,0.0,0.0,-13.0,0.0,2.0,0.0,0.0,0.0,6.714328259123253e-10,6.291099669636701e-10,5.832267412245213e-10,5.341764280341605e-10,4.827772623322315e-10,4.3135963548571205e-10,3.80879483297328e-10,3.307043984646119e-10,2.819252989470416e-10,2.36448033479642e-10,1.9407902849985894e-10,1.5506180980303457e-10,1.2032795681750048e-10,9.004047568246047e-11,6.464355225323503e-11,4.43851762888925e-11,2.91344549251334e-11,1.8226870076442394e-11,1.084733089888198e-11,6.151952353970365e-12,3.34022653051081e-12,1.7562336734772501e-12,8.893262529436203e-13,4.4208287249845473e-13,2.1100976403121137e-13,9.929178275096488e-14,5.43074794707615e-09,4.232030914812767e-09,3.304923600068741e-09,2.5844400380811866e-09,2.008804847273341e-09,1.5526796465185157e-09,1.1941195542805022e-09,9.085918411230837e-10,6.823506962807096e-10,5.038880183594484e-10,3.6541251153872163e-10,2.638904155799015e-10,1.8977166067882994e-10,1.352465686378278e-10,9.4771163795088e-11,6.417303097461727e-11,4.15648089698019e-11,2.5622212531642688e-11,1.501747996534351e-11
0.0,35,35.0,0.0,30.0,0.0,0.0,0.0,0.0,-13.0,0.0,2.0,0.0,0.0,0.0,6.729334664465889e-10,6.306747820256132e-10,5.848701476727916e-10,5.359163105017855e-10,4.846304829392282e-10,4.3333058873740184e-10,3.829474794729403e-10,3.328066511237168e-10,2.8393939700295514e-10,2.382145283943642e-10,1.9544710566980307e-10,1.559476192524131e-10,1.2075152569425374e-10,9.009783464487207e-11,6.446703129787272e-11,4.4101139952803757e-11,2.8835100016781914e-11,1.7966944084396702e-11,1.0648070174174264e-11,6.014207877963406e-12,3.2521658815887403e-12,1.7032337966262766e-12,8.591950319362341e-13,4.259660581325679e-13,2.0270709734605315e-13,9.492353834688803e-14,5.42971544871799e-09,4.230998997139666e-09,3.3038918246524105e-09,2.5834050433079243e-09,2.0077720742858344e-09,1.551656140923855e-09,1.1930965204467914e-09,9.076107089246728e-10,6.816177696178605e-10,5.037593249451111e-10,3.6615883763799637e-10,2.654054154122908e-10,1.9161580923392894e-10,1.3691603288330015e-10,9.596594720233404e-11,6.485745051425294e-11,4.186842853199657e-11,2.5706499497360163e-11,1.4995968285696104e-11
0.0,36,36.0,0.0,30.0,0.0,0.0,0.0,0.0,-13.0,0.0,2.0,0.0,0.0,0.0,6.746174176727635e-10,6.324265483625124e-10,5.86704595533494e-10,5.378512719943085e-10,4.866810068278142e-10,4.354957153660587e-10,3.851963915660431e-10,3.350611454324628e-10,2.860604664642e-10,2.4003372592929936e-10,1.9681621472928642e-10,1.5679700721457045e-10,1.2112081505607484e-10,9.009936313950694e-11,6.424283505006334e-11,4.37811367573691e-11,2.8511093932804418e-11,1.769166647829437e-11,1.0440206982188383e-11,5.8721497489983336e-12,3.1622241742677483e-12,1.649522853076331e-12,8.288943717036086e-13,4.0985242584765394e-13,1.9446511057235096e-13,9.06252825472136e-14,5.4286286306313344e-09,4.2299133481535875e-09,3.3028062624858746e-09,2.582316596172911e-09,2.0066885298724447e-09,1.5505826634360161e-09,1.1920248099430227e-09,9.066094161112303e-10,6.80946814082697e-10,5.038108532736631e-10,3.671749297999001e-10,2.671942327439696e-10,1.9366015862516443e-10,1.3868766494351737e-10,9.718878716046056e-11,6.553282999597995e-11,4.2152928855900086e-11,2.5773791476475164e-11,1.496168406073893e-11
0.0,37,37.0,0.0,30.0,0.0,0.0,0.0,0.0,-13.0,0.0,2.0,0.0,0.0,0.0,6.765033656754947e-10,6.343837839541579e-10,5.887482803635358e-10,5.399987690267831e-10,4.889446530884986e-10,4.3786776472791184e-10,3.876341920755938e-10,3.3746959266611986e-10,2.882838418520718e-10,2.4189645837637113e-10,1.9817562702948563e-10,1.5760034928732126e-10,1.2142861366978097e-10,9.004028687588116e-11,6.396805422577449e-11,4.342352043850788e-11,2.8161628760592727e-11,1.7400734093071396e-11,1.022370971060184e-11,5.725839580889278e-12,3.0704764386283632e-12,1.5951577911635298e-12,7.984609553372663e-13,3.937610654276909e-13,1.8629334261822847e-13,8.640180045095585e-14,5.42748582454611e-09,4.228772295811772e-09,3.301665115242664e-09,2.5811732677171192e-09,2.0055531272765468e-09,1.5494574684817504e-09,1.1909052344328493e-09,9.056009931750835e-10,6.803699298942272e-10,5.040874434677952e-10,3.6850125077360175e-10,2.692796078267759e-10,1.9590921160649926e-10,1.4055611116659577e-10,9.843276789460092e-11,6.619421514819441e-11,4.2415441737761095e-11,2.582252726327433e-11,1.4913921484220317e-11
0.0,38,38.0,0.0,30.0,0.0,0.0,0.0,0.0,-13.0,0.0,2.0,0.0,0.0,0.0,6.786112790178589e-10,6.365662092101332e-10,5.910204542145998e-10,5.423770328730066e-10,4.914375247684797e-10,4.404590731097288e-10,3.902676620403704e-10,3.4003187700825333e-10,2.9060281088643514e-10,2.4379178451142307e-10,1.9951340820404648e-10,1.5834737087344614e-10,1.216674055002722e-10,8.991568559298442e-11,6.36397057897596e-11,4.302662058753144e-11,2.778591043317731e-11,1.7093871838395283e-11,9.998572556458065e-12,5.57535637957355e-12,2.977007259838327e-12,1.5402004502593428e-12,7.679335946896561e-13,3.777117771803037e-13,1.7820159793687176e-13,8.225659580443083e-14,5.4262854032174415e-09,4.227574168943233e-09,3.3004666063338494e-09,2.5799737858674705e-09,2.0043647836620718e-09,1.5482788139855554e-09,1.1897404540439098e-09,9.046039776298044e-10,6.799272085617095e-10,5.046406312954171e-10,3.7018080119059084e-10,2.716831987136643e-10,1.9836519107486285e-10,1.425143311202494e-10,9.969020322492162e-11,6.68363813391571e-11,4.265298035060542e-11,2.5851074384983124e-11,1.4851969299123885e-11
0.0,39,39.0,0.0,30.0,0.0,0.0,0.0,0.0,-13.0,0.0,2.0,0.0,0.0,0.0,6.809624144590718e-10,6.38994733759845e-10,5.935413719560937e-10,5.450049436728488e-10,4.941757825246887e-10,4.432812389897906e-10,3.931020153376829e-10,3.427457119697525e-10,2.930083819376832e-10,2.4570688778542504e-10,2.0081640452640834e-10,1.5902715940664932e-10,1.2182937252669612e-10,8.972048761724797e-11,6.3254730952527e-11,4.258874754132761e-11,2.7383165905157615e-11,1.6770838250039335e-11,9.764818410132092e-12,5.4207979048947275e-12,2.8819113038146223e-12,1.4847177219882516e-12,7.37353235430455e-13,3.617250398645676e-13,1.7019991374236507e-13,7.819188219004613e-14,5.425025787631931e-09,4.226317295286088e-09,3.299209011790986e-09,2.578717066508505e-09,2.0031223679870874e-09,1.5470451405189007e-09,1.1885359322949905e-09,9.036440150755886e-10,6.796680604157153e-10,5.055289640271992e-10,3.7225858900597105e-10,2.744249160750544e-10,2.0102768737649443e-10,1.4455352972768603e-10,1.0095265560839862e-10,6.745383884181656e-11,4.2862430640304784e-11,2.585772415883826e-11,1.4775108993215242e-11
0.0,40,40.0,0.0,30.0,0.0,0.0,0.0,0.0,-13.0,0.0,2.0,0.0,0.0,0.0,6.8357931040419e-10,6.416914238527764e-10,5.963322056983013e-10,5.479018561284224e-10,4.971753557759608e-10,4.463447336221854e-10,3.961404729687118e-10,3.456062741393552e-10,2.9548905457973146e-10,2.476269882296709e-10,2.020702382976922e-10,1.5962817640242117e-10,1.2190639366653606e-10,8.944946262073967e-11,6.280999435039324e-11,4.2108199307467303e-11,2.695265155941405e-11,1.6431431545487147e-11,9.522501895657702e-12,5.262282077412094e-12,2.7852938498371463e-12,1.428781695743353e-12,7.067629472027647e-13,3.458219725075771e-13,1.6229851967686224e-13,7.420865853796577e-14,5.423705453203101e-09,4.225000001945403e-09,3.297890703938377e-09,2.57740223507703e-09,2.0018246431791488e-09,1.545755407404361e-09,1.1873012487342726e-09,9.027557847634836e-10,6.796525985651473e-10,5.06818139939435e-10,3.747809057111685e-10,2.7752218139296066e-10,2.0389331821010167e-10,1.4666311397400062e-10,1.0221095962447196e-10,6.804083303327567e-11,4.304054001168786e-11,2.5840687208989825e-11,1.468261251848913e-11
0.0,41,41.0,0.0,30.0,0.0,0.0,0.0,0.0,-13.0,0.0,2.0,0.0,0.0,0.0,6.864857654509762e-10,6.446794448204172e-10,5.994149183237175e-10,5.510873652940334e-10,5.004515803299458e-10,4.4965844019211637e-10,3.993837868594994e-10,3.48605818684891e-10,2.980305982052098e-10,2.4953526994421015e-10,2.032593109056523e-10,1.6013826722876098e-10,1.2189003905285036e-10,8.909721309401181e-11,6.230228513410446e-11,4.1583270875789604e-11,2.649366290685458e-11,1.6075496182145283e-11,9.271712576204897e-12,5.099948428128229e-12,2.6872713236989952e-12,1.3724697836666233e-12,6.762078966971792e-13,3.3002428940842885e-13,1.5450779064801164e-13,7.030687480772449e-14,5.422322934445664e-09,4.2236206212420115e-09,3.2965102092879585e-09,2.5760286303531025e-09,2.0004702205281804e-09,1.5444096686504013e-09,1.186051864473333e-09,9.019852707488443e-10,6.799530231995108e-10,5.08580908645867e-10,3.7779438944879394e-10,2.8098912005278993e-10,2.0695541326178078e-10,1.4883067562889381e-10,1.0345524670143067e-10,6.859133789362562e-11,4.318390346306964e-11,2.5798089888238093e-11,1.4573739722366445e-11
0.0,42,42.0,0.0,30.0,0.0,0.0,0.0,0.0,-13.0,0.0,2.0,0.0,0.0,0.0,6.897067981030559e-10,6.479829709187531e-10,6.028120845048339e-10,5.545809986340075e-10,5.040187503703628e-10,4.5322911531801675e-10,4.0282971424492226e-10,3.517332823381828e-10,3.006158438122739e-10,2.514128252082144e-10,2.0436681132955505e-10,1.605446662592219e-10,1.2177155918915543e-10,8.86581653519958e-11,6.172832079538475e-11,4.101226625368672e-11,2.6005545628501917e-11,1.570292991778591e-11,9.012578335815315e-12,4.933959586797354e-12,2.587971822574403e-12,1.3158648198342403e-12,6.457353014680785e-13,3.1435424766221103e-13,1.4683819385985334e-13,6.648568710892252e-14,5.420876827778709e-09,4.2221775062001646e-09,3.295066280249097e-09,2.5745957808490885e-09,1.9990575613469547e-09,1.543010002229923e-09,1.184811447807008e-09,9.013923826705574e-10,6.806549272733281e-10,5.108966619845477e-10,3.8134486082493284e-10,2.848357066207377e-10,2.102037362120796e-10,1.5104199964261596e-10,1.0467496700815801e-10,6.909904130701653e-11,4.328894756780763e-11,2.5727972116755245e-11,1.4447735782101602e-11
0.0,43,43.0,0.0,30.0,0.0,0.0,0.0,0.0,-13.0,0.0,2.0,0.0,0.0,0.0,6.932685816725225e-10,6.516270519102405e-10,6.065466442817784e-10,5.584018179172496e-10,5.078895718051097e-10,4.570607676676682e-10,4.0647244557821913e-10,3.5497388085685415e-10,3.032244938643301e-10,2.5323861509774155e-10,2.0537472694453245e-10,1.608339949833856e-10,1.2154186891998164e-10,8.81265612273359e-11,6.108475464463974e-11,4.039351353593779e-11,2.5487707999647074e-11,1.5313691376642825e-11,8.745268949646425e-12,4.7645028012522825e-12,2.487535620159366e-12,1.2590551280760342e-12,6.153943623516475e-13,2.9883458662060257e-13,1.3930023124205846e-13,6.274379344443653e-14,5.419365792590119e-09,4.220669061292477e-09,3.2935579770643902e-09,2.5731033450964878e-09,1.997585087655004e-09,1.541561943825866e-09,1.1836148747197464e-09,9.010539040815149e-10,6.818584180722819e-10,5.138506400485861e-10,3.8547592570578476e-10,2.890668857495014e-10,2.1362425633147188e-10,1.5328109555857682e-10,1.0585890365955474e-10,6.955732097119433e-11,4.335191297941178e-11,2.5628287201337793e-11,1.4303829050518856e-11
0.0,44,44.0,0.0,30.0,0.0,0.0,0.0,0.0,-13.0,0.0,2.0,0.0,0.0,0.0,6.971983453049641e-10,6.55637421738726e-10,6.106415702185138e-10,5.625679117196125e-10,5.120745034551884e-10,4.6115395001552507e-10,4.103019910909307e-10,3.58308709029489e-10,3.058329544442097e-10,2.549894450104647e-10,2.0626385257185774e-10,1.6099225076976127e-10,1.2119152671253603e-10,8.749645195820395e-11,6.036818790926539e-11,3.9725383283947625e-11,2.493963473191526e-11,1.4907808130675238e-11,8.469999854082281e-12,4.591791475875101e-12,2.386115637924328e-12,1.2021345526733704e-12,5.852361723955647e-13,2.8348845884668746e-13,1.3190437848633177e-13,5.907983216669371e-14,5.4177885517008675e-09,4.219093795225737e-09,3.2919847515802333e-09,2.5715510126267443e-09,1.996051503547316e-09,1.5400766203794252e-09,1.1825120186004633e-09,9.010667089512665e-10,6.836789197912623e-10,5.175326756060381e-10,3.902273509438848e-10,2.9368169824115044e-10,2.1719898020168138e-10,1.5553024648004587e-10,1.0699517381423048e-10,6.995921021667362e-11,4.3368836441262976e-11,2.5496904226762636e-11,1.4141229844531065e-11
0.0,45,45.0,0.0,30.0,0.0,0.0,0.0,0.0,-13.0,0.0,2.0,0.0,0.0,0.0,7.01524227570103e-10,6.60040229375072e-10,6.151194243243792e-10,5.670957564673674e-10,5.165809726146501e-10,4.6550496329488466e-10,4.1430353353984474e-10,3.6171435199960287e-10,3.0841419265600806e-10,2.5663995170082943e-10,2.070137929275599e-10,1.610047843690081e-10,1.2071071044550167e-10,8.676169612631187e-11,5.957518744474725e-11,3.9006310448088176e-11,2.43609022730353e-11,1.4485385313089292e-11,8.18703612418751e-12,4.416066711910324e-12,2.2838778656758753e-12,1.1452024461339854e-12,5.553136002633034e-13,2.683393523242298e-13,1.2466102168923879e-13,5.5492815938802105e-14,5.416143894118671e-09,4.2174504029557854e-09,3.290346518075274e-09,2.5699383764908316e-09,1.994456486308692e-09,1.5385738278578296e-09,1.1815724299000153e-09,9.015511364714465e-10,6.862474916529323e-10,5.220354043892945e-10,3.956332339393626e-10,2.98672447141118e-10,2.209058508357427e-10,1.57770066933215e-10,1.0807121101261818e-10,7.029735373920213e-11,4.333553359637464e-11,2.533161360871371e-11,1.3959130828068827e-11
0.0,46,46.0,0.0,30.0,0.0,0.0,0.0,0.0,-13.0,0.0,2.0,0.0,0.0,0.0,7.062750627662912e-10,6.648616651639381e-10,6.200017753743984e-10,5.719994213244072e-10,5.214124523856075e-10,4.701049741634021e-10,4.1845675717514477e-10,3.65162516806014e-10,3.109376202658934e-10,2.5816259639152577e-10,2.0760295307052563e-10,1.6085626497458385e-10,1.2008919173025288e-10,8.591596382082897e-11,5.870231003751223e-11,3.823482002708789e-11,2.3751195617368373e-11,1.404661478881432e-11,7.896696658136314e-12,4.237598825866074e-12,2.181001712253967e-12,1.0883636083199047e-12,5.256811461073543e-13,2.534110039433679e-13,1.1758039215478445e-13,5.1982565599230193e-14,5.4144306856457195e-09,4.215737882853994e-09,3.2886436891870966e-09,2.5682648168750117e-09,1.9928019858917835e-09,1.5370863477345947e-09,1.1808909732818308e-09,9.026543491569761e-10,6.897104668894815e-10,5.274518805813071e-10,4.017200049944804e-10,3.0402394242214854e-10,2.2471871632714568e-10,1.599795575820974e-10,1.090737233592173e-10,7.056395415824182e-11,4.32475841946879e-11,2.5130136361460608e-11,1.3756709744498402e-11
0.0,47,47.0,0.0,30.0,0.0,0.0,0.0,0.0,-13.0,0.0,2.0,0.0,0.0,0.0,7.11480044581998e-10,6.701274214525594e-10,6.253084159658996e-10,5.772895662478584e-10,5.265673679253161e-10,4.749390311855613e-10,4.2273514791922116e-10,3.686196786326532e-10,3.133689932018078e-10,2.5952765431496823e-10,2.0800851819151596e-10,1.6053065197683075e-10,1.1931634505963686e-10,8.49527912016257e-11,5.7746167111756384e-11,3.7409563073110555e-11,2.311031013888962e-11,1.3591768839308348e-11,7.599357454146158e-12,4.056694322586165e-12,2.0776820138982346e-12,1.0317269908269638e-12,4.963943392473649e-13,2.3872690378190516e-13,1.1067306170318508e-13,4.854905093685238e-14,5.412647896521433e-09,4.2139556907039735e-09,3.286877149320068e-09,2.566529487773785e-09,1.9910944774396768e-09,1.5356658407106441e-09,1.180594429110284e-09,9.045534191038877e-10,6.942281940118441e-10,5.338725584153534e-10,4.0850432182993915e-10,3.097128636651634e-10,2.286073629480262e-10,1.6213614148371497e-10,1.0998862304101172e-10,7.075071140585745e-11,4.310032155915457e-11,2.4890137563765227e-11,1.3533135323229637e-11
0.0,48,48.0,0.0,30.0,0.0,0.0,0.0,0.0,-13.0,0.0,2.0,0.0,0.0,0.0,7.171683519482909e-10,6.758620633268215e-10,6.31056453816714e-10,5.829723157500672e-10,5.320379270062718e-10,4.799850821075802e-10,4.2710535921674846e-10,3.7204681110286846e-10,3.1567036152389826e-10,2.6070320057476575e-10,2.082063858834823e-10,1.600110863861226e-10,1.1838104202614429e-10,8.386549572681699e-11,5.670337914007788e-11,3.652933347919741e-11,2.2438214897226227e-11,1.3121252479435857e-11,7.295459029155356e-12,3.873682898068196e-12,1.9741246169311414e-12,9.754086024519178e-13,4.675106514955108e-13,2.243112382771278e-13,1.0394840554675788e-13,4.5195441521216657e-14,5.410794659489189e-09,4.212103923391692e-09,3.2850481389253964e-09,2.5647315874625725e-09,1.9893486468577844e-09,1.5343906827853027e-09,1.180848968846462e-09,9.074577937090512e-10,6.999726486083737e-10,5.413816340899342e-10,4.1599093692516496e-10,3.157072767517939e-10,2.3253759833952027e-10,1.6421566386236343e-10,1.1080092431986388e-10,7.084875817197948e-11,4.288882837054725e-11,2.460924441152824e-11,1.3287577201471998e-11
0.0,49,49.0,0.0,30.0,0.0,0.0,0.0,0.0,-13.0,0.0,2.0,0.0,0.0,0.0,7.233684644301795e-10,6.820880404627079e-10,6.372590251305623e-10,5.890477871314443e-10,5.378086920655088e-10,4.85212843199279e-10,4.315265174272102e-10,3.7539909250594604e-10,3.1779999019855073e-10,2.616550642242008e-10,2.081711028724118e-10,1.5927986119396101e-10,1.172717061778014e-10,8.264729359303877e-11,5.55706875304055e-11,3.559311808840764e-11,2.1735043092655074e-11,1.2635583924260444e-11,6.985508967887664e-12,3.68892914029821e-12,1.8705497131005434e-12,9.1952902681706e-13,4.3908844310453337e-13,2.1018801934004385e-13,9.741559518853632e-14,4.1926285296815224e-14,5.40887034626712e-09,4.210183480749673e-09,3.283158010595844e-09,2.5628712049244347e-09,1.9875931217459686e-09,1.5333760686780866e-09,1.1818682377846986e-09,9.116106560904251e-10,7.071236541116948e-10,5.500527535671252e-10,4.241706036583499e-10,3.2196629976015095e-10,2.3647133259366595e-10,1.6619231673542913e-10,1.1149460581287943e-10,7.084861671071031e-11,4.26079815144281e-11,2.4285099148222092e-11,1.3019207039525267e-11
0.0,50,50.0,0.0,30.0,0.0,0.0,0.0,0.0,-13.0,0.0,2.0,0.0,0.0,0.0,7.301072694430436e-10,6.888244397108001e-10,6.439237396953137e-10,5.955084026954333e-10,5.438550412168754e-10,4.905826690719107e-10,4.359495927526623e-10,3.7862567351111443e-10,3.197122919963147e-10,2.6234675167519333e-10,2.078757604193569e-10,1.5831835352483496e-10,1.159763208115019e-10,8.12913549001384e-11,5.434501415589703e-11,3.460013902208556e-11,2.1001115860990185e-11,1.2135406126865229e-11,6.6700865909289035e-12,3.5028336139481097e-12,1.76719170339261e-12,8.642131034596547e-13,4.1118668411432985e-13,1.9638096656605516e-13,9.108352094810973e-14,3.874752220337819e-14,5.406874766616811e-09,4.208196249448871e-09,3.2812079879473753e-09,2.560951370851772e-09,1.9858791666596933e-09,1.532786767041126e-09,1.1839217107194814e-09,9.172887251750608e-10,7.15863615524758e-10,5.599442884461601e-10,4.330182370056343e-10,3.284400212012327e-10,2.40366698266497e-10,1.6803852478202665e-10,1.1205245112264948e-10,7.07401217712634e-11,4.2252429341512194e-11,2.3915359174423287e-11,1.2727231296852483e-11
0.0,51,51.0,0.0,30.0,0.0,0.0,0.0,0.0,-13.0,0.0,2.0,0.0,0.0,0.0,7.374088286444904e-10,6.960853571312601e-10,6.510507643766118e-10,6.023369309280491e-10,5.501414966654024e-10,4.960444146381114e-10,4.403168196849153e-10,3.816694756827585e-10,3.213577399788288e-10,2.6273932431857673e-10,2.0729186074999613e-10,1.5710695724299005e-10,1.1448244893728198e-10,7.979086529246784e-11,5.3023521380185856e-11,3.3549898789578025e-11,2.023697336352815e-11,1.162150387717998e-11,6.3498478678848796e-12,3.3158319939430556e-12,1.6642983428613697e-12,8.095898971148052e-13,3.8386476863782385e-13,1.8291350922670668e-13,8.496053013286098e-14,3.566664571917473e-14,5.4048085114704586e-09,4.206145250293268e-09,3.279199093018681e-09,2.5589821732469736e-09,1.984293361662421e-09,1.5328526688628674e-09,1.187342642206084e-09,9.247998622493309e-10,7.263706440640104e-10,5.710943585777214e-10,4.4249145666294023e-10,3.35069663978262e-10,2.4417816655219e-10,1.6972478027555005e-10,1.124558755473259e-10,7.051231114135319e-11,4.181649340581456e-11,2.349763717197358e-11,1.2410959502409332e-11
0.0,52,52.0,0.0,30.0,0.0,0.0,0.0,0.0,-13.0,0.0,2.0,0.0,0.0,0.0,7.452926765978985e-10,7.038777845157063e-10,6.586304791896483e-10,6.095042357585559e-10,5.566199309460381e-10,5.01536302969481e-10,4.4456116191436297e-10,3.8446699478513515e-10,3.226827314448777e-10,2.627912194547345e-10,2.063891645665694e-10,1.5562503863910143e-10,1.127772926206891e-10,7.813912202027401e-11,5.16036934128904e-11,3.244223253031324e-11,1.9443403242814984e-11,1.1094816578105231e-11,6.025529755018973e-12,3.1283955391930018e-12,1.5621302109211092e-12,7.557922290434307e-13,3.571821578669447e-13,1.698086654121908e-13,7.905432081495845e-14,3.2692377429366e-14,5.4026731401011235e-09,4.20403436664301e-09,3.2771323170802955e-09,2.5569879087038285e-09,1.9829751007803173e-09,1.5338866482423716e-09,1.192534277384426e-09,9.34477446362148e-10,7.388097011564009e-10,5.835154894376088e-10,4.525292681023908e-10,3.417876234017053e-10,2.478563263935517e-10,1.7121922109484408e-10,1.1268471134822534e-10,7.015350420062218e-11,4.129441174362515e-11,2.3029688392073482e-11,1.206976879549028e-11
0.0,53,53.0,0.0,30.0,0.0,0.0,0.0,0.0,-13.0,0.0,2.0,0.0,0.0,0.0,7.537715297416951e-10,7.121989248936794e-10,6.666406723982944e-10,6.169667501473052e-10,5.632276922661109e-10,5.069838302195927e-10,4.4860582250474276e-10,3.8694808519674624e-10,3.2362938055227523e-10,2.624580099657043e-10,2.0513552883204852e-10,1.5385092283808264e-10,1.1084778875125999e-10,7.632965428461533e-11,5.008343007054558e-11,3.1277365999498036e-11,1.8621471546024577e-11,1.055645138029244e-11,5.6979541044969645e-12,2.941031177085933e-12,1.4609599600413505e-12,7.02956118527642e-13,3.3119797776849655e-13,1.5708892080850209e-13,7.33718193415239e-14,2.983420132313261e-14,5.400471614383988e-09,4.2018680411362695e-09,3.2750102656486317e-09,2.555019571233952e-09,1.9821405761200506e-09,1.5363046049445319e-09,1.1999734688941537e-09,9.466713407493842e-10,7.533224140556729e-10,5.971897411879823e-10,4.630514678270648e-10,3.485177626114995e-10,2.513476621253502e-10,1.7248723398714754e-10,1.1271702381179475e-10,6.965126565388428e-11,4.068032019080927e-11,2.2509397940326974e-11,1.1703167432534141e-11
0.0,54,54.0,0.0,30.0,0.0,0.0,0.0,0.0,-13.0,0.0,2.0,0.0,0.0,0.0,7.628482604489705e-10,7.210328475036027e-10,6.750432511501933e-10,6.246637026916388e-10,5.698856925265521e-10,5.122987264812663e-10,4.5236378039161844e-10,3.890356870181001e-10,3.241352144620624e-10,2.616921047330222e-10,2.0349675232442839e-10,1.5176192651749915e-10,1.0868074836136566e-10,7.435637038322103e-11,4.846115422647543e-11,3.005597995429559e-11,1.7772556112020795e-11,1.0007696422773128e-11,5.368030929229316e-12,2.7542811254280325e-12,1.3610713226230605e-12,6.512201256039375e-13,3.0597056831612315e-13,1.4477610874561606e-13,6.79190406105339e-14,2.710181143699225e-14,5.398208638357862e-09,4.199650747926001e-09,3.272841460117892e-09,2.553174927111024e-09,1.9821140118480553e-09,1.5406461301080775e-09,1.2102097144682318e-09,9.617345904694822e-10,7.700156114635517e-10,6.120643666758398e-10,4.739584786665305e-10,3.551755530838222e-10,2.545940321307746e-10,1.7349092594750845e-10,1.1252894399269912e-10,6.899244485932782e-11,3.9968330048751076e-11,2.193483258820464e-11,1.1310837014154315e-11
