Line_number,Fiducial,Easting,Northing,Height,Elevation,tx_pitch,tx_roll,tx_yaw,txrx_dx,txrx_dy,txrx_dz,rx_pitch,rx_roll,rx_yaw,S0Z_time_3.834e-04,S0Z_time_3.924e-04,S0Z_time_4.039e-04,S0Z_time_4.184e-04,S0Z_time_4.364e-04,S0Z_time_4.589e-04,S0Z_time_4.869e-04,S0Z_time_5.224e-04,S0Z_time_5.679e-04,S0Z_time_6.249e-04,S0Z_time_6.969e-04,S0Z_time_7.879e-04,S0Z_time_9.019e-04,S0Z_time_1.046e-03,S0Z_time_1.227e-03,S0Z_time_1.456e-03,S0Z_time_1.744e-03,S0Z_time_2.109e-03,S0Z_time_2.567e-03,S0Z_time_3.145e-03,S0Z_time_3.864e-03,S0Z_time_4.745e-03,S0Z_time_5.821e-03,S0Z_time_7.140e-03,S0Z_time_8.754e-03,S0Z_time_1.073e-02,S1Z_time_2.057e-05,S1Z_time_2.607e-05,S1Z_time_3.307e-05,S1Z_time_4.206e-05,S1Z_time_5.356e-05,S1Z_time_6.807e-05,S1Z_time_8.607e-05,S1Z_time_1.086e-04,S1Z_time_1.366e-04,S1Z_time_1.721e-04,S1Z_time_2.176e-04,S1Z_time_2.746e-04,S1Z_time_3.466e-04,S1Z_time_4.376e-04,S1Z_time_5.516e-04,S1Z_time_6.956e-04,S1Z_time_8.771e-04,S1Z_time_1.106e-03,S1Z_time_1.394e-03
0.0,0,0.0,0.0,30.0,0.0,0.0,0.0,0.0,-13.0,0.0,2.0,0.0,0.0,0.0,6.594771895594814e-11,5.781263787696242e-11,5.2630947632595796e-11,4.782224160453093e-11,4.038461365192849e-11,3.0873390380247546e-11,2.6424321811756005e-11,1.9864630326198352e-11,1.477986681665153e-11,1.0703132854230815e-11,7.243181625357562e-12,4.89225412449253e-12,2.985582289372533e-12,1.7416071106034619e-12,9.971019984953112e-13,5.373188549760794e-13,2.899294111713311e-13,1.3701112884069882e-13,6.723716390555165e-14,2.9261217539562755e-14,1.096086559498921e-14,6.544854649630064e-15,3.640654283996719e-15,3.990262230500022e-16,2.9820350177431557e-15,-1.2622572718869105e-15,3.5438473249273594e-09,1.6159463596756156e-09,8.510509158113932e-10,4.728490973994333e-10,2.87725329602295e-10,2.0471966312135245e-10,1.4731148656039703e-10,1.0636682985987638e-10,8.138217317276564e-11,5.7430788139390704e-11,3.902353903929135e-11,2.4487494042033404e-11,1.3921863853210599e-11,7.89129357318084e-12,4.147208132195904e-12,2.097451423346238e-12,1.0056554375901182e-12,5.265915533394233e-13,2.149311978651054e-13
0.0,1,1.0,0.0,30.0,0.0,0.0,0.0,0.0,-13.0,0.0,2.0,0.0,0.0,0.0,6.134799611099422e-11,5.497988726608232e-11,5.28619796366083e-11,4.3661728133502e-11,3.95582690884466e-11,3.284361475589139e-11,2.8173433078605713e-11,2.1816206044933455e-11,1.6303626484981054e-11,1.2387536908759615e-11,8.820942195115202e-12,5.84744200173583e-12,3.78017489918502e-12,2.251604500836882e-12,1.325799851675123e-12,7.307787150608044e-13,3.9450383336405567e-13,1.9833681086953507e-13,9.45858146790507e-14,4.7190880888623295e-14,2.1030280579728638e-14,7.722884644134776e-15,4.826810907427594e-15,9.829692901768528e-16,1.1182836571894937e-15,1.0372336158976454e-15,3.5308619814631908e-09,1.6675434662229438e-09,7.774422671733679e-10,4.513568738093744e-10,2.6924933564153126e-10,1.832856092725517e-10,1.362106508064353e-10,1.0350793496386829e-10,7.810263690907512e-11,5.413695098311958e-11,3.942138334633604e-11,2.543711001806028e-11,1.485580846969069e-11,9.580101539501436e-12,5.428463187075128e-12,2.8291267285471934e-12,1.3672207147575462e-12,6.364627755631061e-13,3.1751378057030804e-13
0.0,2,2.0,0.0,30.0,0.0,0.0,0.0,0.0,-13.0,0.0,2.0,0.0,0.0,0.0,6.042302175647234e-11,5.843958000431137e-11,5.155329249526415e-11,4.7208300443097324e-11,4.066266660496298e-11,3.5308612212913464e-11,2.900306119547396e-11,2.475924318079208e-11,1.8379472204639208e-11,1.3904995493580888e-11,1.0446354306783744e-11,6.522147568526386e-12,4.3078407061258096e-12,2.899121841923029e-12,1.6292664235999283e-12,1.0206365448156932e-12,5.214115207603553e-13,2.6945874510554104e-13,1.464641013713354e-13,6.953711704655512e-14,3.343072471840155e-14,1.480144285872445e-14,5.471162758731099e-15,4.761730017425984e-15,1.217029357295609e-15,1.2715710940656996e-15,3.594263419684873e-09,1.5926672188487423e-09,8.183198326827494e-10,4.5759759553910503e-10,2.75498329950794e-10,1.76262162213588e-10,1.320356538894456e-10,1.0133519774325112e-10,7.168964760413693e-11,5.35349509728833e-11,3.736060459499896e-11,2.6944842628655284e-11,1.670279064701558e-11,1.0089321078915504e-11,5.6409104869588384e-12,3.2257554009699488e-12,1.6165538076849457e-12,8.193587004335167e-13,3.753487316362307e-13
0.0,3,3.0,0.0,30.0,0.0,0.0,0.0,0.0,-13.0,0.0,2.0,0.0,0.0,0.0,6.140689702135391e-11,5.643936457999527e-11,5.017748131691557e-11,4.589703515242483e-11,3.8719924854511595e-11,3.316065366809378e-11,2.9839865483067226e-11,2.434039955395366e-11,1.955849471770983e-11,1.5722240282091397e-11,1.1080413848895108e-11,7.361065920294673e-12,5.2707803021531185e-12,3.1530070954680782e-12,1.985963107583945e-12,1.1747679115471278e-12,6.926037132202827e-13,3.4366516503692903e-13,1.7511915271747065e-13,8.75480787026336e-14,4.0540413054649896e-14,2.0296438411375456e-14,7.606132389785112e-15,2.833931035249216e-15,1.5375738027320665e-15,1.8273514232487798e-16,3.6730536932927913e-09,1.633076892232719e-09,8.022907900933108e-10,4.29898410981382e-10,2.8065712498227735e-10,1.759398784089414e-10,1.2160886335952447e-10,9.629661856419903e-11,6.987482533099328e-11,5.2565229818208596e-11,3.701122104608414e-11,2.597615011269174e-11,1.6350737398393757e-11,1.0113306825564605e-11,6.347953577503589e-12,3.431843918637802e-12,1.842505737176035e-12,9.46025149449281e-13,4.626606015572725e-13
0.0,4,4.0,0.0,30.0,0.0,0.0,0.0,0.0,-13.0,0.0,2.0,0.0,0.0,0.0,5.882356368031417e-11,5.2480899634877494e-11,4.8820555253622555e-11,4.175399705430672e-11,4.03202753274699e-11,3.282902781971516e-11,2.850663042019136e-11,2.4544063676900406e-11,1.9246126193758794e-11,1.59886313251942e-11,1.097139754260135e-11,8.23118488809592e-12,5.603350944060774e-12,3.5551652364843952e-12,2.3435652004971003e-12,1.3701687097770192e-12,8.045050884693079e-13,4.3878326188831633e-13,2.373970275485066e-13,1.1559432062388133e-13,5.267771439900876e-14,2.4537421857050622e-14,1.2615208553375142e-14,5.974966557533492e-15,3.1852685787578356e-15,-6.736299013837017e-16,3.446093442400646e-09,1.540800770531014e-09,8.038448070805725e-10,4.4649477355511854e-10,2.8386167909745613e-10,1.8467100719088065e-10,1.3011777870681742e-10,8.964813669778643e-11,6.464255293319705e-11,4.824955666056187e-11,3.5228294794177445e-11,2.5028244239902803e-11,1.7769484977102804e-11,1.0646295143168277e-11,6.320163490064284e-12,3.730102697953675e-12,2.039077569131154e-12,1.097661778931896e-12,5.035659524681214e-13
0.0,5,5.0,0.0,30.0,0.0,0.0,0.0,0.0,-13.0,0.0,2.0,0.0,0.0,0.0,5.913913270823379e-11,5.450765200658842e-11,4.9597889180787417e-11,4.341391082261261e-11,3.8817956222545393e-11,3.266402320302816e-11,2.885673417686402e-11,2.4118355593605154e-11,2.0140860057671142e-11,1.5095597589928976e-11,1.2127174154356624e-11,8.998334024897717e-12,5.643264393785713e-12,4.073387662561683e-12,2.6175345167699195e-12,1.5305362215668657e-12,8.96567667739786e-13,5.013197038610795e-13,2.639991751870211e-13,1.336847883524976e-13,6.219959764173978e-14,3.277814214554542e-14,1.5672003605264952e-14,5.9623541550368725e-15,1.7139908152500345e-15,1.7722853191039214e-15,3.365418621107902e-09,1.5702973912309593e-09,7.868124976697315e-10,4.589110995602622e-10,2.8514943805508826e-10,1.8143600438221324e-10,1.230184072999753e-10,8.63259006269669e-11,6.636525392937965e-11,4.551488834028748e-11,3.3415908834555467e-11,2.3576406627576564e-11,1.636389217378945e-11,1.0079490098352727e-11,6.704847967266456e-12,4.006679019990272e-12,2.2180694248820114e-12,1.170606405440231e-12,5.966256908974322e-13
0.0,6,6.0,0.0,30.0,0.0,0.0,0.0,0.0,-13.0,0.0,2.0,0.0,0.0,0.0,5.95954388712979e-11,4.954155637195595e-11,5.183356313892915e-11,4.4363523936317505e-11,3.7956772285212723e-11,3.336899237483901e-11,2.9447420001864694e-11,2.4296521141529418e-11,1.870477267865524e-11,1.6788649320430602e-11,1.2082696398437782e-11,9.204958229814386e-12,6.2009042095905214e-12,4.497508481428704e-12,2.8115309774704835e-12,1.7559198019818815e-12,9.878617118865585e-13,5.96329083168724e-13,3.159274609484696e-13,1.656883271508978e-13,7.732493182493333e-14,3.723056575020088e-14,2.0410750220341746e-14,7.319264450908423e-15,3.7680049152471316e-15,2.7292217584596074e-15,3.409949420931944e-09,1.5788638488816324e-09,7.825348108392399e-10,4.5662758605376606e-10,2.714569154310851e-10,1.9775683274513826e-10,1.2988311789805795e-10,8.957317024131741e-11,6.618713623189731e-11,4.5631313768468176e-11,3.159490544291228e-11,2.2328211009370318e-11,1.635705439070595e-11,1.0566418075864669e-11,6.702796994090478e-12,4.187408601971098e-12,2.2394812149213103e-12,1.234375563651217e-12,6.397880188243647e-13
0.0,7,7.0,0.0,30.0,0.0,0.0,0.0,0.0,-13.0,0.0,2.0,0.0,0.0,0.0,5.917801262870054e-11,5.399798094244968e-11,4.847531032685717e-11,4.361352053390812e-11,3.836054641869065e-11,3.2774037129302086e-11,2.8060088709728876e-11,2.43912471848662e-11,1.9309084164584744e-11,1.5303395089317748e-11,1.2157485084104193e-11,9.103530322513045e-12,7.013552651522002e-12,4.426441194046741e-12,3.0594072612510044e-12,1.9106299967030624e-12,1.0823953110279243e-12,6.581435985196147e-13,3.387173316159614e-13,1.686601529555869e-13,9.398385068949959e-14,4.203922791498642e-14,2.184696796133619e-14,9.435115886018929e-15,6.367430600551615e-15,3.0292964254082714e-15,3.3289600290783582e-09,1.5082087122115984e-09,7.612025275289302e-10,4.47912806803886e-10,2.834902779683233e-10,1.8935638639748849e-10,1.3330214677575762e-10,9.446111931333503e-11,6.603584464381167e-11,4.493005061014859e-11,3.087491493812685e-11,2.35760999136794e-11,1.5303490949640792e-11,1.0250421056982682e-11,6.615271707774211e-12,3.887553684639235e-12,2.3585453103306255e-12,1.3062488363306354e-12,7.078949021588177e-13
0.0,8,8.0,0.0,30.0,0.0,0.0,0.0,0.0,-13.0,0.0,2.0,0.0,0.0,0.0,6.059356165302598e-11,5.4315971980213744e-11,5.040748094743704e-11,4.417455630063629e-11,3.840066824592669e-11,3.351478850444949e-11,2.841382474363849e-11,2.3729984913454108e-11,1.9559894504678804e-11,1.528566164834261e-11,1.2436527865753658e-11,9.002723995117972e-12,6.9086751081443836e-12,4.66118675107478e-12,3.13545672835693e-12,2.0232608963838835e-12,1.238060808617866e-12,6.727423828800027e-13,3.8865928124020123e-13,2.1275985851764463e-13,9.98413948912863e-14,5.28896023526889e-14,2.2161085330468485e-14,1.0896504608054924e-14,5.579361992750382e-15,6.960773213889221e-16,3.2502313533520773e-09,1.4609712871932001e-09,8.272665017748283e-10,4.5875118753157334e-10,2.9435068543470846e-10,1.9331431859028133e-10,1.3372005649200805e-10,8.997289260697423e-11,6.568876350464871e-11,4.513296774381444e-11,3.2811060546430626e-11,2.2970076909230013e-11,1.5935866257747673e-11,1.0519203393283638e-11,6.5414976428617256e-12,3.996703538866169e-12,2.4975720650965735e-12,1.388061438826965e-12,6.885385351446547e-13
0.0,9,9.0,0.0,30.0,0.0,0.0,0.0,0.0,-13.0,0.0,2.0,0.0,0.0,0.0,6.050859916607983e-11,5.60687727937094e-11,4.943846549555984e-11,4.368619497242108e-11,3.757424714139606e-11,3.1894842460083824e-11,2.917378170697849e-11,2.3666592852016922e-11,1.946261342245322e-11,1.6570667328745655e-11,1.2587891349400673e-11,9.45278608621392e-12,6.882479795535384e-12,5.0487423625049464e-12,3.425400927667789e-12,2.158950984875596e-12,1.3189509647421008e-12,7.155001931690138e-13,4.302075781608717e-13,2.291490893234386e-13,1.1893019596518114e-13,6.132727273465826e-14,2.513374765503419e-14,1.3272510671135627e-14,6.71780543271229e-15,2.323305479816206e-15,3.181929593967484e-09,1.5567443373093583e-09,7.935315454506415e-10,4.459935855765874e-10,2.958970967797787e-10,2.0274779854543347e-10,1.3772315617540482e-10,9.872256290684482e-11,6.760424799809662e-11,4.617602201489235e-11,3.090548149427846e-11,2.1912337050402037e-11,1.5065350460980188e-11,1.0321272872327817e-11,6.549599561847152e-12,4.181792642203705e-12,2.394604280350255e-12,1.372415808422044e-12,7.587306349981187e-13
0.0,10,10.0,0.0,30.0,0.0,0.0,0.0,0.0,-13.0,0.0,2.0,0.0,0.0,0.0,5.862267785679992e-11,5.665935061030659e-11,5.050133528132214e-11,4.464266542060464e-11,3.912400121022051e-11,3.5480690993202005e-11,2.8103401441287664e-11,2.2258443179967933e-11,1.9629875474294917e-11,1.565344029839381e-11,1.2113143663515733e-11,9.098712523776463e-12,6.8330819406174875e-12,4.951745067344758e-12,3.307328889372317e-12,2.3485496981679884e-12,1.3283948064148344e-12,7.960713539158336e-13,4.316205740046377e-13,2.537477422575224e-13,1.2316976286285543e-13,6.538322731369704e-14,3.2195230589501806e-14,1.5061592111826456e-14,9.172111903767753e-15,4.267856792587467e-15,3.427179647025982e-09,1.4663561000882795e-09,8.127303262760925e-10,4.694330696481423e-10,3.0388406548595915e-10,2.0743966963313287e-10,1.36480841398071e-10,9.70726372417028e-11,7.053821997041372e-11,4.37030503633345e-11,3.37543178359354e-11,2.2277783441960794e-11,1.4769683887132165e-11,9.947234409968875e-12,6.271115984053465e-12,4.05024045476486e-12,2.557246473070054e-12,1.485330821734727e-12,8.540151499221019e-13
0.0,11,11.0,0.0,30.0,0.0,0.0,0.0,0.0,-13.0,0.0,2.0,0.0,0.0,0.0,6.118907900132946e-11,5.4877261722164784e-11,4.96061650206394e-11,4.336246072971314e-11,3.89741886905981e-11,3.40566257184006e-11,2.8585372770125922e-11,2.463730708284172e-11,1.933729001686599e-11,1.5455866155081484e-11,1.204868248161099e-11,8.912137252313148e-12,6.6348667215462775e-12,4.815043101830326e-12,3.570025242383975e-12,2.3249896674171416e-12,1.4886709740529444e-12,8.275147676727472e-13,4.66352871328703e-13,2.669486819585496e-13,1.4449047619703722e-13,7.486821616989408e-14,3.797635961120384e-14,1.8160065572388915e-14,1.0172681023698731e-14,3.5629091567865675e-15,3.1803109820156373e-09,1.4201866219074161e-09,7.647221283633345e-10,4.694190367614876e-10,2.9304837155285325e-10,2.10435002999599e-10,1.4902475744195104e-10,9.31542065268436e-11,7.195968709055873e-11,4.511939236184239e-11,3.311942586990095e-11,2.282490654205095e-11,1.4732982841560343e-11,9.374200047325594e-12,6.260933352869881e-12,4.017320392830811e-12,2.456026586257605e-12,1.4315494752367829e-12,7.995424428760106e-13
0.0,12,12.0,0.0,30.0,0.0,0.0,0.0,0.0,-13.0,0.0,2.0,0.0,0.0,0.0,6.260614629036422e-11,5.470407612096117e-11,5.067984522282658e-11,4.733943175553866e-11,3.9036143762848913e-11,3.3524483759582716e-11,2.974116768920691e-11,2.210752597562161e-11,2.0179500876024252e-11,1.5293742926882047e-11,1.2285403093251934e-11,9.38109204022092e-12,7.17442749619045e-12,4.994078603193478e-12,3.423097453525448e-12,2.414849117291275e-12,1.3773481076300803e-12,9.037468990487224e-13,5.037807850718182e-13,2.8490136345776176e-13,1.6511918189089578e-13,8.043194556670433e-14,4.055039244298569e-14,1.7768210763140345e-14,8.631694254599116e-15,4.537419775628948e-15,3.2772526958390355e-09,1.5129058349960315e-09,7.859084284789061e-10,4.772677154151078e-10,3.094853963082137e-10,1.9681716468020594e-10,1.4585090834967153e-10,1.0463324803124101e-10,7.282842006049915e-11,4.878521827133724e-11,3.246879898471331e-11,2.1493261112177685e-11,1.4656044066169148e-11,9.994820184685883e-12,5.919783354826412e-12,3.920717301425805e-12,2.3703570234808524e-12,1.4801073180052326e-12,7.996682193732075e-13
0.0,13,13.0,0.0,30.0,0.0,0.0,0.0,0.0,-13.0,0.0,2.0,0.0,0.0,0.0,6.227557021784089e-11,5.7241374444990605e-11,5.2483818761242805e-11,4.5358895620013365e-11,3.6336726561683926e-11,3.4916296259534976e-11,2.945746616517741e-11,2.3945513515142146e-11,1.892078396758931e-11,1.5760106540416732e-11,1.2341903373255701e-11,9.202190641527579e-12,6.932151196308312e-12,4.918034407699089e-12,3.517076479219834e-12,2.261755949657306e-12,1.546167115350272e-12,9.12725560431711e-13,5.555777779805329e-13,2.9632065061142255e-13,1.6371990956918838e-13,8.689849776043826e-14,4.1259572791588944e-14,2.1980198646036102e-14,1.002580165173471e-14,3.152326939874439e-15,3.0896449057435025e-09,1.502457609257468e-09,8.073535198258382e-10,4.721032360062306e-10,3.1353812973662836e-10,2.133489118531558e-10,1.4994443145806999e-10,1.0833116682427597e-10,6.970706696386988e-11,5.133854357749885e-11,3.3501700435086365e-11,2.240038749421974e-11,1.4670503388441e-11,9.527169273917982e-12,5.995940536562783e-12,3.974477144798858e-12,2.5579402393233654e-12,1.4413521467310565e-12,8.214386714351878e-13
0.0,14,14.0,0.0,30.0,0.0,0.0,0.0,0.0,-13.0,0.0,2.0,0.0,0.0,0.0,6.28665429274417e-11,5.832546726124511e-11,5.3328231309523713e-11,4.606251733283718e-11,3.999687962209686e-11,3.521478959452281e-11,2.8587896298145864e-11,2.450226998254261e-11,2.0158026151303615e-11,1.627709690681271e-11,1.2169071898753819e-11,9.700882378311271e-12,7.187152655840309e-12,4.919455328840849e-12,3.4342382623370647e-12,2.3869819051952127e-12,1.612271295680653e-12,9.68662455723822e-13,5.65100447121372e-13,3.4114143393461803e-13,1.788406715332774e-13,8.668082355318085e-14,4.824715524034989e-14,2.4465393110665085e-14,1.1708976105228543e-14,5.952217657270978e-15,3.1813600124114094e-09,1.408434752761203e-09,7.785223850499545e-10,4.648909448051421e-10,3.056271075747582e-10,2.0754548869100784e-10,1.5338668063170328e-10,1.0668866547804273e-10,7.347419999329485e-11,5.033415749162401e-11,3.452444435253889e-11,2.3668641364721605e-11,1.4061051698342972e-11,9.7636234180655e-12,6.085806261236758e-12,3.689654974194533e-12,2.269831338551179e-12,1.3977497028712526e-12,8.306084654784942e-13
0.0,15,15.0,0.0,30.0,0.0,0.0,0.0,0.0,-13.0,0.0,2.0,0.0,0.0,0.0,6.603498158969256e-11,5.782163770985134e-11,5.5072940342367226e-11,4.932747577239679e-11,4.164206477863182e-11,3.465186205764316e-11,3.077112325647377e-11,2.5134815762322456e-11,2.0349987122105205e-11,1.540875344109432e-11,1.1185806111156808e-11,9.905357004016986e-12,6.626524231903616e-12,5.069130066361168e-12,3.8383929985329914e-12,2.4608535400974412e-12,1.6395004622714218e-12,9.527663319189717e-13,5.648611983457428e-13,3.3545647797908265e-13,1.933895686056753e-13,9.859705459456766e-14,4.9814256628254986e-14,2.6030116382746276e-14,1.3679901405182042e-14,4.6070971010814344e-15,3.0453610644498893e-09,1.423280394435394e-09,8.147813881703608e-10,4.867122867615088e-10,3.3970521665489687e-10,2.2580497867803824e-10,1.5409924843751725e-10,1.1260572808748986e-10,7.644813668224231e-11,5.125940222558586e-11,3.595048345924561e-11,2.2853361557632858e-11,1.5034165684311065e-11,1.0103423579691876e-11,6.156765276751626e-12,3.7866676883678045e-12,2.3558910375749368e-12,1.4746828058254234e-12,8.102059821299829e-13
0.0,16,16.0,0.0,30.0,0.0,0.0,0.0,0.0,-13.0,0.0,2.0,0.0,0.0,0.0,6.561569110095848e-11,5.958028873734712e-11,5.463265174783974e-11,4.751899816738624e-11,3.9786490610621176e-11,3.484606123478536e-11,2.9329374902489776e-11,2.5802836712904922e-11,2.0518552108299538e-11,1.610884829563877e-11,1.208717561288558e-11,9.094942965753882e-12,6.85264161528733e-12,4.913798778716485e-12,3.8620416441597665e-12,2.291148153452034e-12,1.645534444467456e-12,9.81323486073177e-13,6.135703417146138e-13,3.4405413161128203e-13,1.893220831471822e-13,1.0167764605062461e-13,5.81013808458062e-14,2.7520129420692908e-14,1.2750652601387835e-14,7.209365187578486e-15,3.1334012828842376e-09,1.4810527916389386e-09,7.477578964623541e-10,4.929702422185649e-10,3.3187349668302693e-10,2.1252662465764364e-10,1.5938259085414973e-10,1.162770491398296e-10,7.74474214812731e-11,5.472962933773093e-11,3.6652479365448266e-11,2.3276559972336008e-11,1.542605634317439e-11,9.352028292505954e-12,6.1052572925623856e-12,3.892326376768466e-12,2.421543064416059e-12,1.4208211200764579e-12,8.420698624654321e-13
0.0,17,17.0,0.0,30.0,0.0,0.0,0.0,0.0,-13.0,0.0,2.0,0.0,0.0,0.0,6.531274895879256e-11,6.136559923083887e-11,5.529062270808445e-11,5.158708193285549e-11,4.2195332539707627e-11,3.580608510017679e-11,3.06300822064953e-11,2.450745595127435e-11,2.037377717005926e-11,1.5794952333492133e-11,1.1681032186556414e-11,9.331357406815734e-12,6.8943447540350345e-12,4.8239157669476644e-12,3.590813284433323e-12,2.580793547193579e-12,1.6625279845566121e-12,1.0589675479745938e-12,6.064609098890678e-13,3.722438483389034e-13,2.0578143278727877e-13,1.1273879129709706e-13,5.889400412557522e-14,2.773963680513728e-14,1.457842032058869e-14,6.416038320911628e-15,3.100124276644205e-09,1.4035603630249304e-09,8.250860747925135e-10,4.813826867276572e-10,3.207593266402688e-10,2.283601706125216e-10,1.5517387332028144e-10,1.1141696669089635e-10,7.705807516092355e-11,5.6780417952520446e-11,3.750153016686242e-11,2.4195873689183625e-11,1.5489918877322525e-11,1.0220082025543843e-11,6.301465395103929e-12,3.9130576485272366e-12,2.3521704235616184e-12,1.3362133244823416e-12,8.163286978874749e-13
0.0,18,18.0,0.0,30.0,0.0,0.0,0.0,0.0,-13.0,0.0,2.0,0.0,0.0,0.0,6.764882456450341e-11,6.384694033829495e-11,5.7922621917788005e-11,4.8723211994533067e-11,4.377485349603277e-11,3.8849991799376166e-11,3.044929438969762e-11,2.6843563627617302e-11,1.998314406781392e-11,1.614483084927551e-11,1.2432625871035555e-11,9.391361771512541e-12,6.795983252442303e-12,4.982400188772791e-12,3.52816532518301e-12,2.5037320201799324e-12,1.667542624909426e-12,1.1262268258999298e-12,6.727862647433572e-13,3.7226288259051194e-13,2.1477185689281762e-13,1.196125122227983e-13,6.127819155695917e-14,3.1269170409102565e-14,1.5713143290591018e-14,8.60994282857739e-15,2.99898152053982e-09,1.421772037339202e-09,8.084924247161577e-10,5.047767150285043e-10,3.375829786283843e-10,2.2958638777392855e-10,1.6829940867205116e-10,1.2248486387773148e-10,8.158294984627316e-11,5.5228939433590455e-11,3.820147952744645e-11,2.4304367759751747e-11,1.5597906551359618e-11,1.0096503720725667e-11,5.794459071544719e-12,3.727635805516999e-12,2.3191267269892306e-12,1.3417480076242393e-12,7.876102454236031e-13
0.0,19,19.0,0.0,30.0,0.0,0.0,0.0,0.0,-13.0,0.0,2.0,0.0,0.0,0.0,6.906557528679061e-11,6.060689824693339e-11,5.650625365616507e-11,4.974801831703443e-11,4.3925600223472714e-11,3.882479663721049e-11,3.1716726622279857e-11,2.594232411781056e-11,2.0840797336763112e-11,1.642891997162498e-11,1.2165033530217277e-11,9.410937996083334e-12,7.055904751816249e-12,4.867154590841133e-12,3.694934624373211e-12,2.565611847599802e-12,1.6302345869404986e-12,1.060783850245492e-12,6.410305409926813e-13,3.9613038749649273e-13,2.1274670060828107e-13,1.1992698103726332e-13,6.236157858606398e-14,3.318280453527067e-14,1.4662782702245563e-14,9.594283010381303e-15,2.961787706980704e-09,1.4325921729828297e-09,7.962019882954937e-10,4.949173427622495e-10,3.3185534455221195e-10,2.4326425860479865e-10,1.6416066265417717e-10,1.1838780731057483e-10,8.023127063658023e-11,5.554554198798405e-11,3.8619420924482107e-11,2.5879885788872538e-11,1.6165253350372088e-11,9.812066205203632e-12,6.735790195345978e-12,3.78031082754828e-12,2.230357485887208e-12,1.5038340708608763e-12,7.995692717067163e-13
0.0,20,20.0,0.0,30.0,0.0,0.0,0.0,0.0,-13.0,0.0,2.0,0.0,0.0,0.0,6.81288419296796e-11,6.356438620693648e-11,5.886018272035716e-11,5.1734057436234693e-11,4.349728099334665e-11,4.0229112042703694e-11,3.155129860456845e-11,2.537920303045567e-11,2.167355719532342e-11,1.7176668436527874e-11,1.2363908107476792e-11,9.112657729951224e-12,7.237891433099511e-12,4.771899745829309e-12,3.4703188346312102e-12,2.5605635629390748e-12,1.6664618578011085e-12,1.0701822858074516e-12,6.758562018664273e-13,3.9489059681910385e-13,2.1742004118742435e-13,1.3014625940936805e-13,7.005321755276156e-14,3.508823177291286e-14,1.7707104246687867e-14,1.1136341322519662e-14,2.9980811844439264e-09,1.4140272678593885e-09,8.148800474217806e-10,5.359652773420032e-10,3.6352000133155937e-10,2.393505819156375e-10,1.717213074630489e-10,1.1485537468107742e-10,8.30666408022491e-11,5.6303542787121365e-11,3.764233099858973e-11,2.694995580707292e-11,1.6158252967243863e-11,1.0257301067888596e-11,6.5106587726424086e-12,4.062479799263883e-12,2.3758092957752047e-12,1.5048785911503187e-12,8.037512609341105e-13
0.0,21,21.0,0.0,30.0,0.0,0.0,0.0,0.0,-13.0,0.0,2.0,0.0,0.0,0.0,7.312293229056655e-11,6.661860108630198e-11,6.181230347190862e-11,5.3141359769532935e-11,4.524593708540761e-11,3.767689458501192e-11,3.2806846986436425e-11,2.784048348627866e-11,2.110468147740293e-11,1.6997741819052653e-11,1.2909926537216791e-11,9.842544470096714e-12,6.8895889404559765e-12,5.456844367739909e-12,3.467569293730723e-12,2.4631851739469403e-12,1.7215743949992453e-12,1.09635422324618e-12,6.943434701862911e-13,3.9836245441838315e-13,2.316971520484502e-13,1.2932821496653701e-13,7.34001358562426e-14,3.7425436465434705e-14,1.952527558379543e-14,8.509705856589597e-15,3.083815876810566e-09,1.4307905996091668e-09,8.453531748203224e-10,5.519992533544283e-10,3.4995024560109584e-10,2.4298332639374903e-10,1.6910252804952586e-10,1.2172049746032866e-10,8.455269897733695e-11,5.953075425002385e-11,3.938879056633903e-11,2.585564256832171e-11,1.7396070641494797e-11,1.0306892053141065e-11,6.620421844188811e-12,3.900047977581615e-12,2.401318888242463e-12,1.442973005765705e-12,7.939241356515136e-13
0.0,22,22.0,0.0,30.0,0.0,0.0,0.0,0.0,-13.0,0.0,2.0,0.0,0.0,0.0,7.487962037112411e-11,6.764219023374816e-11,5.88844811369929e-11,5.365778378822895e-11,4.659137822729291e-11,3.9920408865196236e-11,3.2900718999836495e-11,2.7209516536383618e-11,2.0934369111333093e-11,1.677564654152236e-11,1.3183503736904656e-11,9.945551177843996e-12,7.018064845350754e-12,5.133604739602043e-12,3.6360920219233042e-12,2.50742396505385e-12,1.7052082986437314e-12,1.0331044629911133e-12,6.836153895894029e-13,4.140490254732312e-13,2.3032678591931096e-13,1.3993692933809248e-13,7.266441717934153e-14,4.031256934903174e-14,1.8618929240958315e-14,8.708359552098528e-15,2.990833318143327e-09,1.3468089374899e-09,8.230110206741678e-10,5.297663365350491e-10,3.706802454583323e-10,2.561795124943513e-10,1.74941706734889e-10,1.206436467645908e-10,9.173711913103347e-11,5.862780708814847e-11,3.905339117192735e-11,2.57616164577404e-11,1.7742550248256405e-11,1.0624409509189295e-11,6.488123353717261e-12,4.011222270700367e-12,2.348671921281375e-12,1.3547005891006276e-12,8.184085664068757e-13
0.0,23,23.0,0.0,30.0,0.0,0.0,0.0,0.0,-13.0,0.0,2.0,0.0,0.0,0.0,7.768622405762777e-11,7.054788314430624e-11,6.284294734532843e-11,5.4879800119750326e-11,4.449325761521564e-11,4.210954361556917e-11,3.39459751170424e-11,2.8062877760533567e-11,2.2740130740245508e-11,1.7932431182012923e-11,1.3293525147275901e-11,9.915598344447812e-12,7.035531929381822e-12,5.148045165016601e-12,3.5270006101287706e-12,2.4407448771234954e-12,1.6353745733187733e-12,1.0921102789712427e-12,7.12224485216768e-13,4.566408818236481e-13,2.4365694410801865e-13,1.3082158516988141e-13,7.77334740790857e-14,3.894616296720277e-14,1.9645452497931785e-14,1.0321503326823708e-14,2.836044824026021e-09,1.4258220810052212e-09,8.225183765267497e-10,5.379392326215006e-10,3.7070034440844913e-10,2.5650947213321654e-10,1.8091442726233506e-10,1.2840974618183373e-10,9.012871260971497e-11,5.934440932788544e-11,3.93263274854457e-11,2.7073405137428712e-11,1.6728143329541244e-11,1.1012001075100349e-11,6.937153054180249e-12,4.121294359945726e-12,2.306716142754352e-12,1.3495770045930917e-12,8.05450448250625e-13
0.0,24,24.0,0.0,30.0,0.0,0.0,0.0,0.0,-13.0,0.0,2.0,0.0,0.0,0.0,7.577271565462104e-11,6.913320859780865e-11,6.367635512881086e-11,5.3565751156813804e-11,4.7247782743347296e-11,3.980813603496932e-11,3.3127874227776363e-11,2.7278325391917442e-11,2.2790658721104746e-11,1.7463880076243283e-11,1.2947603651193385e-11,9.828545421948643e-12,6.8724357536532255e-12,5.060145128665047e-12,3.865603310844335e-12,2.491111982681984e-12,1.7192358381904913e-12,1.0983957489639533e-12,7.024137223878932e-13,4.3019866137136523e-13,2.3823865072370875e-13,1.3952878222530558e-13,8.07878348339896e-14,3.954927984315779e-14,2.0593744975854913e-14,1.0218643308993837e-14,2.944916258829853e-09,1.4379451536694788e-09,8.64112555863508e-10,5.531163084383024e-10,3.7287455222644464e-10,2.711220063228765e-10,1.885022286060622e-10,1.2413641339075634e-10,9.771258243732655e-11,6.57667030970136e-11,4.1663457880423534e-11,2.7938995209328375e-11,1.8502422264497505e-11,1.1118607065564521e-11,7.009794692938034e-12,4.241452077985957e-12,2.3317785191567177e-12,1.3660665850806725e-12,8.201569276315532e-13
0.0,25,25.0,0.0,30.0,0.0,0.0,0.0,0.0,-13.0,0.0,2.0,0.0,0.0,0.0,7.923044339182623e-11,7.307425230483045e-11,6.345829206635186e-11,5.57138021889882e-11,4.575176817834155e-11,4.006294039432193e-11,3.481726541395768e-11,2.9150668148364506e-11,2.3039246411557506e-11,1.7619807427150903e-11,1.3365040361389907e-11,1.0078659568908973e-11,7.31477533615521e-12,5.429819030392625e-12,3.662505666839718e-12,2.391297337931126e-12,1.6197270777037601e-12,1.153252519162204e-12,6.742490415172507e-13,4.3573128580815305e-13,2.481680871809969e-13,1.4178461193745437e-13,7.850677035166374e-14,4.409605173997813e-14,2.1839212892055954e-14,1.0935810224256045e-14,2.7648749954166416e-09,1.4249287464456477e-09,8.544275361226025e-10,5.579944111940633e-10,3.9689286239098105e-10,2.671365369217399e-10,1.9018668271927007e-10,1.392494773618485e-10,8.837470099053729e-11,6.281910954866504e-11,4.450219351548966e-11,2.8926005413223657e-11,1.8483072395979912e-11,1.1655797375449236e-11,7.0430209636918e-12,4.371055271724445e-12,2.4607416446487134e-12,1.4105196926091767e-12,8.010768549958574e-13
0.0,26,26.0,0.0,30.0,0.0,0.0,0.0,0.0,-13.0,0.0,2.0,0.0,0.0,0.0,8.010422616024817e-11,6.993100819732746e-11,6.639734595368247e-11,5.7002515145232296e-11,5.224469504401156e-11,4.211242444293567e-11,3.57979468796904e-11,2.9119997338876656e-11,2.259509389005959e-11,1.847985055247458e-11,1.4438077177880212e-11,1.0131009895749666e-11,7.306642813374332e-12,5.195476349989994e-12,3.4569005722522085e-12,2.495445424538094e-12,1.6986750703216752e-12,1.1397551665989996e-12,7.219245861971975e-13,4.240141578779027e-13,2.5133495993948103e-13,1.5014382752273493e-13,8.027110058871322e-14,4.2537575479548666e-14,2.4522305107512727e-14,1.24872562809367e-14,2.877309106110334e-09,1.3926653048897422e-09,7.991053564575964e-10,5.735470513702874e-10,3.781116852280864e-10,2.5628864486227403e-10,2.016627608265225e-10,1.3811820203465576e-10,9.135743059308343e-11,6.259245032101692e-11,4.463104129518681e-11,2.7899652000258356e-11,1.915428805447366e-11,1.178271013097763e-11,7.20595300243551e-12,4.282372373507319e-12,2.477571513158434e-12,1.44915068062214e-12,7.871541461549424e-13
0.0,27,27.0,0.0,30.0,0.0,0.0,0.0,0.0,-13.0,0.0,2.0,0.0,0.0,0.0,8.13865909979825e-11,7.548838939961818e-11,6.722930319279502e-11,5.618826322504916e-11,4.966831773019914e-11,4.326973156058219e-11,3.5508288835923584e-11,3.093964491836387e-11,2.310877676265869e-11,1.812127684934821e-11,1.4165141178259862e-11,1.0364398351898229e-11,7.420939790940963e-12,5.176701090953581e-12,3.720119434041219e-12,2.5954763292376213e-12,1.7127060339436216e-12,1.080393951770571e-12,7.406058459870574e-13,4.1343377126961364e-13,2.440170604710099e-13,1.5181196859428394e-13,8.30519169805478e-14,4.36305290580243e-14,2.2212400649452748e-14,1.4262342924258042e-14,2.864694047053044e-09,1.4438198349641637e-09,8.689096549387907e-10,5.811167438463279e-10,4.0293032794247595e-10,2.842570138595823e-10,1.9443560537915963e-10,1.3715201342739102e-10,9.150292771703908e-11,6.470797820137696e-11,4.4691239166368214e-11,3.009743040202958e-11,1.9101709089655423e-11,1.164722024386029e-11,6.936756154693881e-12,3.938237395450161e-12,2.5832875803591665e-12,1.3979058245544076e-12,7.90549813528823e-13
0.0,28,28.0,0.0,30.0,0.0,0.0,0.0,0.0,-13.0,0.0,2.0,0.0,0.0,0.0,8.307948783457644e-11,7.206450202492834e-11,6.665299034869177e-11,6.29579527074311e-11,5.211340891178115e-11,4.41681193879027e-11,3.482307604851353e-11,3.18652040183336e-11,2.2736085301142433e-11,1.9545883469903187e-11,1.3147734668480621e-11,1.0832420972654053e-11,7.903877432237606e-12,5.2140970818489316e-12,3.758754623929558e-12,2.568644368280921e-12,1.65031711939869e-12,1.0593772356820984e-12,6.776505954418881e-13,4.416421248749698e-13,2.5805988289371243e-13,1.4694762921991048e-13,8.665003341633886e-14,4.650910427222252e-14,2.3306924509245114e-14,1.0919821519126664e-14,2.8795538635960514e-09,1.4025918548963035e-09,8.744484824531571e-10,6.11831316651488e-10,4.108636973023908e-10,2.768166735011898e-10,2.0188697844951227e-10,1.372857451275368e-10,1.0331049499446081e-10,6.645263253180876e-11,4.5466522525260433e-11,2.9995022800744885e-11,1.918767219359263e-11,1.1264880013031233e-11,7.011664830593078e-12,4.3060538292721964e-12,2.5557783301178065e-12,1.4324751863264416e-12,7.817045974923194e-13
0.0,29,29.0,0.0,30.0,0.0,0.0,0.0,0.0,-13.0,0.0,2.0,0.0,0.0,0.0,8.095835300889439e-11,7.576471446899974e-11,6.767458971931267e-11,6.138948041873e-11,5.175531560748498e-11,4.527206250702335e-11,3.651963268393348e-11,3.011321895469001e-11,2.387105341663564e-11,1.8316049098849503e-11,1.4503051375536095e-11,1.0272685534661625e-11,7.50686159445792e-12,5.387356334265478e-12,3.593983304580769e-12,2.5144742002732284e-12,1.6595210630597119e-12,1.0960026879821622e-12,7.056125681457653e-13,4.25930349309598e-13,2.5907051660554054e-13,1.5748155326060775e-13,8.539714230588305e-14,4.8645587876223987e-14,2.5318157909897667e-14,1.3412799522031469e-14,2.7515465360401284e-09,1.436105428957706e-09,8.874658682319553e-10,5.843617093448554e-10,4.031418284701638e-10,2.774142074987694e-10,2.1453861878965317e-10,1.4016235237440384e-10,1.0468246060720828e-10,6.799021518264253e-11,4.4868221120357225e-11,3.083485655851471e-11,1.906565140925584e-11,1.2379037553748095e-11,7.376409680182492e-12,4.498807364267763e-12,2.4927483902722665e-12,1.4922838779810798e-12,8.253160452403824e-13
0.0,30,30.0,0.0,30.0,0.0,0.0,0.0,0.0,-13.0,0.0,2.0,0.0,0.0,0.0,8.366063557780801e-11,8.437750327002361e-11,7.108541249643136e-11,6.582378112737084e-11,5.577667105147487e-11,4.5000647516911496e-11,3.735362408634123e-11,3.047418985047092e-11,2.315868920662894e-11,1.8640827642274586e-11,1.454492538321346e-11,1.1157196885750839e-11,7.538777708841237e-12,5.599490166547721e-12,3.628369645544979e-12,2.5083406841591316e-12,1.677457355291422e-12,1.1229021579375381e-12,7.17672887710424e-13,4.5060016675227806e-13,2.6868571800525426e-13,1.5417539306762274e-13,8.786423660051512e-14,5.0401514966745e-14,2.4849924378545896e-14,1.378964293541646e-14,2.64874784700066e-09,1.4569215018926962e-09,8.839056848346455e-10,6.069886034876991e-10,4.3543588383117525e-10,2.983084691499826e-10,2.1544019850674258e-10,1.5403580936649604e-10,1.03939334235951e-10,7.283002768596856e-11,4.6494991772237626e-11,3.082217249796294e-11,1.946659448290668e-11,1.2764273405428649e-11,7.6668649152755e-12,4.436075513104442e-12,2.6180355817346508e-12,1.5201011837460527e-12,8.181665620598554e-13
0.0,31,31.0,0.0,30.0,0.0,0.0,0.0,0.0,-13.0,0.0,2.0,0.0,0.0,0.0,8.524497482841984e-11,8.002449058034035e-11,6.706244900045129e-11,6.419972463375379e-11,5.3514486336502795e-11,4.5416089872234285e-11,3.9485119719066e-11,3.007551260093414e-11,2.6347148575278654e-11,1.9047616305857575e-11,1.4414395206189338e-11,1.114244181931647e-11,7.978187584589318e-12,5.919250077424299e-12,3.778879069055348e-12,2.559856706373656e-12,1.631219857435336e-12,1.1013516929451994e-12,6.935234201937287e-13,4.331714557976629e-13,2.501120092448071e-13,1.6234159090705006e-13,8.395989451464708e-14,4.3568491628967715e-14,2.455606501687167e-14,1.2667126033208814e-14,2.6901456477124603e-09,1.4960555923500537e-09,9.0709228495454e-10,6.196089348520493e-10,4.3942242960155567e-10,3.061146293591857e-10,2.2085503775354411e-10,1.457296177020857e-10,1.03197165645164e-10,7.32297549081559e-11,4.423120126637707e-11,3.010634024306548e-11,2.0428409867009233e-11,1.2403702432285868e-11,7.91191473029243e-12,4.686959480903531e-12,2.5488518326755703e-12,1.5105605648904006e-12,8.59047326365127e-13
0.0,32,32.0,0.0,30.0,0.0,0.0,0.0,0.0,-13.0,0.0,2.0,0.0,0.0,0.0,8.989435602285492e-11,7.889691956296093e-11,7.459835100989651e-11,6.516169114144834e-11,5.6100072251823416e-11,4.789850152123342e-11,3.5625710773056294e-11,3.27259601241849e-11,2.6662177866143247e-11,1.9876713761823408e-11,1.4940595684395057e-11,1.118572192134386e-11,7.98936502203501e-12,5.683826880638051e-12,3.838261393837632e-12,2.5272706581504783e-12,1.6626136764260438e-12,1.0814132785772387e-12,6.805157207408737e-13,4.2590457255271507e-13,2.793850524256175e-13,1.59322427112267e-13,8.723787602280237e-14,4.863733690182217e-14,2.674582058842219e-14,1.2952866999271541e-14,2.779480931578403e-09,1.4932192688701966e-09,9.247969522430658e-10,6.382754657841479e-10,4.5286992768414513e-10,3.0787574620038883e-10,2.212704340872735e-10,1.526474830753677e-10,1.0707063972190073e-10,7.25561626734848e-11,4.803514174893045e-11,3.215319739975386e-11,2.0829757483377343e-11,1.2852501215664359e-11,7.936771580291158e-12,4.543806236000425e-12,2.586496947663914e-12,1.5311974050633049e-12,8.54001295133574e-13
0.0,33,33.0,0.0,30.0,0.0,0.0,0.0,0.0,-13.0,0.0,2.0,0.0,0.0,0.0,9.14393169562158e-11,8.624642304080895e-11,7.611706685670607e-11,7.040360053549016e-11,5.5889307645153885e-11,4.630718146645444e-11,3.8940938532542635e-11,3.186830509747971e-11,2.606287117533588e-11,1.8629677692269725e-11,1.566540605015918e-11,1.102568086703892e-11,7.949247279252799e-12,5.4554380992958525e-12,3.86188942968951e-12,2.6070826796450184e-12,1.716362640766233e-12,1.1290737315152377e-12,6.981569593481865e-13,4.289252587568366e-13,2.70678319079199e-13,1.5727530196446192e-13,9.05390798198834e-14,5.199740857508182e-14,2.578799613343368e-14,1.3062213663214284e-14,2.8679674688898323e-09,1.4062860842014239e-09,9.047323886298255e-10,6.610953164173661e-10,4.543490025742707e-10,3.1855197192101865e-10,2.2377460045133395e-10,1.576561296787537e-10,1.0916512353156077e-10,7.782435369864364e-11,4.917625525003995e-11,3.242624953158804e-11,2.1966477498053714e-11,1.3021570771501157e-11,8.477531460665905e-12,4.7039376690606426e-12,2.8367968584566495e-12,1.454592169902567e-12,8.488831927970539e-13
0.0,34,34.0,0.0,30.0,0.0,0.0,0.0,0.0,-13.0,0.0,2.0,0.0,0.0,0.0,8.87289805242976e-11,8.669350480625874e-11,7.280584945089375e-11,6.698047936536417e-11,5.679498211783156e-11,4.6915267613188154e-11,3.855517674636009e-11,3.2459529144961034e-11,2.747340737129055e-11,2.0046816894877438e-11,1.5708782656614162e-11,1.1237700743283533e-11,8.323537032228488e-12,5.39053564543254e-12,3.8666611200605155e-12,2.7016558989507372e-12,1.7236576929680116e-12,1.1182447480274889e-12,7.02628038639589e-13,4.567190696085572e-13,2.6948880164511195e-13,1.5794090969940884e-13,9.268465200402355e-14,5.18448979508585e-14,2.7854423456818156e-14,1.5985604889539006e-14,2.7510246549397672e-09,1.4985335970357208e-09,9.402000714396682e-10,6.621973853388958e-10,4.834781365349668e-10,3.1866753061880405e-10,2.2174257692866734e-10,1.6585892956837886e-10,1.1133941373024921e-10,7.655679402263854e-11,5.068687044673623e-11,3.327372006593023e-11,2.1755429836743695e-11,1.2895742551126095e-11,7.826695561551268e-12,4.803517008793573e-12,2.63044890184616e-12,1.4882357030715957e-12,9.059422750303203e-13
0.0,35,35.0,0.0,30.0,0.0,0.0,0.0,0.0,-13.0,0.0,2.0,0.0,0.0,0.0,9.722345219199922e-11,8.622795188226245e-11,7.991082857251197e-11,6.558544379710176e-11,5.7805252510293366e-11,5.04167738453415e-11,4.234037942382413e-11,3.4039382514186666e-11,2.450991470241618e-11,1.994015364036332e-11,1.5733102256436812e-11,1.128957561551129e-11,8.840008712671624e-12,5.930370547930715e-12,4.020629228054214e-12,2.5602308676974306e-12,1.7408187771438227e-12,1.1333520678890163e-12,7.372610178897696e-13,4.5375644958107477e-13,2.7612023758964163e-13,1.5402752945560853e-13,9.569637388247122e-14,4.8861547406850044e-14,2.732053250617666e-14,1.5068834755332465e-14,2.7385107635733284e-09,1.457024149463906e-09,9.526419905848478e-10,6.425235881897385e-10,4.798006380098227e-10,3.4516263593230734e-10,2.3416682799119625e-10,1.6270795366500017e-10,1.0922977385565757e-10,8.006698164725661e-11,5.5198896438474616e-11,3.1995950870539767e-11,2.090253964367789e-11,1.3176347807053876e-11,8.061441776148532e-12,4.897553084038557e-12,2.942234967532802e-12,1.6240681989979954e-12,8.796414145699562e-13
0.0,36,36.0,0.0,30.0,0.0,0.0,0.0,0.0,-13.0,0.0,2.0,0.0,0.0,0.0,9.491558589333632e-11,8.504698870454367e-11,7.670467362626149e-11,7.222086312077683e-11,5.935227383609873e-11,4.972372801360215e-11,4.173812397769612e-11,3.49378550239479e-11,2.5902252648043103e-11,2.1739697548491128e-11,1.5812246680067238e-11,1.1493710748130527e-11,8.430438912019889e-12,5.87672043723881e-12,3.954990852771722e-12,2.652172933149111e-12,1.7084470100900268e-12,1.1521308813752263e-12,7.032050251995846e-13,4.298735121737424e-13,2.696563277598089e-13,1.6566948010122974e-13,9.208596966572898e-14,5.083879658479167e-14,2.8964395655881645e-14,1.6999783681932234e-14,2.6288043615668813e-09,1.5379472407814234e-09,1.001947848249221e-09,7.130721888528105e-10,4.978153628478388e-10,3.385935232155808e-10,2.2822604952593258e-10,1.7251586711408148e-10,1.1386028806856992e-10,7.730978100182515e-11,5.4618224566824006e-11,3.351721744032798e-11,2.2901672136807332e-11,1.3814254650259099e-11,8.410441838401669e-12,4.983592330564463e-12,2.7056051938971215e-12,1.5103783493037867e-12,8.818532727003431e-13
0.0,37,37.0,0.0,30.0,0.0,0.0,0.0,0.0,-13.0,0.0,2.0,0.0,0.0,0.0,1.0072491886230914e-10,9.002231867842907e-11,7.818221697521586e-11,7.040631387509457e-11,6.044541401388495e-11,4.985540033625183e-11,4.4016719121631493e-11,3.28777516828263e-11,2.788887405869113e-11,2.1422930524648946e-11,1.6453693301093298e-11,1.1375312657928236e-11,8.453410332726522e-12,6.293315904705017e-12,4.119616239451183e-12,2.705155053688615e-12,1.7952087600207526e-12,1.1380884962641171e-12,7.63550877093912e-13,4.563160062132385e-13,2.680775049630292e-13,1.6098027766415947e-13,9.164996890943005e-14,5.4731987672030586e-14,2.6959448291095405e-14,1.338077502262091e-14,2.869417301190918e-09,1.6401448768031489e-09,1.0303141468914915e-09,7.073555690017511e-10,5.048136950049931e-10,3.4192631365343516e-10,2.4731734242037004e-10,1.7251104109923518e-10,1.2161196674540985e-10,7.745406451341861e-11,5.304038547709351e-11,3.600296211109667e-11,2.1916553879431467e-11,1.3491796524536726e-11,8.981622660092565e-12,5.018107682386295e-12,2.8373086429361815e-12,1.5356330935636079e-12,9.076994203570641e-13
0.0,38,38.0,0.0,30.0,0.0,0.0,0.0,0.0,-13.0,0.0,2.0,0.0,0.0,0.0,1.0322945877364259e-10,9.082467159878156e-11,7.907059828201172e-11,7.169922039380046e-11,6.020638890180628e-11,5.0803988863741424e-11,4.334768784418461e-11,3.4161459868568585e-11,2.8060762799155247e-11,2.1901768389151132e-11,1.579768512996258e-11,1.1404078968822475e-11,8.937492004841582e-12,5.811201881850191e-12,4.002830203662451e-12,2.7400401348085936e-12,1.8119601005782507e-12,1.1322605641926254e-12,7.284467755009137e-13,4.385011568507222e-13,2.61269687747744e-13,1.672162857175083e-13,1.007060920983281e-13,5.6115925067788963e-14,2.936408783193804e-14,1.7411714708773748e-14,2.7822045527789947e-09,1.5403986002858851e-09,1.0519156920720492e-09,7.195316796188602e-10,4.921490542120354e-10,3.475530842863066e-10,2.579821605139719e-10,1.665331098990591e-10,1.2423665455587672e-10,7.892281086234118e-11,5.1450283281929774e-11,3.380801556050523e-11,2.411544007634872e-11,1.4057323861349904e-11,8.619311471488438e-12,5.304636012438399e-12,3.0120196278587218e-12,1.5720881754523098e-12,9.234030901767153e-13
0.0,39,39.0,0.0,30.0,0.0,0.0,0.0,0.0,-13.0,0.0,2.0,0.0,0.0,0.0,1.0380949944734981e-10,9.258456655946803e-11,8.349570172471484e-11,7.598322534927423e-11,6.127141521537579e-11,5.389735475635767e-11,4.425219834670441e-11,3.394879778714942e-11,2.763244075700818e-11,2.1973344897982724e-11,1.708639675283048e-11,1.2420566053098903e-11,8.80434500927195e-12,5.904634932313779e-12,4.352192080603238e-12,2.766963171312645e-12,1.739902026070094e-12,1.1412125611196575e-12,7.403187130632222e-13,4.4470394039372236e-13,2.767581315499033e-13,1.660373406187561e-13,9.494021102064175e-14,5.172276424438374e-14,2.9687696042137576e-14,1.567584447621018e-14,2.9137943966854433e-09,1.5095755948003585e-09,1.0556502800760824e-09,7.259502384326521e-10,5.248448095459761e-10,3.3920198595174577e-10,2.666113295977364e-10,1.8048732659194682e-10,1.1785524235786095e-10,8.383616287786413e-11,5.708600194590744e-11,3.472584378487695e-11,2.3184289160472026e-11,1.39230630729788e-11,8.587548194430096e-12,5.16777916819685e-12,2.9877390172946492e-12,1.6406692000303531e-12,9.180294990135903e-13
0.0,40,40.0,0.0,30.0,0.0,0.0,0.0,0.0,-13.0,0.0,2.0,0.0,0.0,0.0,1.0801721958740268e-10,9.469440208127968e-11,8.879645427753353e-11,7.790641473061421e-11,6.333859348336327e-11,5.3217467943827086e-11,4.281591836390694e-11,3.636768028960682e-11,2.8468933402094707e-11,2.2709322396659727e-11,1.593528696783698e-11,1.2125657682462705e-11,9.017773898203728e-12,5.992541540256401e-12,4.0799531354827815e-12,2.6561033164987973e-12,1.9511855915317625e-12,1.1286483623616283e-12,6.953950477325346e-13,4.346923254248843e-13,2.6356032439999823e-13,1.5960742441462847e-13,9.659237438615444e-14,5.313737392051938e-14,2.857452000999167e-14,1.4237978176305218e-14,2.7721640899473734e-09,1.6154342629719659e-09,1.13345481300096e-09,7.590661362941858e-10,5.310355542685421e-10,3.632397688514295e-10,2.6182086223557517e-10,1.8222593652969183e-10,1.2615777318136334e-10,8.408633057535304e-11,5.8129046372375776e-11,3.7009279255538684e-11,2.345943088437091e-11,1.3870676858387546e-11,9.003442354441305e-12,5.317385558486802e-12,2.9371762831205347e-12,1.7384864303083962e-12,8.818107328515922e-13
0.0,41,41.0,0.0,30.0,0.0,0.0,0.0,0.0,-13.0,0.0,2.0,0.0,0.0,0.0,1.0761310207278692e-10,9.670457389306379e-11,8.345764809947283e-11,7.656280182326535e-11,6.875513826180105e-11,5.5390836578983415e-11,4.524786988056063e-11,3.7641038473986954e-11,2.9354275208181146e-11,2.2560286132301705e-11,1.6724496236698894e-11,1.2928453503442551e-11,9.000317150260207e-12,6.103817665421569e-12,4.209100683402599e-12,2.74251438170555e-12,1.7912004284102889e-12,1.139774513016188e-12,7.019729852433314e-13,4.569041147219819e-13,2.6784856651657983e-13,1.6395244297218973e-13,9.24287499333079e-14,5.3907176730092804e-14,2.913597954750158e-14,1.6848410048752495e-14,2.7637455004129367e-09,1.6059412956926163e-09,1.054072930742678e-09,7.822267625007946e-10,5.345089924556809e-10,3.843027182431968e-10,2.6672633529709844e-10,1.9444126168183841e-10,1.326023672745384e-10,8.963832071594273e-11,5.729885271179183e-11,3.841593375306311e-11,2.5266053050163586e-11,1.449970104559646e-11,9.0596205863906e-12,5.0550647862735315e-12,3.1850629804958472e-12,1.6894779078590468e-12,9.572198433069068e-13
0.0,42,42.0,0.0,30.0,0.0,0.0,0.0,0.0,-13.0,0.0,2.0,0.0,0.0,0.0,1.0431553839256532e-10,1.0492720287480516e-10,8.77405155773619e-11,7.893726989693274e-11,6.699759619574651e-11,5.589486993241941e-11,4.9086723080886926e-11,3.592509758959372e-11,3.0016854766361056e-11,2.352490948883495e-11,1.717958748210598e-11,1.2530056570968883e-11,8.957864509661446e-12,6.047609165015278e-12,4.275894955155353e-12,2.877392417153654e-12,1.8444692309071856e-12,1.1606368055797076e-12,7.193966713797321e-13,4.4385465502500507e-13,2.808845493819724e-13,1.5113869414817238e-13,9.483882675899853e-14,5.367547834914299e-14,3.2320658146748566e-14,1.6302356295676227e-14,2.9273116568342034e-09,1.5661823637892507e-09,1.150605022674367e-09,8.021441898639002e-10,5.834998622676186e-10,3.7483349797072487e-10,2.761213928850608e-10,1.9392695144207285e-10,1.3147143198145387e-10,9.367579765402577e-11,5.897551051447793e-11,4.097854040127171e-11,2.5241446314143273e-11,1.555582148255741e-11,9.310244277718165e-12,5.225333939188132e-12,3.058749310101375e-12,1.7636195578653121e-12,9.664258204481878e-13
0.0,43,43.0,0.0,30.0,0.0,0.0,0.0,0.0,-13.0,0.0,2.0,0.0,0.0,0.0,1.1679525328883027e-10,1.0025112509240922e-10,8.820177141677954e-11,8.128516592054872e-11,6.635838734052086e-11,5.890386483417633e-11,4.9294353441040286e-11,3.898517368554099e-11,2.992483089945096e-11,2.3292913041274696e-11,1.7764733378079834e-11,1.2756765467647396e-11,9.717153886820323e-12,6.167858511529152e-12,4.190140289882418e-12,2.779487921963531e-12,1.824575162919369e-12,1.1016659502019993e-12,7.199892986309566e-13,4.4010729043950705e-13,2.7164934853645217e-13,1.6374636183652068e-13,9.121021048698712e-14,5.627223495986276e-14,3.30330696902589e-14,1.6186156237198218e-14,2.957827984377647e-09,1.7160863163123455e-09,1.2319289111943926e-09,8.432995215380505e-10,5.477319769569225e-10,4.0458624339622094e-10,2.9332312202806004e-10,1.9838138477745497e-10,1.3637828580067217e-10,9.587459743591672e-11,5.951992961697093e-11,3.939425252737578e-11,2.5157043326416e-11,1.5228580478374888e-11,9.296981237531301e-12,5.6058814538618255e-12,3.1835209543988753e-12,1.7130689105355134e-12,9.246186804279204e-13
0.0,44,44.0,0.0,30.0,0.0,0.0,0.0,0.0,-13.0,0.0,2.0,0.0,0.0,0.0,1.1212412975018484e-10,1.0385934688509917e-10,9.199329599113507e-11,7.88433786896157e-11,6.811368292248344e-11,5.583210376550516e-11,4.9067413111893805e-11,3.909192330358517e-11,2.959644220517288e-11,2.36567349371053e-11,1.8431488526537503e-11,1.2647129639430622e-11,9.602001289427357e-12,6.373513482758212e-12,4.3959404852205296e-12,2.9021297831293107e-12,1.9535483086232546e-12,1.193386705946059e-12,7.126084288223531e-13,4.326519692246974e-13,2.588885291015467e-13,1.533928307309924e-13,9.529730809169955e-14,5.291505417297428e-14,3.069080911581183e-14,1.579714460182412e-14,2.784624573872654e-09,1.7162958893967215e-09,1.2167077159994861e-09,8.606529614623113e-10,5.963907034621527e-10,4.0252228702010473e-10,2.9711165026672954e-10,2.0720001084468645e-10,1.4084528254511429e-10,9.268165687695187e-11,6.340154218165581e-11,4.065360268168132e-11,2.2999944930227566e-11,1.594884557803091e-11,8.908406185750748e-12,5.6707487434589545e-12,3.1715911131652213e-12,1.8445857876561282e-12,9.674642956372902e-13
0.0,45,45.0,0.0,30.0,0.0,0.0,0.0,0.0,-13.0,0.0,2.0,0.0,0.0,0.0,1.142475683294798e-10,1.0562686422221729e-10,9.738893213195187e-11,8.258842733184396e-11,7.049820254514175e-11,6.095659386905178e-11,4.967021341856612e-11,3.9827053875365574e-11,3.2561199744709325e-11,2.5136499043455053e-11,1.8317593361610407e-11,1.3006274174343234e-11,9.781516493769981e-12,6.747695561941432e-12,4.516067275731061e-12,2.817762020643154e-12,1.900461309136127e-12,1.1704185206128064e-12,7.387189719923305e-13,4.553392372427795e-13,2.7281212498574163e-13,1.5972225850196114e-13,9.919084166094516e-14,5.167158451525735e-14,3.1991253527832025e-14,1.4657557918711218e-14,2.914033827589072e-09,1.7320285136208277e-09,1.254172774705876e-09,8.618175882191902e-10,6.100411946606805e-10,4.1269870600618364e-10,2.930125187520356e-10,2.0925603317627078e-10,1.4545714395019087e-10,1.0496084311143481e-10,6.380443425425526e-11,4.21324988753637e-11,2.463332549284835e-11,1.5280204126630443e-11,9.500412160303753e-12,5.439709886693621e-12,3.3756749036411346e-12,1.7806542666368657e-12,1.0258480982641413e-12
0.0,46,46.0,0.0,30.0,0.0,0.0,0.0,0.0,-13.0,0.0,2.0,0.0,0.0,0.0,1.2532126126669733e-10,1.0853940860635155e-10,9.784422233436478e-11,8.408802069404973e-11,7.332458941426706e-11,6.166242664997049e-11,5.009218040877988e-11,4.115915672974195e-11,3.34556854113533e-11,2.492527528950853e-11,1.843897289979032e-11,1.3356445290844075e-11,9.198548232776242e-12,6.39474603511756e-12,4.5156190936423686e-12,2.8343907944562085e-12,1.8667465531681085e-12,1.2533304624751768e-12,7.898383140310044e-13,4.3116398623081583e-13,2.859832642852438e-13,1.6123467649586865e-13,9.544363574835444e-14,5.4880477396290875e-14,3.264757677206777e-14,1.5075011719065164e-14,2.955772533841843e-09,1.768255295371046e-09,1.275347919967782e-09,9.2367425045138e-10,6.218680235366243e-10,4.4186813686384897e-10,3.103006627592717e-10,2.0797021259199794e-10,1.5294829664763946e-10,1.0368267710896192e-10,6.607662582974144e-11,4.183436663952201e-11,2.5953910897746505e-11,1.5885551611472753e-11,1.0258324022259261e-11,5.970439943016722e-12,3.2695598745961286e-12,1.738864754089236e-12,9.060384444206633e-13
0.0,47,47.0,0.0,30.0,0.0,0.0,0.0,0.0,-13.0,0.0,2.0,0.0,0.0,0.0,1.1866128729213533e-10,1.1033679733052502e-10,1.0259122744055854e-10,8.43010441709879e-11,7.472864116561194e-11,6.438674480655962e-11,5.1417922854280275e-11,4.109533426452607e-11,3.1083126311397485e-11,2.3903656454269643e-11,1.8770920062802342e-11,1.3416404605563345e-11,9.649797198449582e-12,6.671576772715723e-12,4.61467780402273e-12,2.917388250983755e-12,1.909870678052696e-12,1.286293896888182e-12,7.337606763453535e-13,4.520611228279688e-13,2.683867715027799e-13,1.6471615265549577e-13,9.873479291135907e-14,5.427141945395131e-14,3.073220065601764e-14,1.6693584268746193e-14,3.0023838174063423e-09,1.8215737100973618e-09,1.272803488228336e-09,8.424837539430577e-10,6.123715212235167e-10,4.471245107493971e-10,3.2292178295489085e-10,2.2029861990647455e-10,1.448367594947273e-10,9.660849589052142e-11,6.642906097542986e-11,4.046016822317182e-11,2.7664996352246938e-11,1.6501764754961763e-11,9.436163655824701e-12,5.643950852079035e-12,3.2489245465700496e-12,1.8071378537055754e-12,9.602261492546972e-13
0.0,48,48.0,0.0,30.0,0.0,0.0,0.0,0.0,-13.0,0.0,2.0,0.0,0.0,0.0,1.2211401014900967e-10,1.1088542089851131e-10,9.842668901773051e-11,9.075186627408414e-11,7.534255756932327e-11,6.129424854033596e-11,5.166062137602802e-11,4.0906217536780904e-11,3.261148543892666e-11,2.586302480595143e-11,1.896619421655011e-11,1.463109270950761e-11,9.854140066931412e-12,6.579862775119623e-12,4.6887997504468615e-12,3.1179810356432402e-12,2.0122584123742593e-12,1.1871713871390177e-12,7.536330173778565e-13,4.737029506040444e-13,2.6005861635640504e-13,1.6025055749182256e-13,9.141704501636471e-14,5.354524694400745e-14,3.0071070147470776e-14,1.8531813789312225e-14,2.9786353812067126e-09,1.8591860309916905e-09,1.2812933406149325e-09,9.362533052449444e-10,6.562836286662348e-10,4.793226365786849e-10,3.274841181153925e-10,2.142074708942304e-10,1.5044658055780498e-10,1.0642964863911721e-10,6.623010113852904e-11,4.567942496774761e-11,2.640798434354011e-11,1.704422141046298e-11,9.814326410326605e-12,5.809436623846553e-12,3.479243473524985e-12,1.8676045955075672e-12,1.0463874066736147e-12
0.0,49,49.0,0.0,30.0,0.0,0.0,0.0,0.0,-13.0,0.0,2.0,0.0,0.0,0.0,1.300646605941886e-10,1.1833669490579203e-10,1.0001310420290403e-10,8.903396326703503e-11,7.761323918759525e-11,6.277866429597658e-11,5.577080150515125e-11,4.177742032689342e-11,3.3172467703314054e-11,2.4838672939302044e-11,1.7884351777139302e-11,1.4638925221536472e-11,9.815619974865366e-12,6.75875095505025e-12,4.603829668483794e-12,3.1830782274662927e-12,1.9106754185863197e-12,1.2634748110487032e-12,7.527004663838662e-13,4.521958207333327e-13,2.7956258698090953e-13,1.679345127220346e-13,9.431560065918918e-14,5.3962181545771375e-14,2.9976237517663076e-14,1.8477014203036577e-14,2.996415646623444e-09,1.8485344386930176e-09,1.4165974568393351e-09,9.192383975931539e-10,6.906349569271171e-10,4.759057508597539e-10,3.339832734573362e-10,2.2543317144867878e-10,1.5873769660390528e-10,1.0018231861127375e-10,7.014573173254028e-11,4.6358492781058143e-11,2.8557156376279393e-11,1.601534345139535e-11,9.935637651880718e-12,5.95458632951699e-12,3.464748169558351e-12,1.89305254171731e-12,1.0167427185498743e-12
0.0,50,50.0,0.0,30.0,0.0,0.0,0.0,0.0,-13.0,0.0,2.0,0.0,0.0,0.0,1.3351057949796983e-10,1.22434160721215e-10,1.0425903852065923e-10,9.352994853674192e-11,7.215820037017866e-11,6.384585451905405e-11,5.3659933079300415e-11,4.291362519645323e-11,3.4391895739060524e-11,2.682298937848953e-11,1.9703385677284415e-11,1.3828475459975155e-11,9.552938689865117e-12,7.053556513621905e-12,4.4276380342467455e-12,3.146868104875553e-12,1.9761103504520134e-12,1.20515382703244e-12,7.746667963593304e-13,4.62934694347374e-13,2.7548028617211694e-13,1.6287431886682864e-13,9.728122389926637e-14,5.733979682537571e-14,3.2381448503989223e-14,1.8474789093724215e-14,3.09934332918691e-09,2.1059566599826305e-09,1.421538743116118e-09,9.700291465019354e-10,6.711664540040207e-10,4.893303499078279e-10,3.2657750198738166e-10,2.284050280201003e-10,1.6195772202591533e-10,1.0589840694340295e-10,6.843884987462309e-11,4.5134173836028726e-11,2.8404296469401024e-11,1.723957126961759e-11,1.028665267216492e-11,6.234598918764511e-12,3.497980621202824e-12,1.9107670750010145e-12,1.1266164547223728e-12
0.0,51,51.0,0.0,30.0,0.0,0.0,0.0,0.0,-13.0,0.0,2.0,0.0,0.0,0.0,1.349607525409589e-10,1.2506898645844201e-10,1.0548831189647074e-10,8.96568636018619e-11,7.792625889532963e-11,6.64607786799598e-11,5.4394346736227814e-11,4.6124750552850654e-11,3.4517763076321456e-11,2.6825301977562973e-11,1.9681513789505862e-11,1.4110493477942545e-11,1.0158075261880526e-11,7.387059267977359e-12,4.6322155895179775e-12,3.1920438512047894e-12,1.9455647841050145e-12,1.2431168955075145e-12,7.739740861323273e-13,4.702165892643609e-13,2.892140500028297e-13,1.6337329872445112e-13,9.355141516582085e-14,5.688654614359171e-14,3.1289315183131076e-14,1.769346445760622e-14,3.1521396705013358e-09,1.9424718719060827e-09,1.4598369119886997e-09,1.0325420103946595e-09,7.336338753936398e-10,5.268429709501849e-10,3.3647488738584937e-10,2.45026051489492e-10,1.6673275181358284e-10,1.0895437661368972e-10,7.278750730823458e-11,4.678522322212643e-11,2.7821814657116926e-11,1.7781676385265293e-11,1.0282893763475587e-11,6.049396866624052e-12,3.3228424980737793e-12,1.920703898615585e-12,1.0514979588317728e-12
0.0,52,52.0,0.0,30.0,0.0,0.0,0.0,0.0,-13.0,0.0,2.0,0.0,0.0,0.0,1.3954888017457665e-10,1.2370144779466532e-10,1.0458906987348684e-10,9.795298124988566e-11,8.118785172118204e-11,6.933965911529904e-11,5.790754139148082e-11,4.708714200430304e-11,3.731957891676414e-11,2.683705096084054e-11,2.020211937616957e-11,1.4035725880034497e-11,1.0612567100604829e-11,6.86233255095206e-12,4.5377969458988435e-12,3.23314321969281e-12,1.995938473216455e-12,1.3016898386675161e-12,7.894915250241322e-13,4.4549924613142944e-13,2.550847362241626e-13,1.5848643532260703e-13,9.630696938371903e-14,5.3314107912780194e-14,3.097423309385835e-14,1.5857870299100077e-14,3.2448160252939258e-09,2.1258891078656386e-09,1.4587699444454891e-09,1.088482684434444e-09,7.674468335202112e-10,5.225867248383373e-10,3.390461138470239e-10,2.392965528511194e-10,1.7079861490564514e-10,1.1076077644293353e-10,7.241776509560858e-11,4.829880485245712e-11,2.987614957967364e-11,1.8670559324977777e-11,1.0608782487084207e-11,6.522356962914756e-12,3.50025949291048e-12,2.0640756920558307e-12,1.0747237475198207e-12
0.0,53,53.0,0.0,30.0,0.0,0.0,0.0,0.0,-13.0,0.0,2.0,0.0,0.0,0.0,1.368560806186335e-10,1.2032491499955907e-10,1.1108612639680623e-10,9.679324463437356e-11,8.53172245362349e-11,6.948004371907573e-11,5.661796176206281e-11,4.747744322472511e-11,3.562027366313506e-11,2.6867872692466514e-11,2.0677819594577587e-11,1.4500917785247959e-11,1.0631830121669988e-11,7.077048398757866e-12,4.822123965667265e-12,3.203886155836921e-12,2.025295229038524e-12,1.2832087769231227e-12,8.054090987159504e-13,4.772469979674009e-13,2.8318347400899325e-13,1.6120319478365925e-13,9.900566030585714e-14,5.70640904459247e-14,3.334348814494056e-14,1.6758247417178373e-14,3.2821593436684134e-09,2.2221385968366507e-09,1.4965503902980603e-09,1.0686203260923601e-09,7.996166207713612e-10,5.593757229060915e-10,3.8183751969658205e-10,2.610676169234336e-10,1.6760421599292324e-10,1.1728772265859906e-10,7.42858891261826e-11,4.6465880840845406e-11,2.9527341650995676e-11,1.8343343383957086e-11,1.0744135860323553e-11,6.2533627686714264e-12,3.695702792892475e-12,2.0083489201246635e-12,1.092108401263679e-12
0.0,54,54.0,0.0,30.0,0.0,0.0,0.0,0.0,-13.0,0.0,2.0,0.0,0.0,0.0,1.4426169056264666e-10,1.2679476852916576e-10,1.0989483390522032e-10,1.0058848557942283e-10,8.36299834540209e-11,6.682902661383115e-11,5.778515989818252e-11,4.5307263338966433e-11,3.725668415551017e-11,2.8229690594292998e-11,2.0953201153094894e-11,1.463520706199275e-11,1.0800793683081905e-11,7.368288736688039e-12,4.851954084032641e-12,3.1806989540342323e-12,2.124603512875972e-12,1.2772378228961243e-12,7.997771063162225e-13,4.892738739777018e-13,2.965952729805748e-13,1.7324915154964266e-13,9.930800229379735e-14,5.2885029966603966e-14,3.106258425834583e-14,1.7025587249057657e-14,3.5434004807477337e-09,2.1975255135090354e-09,1.5889464013387472e-09,1.1118654858389105e-09,7.564833548915208e-10,5.49780069887881e-10,3.8275906641695186e-10,2.507366250350081e-10,1.8367411957543306e-10,1.1081070133736563e-10,7.53815181985375e-11,5.040160388079322e-11,2.9464335810813315e-11,1.8799819439812172e-11,1.0671387122900422e-11,6.437234525566378e-12,3.405123717521222e-12,1.9736102019784434e-12,1.044209007661892e-12
