Line_number,Fiducial,Easting,Northing,Height,Elevation,tx_pitch,tx_roll,tx_yaw,txrx_dx,txrx_dy,txrx_dz,rx_pitch,rx_roll,rx_yaw,S0Z_time_3.834e-04,S0Z_time_3.924e-04,S0Z_time_4.039e-04,S0Z_time_4.184e-04,S0Z_time_4.364e-04,S0Z_time_4.589e-04,S0Z_time_4.869e-04,S0Z_time_5.224e-04,S0Z_time_5.679e-04,S0Z_time_6.249e-04,S0Z_time_6.969e-04,S0Z_time_7.879e-04,S0Z_time_9.019e-04,S0Z_time_1.046e-03,S0Z_time_1.227e-03,S0Z_time_1.456e-03,S0Z_time_1.744e-03,S0Z_time_2.109e-03,S0Z_time_2.567e-03,S0Z_time_3.145e-03,S0Z_time_3.864e-03,S0Z_time_4.745e-03,S0Z_time_5.821e-03,S0Z_time_7.140e-03,S0Z_time_8.754e-03,S0Z_time_1.073e-02,S1Z_time_2.057e-05,S1Z_time_2.607e-05,S1Z_time_3.307e-05,S1Z_time_4.206e-05,S1Z_time_5.356e-05,S1Z_time_6.807e-05,S1Z_time_8.607e-05,S1Z_time_1.086e-04,S1Z_time_1.366e-04,S1Z_time_1.721e-04,S1Z_time_2.176e-04,S1Z_time_2.746e-04,S1Z_time_3.466e-04,S1Z_time_4.376e-04,S1Z_time_5.516e-04,S1Z_time_6.956e-04,S1Z_time_8.771e-04,S1Z_time_1.106e-03,S1Z_time_1.394e-03
0.0,0,0.0,0.0,30.0,0.0,0.0,0.0,0.0,-13.0,0.0,2.0,0.0,0.0,0.0,6.210031150898836e-11,4.984179990771049e-11,4.1339060995414353e-11,3.420795225919514e-11,2.638356209725478e-11,1.8611562030137978e-11,1.4888996943164523e-11,1.0638049655593205e-11,7.67567756415914e-12,5.51060021814716e-12,3.795218166086495e-12,2.6803865507940434e-12,1.7556110135476768e-12,1.1292819606732501e-12,7.301426664929336e-13,4.58041258652385e-13,2.9196636873238817e-13,1.6837884500042685e-13,1.006325168441652e-13,5.612867130236648e-14,2.9161868201375367e-14,1.952392073554577e-14,1.1295623135106643e-14,5.081036606426662e-15,5.420836864911866e-15,4.257261797993349e-16,6.016332523230333e-09,3.426232185094659e-09,2.147990891735052e-09,1.2764547702784046e-09,7.152021109310267e-10,4.1169536260719134e-10,2.2524818809006623e-10,1.2283050880179437e-10,7.27299832488638e-11,4.1341054470845245e-11,2.360871264654777e-11,1.309275444010632e-11,6.9199519247933326e-12,3.801657943204562e-12,2.030780456327536e-12,1.0766112256293246e-12,5.615498936978556e-13,3.4227679902777127e-13,1.541212204896979e-13
0.0,1,1.0,0.0,30.0,0.0,0.0,0.0,0.0,-13.0,0.0,2.0,0.0,0.0,0.0,5.7024400768988225e-11,4.624389755607581e-11,3.990084118912268e-11,2.9458827124682086e-11,2.3845205331816693e-11,1.7830594383809625e-11,1.3930875231513793e-11,9.974051967181249e-12,7.02243619639994e-12,5.136144231218415e-12,3.6143398458945197e-12,2.4326788725101725e-12,1.640193471877951e-12,1.0477567375583173e-12,6.782894702053368e-13,4.2421746419268617e-13,2.64569390472175e-13,1.587462184763343e-13,9.071417300617275e-14,5.623997450093134e-14,3.11566112135948e-14,1.639108026757347e-14,1.059387865297932e-14,4.775806117937215e-15,3.115349543768715e-15,2.5825633780156063e-15,6.042658825499524e-09,3.579440308055305e-09,1.9920620723527955e-09,1.2483345489225182e-09,7.027636036385944e-10,3.979334765015619e-10,2.2664416398527575e-10,1.2772151276748513e-10,7.188697432423172e-11,3.834615929537916e-11,2.235467374856538e-11,1.2157545975268681e-11,6.307192891349365e-12,3.7767927372548186e-12,2.0905740067544595e-12,1.1020618413384104e-12,5.604752703834353e-13,2.8508969177945754e-13,1.6339615358509356e-13
0.0,2,2.0,0.0,30.0,0.0,0.0,0.0,0.0,-13.0,0.0,2.0,0.0,0.0,0.0,5.605224099969759e-11,4.8720635858833195e-11,3.820026432753401e-11,3.086741974994792e-11,2.336855093127666e-11,1.793274364848727e-11,1.313894625396725e-11,1.0138763176174783e-11,6.923393453684949e-12,4.920526907462045e-12,3.5646840032722425e-12,2.204492358315718e-12,1.4818680201051057e-12,1.0441558625762617e-12,6.30043382460089e-13,4.3779976727698664e-13,2.530086545756317e-13,1.528879825047725e-13,9.814031392831711e-14,5.684624919796722e-14,3.326026354278905e-14,1.876934957556645e-14,8.94167878326581e-15,7.498228519306765e-15,2.718637821402088e-15,2.6258414800456938e-15,6.201522494250491e-09,3.459038590275252e-09,2.120195550789281e-09,1.277084339805185e-09,7.304426104080495e-10,3.9645722390307035e-10,2.321326808530258e-10,1.326212442733554e-10,6.882246965770361e-11,3.8329203310315e-11,2.0604402797958457e-11,1.2041062419353873e-11,6.384829501459407e-12,3.4532245663930394e-12,1.821094124694988e-12,1.0204097295459762e-12,5.209586800029079e-13,2.849528285565225e-13,1.3740683203504636e-13
0.0,3,3.0,0.0,30.0,0.0,0.0,0.0,0.0,-13.0,0.0,2.0,0.0,0.0,0.0,5.694190268036837e-11,4.685874247891115e-11,3.681715602018255e-11,2.947089900409171e-11,2.160376706662435e-11,1.611963694251239e-11,1.2724615760377156e-11,9.2082758599039e-12,6.6709256011662116e-12,4.934591902464599e-12,3.284618061959717e-12,2.116503924392408e-12,1.5103582833428421e-12,9.264043028613658e-13,6.136393473341668e-13,3.9447693066655014e-13,2.5826500385031084e-13,1.4700574483348446e-13,8.675945817552121e-14,5.205136868788215e-14,2.8877212270498836e-14,1.8521638146946234e-14,8.454221248318455e-15,4.2682907901834185e-15,2.4750543923734528e-15,1.2932806121786633e-15,6.390512934588338e-09,3.587647924723427e-09,2.0989555105811788e-09,1.2046057669217683e-09,7.446694364729726e-10,3.9877339959255426e-10,2.189405415053074e-10,1.3086791667277476e-10,6.966132395538633e-11,3.845171352859345e-11,2.027636910367577e-11,1.1162599550569405e-11,5.8198049151248564e-12,3.1239615062922094e-12,1.7982232027902953e-12,9.239198412290488e-13,4.928478024951554e-13,2.646275572169557e-13,1.3750369754787011e-13
0.0,4,4.0,0.0,30.0,0.0,0.0,0.0,0.0,-13.0,0.0,2.0,0.0,0.0,0.0,5.438581704531015e-11,4.335453796733939e-11,3.552706043967725e-11,2.6457133780082865e-11,2.203441332936635e-11,1.5473155648562027e-11,1.1637422738920769e-11,8.755608271215451e-12,6.086070840343566e-12,4.570887820710019e-12,2.909883674696104e-12,2.079701520631583e-12,1.3856606466764656e-12,8.852719748259662e-13,6.025828558502533e-13,3.7600526736736607e-13,2.408868676861053e-13,1.4837044092482794e-13,9.189357226322717e-14,5.2939603778458425e-14,2.8359835012637807e-14,1.6511190036562192e-14,1.0466383163874629e-14,5.967059471272677e-15,3.4860563514953793e-15,1.4278232584009594e-16,6.047225330037933e-09,3.4232551194205875e-09,2.1215453707008054e-09,1.2535851801664683e-09,7.49436585893974e-10,4.158752441429823e-10,2.344974745695857e-10,1.2356209806355357e-10,6.595217088327894e-11,3.600798932653242e-11,1.93645549812133e-11,1.052597826738159e-11,6.024501554157328e-12,3.0488397328339966e-12,1.6172096068863837e-12,8.868925359925039e-13,4.707809451783888e-13,2.633774274980454e-13,1.141618595925246e-13
0.0,5,5.0,0.0,30.0,0.0,0.0,0.0,0.0,-13.0,0.0,2.0,0.0,0.0,0.0,5.4300840692349826e-11,4.4659373475441926e-11,3.5725998273737794e-11,2.7147655031343668e-11,2.083697047210596e-11,1.5020358826009083e-11,1.1388464514815228e-11,8.220901637767746e-12,6.0019943550445146e-12,4.0060180226747585e-12,2.939791621086236e-12,2.0456792255238596e-12,1.2360815541313493e-12,8.843934096803221e-13,5.774001788466967e-13,3.546021311284399e-13,2.2302167832763588e-13,1.3864825810445431e-13,8.204801443874314e-14,4.8310709995282457e-14,2.577534903214979e-14,1.7603793572822193e-14,1.0198208053552811e-14,4.3565290611788524e-15,1.3033111500941287e-15,2.2539535581097114e-15,5.9580403982753276e-09,3.5278278021225723e-09,2.0931099257061513e-09,1.2891945281168823e-09,7.47337270321491e-10,4.035169299743906e-10,2.1907746983275999e-10,1.1844506745767106e-10,6.808516014079305e-11,3.432553031514934e-11,1.8450363987554394e-11,9.797625139962186e-12,5.3635727003437685e-12,2.725196612033533e-12,1.5864004163627782e-12,8.633565436315687e-13,4.556079653447415e-13,2.410187326129768e-13,1.2553662632577015e-13
0.0,6,6.0,0.0,30.0,0.0,0.0,0.0,0.0,-13.0,0.0,2.0,0.0,0.0,0.0,5.41179836002372e-11,4.010054044134153e-11,3.68325211277708e-11,2.7313198335562787e-11,2.0000753456152546e-11,1.4997578088326825e-11,1.1287986834678772e-11,7.975749186679069e-12,5.310530312526582e-12,4.192057223468202e-12,2.7194871825391638e-12,1.9165369318119734e-12,1.2269469639221493e-12,8.699806529570964e-13,5.44701583480462e-13,3.5233982692777834e-13,2.0970278507841358e-13,1.390012732828819e-13,8.170093684113285e-14,4.952815464884717e-14,2.6300394390949724e-14,1.534430702461029e-14,1.1225343805976821e-14,3.986942844736405e-15,2.5716984389568445e-15,2.8410723905413083e-15,6.092149998454409e-09,3.5864191936349906e-09,2.096645265793848e-09,1.2819068154529744e-09,7.052457564641232e-10,4.3325887718709466e-10,2.2714744809474983e-10,1.2091175525361803e-10,6.725031271777374e-11,3.433375155977344e-11,1.7429303673476082e-11,9.19584420295553e-12,5.231946314886871e-12,2.7351196637343635e-12,1.4888204791517495e-12,8.326000112469738e-13,4.1247601187132223e-13,2.2426527937675544e-13,1.1455492025982286e-13
0.0,7,7.0,0.0,30.0,0.0,0.0,0.0,0.0,-13.0,0.0,2.0,0.0,0.0,0.0,5.2945136176783366e-11,4.301629074011756e-11,3.3857273438447416e-11,2.6351431861519866e-11,1.97958296244638e-11,1.4384710102809469e-11,1.0460612075031794e-11,7.741430777394103e-12,5.258495695802168e-12,3.6293474543105834e-12,2.5702522382028466e-12,1.7594206986783786e-12,1.2727464544749126e-12,7.756859656400541e-13,5.302665736797435e-13,3.387020736434295e-13,2.0034345681799725e-13,1.320756002826068e-13,7.411310434272226e-14,4.122535123072951e-14,2.7059823628295823e-14,1.3512412341596205e-14,9.077416416931868e-15,4.250304366275201e-15,4.308154940152112e-15,2.7434730454704323e-15,6.003683180455751e-09,3.4636337640887382e-09,2.0525843662903297e-09,1.2550881931820834e-09,7.291957725542472e-10,4.0813978568400436e-10,2.283166752227652e-10,1.2465435438607305e-10,6.574845950336373e-11,3.3318472588144296e-11,1.6867511075746176e-11,9.601745100470385e-12,4.7965003489408354e-12,2.561811449400249e-12,1.3956809364005708e-12,7.168060391964809e-13,4.0154451365845504e-13,2.1639897677581415e-13,1.196668620638404e-13
0.0,8,8.0,0.0,30.0,0.0,0.0,0.0,0.0,-13.0,0.0,2.0,0.0,0.0,0.0,5.3233735028954e-11,4.244158149968996e-11,3.448738184476064e-11,2.610678448734015e-11,1.9349453376611214e-11,1.433324309091533e-11,1.0292541632777149e-11,7.290131090350947e-12,5.12792323815407e-12,3.464270373247322e-12,2.490469235794776e-12,1.6317595331384982e-12,1.1634439675252305e-12,7.498892587468174e-13,4.932985234041053e-13,3.2196663860949363e-13,2.034530777664092e-13,1.1814803386375718e-13,7.389467582685703e-14,4.5733220546068475e-14,2.3356791318676346e-14,1.545678038864256e-14,6.0628265697382676e-15,3.7944692396030764e-15,2.619377700547398e-15,-1.372284696748658e-17,5.918901531225126e-09,3.3917800079838725e-09,2.2434349478823183e-09,1.2816014084543552e-09,7.487484587862383e-10,4.0952944154002126e-10,2.2402669927479037e-10,1.1572351036128713e-10,6.368083579236667e-11,3.267382941068065e-11,1.758417064444047e-11,9.198575045396513e-12,4.8957095783767376e-12,2.5525884249699247e-12,1.322347467442389e-12,6.972730233040863e-13,4.0044097004120567e-13,2.1599414415756688e-13,8.931080557267604e-14
0.0,9,9.0,0.0,30.0,0.0,0.0,0.0,0.0,-13.0,0.0,2.0,0.0,0.0,0.0,5.205514580380897e-11,4.2850369312793003e-11,3.303625172499756e-11,2.517833137947902e-11,1.843246963082722e-11,1.3255947194816475e-11,1.0248478583576152e-11,7.0329517356907464e-12,4.918065725600717e-12,3.601428706821048e-12,2.401469944895627e-12,1.6192499891657616e-12,1.0856010047298296e-12,7.53647483579137e-13,4.95073091027404e-13,3.1247442098576323e-13,1.950369339644556e-13,1.118357851179667e-13,7.211039897465104e-14,4.264308018178109e-14,2.484668924981178e-14,1.565920763686097e-14,5.351782283284072e-15,4.141584491501471e-15,2.7904144909200894e-15,1.1495263981305857e-15,5.852846862315711e-09,3.6531989840481985e-09,2.162656912282972e-09,1.2408766151499824e-09,7.435263138709579e-10,4.2177135413356995e-10,2.2552049844001633e-10,1.235947873090944e-10,6.359853190729822e-11,3.2427492120801965e-11,1.6113206697893597e-11,8.567310808632498e-12,4.5219486102775605e-12,2.435408701101316e-12,1.276374182737056e-12,6.980731024812265e-13,3.5505293792044364e-13,1.9281882854983132e-13,1.0181452548521096e-13
0.0,10,10.0,0.0,30.0,0.0,0.0,0.0,0.0,-13.0,0.0,2.0,0.0,0.0,0.0,4.9273182800487536e-11,4.225328932932648e-11,3.28806375419578e-11,2.502906793677667e-11,1.8636878372983267e-11,1.4293607717096814e-11,9.551766088092763e-12,6.387776283743749e-12,4.779534048649791e-12,3.267359343718704e-12,2.209375412808449e-12,1.4811916459968778e-12,1.016815072545219e-12,6.916481169302042e-13,4.4324549294202567e-13,3.1253950686362596e-13,1.7871053946846906e-13,1.1241629810433707e-13,6.405587972607554e-14,4.189463468666463e-14,2.1507257413699513e-14,1.3652765978599828e-14,7.67962229290045e-15,3.8919953478038335e-15,4.20425702379521e-15,2.584913835959717e-15,6.369342525211798e-09,3.477839908895935e-09,2.224375555436086e-09,1.2993940362334116e-09,7.53509523481134e-10,4.233758014314667e-10,2.1829735880022952e-10,1.182160372746392e-10,6.429500056353833e-11,2.966018477213457e-11,1.7014624766161672e-11,8.445304674333834e-12,4.3107347375733635e-12,2.2799120650109505e-12,1.1800209175093034e-12,6.458383594358737e-13,3.6737450258363357e-13,2.0770818130675637e-13,1.2641694718209828e-13
0.0,11,11.0,0.0,30.0,0.0,0.0,0.0,0.0,-13.0,0.0,2.0,0.0,0.0,0.0,5.01559880524702e-11,3.985873398918019e-11,3.140832204435051e-11,2.360170930275175e-11,1.7989387237121978e-11,1.326887576764592e-11,9.3786794169844e-12,6.814417717248025e-12,4.5309663671284475e-12,3.0985575403302512e-12,2.1049266245536998e-12,1.3839446428473661e-12,9.365202377009662e-13,6.336146885886539e-13,4.4732140092170297e-13,2.8686673463085736e-13,1.843404944227743e-13,1.0645567742362079e-13,6.254264188019688e-14,3.914802421162892e-14,2.349378808712099e-14,1.440169389776882e-14,8.83580344874567e-15,4.790141221756626e-15,4.150497655278393e-15,1.3395863097471602e-15,5.973619427894409e-09,3.403769032862826e-09,2.1002800489802903e-09,1.2913572317970508e-09,7.163138208181083e-10,4.2100203770709756e-10,2.3267621620577325e-10,1.1030482122793976e-10,6.350965222309855e-11,2.9536574824005385e-11,1.6074024529569774e-11,8.340491779670666e-12,4.158451306513285e-12,2.080456152600972e-12,1.14006113074296e-12,6.160990922268691e-13,3.31805104284307e-13,1.8165527089249063e-13,9.275007047172503e-14
0.0,12,12.0,0.0,30.0,0.0,0.0,0.0,0.0,-13.0,0.0,2.0,0.0,0.0,0.0,4.997283947005752e-11,3.864085291556281e-11,3.115688947142466e-11,2.497472132970361e-11,1.7429539444619305e-11,1.2609172461203069e-11,9.401028765401057e-12,5.881542918208376e-12,4.542588445890897e-12,2.942303537515656e-12,2.0568301774865444e-12,1.3927684244409798e-12,9.64429140956963e-13,6.225200620858982e-13,4.0348930909055416e-13,2.7840298090477554e-13,1.577674366499839e-13,1.0715807983867232e-13,6.173543045666625e-14,3.774824970429058e-14,2.5021370389919708e-14,1.3447442786894821e-14,7.762666869007854e-15,2.6038757070519187e-15,1.616783968454998e-15,1.7328372329602203e-15,6.223194788485451e-09,3.663406759990388e-09,2.1643087843479296e-09,1.30353319128081e-09,7.450044905705493e-10,3.8564383328809916e-10,2.2213978744363473e-10,1.20419983628338e-10,6.221995967398737e-11,3.077970973422643e-11,1.513616762697295e-11,7.536931063436461e-12,3.979576010344113e-12,2.1423672529988297e-12,1.0395290588694653e-12,5.782670443831976e-13,3.0261434135311124e-13,1.8458418201136538e-13,8.396824627862363e-14
0.0,13,13.0,0.0,30.0,0.0,0.0,0.0,0.0,-13.0,0.0,2.0,0.0,0.0,0.0,4.834933687470145e-11,3.92751519315475e-11,3.12920142994248e-11,2.316629214995234e-11,1.5674226332537915e-11,1.2660044409324684e-11,8.956674799304337e-12,6.116930249633671e-12,4.084805399154553e-12,2.905747548491717e-12,1.9793886507248862e-12,1.3075264679134423e-12,8.897526706884007e-13,5.830758196460781e-13,3.9216109047027334e-13,2.4496981469229854e-13,1.65604249721897e-13,1.0018378307242829e-13,6.299226918378158e-14,3.557981685034093e-14,2.1221448664547548e-14,1.3022040615905908e-14,5.670490556797847e-15,4.417354771561545e-15,1.9135361170861993e-15,-2.338484306294419e-16,5.932906479267743e-09,3.674762754090561e-09,2.2275771229554446e-09,1.2788781466674807e-09,7.425833630255153e-10,4.0907415704656547e-10,2.226215979252995e-10,1.2112199826911656e-10,5.763769988844858e-11,3.1209587696465056e-11,1.4983659919186185e-11,7.516743610575563e-12,3.8153719023185356e-12,1.961084996828585e-12,1.0158746425862595e-12,5.672220158575811e-13,3.258782906097643e-13,1.6726997344889952e-13,8.572799627973413e-14
0.0,14,14.0,0.0,30.0,0.0,0.0,0.0,0.0,-13.0,0.0,2.0,0.0,0.0,0.0,4.742708583925864e-11,3.8835503767380715e-11,3.080635531389795e-11,2.2753357700843173e-11,1.6651974095699854e-11,1.2295900978125712e-11,8.351174584341036e-12,6.001512229944536e-12,4.167087838648729e-12,2.871746898071541e-12,1.8677978757973255e-12,1.3193967211251265e-12,8.822206901231586e-13,5.564308760232258e-13,3.637152120309201e-13,2.4440125321009365e-13,1.6222989250481241e-13,9.935941559848441e-14,5.913881156340005e-14,3.8833096019188683e-14,2.1626871897893905e-14,1.0311217059226172e-14,7.510056163607202e-15,4.7284206139305755e-15,2.467202070806783e-15,1.9352605510294344e-15,6.179315204122078e-09,3.478499497298274e-09,2.150277966662009e-09,1.2477670718326063e-09,7.114940676619519e-10,3.8908850033591855e-10,2.2183623896951308e-10,1.1582622953715743e-10,5.878639964834828e-11,2.9482497444512946e-11,1.4808080246887723e-11,7.587584810664406e-12,3.490259115407372e-12,1.9237874652240427e-12,9.91786336428705e-13,5.014806728589603e-13,2.6330389276064607e-13,1.5037668979966251e-13,8.423959935744572e-14
0.0,15,15.0,0.0,30.0,0.0,0.0,0.0,0.0,-13.0,0.0,2.0,0.0,0.0,0.0,4.8367806631438205e-11,3.733139785103611e-11,3.0800476863223854e-11,2.354850784122789e-11,1.672053111608927e-11,1.1642793173195661e-11,8.628695243822378e-12,5.8967292302030525e-12,4.022799090097744e-12,2.5976100650265835e-12,1.641051825512171e-12,1.2889146029916253e-12,7.783744111113861e-13,5.481678113138373e-13,3.876330519652467e-13,2.3919547873431737e-13,1.5571201596696126e-13,9.148634127245873e-14,5.4775300292550633e-14,3.462330709857093e-14,2.1950354691027256e-14,1.2093924035311614e-14,6.1933332436254235e-15,4.3093106597683704e-15,3.2743585465440087e-15,1.4154182967992994e-17,5.984662100385863e-09,3.548340011779903e-09,2.2507935046055763e-09,1.293010815344942e-09,7.766037807743385e-10,4.1355152802865523e-10,2.1693763754693978e-10,1.1863785180037484e-10,5.916991718293192e-11,2.892960246220026e-11,1.4787581627406605e-11,6.992870551415874e-12,3.5552335007535514e-12,1.899154364768991e-12,9.61541153338394e-13,4.976749122108454e-13,2.6960371208453764e-13,1.6476138344986045e-13,7.273018767645153e-14
0.0,16,16.0,0.0,30.0,0.0,0.0,0.0,0.0,-13.0,0.0,2.0,0.0,0.0,0.0,4.662814029892509e-11,3.727302206574493e-11,2.9560944619407074e-11,2.1910331571308597e-11,1.539857604670622e-11,1.1259918837690767e-11,7.889952245766929e-12,5.793650254751197e-12,3.874790789986376e-12,2.5915582952963983e-12,1.6928258937791204e-12,1.1312215292481407e-12,7.703688776029029e-13,5.086093818899722e-13,3.7269640820238405e-13,2.1194915922259363e-13,1.4812519000279142e-13,8.890151516433469e-14,5.62110074612715e-14,3.289323721131057e-14,1.8693809823532455e-14,1.0926882776908173e-14,8.621722889214004e-15,3.883979062486106e-15,1.3732668086846223e-15,1.992717091265182e-15,6.2313885062839e-09,3.725732367701591e-09,2.064079493343782e-09,1.29495118115252e-09,7.443623137981841e-10,3.7993456069562374e-10,2.182430280818104e-10,1.1881373653160526e-10,5.7966671214038004e-11,2.976116342231957e-11,1.4460698754064587e-11,6.797207563335931e-12,3.4700697604344555e-12,1.6692428348208711e-12,9.094832559254598e-13,4.93756047411836e-13,2.721574709264722e-13,1.4715611619469803e-13,8.239256358772893e-14
0.0,17,17.0,0.0,30.0,0.0,0.0,0.0,0.0,-13.0,0.0,2.0,0.0,0.0,0.0,4.499907642883513e-11,3.717465691404702e-11,2.8927132858860418e-11,2.2961276235646377e-11,1.5733680778203318e-11,1.1122555823003739e-11,7.901410676694513e-12,5.263886173297948e-12,3.672741824707873e-12,2.422463594868362e-12,1.5597845877531327e-12,1.108268196425286e-12,7.414367113696623e-13,4.782153140348972e-13,3.3160268192809025e-13,2.283545003706308e-13,1.4240011951387466e-13,9.121700163197807e-14,5.197518210409887e-14,3.393447152005495e-14,1.966187468677254e-14,1.2388232540863243e-14,7.091237704718711e-15,2.559252297675197e-15,2.050917469284121e-15,6.543332267267075e-16,6.2402034454954104e-09,3.561059438691493e-09,2.273622432397625e-09,1.2490479769660976e-09,7.051869123542278e-10,3.9815554630885037e-10,2.0651552811129328e-10,1.1034510908276809e-10,5.574939368457335e-11,2.974664992805387e-11,1.4194449312621086e-11,6.7441447330626674e-12,3.31211250130136e-12,1.7336947420221667e-12,8.948234105111276e-13,4.756000069158102e-13,2.5063605694205677e-13,1.2228759956713415e-13,7.06368927437676e-14
0.0,18,18.0,0.0,30.0,0.0,0.0,0.0,0.0,-13.0,0.0,2.0,0.0,0.0,0.0,4.515969635138152e-11,3.7430684740376177e-11,2.928510518674185e-11,2.092423679397959e-11,1.5719213736392002e-11,1.159729352326294e-11,7.529870857734126e-12,5.513494531683389e-12,3.4370336682982675e-12,2.358739608253239e-12,1.581229954943906e-12,1.0639018967957845e-12,6.986304489302326e-13,4.731604961036911e-13,3.122253627837691e-13,2.12026084585106e-13,1.363111673843691e-13,9.254468227324462e-14,5.5317916670697696e-14,3.153830373336184e-14,1.930434157250761e-14,1.2577833780890531e-14,6.526279399416652e-15,3.7712110794156905e-15,2.097274543214788e-15,2.2579008324204388e-15,6.111017413593709e-09,3.6362878889966183e-09,2.2218495756349083e-09,1.2923923004373513e-09,7.268054246882306e-10,3.900780768042026e-10,2.175276444785156e-10,1.174946820382005e-10,5.7023989548987077e-11,2.7869628738409613e-11,1.387405677550896e-11,6.4677736994001314e-12,3.1698023588930452e-12,1.6227112120922187e-12,7.757160811414494e-13,4.269877144224903e-13,2.3534710057364844e-13,1.200641816756042e-13,5.817703995863643e-14
0.0,19,19.0,0.0,30.0,0.0,0.0,0.0,0.0,-13.0,0.0,2.0,0.0,0.0,0.0,4.4643866419266416e-11,3.436496682661049e-11,2.7593201867443656e-11,2.0603494913092734e-11,1.5184289702652785e-11,1.1134311077243875e-11,7.51717068469741e-12,5.0942663082742725e-12,3.4190234513440264e-12,2.2852089087394034e-12,1.472372012158717e-12,1.0158518143870569e-12,6.92791901670203e-13,4.425941235062457e-13,3.1365834294122234e-13,2.084291776103129e-13,1.2740807974801102e-13,8.27367778455465e-14,4.9417766168214375e-14,3.2229292026188415e-14,1.7178106361592318e-14,1.0993096698898829e-14,5.460351833731569e-15,3.8077467423565044e-15,2.026516490525713e-16,2.694927611749476e-15,6.110369503327903e-09,3.691267377096328e-09,2.1798716509846596e-09,1.2490553078589038e-09,6.990345430564715e-10,4.0242988589401534e-10,2.0589958590431587e-10,1.0991800794707796e-10,5.415008631366641e-11,2.6990793220865076e-11,1.3459133970736704e-11,6.5780285983223275e-12,3.123169183422548e-12,1.4923661069097248e-12,8.636689418061285e-13,4.1276843710572815e-13,2.1021011032397325e-13,1.5683798481524738e-13,6.168525942803916e-14
0.0,20,20.0,0.0,30.0,0.0,0.0,0.0,0.0,-13.0,0.0,2.0,0.0,0.0,0.0,4.261512792034174e-11,3.483799912069497e-11,2.7745676125869042e-11,2.0653094081999487e-11,1.4469096814747695e-11,1.108051749866338e-11,7.165670364778444e-12,4.76408168056301e-12,3.390865210321294e-12,2.2739138031408954e-12,1.4231675337518597e-12,9.364098112072184e-13,6.781243080455191e-13,4.15281595830682e-13,2.8246379191723354e-13,1.9973124870099432e-13,1.2496316693227297e-13,7.984061544061722e-14,4.999142885498671e-14,3.012071329354127e-14,1.6393864295944654e-14,1.2284729002749546e-14,7.526306191016327e-15,3.880420992295617e-15,2.001083161664273e-15,3.686830828796055e-15,6.262777026162991e-09,3.6681760577798206e-09,2.22025895897029e-09,1.3319383506611635e-09,7.484951241062588e-10,3.851973103059997e-10,2.0884071115093082e-10,1.0313820962073753e-10,5.4102867550213977e-11,2.6335794831494484e-11,1.2588257589649294e-11,6.54453445363102e-12,2.968353137462679e-12,1.4783992640677811e-12,7.872370613856755e-13,4.2869603667599666e-13,2.2451484241698374e-13,1.5309561028802195e-13,6.226784079976315e-14
0.0,21,21.0,0.0,30.0,0.0,0.0,0.0,0.0,-13.0,0.0,2.0,0.0,0.0,0.0,4.423210973124171e-11,3.527073608389918e-11,2.8110737130448566e-11,2.043953239741716e-11,1.4477322321324933e-11,9.964017476238555e-12,7.1383871856327995e-12,4.995372667884679e-12,3.148581370939333e-12,2.1411823614703424e-12,1.4126193454410426e-12,9.621807421637817e-13,6.153280558779174e-13,4.543699583121714e-13,2.7068986805222873e-13,1.845136785146551e-13,1.2413319664300441e-13,7.854193960745083e-14,4.92113937319919e-14,2.875538763168721e-14,1.7277416327077412e-14,1.0676785909713702e-14,7.621887157340904e-15,4.287802257865424e-15,2.710833567535852e-15,6.652558257217254e-16,6.522867955295302e-09,3.734154628256372e-09,2.2896461686626007e-09,1.3493539340089178e-09,7.036794095998497e-10,3.8009176953658794e-10,1.9924576362033508e-10,1.0563499791189274e-10,5.3110665763423244e-11,2.679228519838011e-11,1.2638701041109876e-11,5.999582400544588e-12,3.0412503372804526e-12,1.4065496747721563e-12,7.57183757488806e-13,3.844289045553573e-13,2.1769485172133327e-13,1.332850305929323e-13,5.730515690421114e-14
0.0,22,22.0,0.0,30.0,0.0,0.0,0.0,0.0,-13.0,0.0,2.0,0.0,0.0,0.0,4.377345705081188e-11,3.457348203660949e-11,2.582075566668229e-11,1.9873666250717734e-11,1.4333792343420682e-11,1.0133534530550633e-11,6.857334164430085e-12,4.666239975643947e-12,2.9781096450744904e-12,2.0106129550065633e-12,1.3708889341972928e-12,9.243531172515714e-13,5.970837240052012e-13,4.084370557419406e-13,2.722335625471615e-13,1.806029629855125e-13,1.1820083951264788e-13,7.06709319787702e-14,4.613692530350358e-14,2.885306979347596e-14,1.575150864895953e-14,1.2147885767666853e-14,6.0439307738803266e-15,5.087062781307367e-15,1.0792379651406686e-15,3.945324792368568e-16,6.405657524502692e-09,3.5334536694806406e-09,2.2133978531109406e-09,1.272477062136451e-09,7.272277784198978e-10,3.891718970362007e-10,1.995340127915522e-10,1.0110754731928693e-10,5.5535016550228544e-11,2.5375465981802072e-11,1.2020930646834629e-11,5.713105827490713e-12,2.9521755309898417e-12,1.3740862530990995e-12,6.989350469027479e-13,3.7619836919420434e-13,1.9761368590735785e-13,1.0658999949559396e-13,6.552221275489916e-14
0.0,23,23.0,0.0,30.0,0.0,0.0,0.0,0.0,-13.0,0.0,2.0,0.0,0.0,0.0,4.385895308227937e-11,3.4788358846737475e-11,2.655418413572431e-11,1.9562813089043263e-11,1.3155356031953432e-11,1.0256713777257748e-11,6.775822220494094e-12,4.5993682993771785e-12,3.084757625091914e-12,2.0449010233396067e-12,1.313430784375738e-12,8.75788465145788e-13,5.697825405678482e-13,3.9113564900184377e-13,2.5298501699086903e-13,1.6892231364366426e-13,1.0891727238050132e-13,7.225147771192792e-14,4.649457052246629e-14,3.1812374583197465e-14,1.6610722603494585e-14,8.7234157038542e-15,7.020250830286357e-15,3.136253021780327e-15,1.1686928550820525e-15,1.4917570508472896e-15,6.150022228980598e-09,3.7571447489970195e-09,2.193879845951626e-09,1.2682710537247173e-09,7.089048783351656e-10,3.780961495117091e-10,1.9957721515370212e-10,1.0383928900006197e-10,5.2546555577650495e-11,2.468861141572728e-11,1.1609049161906581e-11,5.739073711891497e-12,2.6486293290367228e-12,1.3505809351489486e-12,7.101168286024778e-13,3.673649938315803e-13,1.7929354813344828e-13,1.001159487179392e-13,5.880132291596277e-14
0.0,24,24.0,0.0,30.0,0.0,0.0,0.0,0.0,-13.0,0.0,2.0,0.0,0.0,0.0,4.128471213134877e-11,3.2867734561296707e-11,2.5911347704759084e-11,1.8366842519552575e-11,1.3419496119585639e-11,9.300427833057421e-12,6.331225857763978e-12,4.2722722154938005e-12,2.948037988834563e-12,1.8948059079084522e-12,1.2153914788791974e-12,8.247327443018201e-13,5.294823872274594e-13,3.6684386683144125e-13,2.6574848062606104e-13,1.6578352364632778e-13,1.1052063971145485e-13,7.004220265830825e-14,4.388182623412235e-14,2.772266905115217e-14,1.471724743452133e-14,9.846467720058868e-15,7.198399314141256e-15,2.564700500895463e-15,1.2234311131249806e-15,9.534493538717659e-16,6.465067022605825e-09,3.802109211241838e-09,2.2831159404225247e-09,1.2786163125389955e-09,6.943992735728081e-10,3.874148212499516e-10,2.0095131116090734e-10,9.67804739422821e-11,5.482400588837567e-11,2.628308636878194e-11,1.1791343287008526e-11,5.660969339562605e-12,2.791747915249446e-12,1.2927445912128907e-12,6.779706758469891e-13,3.594510559678515e-13,1.7159329061026416e-13,9.84935068988321e-14,6.252077554486601e-14
0.0,25,25.0,0.0,30.0,0.0,0.0,0.0,0.0,-13.0,0.0,2.0,0.0,0.0,0.0,4.1630980824989986e-11,3.3471828008656636e-11,2.485146443108517e-11,1.836461908325097e-11,1.2476401000036978e-11,8.974398576633458e-12,6.369317219055279e-12,4.3622544567427596e-12,2.8417895661539733e-12,1.819034518771281e-12,1.1919709208963131e-12,8.033544806290108e-13,5.359829096496122e-13,3.755004405714279e-13,2.4086871077357e-13,1.5278218746461615e-13,1.0001751189495953e-13,7.130345856446289e-14,4.005368556271073e-14,2.705006312682938e-14,1.5202646078576195e-14,9.455380183445751e-15,5.326101060974462e-15,4.5190849813083526e-15,1.5590356389941978e-15,1.2079862504204392e-15,6.143669071969678e-09,3.776801874933846e-09,2.233513449427755e-09,1.2633584840135146e-09,7.190916578387098e-10,3.6971047922152417e-10,1.9575192709283715e-10,1.0457755790451764e-10,4.768192807215191e-11,2.4101136536514443e-11,1.2070149765002957e-11,5.6015852082409914e-12,2.656323671162704e-12,1.2868990510783791e-12,6.432461576307887e-13,3.524298636694489e-13,1.7964725486841643e-13,1.0316547138347923e-13,5.26226192011907e-14
0.0,26,26.0,0.0,30.0,0.0,0.0,0.0,0.0,-13.0,0.0,2.0,0.0,0.0,0.0,4.056063353989254e-11,3.083939479322569e-11,2.500759384089693e-11,1.8051636776431165e-11,1.3671559601833868e-11,9.041036312763682e-12,6.266551819847717e-12,4.1629947564200534e-12,2.657513208423371e-12,1.8154432041449574e-12,1.2234944410607965e-12,7.670001241313525e-13,5.089644090020155e-13,3.4238059074732563e-13,2.1731510086574533e-13,1.5327896286229555e-13,1.0130549672090224e-13,6.794160711526733e-14,4.212431128295787e-14,2.4791871468138582e-14,1.4765951885386752e-14,1.0560224022933809e-14,5.154663922897776e-15,2.7087202741977276e-15,3.108990474904917e-15,2.2599172257243995e-15,6.469576228642246e-09,3.696193404396079e-09,2.064084609041779e-09,1.2704656534330213e-09,6.65844746437436e-10,3.4321960399616347e-10,2.0022139397303466e-10,9.983314663052615e-11,4.736230449471199e-11,2.303858506321656e-11,1.1595399770289696e-11,5.162183799068639e-12,2.6231615963285298e-12,1.2344096910001398e-12,6.230840484733135e-13,3.2167818018544825e-13,1.7011630239603527e-13,1.0588082807287602e-13,4.4351366678341816e-14
0.0,27,27.0,0.0,30.0,0.0,0.0,0.0,0.0,-13.0,0.0,2.0,0.0,0.0,0.0,3.968203785387021e-11,3.202701177419789e-11,2.4335070973416743e-11,1.7084090716043175e-11,1.2465352279468216e-11,8.898928412499612e-12,5.946017178044576e-12,4.224743005203116e-12,2.5915395474968107e-12,1.6940870094822973e-12,1.1405833603107157e-12,7.452946237569691e-13,4.913259548039713e-13,3.249875338380951e-13,2.2372121698885071e-13,1.5319148089219672e-13,9.844795543626786e-14,6.177991367254402e-14,4.20210314611894e-14,2.277888739677218e-14,1.292571319421178e-14,1.0156066327728193e-14,5.430812848617904e-15,2.600336836546201e-15,5.781555378739663e-16,3.52456857020085e-15,6.5156246800777765e-09,3.832617373872733e-09,2.2148926221164637e-09,1.2579814346503546e-09,6.889629994019706e-10,3.680082553930694e-10,1.8604522596022592e-10,9.532766945111869e-11,4.55442235506208e-11,2.283383614753232e-11,1.1116610809492283e-11,5.320689729921372e-12,2.49219036963789e-12,1.1572105099263632e-12,5.630216265389206e-13,2.658249083571475e-13,1.7372011077328004e-13,8.683716531145655e-14,4.243498055525083e-14
0.0,28,28.0,0.0,30.0,0.0,0.0,0.0,0.0,-13.0,0.0,2.0,0.0,0.0,0.0,3.897482113010829e-11,2.939186653919502e-11,2.3170285206261575e-11,1.836664965775578e-11,1.2536234057122752e-11,8.697511472978867e-12,5.5760802735479805e-12,4.1550381401810795e-12,2.4309915748099605e-12,1.7389626093658112e-12,1.0059950497008984e-12,7.399104918039049e-13,4.973789669889137e-13,3.117368513684023e-13,2.1598180677999208e-13,1.454317247773302e-13,9.115934816778311e-14,5.833961181802118e-14,3.6103125239050474e-14,2.4527533734270702e-14,1.4160092730799975e-14,8.34968165740109e-15,6.0555514709948594e-15,3.5954288494306605e-15,8.8619341655012e-16,-1.877482355377482e-17,6.622279667063272e-09,3.7192583341404803e-09,2.1968592393178057e-09,1.2929285428472865e-09,6.814606310856457e-10,3.461171971408277e-10,1.8599429253496328e-10,9.167281293771084e-11,4.9327606259045716e-11,2.246495906167155e-11,1.08221340256391e-11,5.064059244479373e-12,2.385095549000615e-12,1.0605308678022968e-12,5.37969034297867e-13,2.8527385643733173e-13,1.5775155115353196e-13,8.794749541216138e-14,3.542025876501582e-14
0.0,29,29.0,0.0,30.0,0.0,0.0,0.0,0.0,-13.0,0.0,2.0,0.0,0.0,0.0,3.6513107326420975e-11,2.9682592438421045e-11,2.2576150719403116e-11,1.7171372020948815e-11,1.1926053643554884e-11,8.531465996103543e-12,5.5895963009625125e-12,3.748667231856152e-12,2.4332397506751596e-12,1.5507852264429263e-12,1.0546766176933834e-12,6.664903376995055e-13,4.488455737148715e-13,3.0671040002170066e-13,1.9708443118360678e-13,1.364390201038192e-13,8.827851247944745e-14,5.858451154426522e-14,3.682928773293191e-14,2.219787410241448e-14,1.362512157653568e-14,1.0066973257787039e-14,4.930320387042386e-15,4.169732594503468e-15,1.954864907009882e-15,1.9390193522251725e-15,6.395021862004627e-09,3.799210887310319e-09,2.194504695736573e-09,1.2041098699087836e-09,6.479385826314926e-10,3.346692669562937e-10,1.9011964925704998e-10,8.983415062879939e-11,4.790642013404006e-11,2.2003224961418592e-11,1.021354929356028e-11,4.970309840052669e-12,2.2575137596809413e-12,1.110819988779145e-12,5.389158242773253e-13,2.860387135683955e-13,1.3726409901380263e-13,9.454692864181528e-14,4.820176981845573e-14
0.0,30,30.0,0.0,30.0,0.0,0.0,0.0,0.0,-13.0,0.0,2.0,0.0,0.0,0.0,3.624455375929425e-11,3.172782395414138e-11,2.27395619071167e-11,1.7640631134115774e-11,1.2303812246472542e-11,8.111148832185458e-12,5.462511170625727e-12,3.6206826302104933e-12,2.2501593437710244e-12,1.5020240454894294e-12,1.0053177559655451e-12,6.877550674200751e-13,4.283394006804762e-13,3.0352041948122155e-13,1.8993631521511289e-13,1.304326857606588e-13,8.593136827173436e-14,5.819513031739787e-14,3.6446399527329026e-14,2.366602612641226e-14,1.431811703172054e-14,8.751910404377948e-15,5.2329052840957525e-15,4.550773905147071e-15,1.0627780978830847e-15,1.92103751059703e-15,6.217665977833886e-09,3.840054731304494e-09,2.1484569508950314e-09,1.2181753623183811e-09,6.774543929278328e-10,3.468730530965057e-10,1.8346390559698832e-10,9.467048322299476e-11,4.55504474162586e-11,2.2545660161147476e-11,1.0116010886753312e-11,4.741364740738646e-12,2.196002814023152e-12,1.0890006479825894e-12,5.327383296727981e-13,2.6228344627460656e-13,1.4346419666969677e-13,9.343862043069103e-14,4.1170527194569124e-14
0.0,31,31.0,0.0,30.0,0.0,0.0,0.0,0.0,-13.0,0.0,2.0,0.0,0.0,0.0,3.544478659837741e-11,2.8857262277446324e-11,2.0554800434750528e-11,1.647264120125964e-11,1.1293130652872517e-11,7.825206159626942e-12,5.514430553755043e-12,3.409361922259578e-12,2.439817948671264e-12,1.460609704811689e-12,9.469994135021992e-13,6.525788214480573e-13,4.3085217003153427e-13,3.0549189444071316e-13,1.88864249376701e-13,1.2759251065661685e-13,8.019903856747585e-14,5.495711363167319e-14,3.3632322856306704e-14,2.13230858759939e-14,1.1247085716525257e-14,1.0004837425485747e-14,3.2929160341893825e-15,8.108383420146946e-17,3.517702016007646e-16,5.233756718635783e-16,6.373551106500345e-09,3.923100044088005e-09,2.1643107182373206e-09,1.2097292308183612e-09,6.610812456280196e-10,3.4273449248014045e-10,1.8054927308098866e-10,8.580286971627647e-11,4.326967623241351e-11,2.1667277825471392e-11,9.191858728825591e-12,4.417594028102155e-12,2.1958967021690332e-12,1.0033265782585932e-12,5.225859320143409e-13,2.685839580793229e-13,1.23057867519692e-13,8.378292613325918e-14,5.203317654409558e-14
0.0,32,32.0,0.0,30.0,0.0,0.0,0.0,0.0,-13.0,0.0,2.0,0.0,0.0,0.0,3.584224139521765e-11,2.7260937545834123e-11,2.1889740737260677e-11,1.599522107881713e-11,1.1317839150143213e-11,7.8844717781339e-12,4.749281247197812e-12,3.5384109310379477e-12,2.352659190035725e-12,1.450446812042152e-12,9.330857203362896e-13,6.225056702275225e-13,4.100484395909404e-13,2.791066379769976e-13,1.830424537386551e-13,1.2055520494833442e-13,7.869537119779435e-14,5.192491700980569e-14,3.1660422505805395e-14,1.9969800725533288e-14,1.465401476767509e-14,8.868049397161112e-15,3.98099621875935e-15,2.4413845545321284e-15,1.62218743400222e-15,4.53588502944397e-16,6.641139205715879e-09,3.889980523661559e-09,2.163048206401261e-09,1.2108997247291736e-09,6.580952356624557e-10,3.3155632723758255e-10,1.7347143692406866e-10,8.601497090281559e-11,4.291327467783451e-11,2.0502187529398794e-11,9.529131336942076e-12,4.499303431902419e-12,2.1324090587007312e-12,9.889512287086944e-13,4.957728949994547e-13,2.391734071053802e-13,1.1755526627673648e-13,8.09169220439433e-14,4.5293572032310634e-14
0.0,33,33.0,0.0,30.0,0.0,0.0,0.0,0.0,-13.0,0.0,2.0,0.0,0.0,0.0,3.4928621426183396e-11,2.8529247693952485e-11,2.1365174923200865e-11,1.6520391892027254e-11,1.077153706230002e-11,7.277728676878556e-12,4.952796351226716e-12,3.285260992882049e-12,2.190951655954359e-12,1.2935468998609829e-12,9.300801745289478e-13,5.831071361406697e-13,3.8777300367212423e-13,2.548693467743879e-13,1.7567192728858464e-13,1.1916200202004514e-13,7.827144910097174e-14,5.273347172943376e-14,3.176041596755598e-14,1.9578758478110324e-14,1.3010618957062336e-14,7.997515039131603e-15,4.702245529220552e-15,3.836725572773263e-15,4.548291251993557e-16,2.359440802816832e-16,6.904564429899437e-09,3.633948045645648e-09,2.071517563438846e-09,1.2172305215614932e-09,6.370320945209727e-10,3.296076527856233e-10,1.680629707017784e-10,8.493467792912138e-11,4.1783393754325224e-11,2.0984183831992128e-11,9.305962497810636e-12,4.324509174031153e-12,2.142085410663108e-12,9.520177404810916e-13,5.075890372722298e-13,2.375684039062765e-13,1.3982871770894457e-13,5.685183913711446e-14,3.842559055488941e-14
0.0,34,34.0,0.0,30.0,0.0,0.0,0.0,0.0,-13.0,0.0,2.0,0.0,0.0,0.0,3.244109032303324e-11,2.7429258001758696e-11,1.9531227740352052e-11,1.501245718669164e-11,1.0449388248151335e-11,7.035297504193389e-12,4.676028451302661e-12,3.1891925995619997e-12,2.199749959594637e-12,1.3244001638428154e-12,8.866404266231704e-13,5.648781599854738e-13,3.8602813489386187e-13,2.396456932205026e-13,1.6773576373664638e-13,1.1831553313489682e-13,7.552653226815275e-14,5.0294181313003653e-14,3.1002772003156296e-14,2.138967658133742e-14,1.24100654080135e-14,7.750797573597767e-15,5.046097480526491e-15,3.3065138391211477e-15,1.6608812111273091e-15,2.6218184367121768e-15,6.666599640598649e-09,3.8350458134830785e-09,2.1043935411630917e-09,1.1818812708177614e-09,6.532895674209968e-10,3.1644907786987314e-10,1.593660392277344e-10,8.53399175788818e-11,4.065858052606523e-11,1.9680490261045075e-11,9.143504365508419e-12,4.2272989538097776e-12,2.0186760925217705e-12,8.94482847945164e-13,4.3483266890615644e-13,2.3080346997927826e-13,1.0312512645235804e-13,5.706070557133404e-14,5.423030506858459e-14
0.0,35,35.0,0.0,30.0,0.0,0.0,0.0,0.0,-13.0,0.0,2.0,0.0,0.0,0.0,3.39912497502092e-11,2.6070742543862495e-11,2.047029502007858e-11,1.4029131485299881e-11,1.0145065082916856e-11,7.209080708348265e-12,4.893998567029029e-12,3.1861876174786184e-12,1.8686743045163694e-12,1.253254607298467e-12,8.442119952630784e-13,5.39415995292358e-13,3.898586573190117e-13,2.511437102771964e-13,1.6644319249578477e-13,1.0699414391263735e-13,7.33006716641237e-14,4.9286133781233686e-14,3.21734771606248e-14,2.0504073786285467e-14,1.2867538173970822e-14,6.573231193300621e-15,5.71831071950592e-15,1.2752268211431945e-15,8.821768296765051e-16,1.487492066444201e-15,6.672534306732165e-09,3.686957747862291e-09,2.0814031412144407e-09,1.1102235502280986e-09,6.240699795925528e-10,3.285781873793387e-10,1.608696149168351e-10,7.987301654475824e-11,3.801927182945439e-11,1.9606807577183024e-11,9.485603129815949e-12,3.8695155744687684e-12,1.8439853534139047e-12,8.687188162871935e-13,4.260779214019591e-13,2.238143061044212e-13,1.3249327692496502e-13,7.880924263999319e-14,3.9404776547378635e-14
0.0,36,36.0,0.0,30.0,0.0,0.0,0.0,0.0,-13.0,0.0,2.0,0.0,0.0,0.0,3.1701003100945175e-11,2.454885750906843e-11,1.874571745141376e-11,1.473122819939473e-11,9.928834120665917e-12,6.775051305846364e-12,4.5952702275540104e-12,3.114235063988267e-12,1.879976265686654e-12,1.299742652450033e-12,8.066101210675544e-13,5.220689290459297e-13,3.534379365600166e-13,2.368704944426844e-13,1.5606225632381828e-13,1.0615261802102195e-13,6.889608536519979e-14,4.8462984077356516e-14,2.90079986515665e-14,1.7836925611054104e-14,1.1635817814503593e-14,8.701182864376479e-15,4.145515210084038e-15,1.99516030383847e-15,1.7940722984291093e-15,2.9768430402631537e-15,6.432405821939926e-09,3.841673609318045e-09,2.133852523245315e-09,1.191335805331289e-09,6.22522994457487e-10,3.086225070152321e-10,1.496991570397459e-10,8.070988253584342e-11,3.7736659161681124e-11,1.801769054801314e-11,8.933996573210236e-12,3.857585702306656e-12,1.9239894765363586e-12,8.672983896375339e-13,4.2460259444433044e-13,2.1642677669026255e-13,9.356865728401997e-14,4.792743746350078e-14,3.497198905568933e-14
0.0,37,37.0,0.0,30.0,0.0,0.0,0.0,0.0,-13.0,0.0,2.0,0.0,0.0,0.0,3.210505178182498e-11,2.4783820393507552e-11,1.8211557312540554e-11,1.368249355068662e-11,9.630674053396956e-12,6.4685372709874045e-12,4.613325779684391e-12,2.7895103646130802e-12,1.926394304257327e-12,1.2181352826274542e-12,7.979460371968714e-13,4.912061356322315e-13,3.370105347115724e-13,2.4164264717650737e-13,1.5514768747477276e-13,1.0361362342724198e-13,6.982111340213307e-14,4.599010572645928e-14,3.172882191871011e-14,1.9531174444405e-14,1.1068159676648145e-14,7.423041139345368e-15,3.7029152979605775e-15,3.76489637415457e-15,-4.5458520146903476e-17,-5.83467619248453e-16,7.04163932444442e-09,4.037406552896458e-09,2.1357242934271433e-09,1.1411631597159427e-09,6.061601071738724e-10,2.980470475473665e-10,1.547049867805434e-10,7.683124877538692e-11,3.834034185002108e-11,1.7164475961051862e-11,8.251966125249888e-12,3.941599906533058e-12,1.7490128574028808e-12,8.023215204508502e-13,4.362762254101694e-13,2.0528352311057011e-13,1.0038622406115394e-13,4.6436696284855354e-14,3.889572529080803e-14
0.0,38,38.0,0.0,30.0,0.0,0.0,0.0,0.0,-13.0,0.0,2.0,0.0,0.0,0.0,3.136827933761495e-11,2.3825149217407342e-11,1.753882379072447e-11,1.3263609714563971e-11,9.128935582823276e-12,6.2723610740153214e-12,4.322372483242826e-12,2.7576362246528404e-12,1.844068991834058e-12,1.184246628521035e-12,7.282806080521296e-13,4.6820582537362e-13,3.3895859077860896e-13,2.1224692049157715e-13,1.4364477264861222e-13,1.0038983757220654e-13,6.766215064677276e-14,4.399007900550638e-14,2.8575856893767306e-14,1.7440102999898372e-14,9.844290953865074e-15,8.451830640130596e-15,6.5079591127302905e-15,4.199909113206296e-15,1.4764580367112096e-15,2.839265594056691e-15,6.837766873777802e-09,3.7302914708095154e-09,2.1191680310722626e-09,1.1193942578390007e-09,5.667071839504466e-10,2.893540420971929e-10,1.5371310903980634e-10,7.052620316270989e-11,3.721932727816198e-11,1.661550494946859e-11,7.607615707537663e-12,3.5169746164885554e-12,1.8317544037659165e-12,7.9567977454558e-13,3.907847344046089e-13,2.1372155039041139e-13,1.1205767356914598e-13,4.724679362254461e-14,3.911540584541778e-14
0.0,39,39.0,0.0,30.0,0.0,0.0,0.0,0.0,-13.0,0.0,2.0,0.0,0.0,0.0,3.004084446743837e-11,2.3117529295183717e-11,1.761870002946178e-11,1.3368014028731694e-11,8.834150012134554e-12,6.327448496785146e-12,4.195541509987461e-12,2.6061172653527353e-12,1.7271162599729568e-12,1.1295978230823089e-12,7.488334957105978e-13,4.84967727007503e-13,3.175751951752466e-13,2.053739649821639e-13,1.4926408433184532e-13,9.694878637283963e-14,6.197164791901754e-14,4.274282988313621e-14,2.8302126767645323e-14,1.7407793710006888e-14,1.1512532403448765e-14,7.955174161442053e-15,4.3124337102274285e-15,1.5880813541278915e-15,1.4435203832995937e-15,1.0332784604889375e-15,7.160849609571747e-09,3.589941850898293e-09,2.0637351540819815e-09,1.0875756030303806e-09,5.787840006726618e-10,2.693755284106631e-10,1.5112366728498295e-10,7.259722035952403e-11,3.351569755421962e-11,1.6751983418580808e-11,8.0170844418742e-12,3.431723134597829e-12,1.6714828531963328e-12,7.467832285677263e-13,3.6689048431445495e-13,1.9025478440137828e-13,1.0020489534138909e-13,5.443870291760907e-14,3.200099149577045e-14
0.0,40,40.0,0.0,30.0,0.0,0.0,0.0,0.0,-13.0,0.0,2.0,0.0,0.0,0.0,2.973589059396765e-11,2.2482499909075782e-11,1.7807301944751516e-11,1.3023403940031216e-11,8.676471826860401e-12,5.936435361020639e-12,3.857326089644185e-12,2.6536740146002086e-12,1.6918418662811097e-12,1.109733236637254e-12,6.63793404973366e-13,4.501748742274228e-13,3.0946468524234396e-13,1.9851451857231418e-13,1.3320773521810614e-13,8.870994145568036e-14,6.760343245934429e-14,4.051741085472316e-14,2.468936656103687e-14,1.601740360276733e-14,9.49655952315351e-15,6.392395167131916e-15,4.649879905560023e-15,2.0991184495065505e-15,3.585657450548278e-16,-4.806550968719574e-16,6.8013687952320475e-09,3.765860003206574e-09,2.1469115246375535e-09,1.0935245501334108e-09,5.600543493835854e-10,2.7479024240234795e-10,1.4100567011870477e-10,6.953262530870966e-11,3.401970404520544e-11,1.593196626480995e-11,7.747038974510099e-12,3.4729419710294643e-12,1.6060770293639883e-12,7.050006818286941e-13,3.6886626891276105e-13,1.885239083956375e-13,8.575154013949882e-14,6.71785625074986e-14,1.4490639826369823e-14
0.0,41,41.0,0.0,30.0,0.0,0.0,0.0,0.0,-13.0,0.0,2.0,0.0,0.0,0.0,2.814998746974637e-11,2.1808225813388642e-11,1.588986988914124e-11,1.2149652961008224e-11,8.94088387056842e-12,5.866757746079961e-12,3.871114524446816e-12,2.6094067841540625e-12,1.6580617097903478e-12,1.0477301853459824e-12,6.622108476324756e-13,4.5651180295407e-13,2.9384288576156033e-13,1.9261688275566317e-13,1.3119064392541824e-13,8.77046030073211e-14,5.880186728414265e-14,3.9427558355382867e-14,2.414526675664277e-14,1.7320479436111684e-14,9.736435492806904e-15,7.074588727320404e-15,3.057121018597826e-15,2.2889863775107904e-15,5.453033990327967e-16,1.674568292216056e-15,6.757654060786385e-09,3.6631304682191167e-09,1.9313786059727395e-09,1.082015716694387e-09,5.383421094220017e-10,2.7655846898172524e-10,1.363033804451774e-10,7.02978590127054e-11,3.3869655893765404e-11,1.6089287755854924e-11,7.2408071322169785e-12,3.4207311279728378e-12,1.6440934833907011e-12,7.01603675634046e-13,3.508853724847566e-13,1.576224908014364e-13,1.0531594552359228e-13,5.1097261284510983e-14,3.501195002052781e-14
0.0,42,42.0,0.0,30.0,0.0,0.0,0.0,0.0,-13.0,0.0,2.0,0.0,0.0,0.0,2.5899204291726557e-11,2.2451176737131234e-11,1.5843675809049307e-11,1.1879780071744025e-11,8.26345419455598e-12,5.6168695266813575e-12,3.985503666605251e-12,2.3648676476408733e-12,1.6109641621673985e-12,1.0381059649185178e-12,6.465271509322427e-13,4.2071667856567593e-13,2.782542705527021e-13,1.817447392218242e-13,1.271869889774338e-13,8.822298042348783e-14,5.826012594041405e-14,3.877946469959646e-14,2.421895013896167e-14,1.5693226447410096e-14,1.1092658200720919e-14,4.232793387412374e-15,3.6863776800716406e-15,1.9733802945512707e-15,2.689079839813428e-15,9.935124505568918e-16,7.120248812590197e-09,3.4890257545835473e-09,2.0361164250709228e-09,1.06374585648132e-09,5.60394238706528e-10,2.5623270936028445e-10,1.3370962811240207e-10,6.634744526337082e-11,3.1772443168165145e-11,1.5912836944504504e-11,7.061272900975091e-12,3.4608679393700195e-12,1.5579854018885136e-12,7.186396029731279e-13,3.4360636044255555e-13,1.5792552124199853e-13,8.286929181450922e-14,5.900772201020786e-14,3.297673595089733e-14
0.0,43,43.0,0.0,30.0,0.0,0.0,0.0,0.0,-13.0,0.0,2.0,0.0,0.0,0.0,2.748990311162629e-11,2.032973216039859e-11,1.5089514830643543e-11,1.1590343404016842e-11,7.756167222124833e-12,5.611754055865384e-12,3.795924930632607e-12,2.4356965087051864e-12,1.5254228003611992e-12,9.764253313322128e-13,6.353844777869181e-13,4.0736730201226534e-13,2.873917032419157e-13,1.7662380807490786e-13,1.1880643126744396e-13,8.122372508224622e-14,5.5105769722839176e-14,3.470316774534984e-14,2.3332657912614174e-14,1.4845468132712455e-14,9.612866597531636e-15,6.633102027522726e-15,2.315668482637596e-15,3.157541499827373e-15,3.01176479933795e-15,7.131034749117208e-16,7.143250558674528e-09,3.726631002274945e-09,2.10190912070528e-09,1.0704325881455276e-09,5.008399530996216e-10,2.623286740869664e-10,1.344086981261658e-10,6.414522205778328e-11,3.114834700264915e-11,1.5398340317281766e-11,6.746601876272418e-12,3.152030408808568e-12,1.472032030443263e-12,6.650248190542077e-13,3.231127808682014e-13,1.723446021436406e-13,8.844517986078144e-14,4.317784525618116e-14,1.4172277003189533e-14
0.0,44,44.0,0.0,30.0,0.0,0.0,0.0,0.0,-13.0,0.0,2.0,0.0,0.0,0.0,2.4987951491423613e-11,1.9938036956626363e-11,1.4894578312436893e-11,1.0640958655136224e-11,7.537928170708512e-12,5.0389181476021975e-12,3.581242382252646e-12,2.316869786836139e-12,1.4324587718432569e-12,9.418454199295414e-13,6.264866723301597e-13,3.8407769873353216e-13,2.702427579558312e-13,1.739799185272389e-13,1.1912862650418723e-13,8.131337409381799e-14,5.715797268207135e-14,3.7093312402168723e-14,2.2018990777709005e-14,1.3703556022758373e-14,7.696807028116743e-15,4.3230476336535465e-15,3.5284055076441258e-15,1.249526431335842e-15,1.1041542029135235e-15,2.0088609021776782e-16,6.663726799660688e-09,3.6261425506657253e-09,1.9980935814998008e-09,1.0439457251175177e-09,5.183728280848482e-10,2.4717046933605905e-10,1.2864658539202178e-10,6.32357841812888e-11,3.036719385107941e-11,1.4059784035391762e-11,6.798457690585377e-12,3.0809224024556152e-12,1.2719238849245707e-12,6.633223173704345e-13,2.8535275944500937e-13,1.6514609197852915e-13,7.919558931103526e-14,6.165211875246347e-14,2.336860022843729e-14
0.0,45,45.0,0.0,30.0,0.0,0.0,0.0,0.0,-13.0,0.0,2.0,0.0,0.0,0.0,2.407808145731722e-11,1.917334830931035e-11,1.4906613761871756e-11,1.0539773306230403e-11,7.380321013184736e-12,5.207607179122412e-12,3.4337970556419866e-12,2.2380128309121786e-12,1.49584285342367e-12,9.502820203787392e-13,5.916028494149884e-13,3.7569023331239136e-13,2.620595844844821e-13,1.756935342552351e-13,1.16906219475632e-13,7.52446674176023e-14,5.301379301686139e-14,3.465569168455472e-14,2.255032419596718e-14,1.4996007332307715e-14,9.156173208135575e-15,5.4392673322240255e-15,4.6827899697353456e-15,4.659026722558701e-16,1.8929228235283286e-15,-9.695454552007359e-16,6.895525350168278e-09,3.5532449710829643e-09,1.9788445271032068e-09,9.972146769738977e-10,5.031832277716199e-10,2.396194614673165e-10,1.1970809246153822e-10,6.019775821670932e-11,2.9570905112166344e-11,1.502491925596899e-11,6.4664577578958115e-12,3.022563299773592e-12,1.292663993548059e-12,5.982887902365823e-13,2.9533245781869373e-13,1.3897259058038177e-13,9.297992423790082e-14,4.373223519614022e-14,3.735768319359906e-14
0.0,46,46.0,0.0,30.0,0.0,0.0,0.0,0.0,-13.0,0.0,2.0,0.0,0.0,0.0,2.4945351496307476e-11,1.860714820215076e-11,1.4142201236886895e-11,1.0136851037748458e-11,7.2549827626929805e-12,4.982697841647672e-12,3.2779589509731995e-12,2.1917923699870598e-12,1.4582706579692616e-12,8.945213147509252e-13,5.658223905268686e-13,3.6696782327842233e-13,2.3444302017191674e-13,1.5850170807007072e-13,1.1155740747852294e-13,7.234812507663469e-14,4.969001720861781e-14,3.652236884811664e-14,2.4390520636930528e-14,1.2522737171345659e-14,1.0506424454134864e-14,5.569724237211046e-15,3.311412709129112e-15,2.0085700553400277e-15,2.2213353060509465e-15,-7.359880387653181e-16,6.901219847487066e-09,3.5152321997045174e-09,1.929755543897898e-09,1.0177360165079812e-09,4.859225361886093e-10,2.421866462086094e-10,1.194323620854257e-10,5.63170179089666e-11,2.928393539302379e-11,1.3990713481005841e-11,6.32455916338697e-12,2.838489445097327e-12,1.2912813849932153e-12,5.9172261020245e-13,3.117291603696948e-13,1.6214393729080333e-13,7.413204816879944e-14,3.028189019788013e-14,-5.696084883771205e-15
0.0,47,47.0,0.0,30.0,0.0,0.0,0.0,0.0,-13.0,0.0,2.0,0.0,0.0,0.0,2.22790847581375e-11,1.7842411654789267e-11,1.3986594947487402e-11,9.589903396672508e-12,6.981851789052843e-12,4.917327856873292e-12,3.182883084302783e-12,2.072768469540359e-12,1.2850210043730394e-12,8.141496808279161e-13,5.472456666386112e-13,3.505922425937828e-13,2.342294196270844e-13,1.577415130741842e-13,1.0892053985558437e-13,7.134838683929988e-14,4.8895524500197064e-14,3.633082673899562e-14,2.051580240192363e-14,1.3645868753260731e-14,7.993284493145614e-15,6.1014363891435486e-15,4.279031342454303e-15,1.5805977111771934e-15,6.869357591617488e-16,5.768461659587855e-16,6.9012708012647024e-09,3.501813063036647e-09,1.8433878765095572e-09,8.82280150807178e-10,4.5248196199227124e-10,2.3094876504856617e-10,1.1691315107882548e-10,5.607660171641407e-11,2.6085337944066843e-11,1.227582920775256e-11,5.999762229652729e-12,2.5942807820911595e-12,1.3050259606923616e-12,5.847672787546014e-13,2.5749268325616505e-13,1.3096758505281627e-13,6.456673307144586e-14,3.6848067289923084e-14,6.983688687357577e-15
0.0,48,48.0,0.0,30.0,0.0,0.0,0.0,0.0,-13.0,0.0,2.0,0.0,0.0,0.0,2.1597224658697314e-11,1.689316259465496e-11,1.2642555425652324e-11,9.731970701128011e-12,6.6408888776566636e-12,4.420813467627791e-12,3.0231248563491077e-12,1.9532259728988064e-12,1.2783181991913614e-12,8.358893581688728e-13,5.252766576538549e-13,3.6378358814282565e-13,2.2776255678887206e-13,1.4823616996776523e-13,1.0572803993377286e-13,7.336729078832712e-14,4.987641904976039e-14,3.11044875554808e-14,2.0687200722687886e-14,1.4799842772639496e-14,6.6496219217563994e-15,5.0135168013673185e-15,1.7456344703843468e-15,1.1039674513013721e-15,8.457603515770159e-17,2.0905994086888944e-15,6.724819094997569e-09,3.4488767782002183e-09,1.7726073753074179e-09,9.300715136271816e-10,4.5769779308425377e-10,2.3290566647245924e-10,1.1134972357025922e-10,5.1182091570719354e-11,2.5457187305349545e-11,1.2722873847162039e-11,5.63978205670594e-12,2.7695052092174388e-12,1.1760794043493003e-12,5.741645564708894e-13,2.5710750739749346e-13,1.309295130408876e-13,8.05093862038116e-14,4.184191568405558e-14,2.932769855310158e-14
0.0,49,49.0,0.0,30.0,0.0,0.0,0.0,0.0,-13.0,0.0,2.0,0.0,0.0,0.0,2.163935026659508e-11,1.6963402464839035e-11,1.2089079401819633e-11,8.991099889747062e-12,6.4480561522208815e-12,4.272755719860311e-12,3.083299484019282e-12,1.8875273891876e-12,1.2324718407291963e-12,7.615250878272142e-13,4.704231460082189e-13,3.4619341169247807e-13,2.159951357453735e-13,1.4524327488811038e-13,9.90130658686763e-14,7.175436157584799e-14,4.48229529914231e-14,3.2605937292891494e-14,1.9779997721232957e-14,1.2573856978478717e-14,8.762045050698322e-15,6.393575575541286e-15,2.592093928484703e-15,1.227456953831799e-15,-9.259409376534871e-17,1.9272121613000874e-15,6.628638866273148e-09,3.301655218683731e-09,1.8681282659024196e-09,8.644494220058307e-10,4.53718469113776e-10,2.171433914769271e-10,1.0647414628384332e-10,5.048781278430565e-11,2.5205110978860964e-11,1.1254770729463767e-11,5.627690588795824e-12,2.654048486572649e-12,1.2056443182143983e-12,5.044218173977714e-13,2.4579624048222443e-13,1.2958688133586247e-13,7.168121963078297e-14,4.0577023686259285e-14,1.5531311145728148e-14
0.0,50,50.0,0.0,30.0,0.0,0.0,0.0,0.0,-13.0,0.0,2.0,0.0,0.0,0.0,2.086648931982568e-11,1.649296176818303e-11,1.1845488118042516e-11,8.885171841520479e-12,5.6453390837667975e-12,4.097387578849383e-12,2.8008584035512836e-12,1.833668831377787e-12,1.2107236054170131e-12,7.80004649202034e-13,4.923608221354654e-13,3.109523740097573e-13,2.0008910231457704e-13,1.446742696156678e-13,9.069702190480153e-14,6.772616999160205e-14,4.473623319976417e-14,2.913442527994252e-14,2.0044064837951217e-14,1.2861562163887019e-14,7.938073011527727e-15,5.1831944214433414e-15,3.4605394522384304e-15,2.8839945039620355e-15,1.554033783097338e-15,1.8195606096162947e-15,6.701544732898224e-09,3.6133364453776688e-09,1.783034450915771e-09,8.616949515242481e-10,4.1450814263662335e-10,2.092583021317864e-10,9.74530474432641e-11,4.787619457156828e-11,2.410206299626833e-11,1.1169637006397441e-11,5.1681708178643085e-12,2.4376515428477084e-12,1.1326733303841945e-12,5.199289784286192e-13,2.4397204898412895e-13,1.3610777407074689e-13,6.773889826885512e-14,3.798177222224485e-14,4.448820237591492e-14
0.0,51,51.0,0.0,30.0,0.0,0.0,0.0,0.0,-13.0,0.0,2.0,0.0,0.0,0.0,1.978678172021594e-11,1.5811989643898268e-11,1.1252020869086564e-11,8.00389183568368e-12,5.73596631780226e-12,4.018707495947947e-12,2.67889180913831e-12,1.8630575768344646e-12,1.1510010143614329e-12,7.396769896513386e-13,4.670888345145872e-13,3.018217003460889e-13,2.0276741697800828e-13,1.4465900083502314e-13,9.084573435324311e-14,6.578160155241188e-14,4.198811693683648e-14,2.921345168200831e-14,1.9167738604526767e-14,1.2872814145597902e-14,9.302242156986584e-15,5.096886390070913e-15,2.125184523131371e-15,2.57021389644408e-15,6.733931952099154e-16,1.0296539102803002e-15,6.644784775662482e-09,3.193990703626996e-09,1.7375749089790885e-09,8.644868004013635e-10,4.250347239249048e-10,2.1075122997367316e-10,9.382159042579914e-11,4.7997886756404e-11,2.3226244445893293e-11,1.077848096150339e-11,5.1703599758125395e-12,2.383751292413254e-12,1.0464925685235684e-12,5.095933238140896e-13,2.2815553204220523e-13,1.1555213244737548e-13,4.3842374421149513e-14,3.4096087820190016e-14,1.7122544731188316e-14
0.0,52,52.0,0.0,30.0,0.0,0.0,0.0,0.0,-13.0,0.0,2.0,0.0,0.0,0.0,1.916473862588585e-11,1.4658340138726973e-11,1.0461167432370568e-11,8.20886820601259e-12,5.617467822429814e-12,3.947494309689723e-12,2.6892440038448702e-12,1.7970141312906478e-12,1.1783997904445689e-12,7.01529284960403e-13,4.553415302283834e-13,2.855419108785412e-13,2.0186939805425492e-13,1.2786725456919827e-13,8.48540119517395e-14,6.379806309134088e-14,4.15120783334546e-14,2.99868515394106e-14,1.9102644516347986e-14,1.0458260810120365e-14,4.799375762584208e-15,3.920672813309812e-15,2.9233509817516174e-15,6.573228698279221e-16,3.657439641417204e-16,-6.846430600239722e-16,6.6509504769251105e-09,3.341632449608838e-09,1.6436524807886829e-09,8.569023949495348e-10,4.1617339861132445e-10,1.9515555783130583e-10,8.818269923904297e-11,4.3740340047085064e-11,2.2243663601816906e-11,1.0266605229819849e-11,4.834295938574721e-12,2.3202442936150905e-12,1.0641218174706185e-12,5.103621450514987e-13,2.2534664223157473e-13,1.3279283407602392e-13,5.40064348605515e-14,5.2627605117981565e-14,1.9611435568548202e-14
0.0,53,53.0,0.0,30.0,0.0,0.0,0.0,0.0,-13.0,0.0,2.0,0.0,0.0,0.0,1.757985329369291e-11,1.3346466404016817e-11,1.0406395613030862e-11,7.606849424564416e-12,5.544029239741518e-12,3.721308462433909e-12,2.4778641761196193e-12,1.7111653830632157e-12,1.0646897894994733e-12,6.656831799574832e-13,4.4260620306789737e-13,2.8065503479200495e-13,1.9262658632159532e-13,1.258804854662317e-13,8.647853740475123e-14,6.03573041036875e-14,4.048615602186446e-14,2.8094727914419807e-14,1.9052481262559863e-14,1.2309403961804671e-14,7.896358451669144e-15,4.272445014670194e-15,3.699107916491267e-15,2.5143684256443047e-15,2.0052396906312598e-15,3.1934257265550865e-17,6.5234336033016194e-09,3.330393609631899e-09,1.5921656151039711e-09,7.890774515188243e-10,4.0493722940515774e-10,1.9460623881941827e-10,9.246869977787084e-11,4.4459947643866295e-11,2.0381013668028625e-11,1.0176608488271712e-11,4.657012111810419e-12,2.1018625027899198e-12,9.914315612275838e-13,4.71656351088506e-13,2.1541820576068256e-13,1.082471126323125e-13,6.551252351691321e-14,3.770795434079024e-14,2.0307532077373008e-14
0.0,54,54.0,0.0,30.0,0.0,0.0,0.0,0.0,-13.0,0.0,2.0,0.0,0.0,0.0,1.730752168509147e-11,1.3147325875578171e-11,9.63036600343582e-12,7.405461639940284e-12,5.099259456620705e-12,3.3649606016780382e-12,2.381846415489622e-12,1.5414479273632535e-12,1.0538908714605614e-12,6.628341331889986e-13,4.2589471693491306e-13,2.694390265123403e-13,1.8644691759106808e-13,1.2517736414882117e-13,8.314865973641334e-14,5.720532149645966e-14,4.1241582657977056e-14,2.6683594558662208e-14,1.7973883561500463e-14,1.2657106137176061e-14,9.177818106571194e-15,6.483697963301624e-15,3.685211792721578e-15,2.9916455000350637e-16,2.930531451012936e-16,1.9407110570770853e-16,6.809520394566044e-09,3.131649472720232e-09,1.591873516118919e-09,7.680842922239821e-10,3.568970363039269e-10,1.7780393809360203e-10,8.614573843742482e-11,3.9721815913088994e-11,2.0829133620481665e-11,8.990665229595862e-12,4.43437714643311e-12,2.148745762826968e-12,9.324900380793063e-13,4.587137255541536e-13,1.983379289702285e-13,1.0911151858632399e-13,3.195261961603445e-14,2.654895242911585e-14,1.96421119870992e-15
