Line_number,Fiducial,Easting,Northing,Height,Elevation,tx_pitch,tx_roll,tx_yaw,txrx_dx,txrx_dy,txrx_dz,rx_pitch,rx_roll,rx_yaw,S0Z_time_3.834e-04,S0Z_time_3.924e-04,S0Z_time_4.039e-04,S0Z_time_4.184e-04,S0Z_time_4.364e-04,S0Z_time_4.589e-04,S0Z_time_4.869e-04,S0Z_time_5.224e-04,S0Z_time_5.679e-04,S0Z_time_6.249e-04,S0Z_time_6.969e-04,S0Z_time_7.879e-04,S0Z_time_9.019e-04,S0Z_time_1.046e-03,S0Z_time_1.227e-03,S0Z_time_1.456e-03,S0Z_time_1.744e-03,S0Z_time_2.109e-03,S0Z_time_2.567e-03,S0Z_time_3.145e-03,S0Z_time_3.864e-03,S0Z_time_4.745e-03,S0Z_time_5.821e-03,S0Z_time_7.140e-03,S0Z_time_8.754e-03,S0Z_time_1.073e-02,S1Z_time_2.057e-05,S1Z_time_2.607e-05,S1Z_time_3.307e-05,S1Z_time_4.206e-05,S1Z_time_5.356e-05,S1Z_time_6.807e-05,S1Z_time_8.607e-05,S1Z_time_1.086e-04,S1Z_time_1.366e-04,S1Z_time_1.721e-04,S1Z_time_2.176e-04,S1Z_time_2.746e-04,S1Z_time_3.466e-04,S1Z_time_4.376e-04,S1Z_time_5.516e-04,S1Z_time_6.956e-04,S1Z_time_8.771e-04,S1Z_time_1.106e-03,S1Z_time_1.394e-03
0.0,0,0.0,0.0,30.0,0.0,0.0,0.0,0.0,-13.0,0.0,2.0,0.0,0.0,0.0,3.322404015763856e-11,2.8360585675925944e-11,2.5564466035782156e-11,2.1569866974811465e-11,1.841091263659456e-11,1.6145553694620937e-11,1.3498817396620989e-11,1.2209719678629132e-11,1.0275439567283084e-11,8.843098388924107e-12,7.50884143892819e-12,5.698098467706281e-12,4.953865501059341e-12,4.159420876888464e-12,3.366370227945856e-12,2.4848422149087255e-12,2.089036602966659e-12,1.5052327487307406e-12,1.0926782579498161e-12,7.998473571692361e-13,5.34360370529069e-13,3.8372294586275185e-13,2.524052971798015e-13,1.6345652541781313e-13,1.0499075042982445e-13,6.923577156945553e-14,3.74494278153246e-09,1.6908415113638676e-09,8.419504152089985e-10,4.592058731094818e-10,2.6543776860705893e-10,1.5970086291821956e-10,9.934967772624584e-11,5.772416965939188e-11,3.448789700133541e-11,1.948617341398992e-11,1.3149838857318053e-11,9.123915788880336e-12,6.442827354924447e-12,4.297728297073177e-12,2.9999007955657738e-12,2.0600699087013492e-12,1.338538596133572e-12,9.516026986657254e-13,6.313065221480799e-13
0.0,1,1.0,0.0,30.0,0.0,0.0,0.0,0.0,-13.0,0.0,2.0,0.0,0.0,0.0,3.728357728528022e-11,3.034533182789792e-11,2.8268291650255554e-11,2.436705285955672e-11,1.967517995327234e-11,1.6661631070868045e-11,1.322270672439113e-11,1.1487780197163275e-11,1.0047918246454317e-11,7.943456581395192e-12,6.819355311577917e-12,5.604536000160116e-12,4.419094794593154e-12,3.4677160066574224e-12,2.9741422241530545e-12,2.2613851160765572e-12,1.8354169665205123e-12,1.255255112183004e-12,9.970127899626162e-13,6.452988072056213e-13,5.026007817224603e-13,3.3590496180108736e-13,2.335367014885381e-13,1.515031602374074e-13,9.819986807133294e-14,6.129557467791964e-14,3.6270583731509184e-09,1.654808811382752e-09,8.067458524285812e-10,4.661037116608439e-10,2.5768330239262023e-10,1.7357832101265327e-10,1.0660326872880425e-10,6.96813333731559e-11,4.224665010900587e-11,2.4716611232993803e-11,1.5016622300190415e-11,9.64721128127187e-12,6.082914087790675e-12,3.977087056468964e-12,2.6344403246743825e-12,1.89271803479477e-12,1.262051405644481e-12,8.241750386581488e-13,5.591164444283669e-13
0.0,2,2.0,0.0,30.0,0.0,0.0,0.0,0.0,-13.0,0.0,2.0,0.0,0.0,0.0,4.0412519503117853e-11,3.753525832659742e-11,3.289803800171563e-11,2.555899741086782e-11,2.1953716533412887e-11,1.8570888737160778e-11,1.499686777800946e-11,1.1716561577575022e-11,9.520562734025527e-12,7.67998924652931e-12,6.595579593919432e-12,5.135280970465227e-12,4.1320590217806695e-12,3.2437728474134325e-12,2.6355156118882397e-12,2.006974874845183e-12,1.618786806164666e-12,1.2016174548343077e-12,8.1701979679954e-13,6.088074167389473e-13,4.3682573310970253e-13,2.9363271611105846e-13,2.0348789795803291e-13,1.3381502385446462e-13,8.712775232119053e-14,5.567141437900286e-14,3.5272519006466687e-09,1.5406501638461534e-09,8.364614072855327e-10,4.3588942713627557e-10,2.8646145521481935e-10,1.8044130866618953e-10,1.1219472693134023e-10,7.820737013832497e-11,5.001122285070883e-11,3.09931030030792e-11,1.7784824593756113e-11,1.0688896241232617e-11,6.473290034735482e-12,4.225270188470892e-12,2.605715825876281e-12,1.725050172180912e-12,1.1087652416194283e-12,7.554803290259085e-13,5.093494437147474e-13
0.0,3,3.0,0.0,30.0,0.0,0.0,0.0,0.0,-13.0,0.0,2.0,0.0,0.0,0.0,4.372410191406753e-11,3.952131361655492e-11,3.513388206169997e-11,2.9941166731930736e-11,2.420319264445405e-11,2.126158656885336e-11,1.6684248329830276e-11,1.2890876795988146e-11,1.0397352911614622e-11,7.612587599481898e-12,6.239442913893181e-12,4.9199076128491555e-12,3.8021841392340576e-12,3.0209501141688026e-12,2.2622325155279164e-12,1.8408326497851425e-12,1.388096532146703e-12,1.0529607627177561e-12,8.020606381065057e-13,5.431919287168385e-13,3.8764593881244886e-13,2.893117064109109e-13,1.76559589132755e-13,1.2430074565967482e-13,8.166008182240099e-14,5.1108860807201586e-14,3.4513712507221756e-09,1.5876734718075291e-09,7.864177774194887e-10,4.6393084878730006e-10,2.8134388458558455e-10,1.815923881198288e-10,1.2291444077377984e-10,8.565266819708753e-11,5.734746362509961e-11,3.600055928968661e-11,2.1109121492534597e-11,1.230985080995304e-11,7.273892915137612e-12,4.153983742359109e-12,2.469178170460316e-12,1.6290340970964788e-12,1.0736499828399922e-12,6.645575023125183e-13,4.828464022759911e-13
0.0,4,4.0,0.0,30.0,0.0,0.0,0.0,0.0,-13.0,0.0,2.0,0.0,0.0,0.0,4.703188086515354e-11,4.623794922456906e-11,3.7783756336918187e-11,3.1881397615916826e-11,2.582492306013387e-11,2.1863177453947273e-11,1.8372903577698906e-11,1.4438743790400568e-11,1.1247422039267335e-11,8.043393985143234e-12,5.8284908497892996e-12,4.45273536883136e-12,3.5385365057054403e-12,2.7691136339866988e-12,2.133624168750008e-12,1.7303230173069497e-12,1.3433239813724745e-12,9.320102321379698e-13,6.980483728259212e-13,4.80103448779374e-13,3.576300798395868e-13,2.368669557464853e-13,1.628789767833471e-13,1.1536236625019512e-13,7.328577572593359e-14,4.887068192864695e-14,3.2722273935519315e-09,1.6133639502766786e-09,7.780329971940402e-10,4.439147253090878e-10,2.825178323110791e-10,1.7665783385449411e-10,1.3107702159431498e-10,8.850161407781869e-11,6.194634309339173e-11,4.018269187537593e-11,2.541595864345099e-11,1.4204797916393392e-11,8.81481889929385e-12,4.547602995402218e-12,2.8819138123509043e-12,1.6213606000993065e-12,1.0098330372438903e-12,6.637828706763305e-13,4.0069037243272885e-13
0.0,5,5.0,0.0,30.0,0.0,0.0,0.0,0.0,-13.0,0.0,2.0,0.0,0.0,0.0,4.7734518071127603e-11,4.4318751775084375e-11,3.924990762841962e-11,3.526854437470809e-11,3.0184748506246736e-11,2.382111490550733e-11,1.9627223496105654e-11,1.5069341313745096e-11,1.1606508518549139e-11,8.768609220423531e-12,6.6820188605571684e-12,4.90449407391621e-12,3.3772128499555426e-12,2.5864203390885466e-12,2.0286448629561975e-12,1.6562184438450235e-12,1.1319661350871086e-12,8.964152295704551e-13,6.30133562808763e-13,4.573958570137178e-13,3.08278174310769e-13,2.290098294904488e-13,1.5679769727458577e-13,1.0385269025321528e-13,6.735528221029433e-14,4.4209546871824575e-14,3.4138643934792556e-09,1.6474799055097448e-09,8.114204960964527e-10,4.702447432748797e-10,2.9011951827534663e-10,1.842028302021235e-10,1.2978607656912426e-10,9.333649281984175e-11,6.235004091354228e-11,4.368696130643913e-11,2.7605246123528837e-11,1.6051678842091346e-11,9.136596431723696e-12,5.219319433853122e-12,2.8697139046034206e-12,1.6599511479090365e-12,1.0450517640501307e-12,6.249911902222114e-13,3.877855611971023e-13
0.0,6,6.0,0.0,30.0,0.0,0.0,0.0,0.0,-13.0,0.0,2.0,0.0,0.0,0.0,5.216430360768518e-11,4.650398409788822e-11,4.261243903457722e-11,3.611891135892571e-11,3.1660246738265156e-11,2.627499164278349e-11,2.1209989565056822e-11,1.7761466384069153e-11,1.1818550217439871e-11,9.33139416093466e-12,6.831687734670045e-12,4.947374685285158e-12,3.531208300271414e-12,2.683890383393929e-12,1.9480412088133507e-12,1.4939203396698928e-12,1.0674619533486926e-12,8.282366180496068e-13,5.746305893542619e-13,4.19994230854956e-13,2.793232934796068e-13,1.9608613294224946e-13,1.3544884351601462e-13,9.128496891456823e-14,6.113747159916325e-14,4.168678016012884e-14,3.465456666133816e-09,1.5034850405912898e-09,7.933688024169331e-10,4.6354551984107903e-10,2.915971363993636e-10,1.9259246333826947e-10,1.23235963473236e-10,1.0070145483483497e-10,6.980163645715064e-11,4.423460724647935e-11,2.7735126337687774e-11,1.699321175709695e-11,1.102618065905082e-11,5.952349755894947e-12,3.432632760286377e-12,1.840542206440167e-12,1.0694976479229316e-12,6.06247350537501e-13,3.5777183149319423e-13
0.0,7,7.0,0.0,30.0,0.0,0.0,0.0,0.0,-13.0,0.0,2.0,0.0,0.0,0.0,5.603219673328755e-11,4.621616613723396e-11,4.2259793577806617e-11,3.841945649702556e-11,3.350501937599832e-11,2.640277256651535e-11,2.2648582470760968e-11,1.706693066712127e-11,1.4065136823871583e-11,1.0460968309688563e-11,7.425073073876804e-12,5.161351846658375e-12,3.611528593322357e-12,2.497616036924333e-12,1.958233556603252e-12,1.3716296085829941e-12,9.71765404294601e-13,6.994305238988823e-13,5.257352344921028e-13,3.64275715534027e-13,2.7226432094974776e-13,1.9538272127334346e-13,1.328829772649063e-13,8.417464672135051e-14,5.72867334910341e-14,3.753600734118864e-14,3.2679478723735814e-09,1.5165985128208595e-09,7.809844333628819e-10,4.4824844557514197e-10,2.955872933815551e-10,1.9850941244254495e-10,1.3559057350392896e-10,9.652590205141355e-11,6.503538311446492e-11,4.613798980895044e-11,3.0893350435646765e-11,2.0011712239846376e-11,1.2411249281647576e-11,6.941646873591207e-12,3.889391579714733e-12,1.995764881589259e-12,1.1102614439062889e-12,6.254435539515506e-13,3.702762053266002e-13
0.0,8,8.0,0.0,30.0,0.0,0.0,0.0,0.0,-13.0,0.0,2.0,0.0,0.0,0.0,5.652690341008587e-11,5.198262748106588e-11,4.4572025727239824e-11,3.9448681643247586e-11,3.322907561701408e-11,2.9790204248023576e-11,2.305784146424938e-11,1.941423012805942e-11,1.4697993043521158e-11,1.0955871766102966e-11,7.788867662898738e-12,5.8704053699101206e-12,4.012083491473239e-12,2.58927722892654e-12,1.885257614355439e-12,1.329755195533768e-12,9.856152071422432e-13,7.087666632074727e-13,5.040595001960101e-13,3.6470415675052836e-13,2.39913843133572e-13,1.7046222252108262e-13,1.1887894285616298e-13,8.276588860428059e-14,5.1924349040044776e-14,3.59471936214675e-14,3.210073341890968e-09,1.4799299887986554e-09,8.097403080964415e-10,4.597217547354348e-10,2.9572839820585366e-10,2.041000622102584e-10,1.4056084821474754e-10,9.716753443573973e-11,7.168739687440195e-11,4.6924165266427293e-11,3.054940665316571e-11,2.048195114692131e-11,1.2939392039219588e-11,7.435676305437523e-12,4.205443109314571e-12,2.3704977795186994e-12,1.1667350431802946e-12,6.43059248929668e-13,3.717798656662543e-13
0.0,9,9.0,0.0,30.0,0.0,0.0,0.0,0.0,-13.0,0.0,2.0,0.0,0.0,0.0,5.833556186696007e-11,5.3514167063676156e-11,4.844950299686272e-11,4.378458920392833e-11,3.495652012501648e-11,2.9515084446553393e-11,2.5311652043266947e-11,2.0470276718748284e-11,1.5242632809203517e-11,1.191685946660646e-11,8.57996037933023e-12,6.080287922354895e-12,4.348099209068164e-12,2.902951621149871e-12,1.9253857694568056e-12,1.2745828743118565e-12,9.035793823926828e-13,6.182679239261143e-13,4.762566136165051e-13,3.274320066836394e-13,2.2966630127776974e-13,1.529437268224498e-13,1.0346798461253264e-13,7.203730567306072e-14,4.705818051379202e-14,3.336745615089991e-14,3.336864220458338e-09,1.4531382466155854e-09,7.827911693216122e-10,4.7336101232874e-10,3.0494521396624695e-10,1.9174953507104272e-10,1.4174988675067445e-10,9.925139698865786e-11,6.794588094120302e-11,4.8826842244788225e-11,3.254257203254955e-11,2.0836685429419084e-11,1.3101248473553403e-11,8.116292849203595e-12,4.271470030682036e-12,2.5853544554819467e-12,1.2467907065327164e-12,7.186898928194959e-13,3.496613514067011e-13
0.0,10,10.0,0.0,30.0,0.0,0.0,0.0,0.0,-13.0,0.0,2.0,0.0,0.0,0.0,6.003428863017046e-11,5.4223381413475834e-11,4.665607587107597e-11,4.3197945965955566e-11,3.6232698093899605e-11,2.9554401455594226e-11,2.5742366911490882e-11,1.9508649906035347e-11,1.565854151413334e-11,1.2470589743538221e-11,8.913101688575707e-12,6.532263916002352e-12,4.209006254671049e-12,2.898383763223496e-12,1.8852280983176986e-12,1.2968011211406206e-12,9.090657883567137e-13,6.078625580467331e-13,4.4599722805843557e-13,3.0833809327700237e-13,2.096514404998624e-13,1.53069962954212e-13,1.0123094121022888e-13,6.635195799736857e-14,4.550994463652775e-14,2.7431047565546608e-14,3.248479227283649e-09,1.5065307838934444e-09,7.929080938096281e-10,4.4085584236083224e-10,3.117339319033241e-10,2.0214916886071754e-10,1.405217419757094e-10,1.0304532696494251e-10,7.074691328135397e-11,4.835911420679251e-11,3.324525113381817e-11,2.357562428704047e-11,1.4860194477844646e-11,9.00840876520901e-12,4.961957736924835e-12,2.7088346083512713e-12,1.4337624747038713e-12,7.432507964966218e-13,3.852383969519229e-13
0.0,11,11.0,0.0,30.0,0.0,0.0,0.0,0.0,-13.0,0.0,2.0,0.0,0.0,0.0,5.973291932181129e-11,5.317785060374916e-11,5.034621958300667e-11,4.1882422531065e-11,3.707617524571437e-11,3.0925916394633057e-11,2.6538940500166566e-11,2.1381211105974357e-11,1.651480136924778e-11,1.2843765641638894e-11,9.75251616380165e-12,6.630962684524187e-12,4.680832185772536e-12,3.1519735848188443e-12,2.0971661698364816e-12,1.3415401837169622e-12,8.942865151696699e-13,5.867869094237369e-13,4.084303172211471e-13,2.919667033942929e-13,1.9692730247193213e-13,1.4478054325188059e-13,9.318287062218875e-14,6.106702038083091e-14,4.09671280733329e-14,2.7549306836875084e-14,3.224188114394489e-09,1.4651802545777304e-09,7.652051353128003e-10,4.771972372643085e-10,3.060732389889906e-10,2.0710776766891569e-10,1.4554990909569818e-10,1.0402098509758052e-10,7.314969304134533e-11,5.057167593999233e-11,3.343247280312843e-11,2.2749761927466636e-11,1.5144838539518063e-11,9.296804075983717e-12,5.6970229182082825e-12,2.9601147520491173e-12,1.533560616179724e-12,7.8189058827214e-13,3.8931973641358576e-13
0.0,12,12.0,0.0,30.0,0.0,0.0,0.0,0.0,-13.0,0.0,2.0,0.0,0.0,0.0,6.293469427458494e-11,5.5981829697972926e-11,4.9051034038461026e-11,4.2890372662544834e-11,4.01688270814314e-11,3.1569394950123336e-11,2.7933518818041245e-11,2.2228552462416104e-11,1.7441349129601227e-11,1.3563564377160725e-11,9.97694419377323e-12,6.918901455586502e-12,4.680969528580636e-12,3.19023943561998e-12,2.0174013050570056e-12,1.3220879988726883e-12,8.778266669623064e-13,5.494571699903989e-13,3.9048287742559063e-13,2.7109525131070137e-13,1.9282172923699312e-13,1.291735583285383e-13,8.856186173058663e-14,5.903626575789231e-14,4.0496157579338984e-14,2.891194142366e-14,3.1618439613445736e-09,1.5691265394738528e-09,7.942473442857174e-10,4.908309623667212e-10,3.076579652425485e-10,2.1110898866111133e-10,1.5018145394544459e-10,1.0201299248969595e-10,7.43907482122516e-11,5.0784600396970294e-11,3.423059468424256e-11,2.3219568829779722e-11,1.4371469752860395e-11,9.99449218272986e-12,5.550644870744062e-12,3.2111268409674325e-12,1.7782034917358108e-12,9.283982754839865e-13,4.565736919793586e-13
0.0,13,13.0,0.0,30.0,0.0,0.0,0.0,0.0,-13.0,0.0,2.0,0.0,0.0,0.0,6.035685272260417e-11,5.998381000203747e-11,4.626267195376824e-11,4.40598444338151e-11,4.007188876386588e-11,3.261398153008934e-11,2.8946028274468685e-11,2.2017788608311432e-11,1.8926270129689207e-11,1.3916037554858234e-11,1.058432838400328e-11,7.293535886342916e-12,5.295848175637535e-12,3.524976366006357e-12,2.1801712304390262e-12,1.4081718835992902e-12,9.009767312026772e-13,6.184702302441042e-13,4.064252947495469e-13,2.6559757644410737e-13,1.8151629128785079e-13,1.2139127722314153e-13,8.388543332362589e-14,5.6356521002905054e-14,3.4627839334313304e-14,2.467429634394553e-14,3.0501394453097153e-09,1.4653251376230111e-09,7.932744801518403e-10,4.683345247091709e-10,3.128976369592036e-10,2.1632885538635059e-10,1.5012819971713062e-10,1.0600333983666762e-10,7.376892496189713e-11,5.251368271632578e-11,3.486104036412711e-11,2.2425536618315846e-11,1.489721577620253e-11,1.0150685163772796e-11,5.707541176015963e-12,3.29979897666294e-12,1.8755392594700825e-12,9.226886133832792e-13,4.903940119670835e-13
0.0,14,14.0,0.0,30.0,0.0,0.0,0.0,0.0,-13.0,0.0,2.0,0.0,0.0,0.0,6.397198986077024e-11,5.894096704127621e-11,5.7078219401857206e-11,4.446813134975899e-11,4.0294131206363853e-11,3.3169933750182176e-11,2.8253747266310356e-11,2.2715358259486764e-11,1.8321645685888274e-11,1.434369745610792e-11,1.0673190741492254e-11,7.471933726955827e-12,5.326255872218275e-12,3.581383815085065e-12,2.3094754838906424e-12,1.4675653699060535e-12,9.211910278035106e-13,5.959914121101234e-13,3.57848360037428e-13,2.4724159785675017e-13,1.7106977643452083e-13,1.1725262339253322e-13,7.367551813917855e-14,5.332153922525054e-14,3.567386916361836e-14,2.2209636938825096e-14,3.27098445958011e-09,1.5042262212319054e-09,7.779627651409498e-10,4.5751054856653795e-10,3.191016930462662e-10,2.241631107232666e-10,1.433440817905634e-10,1.103964276787316e-10,7.636235016545181e-11,5.224108435179674e-11,3.4122234354434386e-11,2.397862387183574e-11,1.5231003164866647e-11,1.0592330160458553e-11,6.065253457108538e-12,3.5965312758824007e-12,1.8902535726712067e-12,1.0088105160289552e-12,4.976975688094343e-13
0.0,15,15.0,0.0,30.0,0.0,0.0,0.0,0.0,-13.0,0.0,2.0,0.0,0.0,0.0,6.671892586760451e-11,5.844262463636643e-11,5.253208411620109e-11,4.847179675378329e-11,3.8922563038589726e-11,3.428319670744206e-11,2.946171009521354e-11,2.4434117489411e-11,1.882788068601808e-11,1.4916142644556592e-11,1.0851330348674133e-11,8.129384175085648e-12,5.5103096037142235e-12,3.9050071957935694e-12,2.5795836379540756e-12,1.5421587052031089e-12,9.319924479642798e-13,5.984365638745555e-13,3.604324001216335e-13,2.462403680910765e-13,1.560268068190229e-13,1.1045168377835532e-13,7.733119476154621e-14,4.657251487283274e-14,3.061559322224154e-14,1.8946504742216528e-14,3.0040866494555856e-09,1.463405833850859e-09,8.312689252066838e-10,4.942471144639197e-10,3.209184347710213e-10,2.1562748462649158e-10,1.535595306774043e-10,1.1466805964426318e-10,7.78508900881771e-11,5.177619644529941e-11,3.7451375569468715e-11,2.3541643118108217e-11,1.52433696723305e-11,9.780140487940551e-12,6.157652253432976e-12,3.564469020922976e-12,2.0666244331731374e-12,1.0500914916231905e-12,5.696978357985908e-13
0.0,16,16.0,0.0,30.0,0.0,0.0,0.0,0.0,-13.0,0.0,2.0,0.0,0.0,0.0,6.692051069367303e-11,6.027507967196857e-11,5.58645926823701e-11,4.86550078063486e-11,4.0315527282825995e-11,3.5078149496169486e-11,3.0137707883264447e-11,2.484952352751735e-11,1.9793530300514903e-11,1.5756901661581022e-11,1.1533354731487883e-11,8.635570884241637e-12,5.728756661871211e-12,4.091371087566165e-12,2.6594348457285408e-12,1.7211079005064582e-12,1.0346920574611638e-12,6.113191709119068e-13,3.9221246775488467e-13,2.367370925961369e-13,1.6635921772975144e-13,9.86720830264079e-14,6.602992781360837e-14,4.561157678721408e-14,3.1981144088693104e-14,1.7154443738128976e-14,3.170879633206611e-09,1.4598561565636326e-09,7.939588488867645e-10,4.952456389814008e-10,3.1565001136440783e-10,2.2878017841722972e-10,1.5561035565178784e-10,1.1350226609468381e-10,7.821934547671232e-11,5.252702310685078e-11,3.650732606800517e-11,2.4025070377441387e-11,1.6040209739223504e-11,1.0544412908422012e-11,6.437424331298185e-12,3.791913457580467e-12,2.0545703004713003e-12,1.1516568166977545e-12,5.728606461113587e-13
0.0,17,17.0,0.0,30.0,0.0,0.0,0.0,0.0,-13.0,0.0,2.0,0.0,0.0,0.0,6.489575917210265e-11,6.06148273402567e-11,5.2826811761639436e-11,4.708272711219652e-11,4.1579777711747307e-11,3.6962675337890543e-11,2.989673819812802e-11,2.593636550818958e-11,1.868694455597708e-11,1.5761749353331902e-11,1.1221183632006861e-11,8.947882628863246e-12,5.935272542392971e-12,4.168505047455144e-12,2.648630742725929e-12,1.6795086556305526e-12,1.045935302340383e-12,6.254368043674933e-13,3.865529642527384e-13,2.3340628881983885e-13,1.6452984755326326e-13,9.765817531540811e-14,6.740698128986258e-14,4.791922951596968e-14,2.8964391147868394e-14,1.9114792223960314e-14,3.1284012217128666e-09,1.487725704572622e-09,8.189151847224822e-10,4.811785701216076e-10,3.392250880756544e-10,2.2666158404835101e-10,1.6100901372594918e-10,1.1789924082776453e-10,7.732147960516526e-11,5.67542473601362e-11,3.731266803151211e-11,2.5342584205885877e-11,1.658994095212971e-11,1.036037875072706e-11,6.741524068192927e-12,3.9896679205090615e-12,2.161929687247074e-12,1.2066314335128847e-12,6.114503902265823e-13
0.0,18,18.0,0.0,30.0,0.0,0.0,0.0,0.0,-13.0,0.0,2.0,0.0,0.0,0.0,6.643243402052529e-11,6.592825402707058e-11,5.271166220416822e-11,5.089133942899842e-11,4.559087167883954e-11,3.698844060818321e-11,3.0503508358516176e-11,2.4935788857303007e-11,2.0239382673602523e-11,1.531270120405466e-11,1.145916928227519e-11,9.174889911384557e-12,6.217537142234278e-12,4.2881107685713466e-12,2.74323309019338e-12,1.8029923504871713e-12,1.0408191892533862e-12,6.518221143377597e-13,4.103826948912459e-13,2.3697519351188863e-13,1.4747347883483417e-13,9.448263866366864e-14,6.282946367244575e-14,3.903374261228448e-14,2.6603858056283564e-14,1.6970700014266912e-14,3.031007782638291e-09,1.4641605776077551e-09,8.02436659526897e-10,4.803899235841569e-10,3.525337844238109e-10,2.33091035375485e-10,1.5880198687314151e-10,1.0893917059530083e-10,7.980144147654409e-11,5.7479566175238904e-11,3.711253920247651e-11,2.5187150343705166e-11,1.585532029862452e-11,1.0203975450721638e-11,6.590203286096552e-12,3.74017460697467e-12,2.2485789395405103e-12,1.1848170761970197e-12,6.121286714982106e-13
0.0,19,19.0,0.0,30.0,0.0,0.0,0.0,0.0,-13.0,0.0,2.0,0.0,0.0,0.0,6.791225538264895e-11,6.602128578234773e-11,5.5496133796881775e-11,5.07708429296426e-11,4.362881644772789e-11,3.8422709377323814e-11,3.1133487784280974e-11,2.5873324917082925e-11,2.0878137167980912e-11,1.6547210182944646e-11,1.2462813802194882e-11,9.06592125518391e-12,6.430964652852966e-12,4.316604293753386e-12,2.9337387862070057e-12,1.9123633801256732e-12,1.1483906137671699e-12,6.597150327758685e-13,4.045744795398618e-13,2.33825924605331e-13,1.4596906498672837e-13,8.883005472000524e-14,6.041744136387236e-14,3.997462864951338e-14,2.5775728996884858e-14,1.9297060072477782e-14,2.957746268995503e-09,1.4085874206187754e-09,8.279824350551007e-10,4.932800119698748e-10,3.70467944960803e-10,2.2670436840797945e-10,1.729031418238828e-10,1.1307914716126163e-10,8.338862043206943e-11,5.912502760897488e-11,3.9315607436547305e-11,2.5041739450626466e-11,1.6061076907002664e-11,1.1043946983769413e-11,6.3809069155646334e-12,4.324482825942129e-12,2.487054346806712e-12,1.2926858018119702e-12,6.786912262019755e-13
0.0,20,20.0,0.0,30.0,0.0,0.0,0.0,0.0,-13.0,0.0,2.0,0.0,0.0,0.0,7.202672403783015e-11,6.530313604405913e-11,6.212470787567754e-11,5.1115413393148136e-11,4.516805560053139e-11,3.6421812491192147e-11,3.187810782929949e-11,2.661082815712512e-11,2.0676003855594686e-11,1.6285823558163e-11,1.2291528960981421e-11,8.754314266711368e-12,6.734309258056816e-12,4.3270000961435245e-12,2.9710702287629427e-12,1.8475274772802963e-12,1.131959630650413e-12,6.868187093915683e-13,4.0616328571410866e-13,2.4337484239124086e-13,1.423056374466293e-13,8.600819412887108e-14,5.903871715982446e-14,3.819293199226417e-14,2.4853014752907465e-14,1.5007248614124956e-14,2.9492492435499948e-09,1.4032419275723975e-09,8.233119665940166e-10,5.055489135065326e-10,3.3511160056205494e-10,2.378803931577535e-10,1.584176386065921e-10,1.224805424981249e-10,8.489454565632405e-11,5.622417354426989e-11,4.026421852727925e-11,2.546347528773492e-11,1.6834415054500443e-11,1.0840494674652064e-11,7.031864644905454e-12,4.131387887344638e-12,2.3735595185314e-12,1.2648500204851343e-12,6.541710923348631e-13
0.0,21,21.0,0.0,30.0,0.0,0.0,0.0,0.0,-13.0,0.0,2.0,0.0,0.0,0.0,7.380495250640679e-11,6.496117780861912e-11,5.890990370302474e-11,5.267761317530627e-11,4.463931953600207e-11,3.7895809754886136e-11,3.380069057892707e-11,2.7786047533195793e-11,2.2555137000893638e-11,1.7091422376474825e-11,1.2916128769387836e-11,9.293735616321945e-12,6.8724801876011425e-12,4.6431658260014644e-12,3.1279173620379432e-12,1.93528046448773e-12,1.2185411447563767e-12,7.227821325294231e-13,4.0272490564053407e-13,2.5880331392144295e-13,1.4446564995479757e-13,9.212582561690053e-14,5.3980144636411857e-14,3.716270250944992e-14,2.349927101826056e-14,1.3403009428131068e-14,3.0495503679541692e-09,1.4018716402732598e-09,7.858413442621106e-10,5.096517189691604e-10,3.441516685008005e-10,2.449108117011535e-10,1.7077109866891723e-10,1.2376651375739958e-10,8.630141779959127e-11,6.057182398771293e-11,4.184153269928887e-11,2.6746427953196955e-11,1.622144721810604e-11,1.1168594952356714e-11,7.04675980040506e-12,4.2529252819475564e-12,2.358406755800311e-12,1.3086470002006763e-12,7.382986707734043e-13
0.0,22,22.0,0.0,30.0,0.0,0.0,0.0,0.0,-13.0,0.0,2.0,0.0,0.0,0.0,7.525309637072047e-11,6.488156218923732e-11,6.263795366966771e-11,5.289952747753958e-11,4.46342376991765e-11,4.208848985827657e-11,3.296473796007587e-11,2.7629034481938057e-11,2.139556110318426e-11,1.7884799762132918e-11,1.2328562483754178e-11,9.973593771821683e-12,7.046522454402342e-12,5.017309755005299e-12,3.3113785022062623e-12,2.1533533685041565e-12,1.3265250523758568e-12,7.77911380954472e-13,4.402600218381183e-13,2.578403993467597e-13,1.536326887039888e-13,8.799934758853253e-14,5.3549588931915657e-14,3.251623919763977e-14,2.4160184421044158e-14,1.5350634502083434e-14,2.972136951838192e-09,1.4271140069620846e-09,7.850742579942344e-10,5.301174532437385e-10,3.458864017630159e-10,2.627314538647074e-10,1.891167807532656e-10,1.2486183879764547e-10,8.662369530841458e-11,5.958832682223494e-11,4.05764204725168e-11,2.734845666399426e-11,1.7418062930514973e-11,1.1351412401128996e-11,6.848280329607661e-12,4.100193336795777e-12,2.447139277773697e-12,1.4545256432121866e-12,7.189660018050087e-13
0.0,23,23.0,0.0,30.0,0.0,0.0,0.0,0.0,-13.0,0.0,2.0,0.0,0.0,0.0,7.501733918593601e-11,6.979240202572429e-11,6.078809391125154e-11,5.794583647612375e-11,4.747120958811982e-11,4.126592535314787e-11,3.3676880926616345e-11,2.9567189375381096e-11,2.225205474118564e-11,1.723079414432879e-11,1.3033018105523342e-11,9.869210577990078e-12,7.162402895724261e-12,4.837162113052158e-12,3.1866323633147796e-12,2.048041386745812e-12,1.344780018280571e-12,7.943704819074037e-13,4.680023037868043e-13,2.620412945533443e-13,1.448693085664794e-13,8.952825683934199e-14,5.6333044087498753e-14,3.5593647024671735e-14,2.2818756331175102e-14,1.3607095539293874e-14,2.8311531145267547e-09,1.4107745252875216e-09,8.105884402835569e-10,5.337958441997618e-10,3.4564053735399686e-10,2.5362745567803325e-10,1.7547165105258947e-10,1.2635880418335055e-10,8.885614134305724e-11,5.847351803503956e-11,4.11445284032231e-11,2.7236175494159113e-11,1.8078734096255483e-11,1.1104998498806478e-11,6.959860979034344e-12,4.0550546407185125e-12,2.741807241640613e-12,1.4136470389742116e-12,7.50195690324649e-13
0.0,24,24.0,0.0,30.0,0.0,0.0,0.0,0.0,-13.0,0.0,2.0,0.0,0.0,0.0,7.460886769455788e-11,6.88555520731787e-11,5.980029768235384e-11,5.5114071232356173e-11,4.841091512888888e-11,4.109502934999717e-11,3.486803239398027e-11,2.8797044167534017e-11,2.318385192384182e-11,1.756362918127377e-11,1.3478490041751848e-11,9.920299195201932e-12,7.198890738239382e-12,5.305172439677119e-12,3.410625027094865e-12,2.2415869588816828e-12,1.3528163514473607e-12,8.103619489347876e-13,4.592477823722575e-13,2.6010042596184204e-13,1.5982373639105565e-13,8.708158098938665e-14,5.431602464881052e-14,3.138636876504797e-14,1.9472690121655475e-14,1.2928348886554756e-14,2.9475961618589154e-09,1.4701016710409033e-09,8.453548577403118e-10,5.492159209338887e-10,3.723333934062802e-10,2.699523616211017e-10,1.9134678650767092e-10,1.3094711969481842e-10,9.264018614215592e-11,6.026656680826687e-11,4.356467620063758e-11,2.7013338576619786e-11,1.7476963324824306e-11,1.14669585196182e-11,7.381986625644296e-12,4.416710790481506e-12,2.597600186684583e-12,1.4019920722931229e-12,8.458587218897429e-13
0.0,25,25.0,0.0,30.0,0.0,0.0,0.0,0.0,-13.0,0.0,2.0,0.0,0.0,0.0,7.94418114831988e-11,6.546443514437426e-11,6.000183178128972e-11,5.731552493746244e-11,4.557170985631292e-11,4.064639492878397e-11,3.4368369018903315e-11,2.757866694068664e-11,2.2877467406291466e-11,1.7786900130954147e-11,1.3547320397021194e-11,9.80098057797057e-12,7.269621248267827e-12,5.237903694519218e-12,3.4353014494187628e-12,2.3381388299327673e-12,1.4070339875188042e-12,8.697996470881138e-13,4.846167743733179e-13,2.802837188859949e-13,1.4183711561540208e-13,9.624832853567362e-14,4.9459699070475365e-14,3.2407080006410107e-14,2.1734491912076812e-14,1.2758995476111255e-14,2.756982107229832e-09,1.3846841032719575e-09,8.589060860004536e-10,5.535275795049842e-10,3.7579617873855187e-10,2.857054303329249e-10,1.9606727840859253e-10,1.3344821362490948e-10,8.955043397327868e-11,6.241341612005685e-11,4.200359791080987e-11,2.8288795897331958e-11,1.7794937038022175e-11,1.1850948664582221e-11,6.7252365042958895e-12,4.4430232533201374e-12,2.5583111984696215e-12,1.46664758291668e-12,8.102042521529665e-13
0.0,26,26.0,0.0,30.0,0.0,0.0,0.0,0.0,-13.0,0.0,2.0,0.0,0.0,0.0,7.70671817769341e-11,7.66961540542765e-11,6.396343720619125e-11,5.869676532583406e-11,5.0001901102850055e-11,4.0318157631087715e-11,3.589075591994676e-11,2.822171332526645e-11,2.362439466800655e-11,1.849756590812552e-11,1.3437995715483269e-11,1.012364119812691e-11,7.51091866056331e-12,5.166338535435066e-12,3.517862548561794e-12,2.252626653262026e-12,1.4378907281159416e-12,8.985644583992286e-13,5.087847881091039e-13,2.8253711841648847e-13,1.5430374072759655e-13,8.765793193704234e-14,5.211283486726062e-14,3.3662319333366274e-14,2.0028661432951514e-14,1.4041553481114404e-14,2.8858314283855016e-09,1.4553545169257206e-09,8.492206084365959e-10,5.326740179373519e-10,3.763342882637504e-10,2.743000959068031e-10,1.9745873796565395e-10,1.3722180479044537e-10,9.235686757968411e-11,6.676387706329035e-11,4.640561037305201e-11,2.933430015985356e-11,1.782850591194418e-11,1.2102042124076208e-11,7.279390690437106e-12,4.415376830091795e-12,2.693929946227234e-12,1.4480080566325786e-12,8.403492220353339e-13
0.0,27,27.0,0.0,30.0,0.0,0.0,0.0,0.0,-13.0,0.0,2.0,0.0,0.0,0.0,8.060561784606536e-11,7.189775321398675e-11,6.835458959851261e-11,5.7928517919265173e-11,5.280332082911765e-11,4.377962857839113e-11,3.621436182604951e-11,2.934505073112352e-11,2.376677482809543e-11,1.7667555423467065e-11,1.3971152437350847e-11,1.0175545480436173e-11,7.743535201926852e-12,5.15055476451178e-12,3.6123265144875545e-12,2.3843980109555794e-12,1.5803047122230984e-12,9.264096199786256e-13,5.076007761028483e-13,2.889507785381157e-13,1.6916853968526279e-13,9.229879274551311e-14,5.1813005577212097e-14,3.0753413928131034e-14,1.9333556352654258e-14,1.2887289032544783e-14,2.861513845777914e-09,1.3992955805381373e-09,9.002298909972988e-10,5.775645849986431e-10,4.150259896834437e-10,2.7501148101396977e-10,1.9512197371022205e-10,1.3496483376785213e-10,9.368362691535185e-11,6.793341215581151e-11,4.513892259084283e-11,2.8897404768748683e-11,1.89490236257392e-11,1.1286679429572195e-11,7.43735386331931e-12,4.314496083565008e-12,2.7395766494535725e-12,1.536574916381111e-12,8.299358978259664e-13
0.0,28,28.0,0.0,30.0,0.0,0.0,0.0,0.0,-13.0,0.0,2.0,0.0,0.0,0.0,8.258912430979145e-11,7.417971370280173e-11,7.170186563914758e-11,5.839960551648433e-11,5.1118132480500915e-11,4.433962533431934e-11,3.48005350057234e-11,2.920754973475339e-11,2.4529032046606647e-11,1.888012551163704e-11,1.4272271126405089e-11,1.0062367944120418e-11,7.284125232086035e-12,5.6062211937305205e-12,3.6951897863183806e-12,2.4640672750714486e-12,1.5024162953922832e-12,9.24518770255427e-13,5.105343492663491e-13,2.967055577272519e-13,1.6999799381273952e-13,8.955324875506204e-14,5.2749405161199506e-14,2.8989156193761794e-14,1.8504219249197936e-14,1.1247989898880485e-14,2.9204234455665013e-09,1.4409348974869912e-09,9.13692629513976e-10,6.04965370366212e-10,4.15294323242173e-10,2.7430469524385347e-10,2.0372753250528038e-10,1.3957129547649488e-10,1.0194634768509975e-10,6.774047125548073e-11,4.714922142486877e-11,2.990714633072692e-11,1.9595717642153617e-11,1.1952630038757721e-11,7.319458241542646e-12,4.543795188415014e-12,2.6928541098265524e-12,1.5492829304910247e-12,8.407294005620851e-13
0.0,29,29.0,0.0,30.0,0.0,0.0,0.0,0.0,-13.0,0.0,2.0,0.0,0.0,0.0,8.082978721387307e-11,6.890181808986099e-11,6.377475610258968e-11,6.1130219602406e-11,5.576248494945123e-11,4.4963397183121776e-11,3.6279557025962905e-11,3.106050833405693e-11,2.3231017958990214e-11,1.8574504081715356e-11,1.3848908548191065e-11,1.0663632545558137e-11,7.509697178970606e-12,5.235475615227705e-12,3.7237734382121245e-12,2.32492981108273e-12,1.5709275363572632e-12,9.56634987589184e-13,5.660198821922932e-13,2.9719724733434183e-13,1.681651652201814e-13,1.0030406502561894e-13,5.236420010816303e-14,3.0870035907844586e-14,1.9404692273236025e-14,1.3253854350929735e-14,2.7663924876151867e-09,1.4714827126599914e-09,8.295103014287943e-10,5.643593965390959e-10,4.0493898709619564e-10,2.961688442373731e-10,2.028013867806681e-10,1.423923677228149e-10,9.581780894965601e-11,6.864201820160141e-11,4.481405503205165e-11,3.126440495436475e-11,1.986221633948639e-11,1.313317571727003e-11,7.767217563019224e-12,4.597629991177135e-12,2.7199209351479686e-12,1.5148417452360246e-12,8.836121233477422e-13
0.0,30,30.0,0.0,30.0,0.0,0.0,0.0,0.0,-13.0,0.0,2.0,0.0,0.0,0.0,8.629017375241135e-11,7.539128226538805e-11,6.792106496989625e-11,6.081152448265844e-11,5.572279117334086e-11,4.5094022741845356e-11,3.898551201177242e-11,3.013438256812739e-11,2.485209461414122e-11,1.902095373404604e-11,1.430387307736031e-11,1.1091955098732877e-11,7.955031226862489e-12,5.17981916695979e-12,3.624157094707869e-12,2.5230314571630877e-12,1.5751570320182313e-12,9.821294963558187e-13,5.845618609562842e-13,3.3522834259159573e-13,1.8112180135710922e-13,9.492041336793054e-14,5.651002238695909e-14,3.012093027232735e-14,1.8519585959212267e-14,1.0791353079923854e-14,2.7962040092311697e-09,1.4978116369908405e-09,9.238722585175646e-10,5.931851839257635e-10,4.23187769701318e-10,3.11709881630951e-10,2.0248885877764515e-10,1.470847256686198e-10,9.549358440190131e-11,6.953683310471932e-11,4.553140692650594e-11,3.0980418780985795e-11,2.0402497327131123e-11,1.264087015078432e-11,7.758031740577686e-12,4.666988638269847e-12,2.4924215762858245e-12,1.5210283032926022e-12,8.13060487158813e-13
0.0,31,31.0,0.0,30.0,0.0,0.0,0.0,0.0,-13.0,0.0,2.0,0.0,0.0,0.0,8.786041437277755e-11,7.801910865508768e-11,7.139606056806578e-11,6.108854052614953e-11,5.437809207483481e-11,4.496443024930279e-11,3.715555969134314e-11,3.294710645827416e-11,2.5551650783716182e-11,2.05507683645912e-11,1.4913864018787657e-11,1.0450892888070461e-11,7.836537249425877e-12,5.705580152491775e-12,3.839702451964205e-12,2.5489762064112654e-12,1.548242401925954e-12,9.88293003478921e-13,5.958148584572213e-13,3.464195667045678e-13,1.8675277680076921e-13,9.971129304077683e-14,5.708905913469371e-14,3.138237701422399e-14,1.93333880159481e-14,9.238551074885154e-15,2.7924121375319667e-09,1.4827195654299594e-09,9.196801481002664e-10,6.590799637322211e-10,4.3753053325272317e-10,3.0437412093080324e-10,2.1683874988145878e-10,1.4966129630797377e-10,1.0714935529032548e-10,7.256816206097661e-11,4.8019616832319696e-11,3.203429472500591e-11,1.9780453571980212e-11,1.2315082135810612e-11,7.743733558369125e-12,4.717502865140816e-12,2.7729310660331604e-12,1.5898548266259912e-12,8.853360806424891e-13
0.0,32,32.0,0.0,30.0,0.0,0.0,0.0,0.0,-13.0,0.0,2.0,0.0,0.0,0.0,9.109542019030789e-11,8.02959712560224e-11,7.470638691807601e-11,6.740571717941929e-11,5.585394723033708e-11,4.7638441410615256e-11,4.013780573913983e-11,3.1571188413513645e-11,2.5252918102941727e-11,1.921505238754276e-11,1.4929281911171187e-11,1.1356340525833578e-11,8.016977057857146e-12,5.589361103580797e-12,3.82193899465402e-12,2.6336527029239406e-12,1.568654160948204e-12,1.011094977125992e-12,6.077324074520735e-13,3.203949941993315e-13,1.8147465446103287e-13,1.0952409176477919e-13,5.6723210380440396e-14,3.1353094998252274e-14,1.8107818872810466e-14,1.0227132842666302e-14,2.8534957005971462e-09,1.4690459504482512e-09,9.038123415691291e-10,6.092276855976423e-10,4.559909912920698e-10,2.883998560103582e-10,2.153839008602688e-10,1.568915582184544e-10,1.132439537102454e-10,7.695624009930978e-11,4.981391866037053e-11,3.1360267473319585e-11,2.0217324095449743e-11,1.273048757559481e-11,7.81919382820569e-12,4.5921279291434165e-12,2.794763208504613e-12,1.5808795584766127e-12,8.643034885259728e-13
0.0,33,33.0,0.0,30.0,0.0,0.0,0.0,0.0,-13.0,0.0,2.0,0.0,0.0,0.0,9.235075735835368e-11,7.834627506568855e-11,7.316676532163901e-11,6.455889323387818e-11,5.5930144358228006e-11,4.656011325850211e-11,4.1467969182426836e-11,3.182289221367318e-11,2.562333176462423e-11,2.0841561128482215e-11,1.536738115236013e-11,1.126736743468053e-11,7.413160042182278e-12,5.51654650930218e-12,4.06544970898661e-12,2.516093382158152e-12,1.6007651249201565e-12,1.0429685722427975e-12,6.227795947756401e-13,3.5071525774772377e-13,1.9078404427700865e-13,1.1024850024211325e-13,5.894661809890885e-14,3.148350950640919e-14,1.68797273955889e-14,8.933857283662797e-15,2.824648314223688e-09,1.5736075333237156e-09,9.236865311211121e-10,6.5183249900331e-10,4.6317966665864396e-10,3.2450774273916555e-10,2.210814644702986e-10,1.5097740347220917e-10,1.0819633081688603e-10,7.417553275852125e-11,4.8531536375200125e-11,3.209274257200002e-11,2.140338427479982e-11,1.3171625700639709e-11,7.960759320094252e-12,4.605508762352766e-12,2.7296966987127633e-12,1.5178618768482172e-12,9.08116125526549e-13
0.0,34,34.0,0.0,30.0,0.0,0.0,0.0,0.0,-13.0,0.0,2.0,0.0,0.0,0.0,9.63599256981834e-11,8.317778888481882e-11,7.634218267012146e-11,6.71442614066994e-11,5.928598174801557e-11,4.842383925713202e-11,4.170589257366316e-11,3.228158530788257e-11,2.6053173194669493e-11,2.0584522124741093e-11,1.5817683656773884e-11,1.1797277025733596e-11,8.156421221283656e-12,5.743742735663099e-12,3.7692166430894695e-12,2.5391514254473162e-12,1.7211188507835713e-12,1.0213147734051555e-12,6.403729874734299e-13,3.469820010669908e-13,1.918207782163676e-13,1.1707832590496145e-13,5.929337538581852e-14,3.1019971679561906e-14,1.587504516392213e-14,1.0124526184488522e-14,2.978590292117819e-09,1.4544365717731243e-09,9.311291191998003e-10,6.511739710305054e-10,4.79593160769526e-10,3.305841387512243e-10,2.2378157277073128e-10,1.519102635832839e-10,1.1113573393261585e-10,7.696702453705952e-11,5.0186232756634856e-11,3.265305054170692e-11,2.1200084748419058e-11,1.2963640202321758e-11,7.984266656477406e-12,4.797081550959324e-12,2.8793216304562344e-12,1.5947784007431851e-12,8.725771040403019e-13
0.0,35,35.0,0.0,30.0,0.0,0.0,0.0,0.0,-13.0,0.0,2.0,0.0,0.0,0.0,9.166393633364724e-11,8.618043074347952e-11,7.86359187775633e-11,6.820087915184872e-11,5.32178234095515e-11,5.094575941536628e-11,4.162253178968852e-11,3.3167037936228294e-11,2.668901303777341e-11,2.062547370710229e-11,1.621255196365019e-11,1.1732574907822611e-11,8.13412397866993e-12,5.853073357580559e-12,3.966386696234163e-12,2.5264279018298646e-12,1.7122811786865605e-12,1.073052070358329e-12,6.432520420762985e-13,3.782747706999431e-13,1.9747693356639269e-13,1.1231139809355747e-13,6.050540270027861e-14,3.332410058713222e-14,1.9277779981987633e-14,1.1194540822901415e-14,2.655351730846143e-09,1.4677937584494886e-09,1.0042115397783185e-09,6.658595984289614e-10,4.853807659088818e-10,3.1772247609740437e-10,2.2780662789505188e-10,1.6259409681443768e-10,1.1587921932526468e-10,7.879987228823669e-11,5.1466797557047035e-11,3.256909656148977e-11,2.1567715364029546e-11,1.2979995691524115e-11,8.54464444579094e-12,4.643946293365382e-12,2.787805354417274e-12,1.6381844421553928e-12,9.128497729177006e-13
0.0,36,36.0,0.0,30.0,0.0,0.0,0.0,0.0,-13.0,0.0,2.0,0.0,0.0,0.0,1.0112129614550794e-10,8.361616266538929e-11,7.972616841956302e-11,7.275601297393482e-11,5.977976039094372e-11,5.3270452452436275e-11,4.2565134046643885e-11,3.405322026450129e-11,2.666329194243291e-11,2.074627724594778e-11,1.591164653382506e-11,1.1391660762202066e-11,8.512709826654529e-12,5.799567110163789e-12,4.02407725398876e-12,2.661847777978231e-12,1.7418482086321865e-12,1.1232689775934898e-12,6.483399968913988e-13,3.883579475529433e-13,2.0332437843719372e-13,1.1178837813310837e-13,5.896615276213658e-14,3.215129966260755e-14,2.006417737105088e-14,9.346473628413659e-15,2.5705448657446815e-09,1.491757090157454e-09,9.744628267731072e-10,6.797779399004676e-10,4.874613900576482e-10,3.3466978798154245e-10,2.401598850402698e-10,1.6610063940527964e-10,1.1300497498278366e-10,7.700479623449775e-11,5.224172834201331e-11,3.485031262311745e-11,2.0616731284402478e-11,1.3772390664591673e-11,8.794402518180045e-12,5.207700114341493e-12,2.8739129406426957e-12,1.7279288884685653e-12,9.044032342557621e-13
0.0,37,37.0,0.0,30.0,0.0,0.0,0.0,0.0,-13.0,0.0,2.0,0.0,0.0,0.0,1.0051105023249166e-10,9.180602709789745e-11,7.808900864707364e-11,6.459434963001528e-11,6.248191389210753e-11,4.851367152204152e-11,4.462585623068837e-11,3.405116842274325e-11,2.8880966368984346e-11,2.1120563313535175e-11,1.593603159878537e-11,1.1635412940396142e-11,8.309638144903367e-12,5.6612129448866566e-12,4.0101222224070016e-12,2.5461783199334644e-12,1.7048139897105254e-12,1.1027683902110306e-12,6.908070769109829e-13,3.8728533497135627e-13,1.9780485190283272e-13,1.129721993590832e-13,6.445322247192276e-14,3.301604139748837e-14,1.829951340425674e-14,8.842057927212418e-15,2.902131226388972e-09,1.5661273655034928e-09,1.0961202492997182e-09,7.05962255006777e-10,5.040564308409201e-10,3.3839632692032673e-10,2.3501168503800244e-10,1.7719158355009695e-10,1.2454136003584636e-10,7.716934062355713e-11,5.599194015014305e-11,3.5547406048403906e-11,2.2695198801743878e-11,1.3501453800449398e-11,8.179231041133774e-12,5.089153409228768e-12,2.886541929112908e-12,1.6689355090310313e-12,9.108028575395178e-13
0.0,38,38.0,0.0,30.0,0.0,0.0,0.0,0.0,-13.0,0.0,2.0,0.0,0.0,0.0,1.0007893433356557e-10,9.462305003029957e-11,7.825254010229696e-11,6.894644113313314e-11,6.211442778950119e-11,5.303991713923488e-11,4.14127714296867e-11,3.571763644371098e-11,2.8997733567111487e-11,2.2948706311534286e-11,1.621308532016708e-11,1.2217628989265353e-11,8.730149137875737e-12,5.762596359293222e-12,4.295739356060486e-12,2.6486584947536386e-12,1.7956468599301523e-12,1.1285738234090785e-12,6.483508935263155e-13,4.09850133566076e-13,2.2604798972110718e-13,1.1574886377877211e-13,6.158097594318629e-14,3.5491765452299774e-14,1.72792635107427e-14,8.483706864295913e-15,2.9176286794798745e-09,1.5821564443438944e-09,1.0469336008606115e-09,7.297690805683153e-10,4.935217488950982e-10,3.7642964644886804e-10,2.6074133942432644e-10,1.8622309956485508e-10,1.2633010278100332e-10,8.519645196145393e-11,5.307547305538183e-11,3.6225946681711654e-11,2.35871323312309e-11,1.3980261796114499e-11,8.823222348112008e-12,5.25333292518846e-12,2.83027068561389e-12,1.6295970912362603e-12,9.035863308928075e-13
0.0,39,39.0,0.0,30.0,0.0,0.0,0.0,0.0,-13.0,0.0,2.0,0.0,0.0,0.0,1.0253175591127564e-10,9.233813460766343e-11,8.04797838785813e-11,7.125453067255626e-11,6.215389218493387e-11,5.449785305899327e-11,4.319566421476376e-11,3.633876860281299e-11,2.954565876146717e-11,2.223177705264716e-11,1.700148444768687e-11,1.1964821273580518e-11,8.946150104984402e-12,5.805276594842046e-12,4.457013596249592e-12,2.6964715084117796e-12,1.856869401055211e-12,1.1052453962708708e-12,7.135485558732536e-13,4.1819748479072565e-13,2.1052648032452717e-13,1.261473582866594e-13,6.507440939723014e-14,3.327018643508425e-14,1.9204370557381655e-14,1.0845879501206842e-14,2.6690361133764586e-09,1.6571403714580714e-09,1.0616403816853657e-09,7.323989540943682e-10,5.395043844573861e-10,3.733494359325877e-10,2.493337997810454e-10,1.9023030342148784e-10,1.2429227858124387e-10,8.072533783391064e-11,5.7794360159168825e-11,3.665051756155328e-11,2.3448272791164614e-11,1.4151301593075414e-11,8.390042055125571e-12,5.480808151707189e-12,3.0919281735804836e-12,1.6527131561722165e-12,9.40056439673417e-13
0.0,40,40.0,0.0,30.0,0.0,0.0,0.0,0.0,-13.0,0.0,2.0,0.0,0.0,0.0,1.0595069478470509e-10,9.660680594913763e-11,8.949218151636149e-11,7.530036686863316e-11,6.323618735647957e-11,5.471522240248551e-11,4.3894576509998964e-11,3.803839715848181e-11,2.843553641657244e-11,2.161730740696823e-11,1.7127800202859247e-11,1.2239409503813587e-11,8.679989380533839e-12,6.106570249070352e-12,4.321917229245024e-12,2.9213524744079936e-12,1.8788372819323694e-12,1.1020498875739368e-12,7.090175629923726e-13,4.078930282755489e-13,2.2473173348532495e-13,1.2616430252023171e-13,6.335130248218779e-14,3.6990772044488134e-14,1.9932477037648073e-14,1.0313339271957177e-14,2.734470022322859e-09,1.625786113482944e-09,1.0735722933184577e-09,7.837360927292619e-10,5.50768050206272e-10,3.743364833775451e-10,2.609916459759176e-10,1.8394236702803932e-10,1.2744401713787926e-10,8.720081139436654e-11,5.574850570505333e-11,3.7207128343867585e-11,2.3779902339204047e-11,1.4551298512104182e-11,8.785622212948898e-12,4.969032004728828e-12,3.103708802758359e-12,1.5661501666388013e-12,9.208711815494797e-13
0.0,41,41.0,0.0,30.0,0.0,0.0,0.0,0.0,-13.0,0.0,2.0,0.0,0.0,0.0,1.0757122962611874e-10,9.899482170283221e-11,8.749391926837739e-11,7.600792448301062e-11,6.733567321172715e-11,5.4376888901814635e-11,4.461008454940099e-11,3.6626978879172346e-11,2.9184231525508305e-11,2.2558191379601426e-11,1.701701571668062e-11,1.3114517856757441e-11,9.134076515499228e-12,6.020080557583994e-12,4.15252171126264e-12,2.9187347233440805e-12,1.920476491125828e-12,1.1573273563233672e-12,7.252640077749271e-13,4.051297120595953e-13,2.366358518852812e-13,1.2954616846160492e-13,7.369701535464779e-14,3.6943196363911845e-14,1.9324729308739014e-14,1.1791306094104135e-14,2.7417329481339987e-09,1.6750761304677066e-09,1.0871348329669518e-09,7.866085772731623e-10,5.518384529448035e-10,3.888035269176371e-10,2.6402555312524526e-10,1.7915695883734438e-10,1.3215197102876175e-10,8.707309055109939e-11,5.797862779449134e-11,3.7443404997919515e-11,2.4256948317581974e-11,1.4989375944631438e-11,8.833097051688144e-12,5.2258839372020754e-12,2.96353715402322e-12,1.7288850217341497e-12,9.829625728999976e-13
0.0,42,42.0,0.0,30.0,0.0,0.0,0.0,0.0,-13.0,0.0,2.0,0.0,0.0,0.0,1.124298036726827e-10,1.0361283521071062e-10,9.164880153426625e-11,7.81781891163977e-11,6.897862133097382e-11,5.6669826599363284e-11,4.691614125661543e-11,3.872211803249479e-11,3.011873248936081e-11,2.223717570179007e-11,1.7809444693296474e-11,1.2244479691578068e-11,8.87598598003144e-12,6.360999723107185e-12,4.3226771256153e-12,2.7033863380079416e-12,1.843787595284012e-12,1.1749560354723638e-12,7.118294393806026e-13,3.7872823720046675e-13,2.304532188442388e-13,1.3123507767159314e-13,6.928549285237902e-14,3.6633308180014286e-14,2.1828165309087825e-14,1.0455618612215885e-14,2.9071373336393542e-09,1.6743675426362197e-09,1.1433918041241518e-09,7.755063866941991e-10,5.493110016010203e-10,4.096897120801819e-10,2.671238368710503e-10,1.8639380573004457e-10,1.3707248294342572e-10,8.455057568377992e-11,5.946660160839023e-11,3.794898784015621e-11,2.4801736643565747e-11,1.5687059294397523e-11,9.233792466034013e-12,5.130510493959559e-12,3.0565343637620173e-12,1.7669723829979837e-12,9.49471564984728e-13
0.0,43,43.0,0.0,30.0,0.0,0.0,0.0,0.0,-13.0,0.0,2.0,0.0,0.0,0.0,1.0980155048724695e-10,1.0441066033811906e-10,8.962051471411701e-11,7.756736138233731e-11,6.936380876647309e-11,5.925709451330646e-11,4.8210959321271016e-11,3.772985659090183e-11,3.065883096293414e-11,2.265693965195984e-11,1.771014882667879e-11,1.2745649876668499e-11,9.058335570549828e-12,6.225400079461422e-12,4.438756883095968e-12,2.82083333128719e-12,1.8868183799841753e-12,1.1759229594463479e-12,7.224973647022202e-13,4.4224658671344757e-13,2.555297276820435e-13,1.343833168954095e-13,7.488801117409264e-14,3.715329899792372e-14,2.1043670443116594e-14,8.411932615675516e-15,2.7020849522099182e-09,1.6488004923227565e-09,1.0875351536387481e-09,8.128115310549333e-10,5.901731272568946e-10,4.043133967635242e-10,2.949514991021843e-10,2.1331154914454417e-10,1.357380604938767e-10,8.789409538291904e-11,5.897647697021774e-11,3.8516946019941665e-11,2.619468787506573e-11,1.4929949223228993e-11,9.693627461459899e-12,5.405950226061675e-12,3.2559429136840247e-12,1.832362696393468e-12,9.599652996818904e-13
0.0,44,44.0,0.0,30.0,0.0,0.0,0.0,0.0,-13.0,0.0,2.0,0.0,0.0,0.0,1.1400680522524931e-10,1.0427292749188844e-10,9.24441677302639e-11,8.236150601379734e-11,6.634119731586349e-11,5.889279569571294e-11,4.9466948702024076e-11,4.055211586659278e-11,3.1419200996938305e-11,2.4543101929908767e-11,1.6430292120497008e-11,1.3192884703467108e-11,9.627310493080521e-12,6.5635341635309574e-12,4.478872845402208e-12,3.0601983330724904e-12,1.7313300435092314e-12,1.2342356050653282e-12,7.223939491662853e-13,4.1435179555473076e-13,2.4676877208178714e-13,1.4047158248052528e-13,7.682248926268358e-14,4.1409742197558664e-14,1.893693060716608e-14,9.650209423461334e-15,2.6795723460714447e-09,1.718864833434195e-09,1.1698840493841468e-09,8.309801658579366e-10,6.135798968263909e-10,4.231008479125313e-10,2.7353076548852737e-10,1.9841386468820377e-10,1.3776376181643656e-10,9.375593078512048e-11,6.094120721649766e-11,4.109111134649979e-11,2.7163753018806182e-11,1.628251825439741e-11,9.211342161568878e-12,5.849668595221278e-12,3.256994638423688e-12,1.7408423198409539e-12,9.940681077930002e-13
0.0,45,45.0,0.0,30.0,0.0,0.0,0.0,0.0,-13.0,0.0,2.0,0.0,0.0,0.0,1.2244407958881428e-10,9.884279877144413e-11,9.362779313299053e-11,8.353009934239859e-11,7.195568459406013e-11,6.132121657033374e-11,5.0080082075742556e-11,3.8945748259580953e-11,3.1114736064655096e-11,2.3808983500647086e-11,1.6686834744696382e-11,1.4204705744442258e-11,9.51587277376602e-12,6.980733070196353e-12,4.39564295628802e-12,3.079825893275974e-12,1.952475345977334e-12,1.2260032251222124e-12,7.851643906316363e-13,4.4437796696153743e-13,2.491624309500676e-13,1.428883899656797e-13,8.07137654723981e-14,4.007582722137541e-14,1.9880217845282747e-14,9.248111905503511e-15,2.8826668905393713e-09,1.8082257312277948e-09,1.1450304014845318e-09,8.557539407673195e-10,6.134531811541143e-10,4.341379988693692e-10,2.9531119987421324e-10,2.1029178844904053e-10,1.3993476461302804e-10,9.935321385532051e-11,6.409883539215084e-11,4.1635736938079953e-11,2.5669841762066088e-11,1.564698385558254e-11,9.812767091825705e-12,5.800257013697515e-12,3.339917385045881e-12,1.927016208011979e-12,9.782798117489572e-13
0.0,46,46.0,0.0,30.0,0.0,0.0,0.0,0.0,-13.0,0.0,2.0,0.0,0.0,0.0,1.2189721666224352e-10,1.088756512564034e-10,8.889831967810623e-11,8.317107714295509e-11,7.285610227238337e-11,6.019638371864727e-11,5.043716580098371e-11,4.227605005698905e-11,3.3943016527845446e-11,2.4984970773644198e-11,1.8947111382317192e-11,1.3533881434702605e-11,9.245122812284042e-12,6.688729230347068e-12,4.389649215222301e-12,3.04305368511967e-12,1.868169201383364e-12,1.16314155832753e-12,7.548473457566157e-13,4.601059994773184e-13,2.6432943344242153e-13,1.4258460203696479e-13,7.657904244554775e-14,3.943214163653573e-14,2.1604036068085357e-14,1.137359545506741e-14,2.9094637721937488e-09,1.836251308120105e-09,1.2546503054055373e-09,9.08050709785132e-10,6.479223878801137e-10,4.3978464616485297e-10,2.991036231464669e-10,2.1232044745576303e-10,1.4660463361124648e-10,1.0112141033663245e-10,7.084507419195704e-11,4.255121785909172e-11,2.569999757588191e-11,1.581163868613063e-11,9.95657909870966e-12,5.503302161029772e-12,3.1807410980860986e-12,1.7287808557755676e-12,9.993340624853877e-13
0.0,47,47.0,0.0,30.0,0.0,0.0,0.0,0.0,-13.0,0.0,2.0,0.0,0.0,0.0,1.2502382270380985e-10,1.1646960379059922e-10,9.882497870656654e-11,8.780570247476651e-11,6.852004280916193e-11,5.898628927238581e-11,5.343225371782381e-11,4.1616370242839573e-11,3.196892699721029e-11,2.5235583968341208e-11,1.8899907022052967e-11,1.3729966595414039e-11,9.450287637858286e-12,6.724084885412805e-12,4.218033416491476e-12,3.113744179320123e-12,2.0229010672686567e-12,1.2549016152564933e-12,7.399183945767294e-13,4.4520064583434906e-13,2.576912857647372e-13,1.4363458678062488e-13,7.498329188819342e-14,4.2949363250302344e-14,2.1599330916332435e-14,1.0711666700188641e-14,3.1197397711829186e-09,1.7699331229372035e-09,1.2866202765790249e-09,9.127398218714103e-10,5.935971710595911e-10,4.373612979297491e-10,3.0873741843640463e-10,2.0897503125348595e-10,1.5057200273033879e-10,1.0135250194307425e-10,6.716388518543323e-11,4.1241485832568423e-11,2.7631656177077874e-11,1.6806986720597408e-11,9.880220292455552e-12,5.781582231917919e-12,3.4043290684484345e-12,1.8168534836951536e-12,9.896210570903365e-13
0.0,48,48.0,0.0,30.0,0.0,0.0,0.0,0.0,-13.0,0.0,2.0,0.0,0.0,0.0,1.2981734198830636e-10,1.0806431964042018e-10,1.0203399209134584e-10,8.474706713580677e-11,7.687955240135537e-11,6.045308777773727e-11,5.168751449462883e-11,4.233382482120685e-11,3.247116890542126e-11,2.5596520187339815e-11,1.9063501812281363e-11,1.3777332507876312e-11,9.994400441086718e-12,6.945574294060131e-12,4.502989405286905e-12,3.223363979509562e-12,1.9007857307123562e-12,1.190304569541327e-12,7.426504313653952e-13,4.426790968153156e-13,2.583644864796954e-13,1.463771969502263e-13,8.235106322933396e-14,4.30093470314299e-14,2.081977308778614e-14,1.0540547443080336e-14,2.94949510123614e-09,1.8540222065820007e-09,1.3025683385761114e-09,9.343105885622809e-10,6.617408643190371e-10,4.325212502213739e-10,3.0851827405982605e-10,2.1936973431012364e-10,1.5337546435223014e-10,9.796349371247174e-11,7.063104283897794e-11,4.517975924561131e-11,2.7396964603286834e-11,1.623430713621969e-11,1.0274273945221152e-11,5.791336528632953e-12,3.427593793388882e-12,1.7551431099333235e-12,1.0162259205295483e-12
0.0,49,49.0,0.0,30.0,0.0,0.0,0.0,0.0,-13.0,0.0,2.0,0.0,0.0,0.0,1.3077637895953768e-10,1.1121767818743395e-10,1.0370156899688238e-10,8.761569391176908e-11,7.340456398252495e-11,6.715018580957555e-11,5.355008563990605e-11,4.285426847663002e-11,3.4800515289625516e-11,2.585718679583344e-11,1.8894116675634074e-11,1.3528358910526809e-11,1.0166768101455945e-11,7.022189639421466e-12,4.439204419042726e-12,3.1051291910376447e-12,1.992089993020451e-12,1.2929859830718348e-12,7.954414357693159e-13,4.570429674713027e-13,2.516088201318066e-13,1.5544221618171768e-13,8.24698068568824e-14,4.342788966069124e-14,2.2108031158486344e-14,1.1686120041565887e-14,2.950850058299245e-09,2.110310499134776e-09,1.3100833177993102e-09,9.680878626732286e-10,7.11545840007461e-10,5.062542548924272e-10,3.5519067221016216e-10,2.302912336900721e-10,1.6341412591468275e-10,1.0700629170053127e-10,6.992469939914874e-11,4.3761848879938715e-11,2.722298209673687e-11,1.6984647118655026e-11,1.0024483020990097e-11,5.974150579254651e-12,3.375232752579897e-12,1.887029775100366e-12,1.1067143272880096e-12
0.0,50,50.0,0.0,30.0,0.0,0.0,0.0,0.0,-13.0,0.0,2.0,0.0,0.0,0.0,1.304223027368013e-10,1.2171145914303737e-10,1.0588760312513573e-10,9.282043699582245e-11,8.265273773478265e-11,6.609157248757406e-11,5.510335419525382e-11,4.364583765173515e-11,3.446328192586963e-11,2.437674577239949e-11,1.9662031719094136e-11,1.505133624845975e-11,1.0281690246939654e-11,6.872092777844477e-12,4.900886288304529e-12,3.0464923135294865e-12,2.0020610629749506e-12,1.3162077621546392e-12,7.688225061652755e-13,4.576816523483783e-13,2.690792478500891e-13,1.4990153736917766e-13,7.744357652671085e-14,4.6010833307648905e-14,2.1824363636525265e-14,1.2319856921746897e-14,3.049309310018282e-09,1.984730756478124e-09,1.3186392388879988e-09,9.381472520211673e-10,7.016232816817894e-10,4.911041367865391e-10,3.3678426064184516e-10,2.4054524413392574e-10,1.6095200509574213e-10,1.1365738128092098e-10,6.940257348958024e-11,4.555685741663311e-11,2.831767616947516e-11,1.7509985047313643e-11,9.960274142277924e-12,5.891408305320393e-12,3.3690961944778025e-12,1.905751211747398e-12,1.0437441565687062e-12
0.0,51,51.0,0.0,30.0,0.0,0.0,0.0,0.0,-13.0,0.0,2.0,0.0,0.0,0.0,1.388869967930816e-10,1.2303417780162263e-10,1.102926493540562e-10,9.027669959338436e-11,7.83988972097335e-11,6.629420131586932e-11,5.560651984255673e-11,4.333845856166047e-11,3.4977959068811937e-11,2.608929277385446e-11,1.9461141618143945e-11,1.4827856510493153e-11,1.007606194860386e-11,6.968369777416567e-12,4.279679712429143e-12,3.0567403866950252e-12,2.09003829286533e-12,1.2404732510482246e-12,7.929914818904313e-13,4.807375744940251e-13,2.8152831427028066e-13,1.5479310341528962e-13,8.129088116853171e-14,4.400964012956204e-14,2.3649762941685383e-14,1.2268603123542522e-14,3.171866228743024e-09,1.973889752939265e-09,1.477246877495774e-09,1.0063273045337374e-09,6.861959034531322e-10,4.874343725406691e-10,3.380167781879278e-10,2.46634169873022e-10,1.7096933475809422e-10,1.1378854180804452e-10,6.818253804149758e-11,4.6467426345968126e-11,2.9526231740211156e-11,1.749248277332137e-11,1.0227195721107874e-11,6.03898187683112e-12,3.456653603257116e-12,1.904130235656075e-12,1.0557507845264166e-12
0.0,52,52.0,0.0,30.0,0.0,0.0,0.0,0.0,-13.0,0.0,2.0,0.0,0.0,0.0,1.3738747246851726e-10,1.2387447319536057e-10,1.1077826404449086e-10,9.352319887706066e-11,8.040069290733715e-11,6.74768312746105e-11,5.769961783394049e-11,4.6646129690215436e-11,3.432461926560182e-11,2.7124580696127558e-11,2.0025604340761564e-11,1.4324804892936685e-11,1.0310752599041336e-11,7.101029402442057e-12,4.782328892129019e-12,3.0833692145491085e-12,2.0609222425609848e-12,1.2403883121818262e-12,7.817214681136516e-13,4.5380658495735844e-13,2.780767381485932e-13,1.584978848397714e-13,9.210391584283528e-14,4.28557989339844e-14,2.4255105630268514e-14,1.2695335819980377e-14,3.320205688374314e-09,2.173839204440576e-09,1.4461545831032576e-09,1.0591181587860711e-09,6.867284387218957e-10,5.037019147888022e-10,3.8222178596253496e-10,2.571158296694976e-10,1.5921812555897587e-10,1.1567075585516806e-10,7.215364334219551e-11,4.7337226082998485e-11,2.9469203350927034e-11,1.7488415325341436e-11,1.1022476654298644e-11,6.370993469418277e-12,3.511756114069347e-12,1.9236191912468545e-12,1.106544817090511e-12
0.0,53,53.0,0.0,30.0,0.0,0.0,0.0,0.0,-13.0,0.0,2.0,0.0,0.0,0.0,1.3537974247908398e-10,1.3067997740452558e-10,1.1638689044208144e-10,9.56103330156558e-11,8.553046913286999e-11,7.046551570041165e-11,5.682579842832093e-11,4.7047921517970764e-11,3.586619846810707e-11,2.8320389558481948e-11,1.9901028560295256e-11,1.491602297322351e-11,1.131717879909308e-11,7.078279743567293e-12,5.027701490237055e-12,3.101875437769826e-12,2.0215662784309744e-12,1.3363418173593175e-12,7.984914602641361e-13,4.762643414974929e-13,2.813540840092737e-13,1.5378853089472899e-13,8.996288763143424e-14,4.6725696731400396e-14,2.3067116338267436e-14,1.1510592443866051e-14,3.3191040330919852e-09,2.1504592480411542e-09,1.5799272723675938e-09,1.0088340605381162e-09,7.74488480683696e-10,5.228839309525338e-10,3.7705633848517574e-10,2.5914349477525374e-10,1.7381106798927833e-10,1.1296732712111426e-10,7.755442434948108e-11,4.8615745778097455e-11,2.855248382810434e-11,1.891352864254237e-11,1.1343364140963782e-11,6.406094775352421e-12,3.6350928013594213e-12,1.9603252408677427e-12,1.0596597143733191e-12
0.0,54,54.0,0.0,30.0,0.0,0.0,0.0,0.0,-13.0,0.0,2.0,0.0,0.0,0.0,1.453474327426283e-10,1.3083981827301713e-10,1.1526872445910138e-10,9.631840631976649e-11,8.928273669529848e-11,7.64161099613658e-11,5.685514961768015e-11,4.632975619940134e-11,3.505080404108993e-11,2.7282549598331273e-11,2.1527397743594288e-11,1.4967530008471706e-11,1.0134131914863103e-11,7.188723365457843e-12,4.987099670202907e-12,3.3498142247784128e-12,2.0745582688925307e-12,1.2742824392991832e-12,8.133414786696535e-13,4.617635700844129e-13,2.8864684149608357e-13,1.6133607696822132e-13,8.238789265386149e-14,4.832031535314872e-14,2.8897842631359176e-14,1.2885953737767166e-14,3.305449275323896e-09,2.2331858699381763e-09,1.4858752392391588e-09,1.1130347227503178e-09,7.326173664896744e-10,5.296798347353465e-10,3.816636720735656e-10,2.6720565233594364e-10,1.6825297257629288e-10,1.219223584603262e-10,7.476062388478859e-11,5.1232737892591926e-11,3.0176531705815116e-11,1.941332640191636e-11,1.1483518492572244e-11,6.4251575901766925e-12,3.4528556919229366e-12,2.0916848273155344e-12,1.0161113859495434e-12
