Line_number,Fiducial,Easting,Northing,Height,Elevation,tx_pitch,tx_roll,tx_yaw,txrx_dx,txrx_dy,txrx_dz,rx_pitch,rx_roll,rx_yaw,S0Z_time_3.834e-04,S0Z_time_3.924e-04,S0Z_time_4.039e-04,S0Z_time_4.184e-04,S0Z_time_4.364e-04,S0Z_time_4.589e-04,S0Z_time_4.869e-04,S0Z_time_5.224e-04,S0Z_time_5.679e-04,S0Z_time_6.249e-04,S0Z_time_6.969e-04,S0Z_time_7.879e-04,S0Z_time_9.019e-04,S0Z_time_1.046e-03,S0Z_time_1.227e-03,S0Z_time_1.456e-03,S0Z_time_1.744e-03,S0Z_time_2.109e-03,S0Z_time_2.567e-03,S0Z_time_3.145e-03,S0Z_time_3.864e-03,S0Z_time_4.745e-03,S0Z_time_5.821e-03,S0Z_time_7.140e-03,S0Z_time_8.754e-03,S0Z_time_1.073e-02,S1Z_time_2.057e-05,S1Z_time_2.607e-05,S1Z_time_3.307e-05,S1Z_time_4.206e-05,S1Z_time_5.356e-05,S1Z_time_6.807e-05,S1Z_time_8.607e-05,S1Z_time_1.086e-04,S1Z_time_1.366e-04,S1Z_time_1.721e-04,S1Z_time_2.176e-04,S1Z_time_2.746e-04,S1Z_time_3.466e-04,S1Z_time_4.376e-04,S1Z_time_5.516e-04,S1Z_time_6.956e-04,S1Z_time_8.771e-04,S1Z_time_1.106e-03,S1Z_time_1.394e-03
0.0,0,0.0,0.0,30.0,0.0,0.0,0.0,0.0,-13.0,0.0,2.0,0.0,0.0,0.0,5.897904721254266e-11,4.925056076510767e-11,4.015988057263069e-11,3.205312237565249e-11,2.4983799992402695e-11,1.9173703982972515e-11,1.4476380603164379e-11,1.068657459455471e-11,7.699519855553284e-12,5.443545610827989e-12,3.778887796005014e-12,2.56832567439077e-12,1.7164159067372414e-12,1.1251729954696484e-12,7.205377979473152e-13,4.5348947806042455e-13,2.7935614061457454e-13,1.6944170425010617e-13,9.964566641850978e-14,5.783917433861441e-14,3.274037205714624e-14,1.877376451852782e-14,1.0390165934972508e-14,5.834484746918988e-15,3.1410274278832158e-15,1.8824090799422285e-15,6.008084891523919e-09,3.445580898127813e-09,2.0535612122448006e-09,1.2225632473957368e-09,7.11892931256169e-10,4.070771217578168e-10,2.3141150968821586e-10,1.305907446555984e-10,7.349710723471794e-11,4.1148044507982125e-11,2.2768274706887043e-11,1.2636769958939915e-11,7.001398962171328e-12,3.836583311581008e-12,2.097591475112465e-12,1.1266642935028223e-12,5.965289359206477e-13,3.154197400163851e-13,1.5977295428885117e-13
0.0,1,1.0,0.0,30.0,0.0,0.0,0.0,0.0,-13.0,0.0,2.0,0.0,0.0,0.0,5.778380894781814e-11,4.804979478953492e-11,3.899137824051826e-11,3.0957705207546054e-11,2.3998368065971085e-11,1.832281935964163e-11,1.3771033347251993e-11,1.012927538484857e-11,7.280299578975096e-12,5.1404904368506255e-12,3.568482995513797e-12,2.4278336334105934e-12,1.6254408652742465e-12,1.0680920650539746e-12,6.857608921986444e-13,4.329781310697947e-13,2.674768728158649e-13,1.6280001659840496e-13,9.597586123735904e-14,5.5893576020685734e-14,3.1711161773619075e-14,1.8249608913281214e-14,1.0110277630137992e-14,5.696256891467223e-15,3.0631852750493098e-15,1.852347940935194e-15,6.019366961316189e-09,3.4611318282737507e-09,2.0686964677325597e-09,1.2334465412080332e-09,7.175042293253474e-10,4.086079183668566e-10,2.3064950991275686e-10,1.2892653848066e-10,7.176605007698617e-11,3.9735129562543565e-11,2.1766373015564243e-11,1.1989982720222715e-11,6.612324097319306e-12,3.6147195604863887e-12,1.97656606907284e-12,1.0626766053066948e-12,5.640115975934616e-13,2.9948411446863185e-13,1.5180957941072914e-13
0.0,2,2.0,0.0,30.0,0.0,0.0,0.0,0.0,-13.0,0.0,2.0,0.0,0.0,0.0,5.6738510906216074e-11,4.6997094432960416e-11,3.796306156166947e-11,2.998877301566511e-11,2.3121360397315906e-11,1.7560509434302688e-11,1.3134808767715701e-11,9.623187105892663e-12,6.897133258541713e-12,4.861892655441578e-12,3.3740588624349944e-12,2.2973920644114296e-12,1.540601079785695e-12,1.0146325010654964e-12,6.530567883744542e-13,4.136048397916542e-13,2.562147053910951e-13,1.5647546298154007e-13,9.246988068984226e-14,5.402665868047671e-14,3.072053698616891e-14,1.774294418693557e-14,9.839643051915055e-15,5.5617581356692824e-15,2.987715581585284e-15,1.8221869768730456e-15,6.030160064379459e-09,3.475199319450105e-09,2.0818430443231398e-09,1.2427034560304568e-09,7.22286002772258e-10,4.099791711179086e-10,2.3007417166588975e-10,1.27545971603819e-10,7.02870601147221e-11,3.850204687008684e-11,2.087697827258756e-11,1.1407905526893296e-11,6.25842539362552e-12,3.4113264066504276e-12,1.8648501525812944e-12,1.0033064198520284e-12,5.33688048907442e-13,2.8453432775879827e-13,1.443357905661226e-13
0.0,3,3.0,0.0,30.0,0.0,0.0,0.0,0.0,-13.0,0.0,2.0,0.0,0.0,0.0,5.580936313650054e-11,4.6061974918292686e-11,3.704867188135616e-11,2.9124889228277754e-11,2.2336213540386915e-11,1.6874568256483333e-11,1.2559064712960832e-11,9.162461372826427e-12,6.54621246318305e-12,4.605328352027287e-12,3.194109992836511e-12,2.176102764286194e-12,1.461374182709997e-12,9.64502931690401e-13,6.22268589458277e-13,3.9528905765254575e-13,2.4552897364747546e-13,1.5044868163182895e-13,8.911848703094068e-14,5.223438416664138e-14,2.9766731668690225e-14,1.7253033861956894e-14,9.57784920612077e-15,5.430889530668553e-15,2.9145448428044393e-15,1.792032260652934e-15,6.040833479161593e-09,3.4882922081773876e-09,2.0934569678218935e-09,1.25058095831986e-09,7.262723110287607e-10,4.1110933978060993e-10,2.2958000961742123e-10,1.263641690769329e-10,6.900519569162297e-11,3.7417972410754554e-11,2.0084300002320498e-11,1.088272870664604e-11,5.935920651818607e-12,3.2245434843512537e-12,1.761563830503277e-12,9.481433859432834e-13,5.053714439567433e-13,2.7049403633580347e-13,1.3731465595147313e-13
0.0,4,4.0,0.0,30.0,0.0,0.0,0.0,0.0,-13.0,0.0,2.0,0.0,0.0,0.0,5.49695840948498e-11,4.5219788682207265e-11,3.622654282478408e-11,2.834800649745959e-11,2.1628724091151385e-11,1.6254370449741238e-11,1.2036201686547492e-11,8.741927471578636e-12,6.224167745109229e-12,4.3686549821183165e-12,3.027307036844085e-12,2.063170221448414e-12,1.3872960254715647e-12,9.17442962699068e-13,5.932550707444575e-13,3.779579362474667e-13,2.35382511049399e-13,1.447019369105578e-13,8.59131122950184e-14,5.0513002272029337e-14,2.884807577094084e-14,1.6779186437310316e-14,9.32450868247767e-15,5.30355360465562e-15,2.8435997840714692e-15,1.7619958164043558e-15,6.051641719723389e-09,3.5007653099096033e-09,2.103877558023078e-09,1.2572872773816232e-09,7.295168580944955e-10,4.119548553410759e-10,2.2909319724141063e-10,1.253155918211259e-10,6.787533217407963e-11,3.6456477089598263e-11,1.9374449279621113e-11,1.040753649964688e-11,5.641460591778565e-12,3.0527327288398484e-12,1.6659327915537296e-12,8.968232541870392e-13,4.788959567238367e-13,2.5729510066606414e-13,1.3071213519498438e-13
0.0,5,5.0,0.0,30.0,0.0,0.0,0.0,0.0,-13.0,0.0,2.0,0.0,0.0,0.0,5.419798050304625e-11,4.445066880819891e-11,3.547887252310637e-11,2.7643003700623994e-11,2.0986766897503396e-11,1.56906955225004e-11,1.1559541780167444e-11,8.357003579356273e-12,5.928002810020781e-12,4.1499662065629444e-12,2.8724680899891584e-12,1.9578856109554605e-12,1.3179519507907024e-12,8.732187632153172e-13,5.658886230015579e-13,3.6154532508349146e-13,2.257412703966348e-13,1.39218929044353e-13,8.284579857829983e-14,4.8859021582706445e-14,2.7962990488328973e-14,1.6320751042136536e-14,9.079257663062926e-15,5.179654470419609e-15,2.77480757421805e-15,1.7321856089069293e-15,6.062766437793666e-09,3.512867920645314e-09,2.1133555605383216e-09,1.2629922840035856e-09,7.320789323986332e-10,4.1249611591617965e-10,2.2856305674732826e-10,1.2435025234858563e-10,6.686083075483583e-11,3.559511338205831e-11,1.8735269296196256e-11,9.976193054069493e-12,5.372060834935803e-12,2.8944413300824e-12,1.5772704699475833e-12,8.490211276528902e-13,4.541136653005671e-13,2.448763273693172e-13,1.2449690734816575e-13
0.0,6,6.0,0.0,30.0,0.0,0.0,0.0,0.0,-13.0,0.0,2.0,0.0,0.0,0.0,5.347778009428293e-11,4.3738623193079215e-11,3.4791071634013074e-11,2.6997254631854136e-11,2.0400028601376483e-11,1.517556668821222e-11,1.1123226052837443e-11,8.00362700711433e-12,5.655044636593237e-12,3.947557385999189e-12,2.7285362835497722e-12,1.8596139666233316e-12,1.2529696923006244e-12,8.316194435202467e-13,5.400535274109458e-13,3.4599093277607897e-13,2.16573993650617e-13,1.3398463208322243e-13,7.990914503855958e-14,4.7269183894496334e-14,2.7109983438885148e-14,1.5877113659796505e-14,8.841754130232106e-15,5.059097903718801e-15,2.7080960633704874e-15,1.7026987689121885e-15,6.0743415534615755e-09,3.5247757633134837e-09,2.1220750911632066e-09,1.2678317567746695e-09,7.340161122381037e-10,4.1272815405391267e-10,2.279555333967586e-10,1.2343040456483517e-10,6.593221254274296e-11,3.481497200997362e-11,1.8156177137533274e-11,9.583256525539012e-12,5.125052228724081e-12,2.7483730992327505e-12,1.4949640998531573e-12,8.044459283281869e-13,4.3089198331439555e-13,2.3318244163418036e-13,1.1864023323465738e-13
0.0,7,7.0,0.0,30.0,0.0,0.0,0.0,0.0,-13.0,0.0,2.0,0.0,0.0,0.0,5.2795695413854284e-11,4.307078147733093e-11,3.415119983357322e-11,2.640024045543477e-11,1.9859761430133448e-11,1.4702101828475476e-11,1.0722123679985802e-11,7.678196465688945e-12,5.402904312349732e-12,3.759898741961661e-12,2.594562093293589e-12,1.7677838210390207e-12,1.192013557154137e-12,7.9245405794156e-13,5.156445012007789e-13,3.312396213587059e-13,2.0785192232715232e-13,1.2898515535511926e-13,7.709626040290325e-14,4.574044184569857e-14,2.6287643828412598e-14,1.5447693831412194e-14,8.611676235130673e-15,4.941791404015803e-15,2.6433940484429533e-15,1.673617693039069e-15,6.086468736197221e-09,3.53661221124849e-09,2.1301701090651037e-09,1.2719126459163655e-09,7.353808147638139e-10,4.1265456078846144e-10,2.2724835328157576e-10,1.22527797567959e-10,6.506593274552267e-11,3.410023454614943e-11,1.7628009034452996e-11,9.223909092260754e-12,4.898043235586797e-12,2.613366231416724e-12,1.418463738889978e-12,7.628358159732144e-13,4.091115384763302e-13,2.221632515578579e-13,1.1311581764961398e-13
0.0,8,8.0,0.0,30.0,0.0,0.0,0.0,0.0,-13.0,0.0,2.0,0.0,0.0,0.0,5.214118333773884e-11,4.243678076640667e-11,3.354949024376574e-11,2.584321066721411e-11,1.9358560883476926e-11,1.4264376702450604e-11,1.0351749857986702e-11,7.377522315386731e-12,5.169445116076945e-12,3.5856140134878407e-12,2.4696892275666563e-12,1.681878779378342e-12,1.134779628636198e-12,7.555491050917137e-13,4.925654650225909e-13,3.1724081008645225e-13,1.995485427027544e-13,1.2420762448043988e-13,7.440072011038995e-14,4.426993937702711e-14,2.5494637686397875e-14,1.5031941765972243e-14,8.388720801773535e-15,4.827644244489283e-15,2.5806315518605068e-15,1.64500844986247e-15,6.099227146837935e-09,3.548462550824486e-09,2.1377365958147373e-09,1.2753181292228967e-09,7.362189617213368e-10,4.1228360121039897e-10,2.2642750191535725e-10,1.2162147160186056e-10,6.424330123163544e-11,3.3437744833597175e-11,1.714286892174136e-11,8.893896042994673e-12,4.688890145139637e-12,2.488375851125372e-12,1.347273561571276e-12,7.239543732170635e-13,3.8866441404796225e-13,2.1177296868677015e-13,1.0789965931361783e-13
0.0,9,9.0,0.0,30.0,0.0,0.0,0.0,0.0,-13.0,0.0,2.0,0.0,0.0,0.0,5.150586378492497e-11,4.182827032855544e-11,3.2977954333551574e-11,2.5318892119268946e-11,1.889016883204717e-11,1.385730093391279e-11,1.0008191203926973e-11,7.098782548210375e-12,4.952755610772418e-12,3.4234630620945597e-12,2.353143222788133e-12,1.6014306149779517e-12,1.080991785616358e-12,7.207464277442001e-13,4.707284927024058e-13,3.039479691588262e-13,1.9163936135919486e-13,1.1964007872683552e-13,7.181652746410063e-14,4.2854994637106116e-14,2.4729703239907374e-14,1.462933579953087e-14,8.17260195083254e-15,4.7165675149187194e-15,2.5197400933050655e-15,1.6169208628723085e-15,6.112679657950007e-09,3.5603836810949852e-09,2.1448415212758156e-09,1.2781120294154745e-09,7.365697680988943e-10,4.116257751399877e-10,2.2548469607862877e-10,1.2069602653162422e-10,6.344956263503504e-11,3.281661450787276e-11,1.6693982824304e-11,8.589470469583043e-12,4.495672357658901e-12,2.3724600825185885e-12,1.2809448883036974e-12,6.875874165318441e-13,3.6945268459174827e-13,2.019696533727788e-13,1.0296988816656794e-13
0.0,10,10.0,0.0,30.0,0.0,0.0,0.0,0.0,-13.0,0.0,2.0,0.0,0.0,0.0,5.088306500665192e-11,4.123851491755407e-11,3.2430057014403546e-11,2.4821242638747826e-11,1.8449301732883676e-11,1.3476506987300701e-11,9.688038118454234e-12,6.839483273763496e-12,4.751126337089589e-12,3.2723273419693087e-12,2.244222085893001e-12,1.5260135644916505e-12,1.0303983797163993e-12,6.879014370074332e-13,4.5005291173167583e-13,2.913181872991096e-13,1.8410170731259849e-13,1.1527138207236575e-13,6.933807833825128e-14,4.149308498497223e-14,2.3991646473292383e-14,1.423938015673438e-14,7.96304983256166e-15,4.608474159033802e-15,2.460652936474026e-15,1.5893896869080055e-15,6.126876849202713e-09,3.5724107844205196e-09,2.1515294534384564e-09,1.2803425027968037e-09,7.36466092004271e-10,4.1069231866821445e-10,2.2441558460255206e-10,1.197402805095409e-10,6.267312986939974e-11,3.2227870555161996e-11,1.627556186801001e-11,8.307342029094348e-12,4.3166710265281405e-12,2.264768695499075e-12,1.2190705396898402e-12,6.535403215840395e-13,3.513871908452727e-13,1.9271475875423946e-13,9.830659468197974e-14
0.0,11,11.0,0.0,30.0,0.0,0.0,0.0,0.0,-13.0,0.0,2.0,0.0,0.0,0.0,5.026746825143611e-11,4.0662078226689864e-11,3.190045117877192e-11,2.4345244345945434e-11,1.803150245576903e-11,1.3118251868932652e-11,9.388323806296574e-12,6.5974230297849205e-12,4.563029229021926e-12,3.1311974879913126e-12,2.1422884894757173e-12,1.4552395697058901e-12,9.827694440860045e-13,6.568816019398373e-13,4.304645290586385e-13,2.7931180014127595e-13,1.769145574424326e-13,1.1109114581063256e-13,6.696012909249031e-14,4.018183378334903e-14,2.3279336903572088e-14,1.3861602974882811e-14,7.75980946095526e-15,4.5032790063999286e-15,2.4033052980220568e-15,1.5624363985208807e-15,6.1418595578133135e-09,3.5845619594693722e-09,2.157827453729229e-09,1.2820450474985543e-09,7.359350340155622e-10,4.094943125599665e-10,2.2321847649499683e-10,1.187462405885955e-10,6.19049553869649e-11,3.166414728738232e-11,1.588267602001862e-11,8.044629236262392e-12,4.150350037643461e-12,2.164533632903987e-12,1.161280201938445e-12,6.216357715544323e-13,3.3438650951897174e-13,1.8397275232154572e-13,9.389165725120622e-14
0.0,12,12.0,0.0,30.0,0.0,0.0,0.0,0.0,-13.0,0.0,2.0,0.0,0.0,0.0,4.9654829932720917e-11,4.0094570671072556e-11,3.138476164013504e-11,2.388673136864246e-11,1.763301354689239e-11,1.2779330888898932e-11,9.106469661042096e-12,6.3706605144943e-12,4.3870992042277715e-12,2.9991625108092975e-12,2.0467631538563494e-12,1.3887542678150544e-12,9.37894333055289e-13,6.27565157948632e-13,4.1189496163780513e-13,2.6789206889733495e-13,1.7005838230189458e-13,1.0708966090414206e-13,6.467776740852346e-14,3.891899872013375e-14,2.2591703587373575e-14,1.3495554555926144e-14,7.562639642506297e-15,4.4008987987462e-15,2.3476345121773762e-15,1.5360712418614087e-15,6.157660465735472e-09,3.596841465553026e-09,2.1637487261825036e-09,1.2832449262972418e-09,7.349986171927339e-10,4.080421786731314e-10,2.2189344734949185e-10,1.1770831773738248e-10,6.113802104670464e-11,3.111942149101866e-11,1.5511139741409355e-11,7.79881518679701e-12,3.995338740166279e-12,2.071060923680887e-12,1.1072365644326005e-12,5.917118525546555e-13,3.183760824910569e-13,1.7571079858592492e-13,8.970857317978726e-14
0.0,13,13.0,0.0,30.0,0.0,0.0,0.0,0.0,-13.0,0.0,2.0,0.0,0.0,0.0,4.9041764064375056e-11,3.9532448453730805e-11,3.087940963968468e-11,2.3442246821262894e-11,1.7250669487006486e-11,1.2457002553857717e-11,8.840236662050974e-12,6.157485464593212e-12,4.222117580505692e-12,2.8754002509847062e-12,1.9571191476956234e-12,1.3262335755640973e-12,8.955797118872741e-13,5.99839996493659e-13,3.9428105504310533e-13,2.570249008406862e-13,1.6351500971682029e-13,1.0325783859282751e-13,6.248638579919758e-14,3.7702461436257737e-14,2.192773136529288e-14,1.3140805815648047e-14,7.371311993082521e-15,4.30125221006231e-15,2.2935801494608562e-15,1.5102952853847044e-15,6.1743050283144395e-09,3.6092420089728537e-09,2.169295358972685e-09,1.283959105814141e-09,7.336744599898302e-10,4.063454219131407e-10,2.2044171576112505e-10,1.1662273088753044e-10,6.036692738079445e-11,3.0588787433311105e-11,1.5157409908605935e-11,7.567706751620337e-12,3.85041610490163e-12,1.9837236365532696e-12,1.056632049390106e-12,5.636204331618419e-13,3.0328747671672503e-13,1.67898490125591e-13,8.574229757990745e-14
0.0,14,14.0,0.0,30.0,0.0,0.0,0.0,0.0,-13.0,0.0,2.0,0.0,0.0,0.0,4.8425571536529447e-11,3.897285336577258e-11,3.038147041376284e-11,2.3008924378626215e-11,1.6881805490269525e-11,1.2148923523166014e-11,8.587682367207368e-12,5.956392453315489e-12,4.066997086225071e-12,2.759168853877481e-12,1.872876911279137e-12,1.2673807473174444e-12,8.556478317966709e-13,5.736027056748999e-13,3.775643764685068e-13,2.466786047952876e-13,1.5726750388488433e-13,9.958715801358059e-14,6.03816575607898e-14,3.6530218273297865e-14,2.128645734230391e-14,1.2796946902837249e-14,7.185610036601902e-15,4.204259860210664e-15,2.2410840918018705e-15,1.4851023381943126e-15,6.191811941701629e-09,3.621746361210607e-09,2.1744604022246105e-09,1.284197804928631e-09,7.319763998006481e-10,4.044125253643249e-10,2.188652118896439e-10,1.1548705599554809e-10,5.95875646592584e-11,3.00682674297305e-11,1.4818495736456788e-11,7.349397277081507e-12,3.714496134658763e-12,1.9019556367685276e-12,1.0091859991752557e-12,5.372257761333775e-13,2.8905775159653683e-13,1.60507617247538e-13,8.197909303706696e-14
0.0,15,15.0,0.0,30.0,0.0,0.0,0.0,0.0,-13.0,0.0,2.0,0.0,0.0,0.0,4.7804105831563265e-11,3.8413484892119307e-11,2.988855758218896e-11,2.258439034874866e-11,1.6524180529530323e-11,1.1853092520931159e-11,8.347123040248927e-12,5.766057398571303e-12,3.920768298518367e-12,2.649799099524826e-12,1.793599859652511e-12,1.211923814405519e-12,8.179350382401505e-13,5.48757736833426e-13,3.6169077082947156e-13,2.3682367613204564e-13,1.5130005797085776e-13,9.606961979223867e-14,5.835951495278305e-14,3.5400371984345594e-14,2.0666967598376876e-14,1.2463585964651199e-14,7.005328379231908e-15,4.109844321865247e-15,2.1900905685185704e-15,1.460480645324742e-15,6.210193279718193e-09,3.634328506763725e-09,2.1792294580072613e-09,1.283965731271639e-09,7.299150500068776e-10,4.0225093897324193e-10,2.171662824891039e-10,1.1429988578169403e-10,5.879685044105681e-11,2.955465340079846e-11,1.449188002014156e-11,7.142232764716462e-12,3.5866144284164885e-12,1.8252459841203862e-12,9.64642221689283e-13,5.124033398602563e-13,2.756289148994255e-13,1.5351196877482061e-13,7.840639167871638e-14
0.0,16,16.0,0.0,30.0,0.0,0.0,0.0,0.0,-13.0,0.0,2.0,0.0,0.0,0.0,4.717566714456939e-11,3.7852497936652904e-11,2.93987292408858e-11,2.216668273765383e-11,1.6175912489664247e-11,1.1567802123413654e-11,8.117100430957133e-12,5.5853165737665504e-12,3.7825673796091855e-12,2.5466874690950093e-12,1.7188904610921526e-12,1.159613334382928e-12,7.822904708485001e-13,5.252166767422631e-13,3.4660997058432547e-13,2.2743260680462946e-13,1.4559789845430804e-13,9.269770474182444e-14,5.641612940140424e-14,3.431112427702551e-14,2.0068394120448368e-14,1.2140348037405365e-14,6.830271952808189e-15,4.0179301208174115e-15,2.140546158869806e-15,1.4364143301369127e-15,6.229454388789761e-09,3.6469544575265167e-09,2.1835819097135933e-09,1.2832630703994554e-09,7.274982869188833e-10,3.9986712349333136e-10,2.1534749269094315e-10,1.130605736771009e-10,5.7992520711121394e-11,2.904537498666597e-11,1.4175450770999876e-11,6.944781431711545e-12,3.465915837030749e-12,1.7531338618456228e-12,9.22766820501576e-13,4.890387351866971e-13,2.629474518581906e-13,1.4688715819013624e-13,7.501267027465043e-14
0.0,17,17.0,0.0,30.0,0.0,0.0,0.0,0.0,-13.0,0.0,2.0,0.0,0.0,0.0,4.6538918701202844e-11,3.7288420882790453e-11,2.891041159950378e-11,2.1754184350032043e-11,1.5835423595236136e-11,1.1291597408863785e-11,7.896352727788565e-12,5.413147913954494e-12,3.65162500172879e-12,2.4492898600514738e-12,1.6483867137329496e-12,1.1102203952486426e-12,7.485749217159682e-13,5.028976085733623e-13,3.3227525143757973e-13,2.1847971676954893e-13,1.4014719972139305e-13,8.946433694512776e-14,5.454789353535887e-14,3.326076907817239e-14,1.948991194492268e-14,1.1826874044961498e-14,6.660255321524628e-15,3.928443729883301e-15,2.092399766975336e-15,1.4128845840709654e-15,6.249593602565752e-09,3.659582829806462e-09,2.187491883147848e-09,1.2820862794933782e-09,7.247316699282522e-10,3.972666252953215e-10,2.134114962431513e-10,1.1176904172628332e-10,5.7172963959605345e-11,2.853839014937942e-11,1.3867442209274006e-11,6.755806490628065e-12,3.3516431612685133e-12,1.685203960078576e-12,8.833462558438629e-13,4.670268099878426e-13,2.5096391491639214e-13,1.4061047065929309e-13,7.178733827742816e-14
0.0,18,18.0,0.0,30.0,0.0,0.0,0.0,0.0,-13.0,0.0,2.0,0.0,0.0,0.0,4.58928204727353e-11,3.672008982018416e-11,2.842233680081473e-11,2.1345567460047574e-11,1.5501394503904957e-11,1.1023240546182585e-11,7.683789220175518e-12,5.248654412080138e-12,3.5272563623840226e-12,2.3571158817821524e-12,1.5817589625129878e-12,1.063534832223763e-12,7.166598254553368e-13,4.817245477833696e-13,3.186431273495126e-13,2.09941003774761e-13,1.3493500759789757e-13,8.636285061777312e-14,5.2751404874873454e-14,3.224768642751819e-14,1.8930736499201324e-14,1.1522819889786788e-14,6.49510204638704e-15,3.841313556964495e-15,2.045602575074059e-15,1.3898706220445045e-15,6.270601820253003e-09,3.6721652523591e-09,2.1909290065957923e-09,1.2804287267138943e-09,7.216188014146697e-10,3.9445416669360393e-10,2.1136095404266825e-10,1.1042563701636178e-10,5.6337089543988876e-11,2.803209465091699e-11,1.3566384054655038e-11,6.574241941470037e-12,3.243126844553649e-12,1.6210822596156974e-12,8.46185596809884e-13,4.4627083946057886e-13,2.396325639430303e-13,1.3466072742909313e-13,6.872063821963409e-14
0.0,19,19.0,0.0,30.0,0.0,0.0,0.0,0.0,-13.0,0.0,2.0,0.0,0.0,0.0,4.5236576568433765e-11,3.614659564802861e-11,2.793349221046739e-11,2.0939748010008137e-11,1.5172725687007863e-11,1.076168049664729e-11,7.478468236270292e-12,5.0910494055869486e-12,3.408852198762265e-12,2.2697236761135304e-12,1.5187070122142279e-12,1.019363624200563e-12,6.86426359768798e-13,4.616269414892019e-13,3.056730793178417e-13,2.0179400901065613e-13,1.2994917070221147e-13,8.33869602479272e-14,5.102345100904911e-14,3.1270336921954366e-14,1.8390121130033545e-14,1.1227855623720414e-14,6.334644101870136e-15,3.756469927501022e-15,2.000107979954483e-15,1.3673504315771617e-15,6.292461981115114e-09,3.6846466547557726e-09,2.193859019102203e-09,1.2782812086351405e-09,7.181616341269348e-10,3.914337423207745e-10,2.0919848658904848e-10,1.090310249072753e-10,5.548422335550834e-11,2.752524727486736e-11,1.3271058091320345e-11,6.399171141278925e-12,3.139775609651448e-12,1.5604321757376838e-12,8.111069353780044e-13,4.2668180459723774e-13,2.2891104863674524e-13,1.290181648310164e-13,6.580355759416873e-14
0.0,20,20.0,0.0,30.0,0.0,0.0,0.0,0.0,-13.0,0.0,2.0,0.0,0.0,0.0,4.456959341486097e-11,3.556724145715708e-11,2.744307899419667e-11,2.0535847652942394e-11,1.4848504926201226e-11,1.0506027100910812e-11,7.279577956730628e-12,4.939643562418613e-12,3.295870715228939e-12,2.18671521543987e-12,1.4589575019417025e-12,9.775294441477354e-13,6.577646395227202e-13,4.4253922190256263e-13,2.933273132643702e-13,1.940176965240592e-13,1.2517827865153786e-13,8.053073358956662e-14,4.936099611044581e-14,3.0327256643945217e-14,1.7867354806586456e-14,1.0941664688065734e-14,6.1787213403262e-15,3.673845062173623e-15,1.955871517303505e-15,1.3453013466327618e-15,6.315148459899978e-09,3.696965472072403e-09,2.196244263113979e-09,1.2756323712645984e-09,7.1436073384119e-10,3.882087158953765e-10,2.069266501119776e-10,1.0758611016014298e-10,5.461402520135959e-11,2.7016908119076985e-11,1.2980461054101067e-11,6.229807903744109e-12,3.041067984210223e-12,1.5029510305402475e-12,7.779479402178221e-13,4.0817774492385466e-13,2.1876012639401952e-13,1.2366432567963805e-13,6.302775118984396e-14
0.0,21,21.0,0.0,30.0,0.0,0.0,0.0,0.0,-13.0,0.0,2.0,0.0,0.0,0.0,4.389144646938587e-11,3.498150813601472e-11,2.695047822546241e-11,2.0133162254379017e-11,1.4527979937322296e-11,1.0255528916534899e-11,7.086419742754563e-12,4.7938333867461035e-12,3.1878303424582126e-12,2.107732036861548e-12,1.4022615131312991e-12,9.378693431472226e-13,6.305729906647263e-13,4.244004060347837e-13,2.8157054308493916e-13,1.8659234462659656e-13,1.206116062887809e-13,7.778856715367855e-14,4.7761168649764786e-14,2.9417052517730646e-14,1.736175998626291e-14,1.0663943213936543e-14,6.027180999437268e-15,3.593373050213782e-15,1.912850777594643e-15,1.3237004770017165e-15,6.3386264028196715e-09,3.709053792412252e-09,2.1980440881481405e-09,1.2724690547262012e-09,7.102155046324881e-10,3.8478191418462733e-10,2.045479290671371e-10,1.060919792046057e-10,5.3726423445375246e-11,2.650638770448751e-11,1.2693772969762951e-11,6.065479880406347e-12,2.9465446564590915e-12,1.4483668275922247e-12,7.465605334393492e-13,3.9068317443820883e-13,2.0914341017381848e-13,1.1858196128621146e-13,6.038547281331964e-14
0.0,22,22.0,0.0,30.0,0.0,0.0,0.0,0.0,-13.0,0.0,2.0,0.0,0.0,0.0,4.320185370647296e-11,3.43890265716431e-11,2.6455223108456158e-11,1.9731135716319856e-11,1.421053529002641e-11,1.0009554256747465e-11,6.898393654488262e-12,4.653091077701006e-12,3.0843032512954545e-12,2.032451374797352e-12,1.3483923879678008e-12,9.002335517801758e-13,6.047572929598138e-13,4.071537352295866e-13,2.703697955269405e-13,1.7949944779745174e-13,1.1623906321131381e-13,7.515516389688388e-14,4.62212501869556e-14,2.8538398045092326e-14,1.687269063171407e-14,1.03943993755843e-14,5.879877248954522e-15,3.5149898190128613e-15,1.8710053165507318e-15,1.3025250213077488e-15,6.36285102025498e-09,3.720837466902559e-09,2.1992151852119366e-09,1.2687765774753818e-09,7.057243833850067e-10,3.8115571652952353e-10,2.0206473979725273e-10,1.0454985841070202e-10,5.282156336054065e-11,2.599320501330101e-11,1.2410330181009187e-11,5.905613982635527e-12,2.8558016001352393e-12,1.396435306032666e-12,7.168096771094081e-13,3.741285519250519e-13,2.0002714191177756e-13,1.1375494263952802e-13,5.78695153524841e-14
0.0,23,23.0,0.0,30.0,0.0,0.0,0.0,0.0,-13.0,0.0,2.0,0.0,0.0,0.0,4.250065449478502e-11,3.378955515143202e-11,2.5956976175485022e-11,1.9329338190221754e-11,1.3895672925992761e-11,9.767574957747884e-12,6.714985872520695e-12,4.516955588207072e-12,2.9849095491909747e-12,1.960582657687493e-12,1.297143738556967e-12,8.644843856147242e-13,5.802303825946036e-13,3.9074634918603145e-13,2.5969423407093024e-13,1.7272162780300059e-13,1.1205114798030575e-13,7.262551285221264e-14,4.473866512795883e-14,2.7690029379521184e-14,1.6399530368039077e-14,1.0132752790501834e-14,5.7366707729297734e-15,3.438633100445922e-15,1.830296562747658e-15,1.2817524884615868e-15,6.387766850015053e-09,3.732236196703292e-09,2.1997118666316096e-09,1.264538972678497e-09,7.008850093808956e-10,3.7733213927931284e-10,1.9947944166029736e-10,1.0296108446164965e-10,5.18997663744505e-11,2.5477052886504613e-11,1.2129602373580513e-11,5.749723616792457e-12,2.768483907051617e-12,1.3469372533157653e-12,6.885722589359549e-13,3.584497985674814e-13,1.9137998785844538e-13,1.0916817956764277e-13,5.5473158208692107e-14
0.0,24,24.0,0.0,30.0,0.0,0.0,0.0,0.0,-13.0,0.0,2.0,0.0,0.0,0.0,4.1787792777085137e-11,3.3182961534606286e-11,2.545551053725524e-11,1.8927447912875308e-11,1.3582995691992852e-11,9.529152469500505e-12,6.5357577694423976e-12,4.385024745014332e-12,2.8893120919673964e-12,1.8918643370224317e-12,1.248327629752734e-12,8.304952438407028e-13,5.569115073251686e-13,3.7512899003220747e-13,2.4951499941820665e-13,1.6624255293983513e-13,1.0803890647274364e-13,7.019487048448748e-14,4.331097134776334e-14,2.6870741703269446e-14,1.594169076961553e-14,9.87873396123186e-15,5.597428384491398e-15,3.364242394664288e-15,1.7906877242123085e-15,1.2613608483239892e-15,6.413307003358716e-09,3.74316360768148e-09,2.199486302239949e-09,1.2597391869231693e-09,6.956943740367477e-10,3.733129150766512e-10,1.9679435300633189e-10,1.0132708385672121e-10,5.0961497967452714e-11,2.495776947953068e-11,1.1851173014537803e-11,5.5973975216058806e-12,2.684280266464609e-12,1.2996760572301803e-12,6.617360683331394e-13,3.435878571251089e-13,1.83172852875742e-13,1.0480754689915036e-13,5.319012121883168e-14
0.0,25,25.0,0.0,30.0,0.0,0.0,0.0,0.0,-13.0,0.0,2.0,0.0,0.0,0.0,4.106330369331067e-11,3.256920786985324e-11,2.4950694440431976e-11,1.8525236035713357e-11,1.3272193399513703e-11,9.293925923920007e-12,6.3603364098566316e-12,4.256948304772199e-12,2.7972118487173383e-12,1.826061019248896e-12,1.2017729204836584e-12,7.98149691833582e-13,5.347258281214802e-13,3.602557327485212e-13,2.398050645490329e-13,1.6004686446262986e-13,1.0419389390941519e-13,6.785874358336793e-14,4.193585159151669e-14,2.6079385876475434e-14,1.5498609766651598e-14,9.632083754400592e-15,5.462022669880279e-15,3.291758931475191e-15,1.7521436954430892e-15,1.2413286289754346e-15,6.4393924047976475e-09,3.753527320365383e-09,2.198488720179357e-09,1.254359249563206e-09,6.901489551432475e-10,3.6909956727713374e-10,1.9401177015947746e-10,9.964935928098879e-11,5.000734244184098e-11,2.4435314700336593e-11,1.1574722690206486e-11,5.448290015094532e-12,2.6029180323062392e-12,1.2544754788835416e-12,6.361988553727661e-13,3.294882879954237e-13,1.7537871125757716e-13,1.0065981680714566e-13,5.10145242920689e-14
0.0,26,26.0,0.0,30.0,0.0,0.0,0.0,0.0,-13.0,0.0,2.0,0.0,0.0,0.0,4.032730296518641e-11,3.194833879934021e-11,2.4442478527832767e-11,1.8122553929691582e-11,1.2963031002462143e-11,9.061601885316201e-12,6.188406285568814e-12,4.1324218340881875e-12,2.7083437626697856e-12,1.7629608732417287e-12,1.1573237499571723e-12,7.673406197680622e-13,5.136039622658593e-13,3.460837388361988e-13,2.3053910261498563e-13,1.541201093868478e-13,1.0050814015265685e-13,6.561287353292813e-14,4.061110557506116e-14,2.5314865331913516e-14,1.5069750162322798e-14,9.392552913515235e-15,5.330331659517892e-15,3.2211256300841856e-15,1.7146309661121904e-15,1.2216349744497433e-15,6.465931035747894e-09,3.7632290203523965e-09,2.196667578650536e-09,1.2483804196085715e-09,6.84244839324276e-10,3.646934799655387e-10,1.9113398811827283e-10,9.79294811161546e-11,4.9037983143256307e-11,2.3909750741870027e-11,1.130001490436275e-11,5.302112477111208e-12,2.52415882210479e-12,1.2111776292645641e-12,6.118674660590356e-13,3.161008982796724e-13,1.6797245206226147e-13,9.671259664709578e-14,4.89408520866056e-14
0.0,27,27.0,0.0,30.0,0.0,0.0,0.0,0.0,-13.0,0.0,2.0,0.0,0.0,0.0,3.957997849985821e-11,3.13204717190559e-11,2.3930885309748823e-11,1.7719322539008504e-11,1.2655338551106833e-11,8.831945531740425e-12,6.019702117944025e-12,4.011181313788153e-12,2.622473055811669e-12,1.7023732880512945e-12,1.114838156373793e-12,7.379694704408669e-13,4.934815636559938e-13,3.3257303061641994e-13,2.2169336618438337e-13,1.4844867896748185e-13,9.697411792082233e-14,6.345322181832128e-14,3.9334642714888994e-14,2.4576133191804524e-14,1.465459825168357e-14,9.159901602290241e-15,5.202238523488844e-15,3.152287057381226e-15,1.6781175321028734e-15,1.2022596741209754e-15,6.492817191217759e-09,3.772164532342693e-09,2.1939697136025893e-09,1.2417833160390307e-09,6.779778358689195e-10,3.6009596410532387e-10,1.8816332208723614e-10,9.616908277521575e-11,4.8054187002145395e-11,2.3381225976330777e-11,1.1026883960900514e-11,5.158625911951414e-12,2.4477945947615506e-12,1.1696411328536909e-12,5.886570480598327e-13,3.0337940060470207e-13,1.6093073728677524e-13,9.295427170969729e-14,4.6963923142497054e-14
0.0,28,28.0,0.0,30.0,0.0,0.0,0.0,0.0,-13.0,0.0,2.0,0.0,0.0,0.0,3.882158377907104e-11,3.068578886829044e-11,2.3416000445793995e-11,1.7315523431340916e-11,1.2349002635932573e-11,8.604773053311287e-12,5.854002581750034e-12,3.892998378914515e-12,2.5393919298292097e-12,1.6441267575691985e-12,1.074186816847389e-12,7.099455302867351e-13,4.742989366931047e-13,3.1968628394401563e-13,2.132455765707604e-13,1.4301975224640763e-13,9.358471361045425e-14,6.137595664765827e-14,3.810447542548666e-14,2.3862189586369417e-14,1.4252662534466986e-14,8.933898975858414e-15,5.077631289374502e-15,3.085189385130937e-15,1.642572809561325e-15,1.1831831722863968e-15,6.519930757796012e-09,3.78022389930831e-09,2.190340466496037e-09,1.2345480366636776e-09,6.713435845984689e-10,3.5530832036722693e-10,1.8510212923871514e-10,9.436985885439241e-11,4.705679248958803e-11,2.284996160684134e-11,1.075522461079132e-11,5.01763445292158e-12,2.3736441580535382e-12,1.1297394626212677e-12,5.664903215607972e-13,2.9128109893598676e-13,1.5423187148135728e-13,8.937395238986235e-14,4.5078862964716314e-14
0.0,29,29.0,0.0,30.0,0.0,0.0,0.0,0.0,-13.0,0.0,2.0,0.0,0.0,0.0,3.805243268608806e-11,3.004453090282831e-11,2.289796550979577e-11,1.691119125304934e-11,1.2043959081288156e-11,8.379945085497945e-12,5.691124824387861e-12,3.777676116302947e-12,2.458916620469706e-12,1.5880669706054535e-12,1.0352518981578194e-12,6.831852782351856e-13,4.560006806373939e-13,3.073886374452229e-13,2.0517482215360785e-13,1.3782124414088197e-13,9.033320045605557e-14,5.937744058260244e-14,3.691871292878823e-14,2.317207915611984e-14,1.3863472514251591e-14,8.714322777613656e-15,4.956402580592886e-15,3.0197803464536678e-15,1.6079675523771164e-15,1.1643865646429296e-15,6.547136520135356e-09,3.787291466929711e-09,2.1857237957887294e-09,1.2266542700980533e-09,6.643376600021285e-10,3.503318991537296e-10,1.8195283030820796e-10,9.25335653318836e-11,4.604670026072196e-11,2.231624057769595e-11,1.0484983191215875e-11,4.8789796869569564e-12,2.3015500605893356e-12,1.0913594316382185e-12,5.45296910336387e-13,2.7976659899921227e-13,1.4785568162348741e-13,8.596142534798821e-14,4.328108060931005e-14
0.0,30,30.0,0.0,30.0,0.0,0.0,0.0,0.0,-13.0,0.0,2.0,0.0,0.0,0.0,3.7272895492320654e-11,2.939699167414768e-11,2.2376971970167606e-11,1.6506407346980163e-11,1.1740186686479066e-11,8.157361022279148e-12,5.530919671665755e-12,3.665045351025081e-12,2.3808847666529295e-12,1.5340550865939662e-12,9.979260087977594e-13,6.576117876211864e-13,4.385353617234035e-13,2.956475166512953e-13,1.974614647471268e-13,1.3284175761367156e-13,8.721321379206028e-14,5.745421908454471e-14,3.5775555526594964e-14,2.25048887216878e-14,1.3486577577155497e-14,8.50095895959817e-15,4.8384493734068675e-15,2.956009191771356e-15,1.5742737732409498e-15,1.1458515868665285e-15,6.574283501840184e-09,3.793245972319318e-09,2.1800623756324813e-09,1.2180814050295996e-09,6.569556735006407e-10,3.4516815828628906e-10,1.7871793077075109e-10,9.066202122204116e-11,4.5024865900402434e-11,2.1780398331197804e-11,1.0216150026085798e-11,4.742535692168652e-12,2.2313758268179097e-12,1.0543998274302226e-12,5.250127284994814e-13,2.6879954123322434e-13,1.417834062426021e-13,8.270710829296173e-14,4.1566248370335586e-14
0.0,31,31.0,0.0,30.0,0.0,0.0,0.0,0.0,-13.0,0.0,2.0,0.0,0.0,0.0,3.648339577081961e-11,2.8743513979065388e-11,2.1853256161445803e-11,1.610129433289449e-11,1.1437701846519912e-11,7.936954077988929e-12,5.373267425602898e-12,3.5549613607808606e-12,2.305153059713851e-12,1.481966178994199e-12,9.621112435424117e-13,6.331541767624191e-13,4.218552106365087e-13,2.8443247163533814e-13,1.9008705320910978e-13,1.2807053952116096e-13,8.421872820647178e-14,5.560300989322545e-14,3.4673289292583145e-14,2.185974510716853e-14,1.3121545943704434e-14,8.293601324750801e-15,4.723672771099942e-15,2.893826644494515e-15,1.5414646685819722e-15,1.1275605986856436e-15,6.601204345109935e-09,3.797960635209632e-09,2.1732976853769374e-09,1.2088086406447271e-09,6.491933753679809e-10,3.398187187633317e-10,1.7540004144665318e-10,8.875711122881092e-11,4.399229429762229e-11,2.124281507049348e-11,9.9487528925111e-12,4.608204694530107e-12,2.1630034974897964e-12,1.0187701761351103e-12,5.055794186970487e-13,2.5834635443517717e-13,1.3599759292840488e-13,7.96020080661336e-14,3.9930284192043397e-14
0.0,32,32.0,0.0,30.0,0.0,0.0,0.0,0.0,-13.0,0.0,2.0,0.0,0.0,0.0,3.568440804589982e-11,2.8084486088314e-11,2.1327095063375624e-11,1.5696011484113582e-11,1.1136553910795005e-11,7.718686985667135e-12,5.218074172663897e-12,3.447300964937704e-12,2.2315951418277435e-12,1.4316878299986459e-12,9.2771831245222e-13,6.097471042260736e-13,4.0591584323450954e-13,2.7371502693642247e-13,1.830342435823905e-13,1.2349743978453226e-13,8.134403640253206e-14,5.3820693165266896e-14,3.3610281145514085e-14,2.1235813104122116e-14,1.2767963687912838e-14,8.09205118940225e-15,4.611977793906373e-15,2.8331848566325614e-15,1.5095145473991807e-15,1.109496565954596e-15,6.6277147316310755e-09,3.8013032492396484e-09,2.165370093817661e-09,1.1988151018590585e-09,6.410467575505788e-10,3.3428541893635803e-10,1.7200189845312163e-10,8.682078904359716e-11,4.295003526383807e-11,2.070390924665927e-11,9.682851387898385e-12,4.475913261794507e-12,2.096331441594096e-12,9.843896244447467e-13,4.869438378155677e-13,2.483760284585752e-13,1.3048200347070034e-13,7.663768174573747e-14,3.836933644374516e-14
0.0,33,33.0,0.0,30.0,0.0,0.0,0.0,0.0,-13.0,0.0,2.0,0.0,0.0,0.0,3.487645605932148e-11,2.742033893472761e-11,2.0798802748220073e-11,1.529075075225172e-11,1.0836821149678275e-11,7.502548233914984e-12,5.065268534451128e-12,3.3419599435139468e-12,2.160099725439161e-12,1.3831188609680454e-12,8.946657469084801e-13,5.873303053966842e-13,3.906760026834135e-13,2.634685426454616e-13,1.762867251207069e-13,1.19112873580832e-13,7.858372961604817e-14,5.210430230774517e-14,3.258497426665577e-14,2.063229356466494e-14,1.2425433818627037e-14,7.89611706469503e-15,4.503273183288645e-15,2.774037364440652e-15,1.4783987638625006e-15,1.091643044200343e-15,6.653612845050358e-09,3.8031362707708714e-09,2.156218942661044e-09,1.1880799627952037e-09,6.325121583659444e-10,3.2857036739377876e-10,1.6852638246223096e-10,8.485508100790888e-11,4.189918008073925e-11,2.0164132036802447e-11,9.418532057934905e-12,4.345608963245359e-12,2.0312724092252447e-12,9.511859282405737e-13,4.690575865144736e-13,2.38859904485425e-13,1.2522152596867065e-13,7.380620052278747e-14,3.687977069692887e-14
0.0,34,34.0,0.0,30.0,0.0,0.0,0.0,0.0,-13.0,0.0,2.0,0.0,0.0,0.0,3.4060111484518836e-11,2.6751543784925752e-11,2.0268727350032562e-11,1.4885733331545184e-11,1.0538607239709538e-11,7.288548764469396e-12,4.914798797584294e-12,3.238850742786085e-12,2.090568909555058e-12,1.3361681858561907e-12,8.62879175878196e-13,5.658481667508535e-13,3.760973212163832e-13,2.5366808577808706e-13,1.6982915169797328e-13,1.1490778627117622e-13,7.593267943217307e-14,5.0451015448424885e-14,3.159588383365765e-14,2.0048421613648657e-14,1.2093575417732702e-14,7.705614355655357e-15,4.397471219602149e-15,2.7163390443475577e-15,1.4480936538921829e-15,1.0739841630251196e-15,6.6786788729301985e-09,3.8033169028581906e-09,2.145782634373806e-09,1.17658258176453e-09,6.235863698347003e-10,3.2267599478927554e-10,1.6497653725056169e-10,8.286208991595861e-11,4.0840858719100886e-11,1.962396262008728e-11,9.155904167409027e-12,4.2172574331157496e-12,1.967751798024599e-12,9.19094537725796e-13,4.518765791599772e-13,2.2977148153025957e-13,1.2020209332488496e-13,7.110011613030657e-14,3.545815813752987e-14
0.0,35,35.0,0.0,30.0,0.0,0.0,0.0,0.0,-13.0,0.0,2.0,0.0,0.0,0.0,3.3235993006741277e-11,2.607861031462108e-11,1.973724845997505e-11,1.4481206657907168e-11,1.0242038173610197e-11,7.076719058836943e-12,4.766630372155376e-12,3.1379004333671714e-12,2.0229166706228273e-12,1.2907537748663117e-12,8.322906661645825e-13,5.452493349798358e-13,3.621441000281119e-13,2.4429031105311625e-13,1.6364707809719193e-13,1.1087362082791817e-13,7.338602088298966e-14,4.885814749176285e-14,3.064159304156839e-14,1.9483464970358318e-14,1.1772022830897918e-14,7.520365076812503e-15,4.294487551867403e-15,2.6600460691042427e-15,1.4185764755161376e-15,1.0565046133947342e-15,6.702674543455075e-09,3.801697172653576e-09,2.1339987303999937e-09,1.1643026508110682e-09,6.142667482003259e-10,3.166051048045398e-10,1.6135558753559683e-10,8.084399877152207e-11,3.977623751532739e-11,1.9083904091855598e-11,8.895096014121095e-12,4.090839783580797e-12,1.9057061087978612e-12,8.880577697364342e-13,4.353606509584128e-13,2.210862379490828e-13,1.1541060760282956e-13,6.851242963118144e-14,3.4101265237610446e-14
0.0,36,36.0,0.0,30.0,0.0,0.0,0.0,0.0,-13.0,0.0,2.0,0.0,0.0,0.0,3.240476567386771e-11,2.5402084990152957e-11,1.920477485389657e-11,1.4077441759509389e-11,9.947259523416845e-12,6.867106555329651e-12,4.620743533405103e-12,3.0390488892430774e-12,1.9570675085394734e-12,1.2468017173736527e-12,8.028381209459074e-13,5.254863581406976e-13,3.487831058867318e-13,2.353133503347918e-13,1.5772690076309098e-13,1.070022875453865e-13,7.0939136710776e-14,4.732314271375216e-14,2.9720749386731394e-14,1.8936722371522458e-14,1.1460424906771972e-14,7.340197583345055e-15,4.194241038874658e-15,2.6051158643987925e-15,1.3898253529441163e-15,1.0391896381690524e-15,6.725342689443529e-09,3.798124001696252e-09,2.120804066620107e-09,1.1512203626526932e-09,6.045513280187693e-10,3.1036092439389787e-10,1.5766695609078732e-10,7.88030743404289e-11,3.870651712869651e-11,1.8544479883674462e-11,8.636251701601782e-12,3.96635032025753e-12,1.8450815686232026e-12,8.580240587451677e-13,4.194731993142532e-13,2.1278146682721735e-13,1.1083486977722239e-13,6.603656239290688e-14,3.280604430209938e-14
0.0,37,37.0,0.0,30.0,0.0,0.0,0.0,0.0,-13.0,0.0,2.0,0.0,0.0,0.0,3.156714043954724e-11,2.472254967742518e-11,1.8671742473917573e-11,1.3674730887270057e-11,9.65443399451622e-12,6.659773346075219e-12,4.477131407767138e-12,2.942247160497577e-12,1.8929552304793725e-12,1.2042453741532564e-12,7.744647313973519e-13,5.065153562777606e-13,3.359833831779149e-13,2.2671671006379082e-13,1.5205580264246218e-13,1.0328613584197166e-13,6.858764269655656e-14,4.5843567854314744e-14,2.883206119145155e-14,1.8407522087794522e-14,1.115844428068803e-14,7.164946316886882e-15,4.096653600582361e-15,2.5515070658378855e-15,1.3618192242685075e-15,1.0220250260389534e-15,6.7464068295947136e-09,3.792439270300072e-09,2.106134893845232e-09,1.1373165975983443e-09,5.944389400563071e-10,3.0394715341903623e-10,1.5391428011692545e-10,7.674167035800999e-11,3.7632930632085743e-11,1.8006230580165087e-11,8.379528299360636e-12,3.843794519255334e-12,1.785832902236374e-12,8.289472788653341e-13,4.041808566388409e-13,2.0483612421004903e-13,1.0646351445157977e-13,6.366632909401376e-14,3.156962450440231e-14
0.0,38,38.0,0.0,30.0,0.0,0.0,0.0,0.0,-13.0,0.0,2.0,0.0,0.0,0.0,3.07238738290693e-11,2.4040620409055755e-11,1.8138612596258166e-11,1.3273385364201336e-11,9.363739217753306e-12,6.454794111030849e-12,4.335798169748436e-12,2.847456015888593e-12,1.8305218572019437e-12,1.1630246099713958e-12,7.47118476648872e-13,4.8829571915809e-13,3.237160802003399e-13,2.184811760692423e-13,1.4662170177981937e-13,9.971792798339419e-14,6.632737396352404e-14,4.4417105669437947e-14,2.7974294349849947e-14,1.789522052716402e-14,1.0865756699611039e-14,6.994451565112081e-15,4.001650079180054e-15,2.499179476519732e-15,1.3345377927376412e-15,1.0049971093273309e-15,6.7655707545915535e-09,3.7844798796347175e-09,2.0899270520298796e-09,1.1225731327279878e-09,5.839293331188373e-10,2.9736801374241775e-10,1.5010142682302846e-10,7.466223026223418e-11,3.655674161380743e-11,1.7469711042636382e-11,8.12509333027663e-12,3.723187230128128e-12,1.7279222347528411e-12,8.007861299089296e-13,3.8945319203249794e-13,1.9723068921683853e-13,1.0228594915711904e-13,6.139591262739123e-14,3.038930303645147e-14
0.0,39,39.0,0.0,30.0,0.0,0.0,0.0,0.0,-13.0,0.0,2.0,0.0,0.0,0.0,2.987576766451471e-11,2.3356946247781638e-11,1.760587012608765e-11,1.2873733601449689e-11,9.07536573477827e-12,6.252254252397253e-12,4.1967574207098654e-12,2.754644634447207e-12,1.769716638267232e-12,1.1230850985376998e-12,7.207516677567745e-13,4.707898289499715e-13,3.1195428862373254e-13,2.105887252088579e-13,1.414132033706021e-13,9.629081457436087e-14,6.41543721745135e-14,4.304154890896929e-14,2.714626927681826e-14,1.7399200918689824e-14,1.0582050384887295e-14,6.82855923428977e-15,3.9091581089327155e-15,2.4480940250706346e-15,1.307961481369658e-15,9.880927654138372e-16,6.782518103986943e-09,3.7740778181375765e-09,2.0721161876917246e-09,1.106972875297956e-09,5.730232998495058e-10,2.9062829780445e-10,1.4623250813627705e-10,7.256728933001132e-11,3.547924218919871e-11,1.693548776550935e-11,7.87312253390812e-12,3.604551073700979e-12,1.6713181108205726e-12,7.735035812425629e-13,3.752624394405115e-13,1.8994703515472548e-13,9.8292297876474e-14,5.921984077577343e-14,2.926253602468387e-14
0.0,40,40.0,0.0,30.0,0.0,0.0,0.0,0.0,-13.0,0.0,2.0,0.0,0.0,0.0,2.902366878973542e-11,2.2672208189475512e-11,1.707402196720079e-11,1.2476119236368769e-11,8.789515138621598e-12,6.052248198256429e-12,4.06003072458012e-12,2.6637894279076844e-12,1.7104951641571488e-12,1.0843776926693925e-12,6.953205317551635e-13,4.539628058439817e-13,3.006728951055736e-13,2.0302244333480148e-13,1.3641955500646982e-13,9.299831168224946e-14,6.206487355029496e-14,4.171479468894074e-14,2.634685804424448e-14,1.6918872071341125e-14,1.0307025430141731e-14,6.667120634085705e-15,3.819107994229236e-15,2.3982127242908936e-15,1.2820713908692441e-15,9.712994220588415e-16,6.796911919068575e-09,3.761060242585029e-09,2.0526380246861675e-09,1.0905001219879014e-09,5.617228064717049e-10,2.837334166573198e-10,1.4231189441875907e-10,7.045947609830741e-11,3.44017508388957e-11,1.640413640470843e-11,7.623797862117393e-12,3.487915007777531e-12,1.6159946171724903e-12,7.470663678269325e-13,3.615832500505906e-13,1.8296831081622702e-13,9.447334846948156e-14,5.713296455251953e-14,2.818692891301071e-14
0.0,41,41.0,0.0,30.0,0.0,0.0,0.0,0.0,-13.0,0.0,2.0,0.0,0.0,0.0,2.816846873794503e-11,2.1987118052939902e-11,1.6543595420232663e-11,1.2080899354380987e-11,8.506398337348888e-12,5.85487784889324e-12,3.9256462789917065e-12,2.574872978108667e-12,1.6528185647042015e-12,1.046857853302948e-12,6.707848322090978e-13,4.3778227477000136e-13,2.898484441381628e-13,1.9576644912568827e-13,1.3163060487543626e-13,8.983427947039333e-14,6.005529764244361e-14,4.043483922957228e-14,2.5574981689670404e-14,1.6453667202838585e-14,1.0040393231576325e-14,6.509992273892145e-15,3.7314325952026216e-15,2.349498630434521e-15,1.2568492606372492e-15,9.546050664907641e-16,6.808394157538916e-09,3.74524958845426e-09,2.0314286989442643e-09,1.0731408452532306e-09,5.500311264167295e-10,2.7668944736272366e-10,1.3834422702003023e-10,6.834151295458837e-11,3.3325610006774533e-11,1.5876239428025908e-11,7.377305669835006e-12,3.37331303729219e-12,1.5619305972126943e-12,7.214445334065849e-13,3.483924668507438e-13,1.7627883120626367e-13,9.082050370103139e-14,5.5130438108186313e-14,2.7160226086488802e-14
0.0,42,42.0,0.0,30.0,0.0,0.0,0.0,0.0,-13.0,0.0,2.0,0.0,0.0,0.0,2.7311103285523726e-11,2.130241730629586e-11,1.601513656820517e-11,1.1688442761895515e-11,8.226233913678815e-12,5.660251143203012e-12,3.7936377033395966e-12,2.4878830755681728e-12,1.5966527844719356e-12,1.010485131701418e-12,6.471075230142709e-13,4.2221815150449773e-13,2.794590112647083e-13,1.8880582336032685e-13,1.2703676270398767e-13,8.679290223195287e-14,5.812223680109448e-14,3.9199772932696435e-14,2.482960768404755e-14,1.60030428341813e-14,9.781875948350495e-15,6.3570356699030526e-15,3.646067220306415e-15,2.301915803172461e-15,1.232277432674364e-15,9.379982585215297e-16,6.816585158308424e-09,3.726463729034627e-09,2.008425167998511e-09,1.0548830077069877e-09,5.3795297775089e-10,2.6950317957689707e-10,1.3433442944069857e-10,6.621621578416307e-11,3.22521834048952e-11,1.5352383846242896e-11,7.133835069175488e-12,3.260783048611019e-12,1.5091089477837695e-12,6.966110163477077e-13,3.3566891940796584e-13,1.698639770097036e-13,8.732573559602758e-14,5.3207700115431926e-14,2.6180299606296714e-14
0.0,43,43.0,0.0,30.0,0.0,0.0,0.0,0.0,-13.0,0.0,2.0,0.0,0.0,0.0,2.6452551835408923e-11,2.0618875781623258e-11,1.5489208612731662e-11,1.12991282823389e-11,7.949246557786104e-12,5.4684807259433625e-12,3.66404292791599e-12,2.402811847275412e-12,1.5419679268300407e-12,9.752226998542436e-13,6.2425443248128e-13,4.0724244659168285e-13,2.6948408586768635e-13,1.8212654324118202e-13,1.226289632515066e-13,8.386866972717888e-14,5.6262446282831935e-14,3.800777577335608e-14,2.4109747545869837e-14,1.556647774609143e-14,9.531205990904679e-15,6.208117162269905e-15,3.562949525368967e-15,2.2554292663986064e-15,1.208338818127006e-15,9.21468147840903e-16,6.821083049445478e-09,3.704516207968239e-09,1.983565706065743e-09,1.0357169051498744e-09,5.254946642918084e-10,2.621821610397193e-10,1.3028771682586966e-10,6.40864925662147e-11,3.118285298554911e-11,1.4833158990747384e-11,6.893576419751776e-12,3.150365750509462e-12,1.4575159895960334e-12,6.725412740936293e-13,3.233932370563586e-13,1.6371010216642818e-13,8.39815428682878e-14,5.1360456552222653e-14,2.524513704546461e-14
0.0,44,44.0,0.0,30.0,0.0,0.0,0.0,0.0,-13.0,0.0,2.0,0.0,0.0,0.0,2.5593836572498177e-11,1.99372902308221e-11,1.4966390128372787e-11,1.091334305151479e-11,7.675665554241139e-12,5.279682699446205e-12,3.5369031706430033e-12,2.319654963401786e-12,1.4887376594341926e-12,9.410369246564806e-13,6.021939750087908e-13,3.9282908562123244e-13,2.59904462790125e-13,1.7571542140147905e-13,1.18398632187661e-13,8.105635973787509e-14,5.447283494863182e-14,3.685711298182968e-14,2.3414454590060663e-14,1.5143471994576104e-14,9.288125535481393e-15,6.063107741431938e-15,3.48201941845803e-15,2.2100049698871084e-15,1.185016866183023e-15,9.05004496167378e-16,6.821463099804369e-09,3.6792165753328647e-09,1.9567904951255127e-09,1.0156355386146274e-09,5.126642202596021e-10,2.547347415524713e-10,1.262096034512219e-10,6.195534081633774e-11,3.0119015551755055e-11,1.431915430881925e-11,6.656719932076202e-12,3.0421037068941686e-12,1.407140903976666e-12,6.492129426343204e-13,3.115476788051939e-13,1.57804448982938e-13,8.078091118875894e-14,4.958466480911193e-14,2.4352828552215682e-14
0.0,45,45.0,0.0,30.0,0.0,0.0,0.0,0.0,-13.0,0.0,2.0,0.0,0.0,0.0,2.4736021332204465e-11,1.925848267673587e-11,1.4447273206597766e-11,1.0531480792135512e-11,7.40572330724226e-12,5.093975445845814e-12,3.412261990067075e-12,2.2384109141412185e-12,1.4369386746621026e-12,9.078969819877126e-13,5.808968878879249e-13,3.7895374451082346e-13,2.507021421015278e-13,1.6956004924971335e-13,1.1433765420265115e-13,7.835102176447149e-14,5.275045650659067e-14,3.5746130992966537e-14,2.2742821799958875e-14,1.473354598297944e-14,9.052386063178868e-15,5.921882882897564e-15,3.4032189701983373e-15,2.165609752211092e-15,1.162295534904375e-15,8.885977050533543e-16,6.8172770254508e-09,3.6503708628109316e-09,1.9280423218534263e-09,9.94635015602082e-10,4.994715582200423e-10,2.471701148696567e-10,1.2210590781281192e-10,5.982584378174697e-11,2.9062078987097513e-11,1.381095715184389e-11,6.423454364614797e-12,2.936040448656471e-12,1.3579752296073996e-12,6.266055277597275e-13,3.001159783921408e-13,1.5213507026540324e-13,7.77172760752011e-14,4.787651905265071e-14,2.350155340698786e-14
0.0,46,46.0,0.0,30.0,0.0,0.0,0.0,0.0,-13.0,0.0,2.0,0.0,0.0,0.0,2.3880210122031168e-11,1.8583298514635416e-11,1.3932461464632277e-11,1.0153940050502683e-11,7.139653891040343e-12,4.911478507982726e-12,3.2901644052506044e-12,2.1590803492681054e-12,1.386550199280828e-12,8.757745072949539e-13,5.603359910013462e-13,3.655936985436991e-13,2.4186023636861264e-13,1.6364874432147133e-13,1.1043834321767044e-13,7.574796180109384e-14,5.109250125728426e-14,3.4673253639940444e-14,2.209397981113876e-14,1.4336239589047333e-14,8.823747922262356e-15,5.784322389350361e-15,3.326492328860211e-15,2.122211305004599e-15,1.1401592634447324e-15,8.722388506944065e-16,6.808052275999956e-09,3.617782238678825e-09,1.897267389503531e-09,9.727149805582873e-10,4.859286199154733e-10,2.3949835774589993e-10,1.179827548879897e-10,5.77011653056495e-11,2.8013458093488785e-11,1.3309150534821731e-11,6.1939657985376094e-12,2.8322196541578484e-12,1.3100124137588568e-12,6.047001252069964e-13,2.890832030133831e-13,1.4669075801507505e-13,7.478448820256592e-14,4.6232436779199005e-14,2.26895664745948e-14
0.0,47,47.0,0.0,30.0,0.0,0.0,0.0,0.0,-13.0,0.0,2.0,0.0,0.0,0.0,2.3027545235133257e-11,1.7912604320414346e-11,1.3422567898204095e-11,9.781122380998887e-12,6.877691614807979e-12,4.73231151899462e-12,3.170656075047189e-12,2.081665474273667e-12,1.3375535482348714e-12,8.446432797198911e-13,5.404859673796019e-13,3.5272768400182833e-13,2.333628848332405e-13,1.5797050131951051e-13,1.0669341458030168e-13,7.324272813524992e-14,4.949628830345415e-14,3.363697856938347e-14,2.1467094995810976e-14,1.395111134630088e-14,8.601979912902383e-15,5.650310239236169e-15,3.2517856397885923e-15,2.0797781390935834e-15,1.1185929452275386e-15,8.559197277987304e-16,6.793291343491623e-09,3.58125188807521e-09,1.864416252976397e-09,9.498790745491745e-10,4.720495293116247e-10,2.3173046517393648e-10,1.1384657510367166e-10,5.558454328931942e-11,2.6974570031101186e-11,1.2814310847892195e-11,5.968436477626836e-12,2.7306843897591405e-12,1.2632474132096978e-12,5.83479167117033e-13,2.7843562437701635e-13,1.4146097828487655e-13,7.197678094407791e-14,4.4649046496621936e-14,2.19151850609562e-14
0.0,48,48.0,0.0,30.0,0.0,0.0,0.0,0.0,-13.0,0.0,2.0,0.0,0.0,0.0,2.2179204894629453e-11,1.7247285323454236e-11,1.2918212560809977e-11,9.413430466326984e-12,6.620069593240547e-12,4.556593172282979e-12,3.053782531004558e-12,2.0061694981107924e-12,1.289931717954599e-12,8.144789372027387e-13,5.213231627639798e-13,3.403357713197338e-13,2.2519517393519306e-13,1.5251494652835347e-13,1.030959591459676e-13,7.083109812982366e-14,4.795925818861027e-14,3.263587385422115e-14,2.08613676359428e-14,1.35777376795281e-14,8.386858893400188e-15,5.519734440377198e-15,3.179046968493214e-15,2.038279552825954e-15,1.0975819010937107e-15,8.396329051145161e-16,6.772471157356974e-09,3.5405801680857758e-09,1.8294448844794422e-09,9.26135423978178e-10,4.578507467836046e-10,2.2387838063291505e-10,1.097040995327217e-10,5.347928169286867e-11,2.5946829358268095e-11,1.2327005502640471e-11,5.74704370428345e-12,2.631476403539023e-12,1.2176763405493852e-12,5.629261925010481e-13,2.681606008251986e-13,1.3643581184512587e-13,6.928873996308219e-14,4.312317647211783e-14,2.117677674798785e-14
0.0,49,49.0,0.0,30.0,0.0,0.0,0.0,0.0,-13.0,0.0,2.0,0.0,0.0,0.0,2.1336400368180198e-11,1.6588242504176055e-11,1.2420020055545304e-11,9.051266163336164e-12,6.3670183159764425e-12,4.384440225130314e-12,2.9395884598220083e-12,1.9325961286472908e-12,1.2436690150067377e-12,7.852587203489423e-13,5.02825402503068e-13,3.2839924876450687e-13,2.1734306365051363e-13,1.472722952932271e-13,9.963941916160333e-14,6.850906595497956e-14,4.647896593172353e-14,3.166857477986076e-14,2.027603017329963e-14,1.3215712195569249e-14,8.178169407756613e-15,5.392486887393065e-15,3.108226226868207e-15,1.9976856032915457e-15,1.0771118517377094e-15,8.233717961498282e-16,6.745042653057123e-09,3.4955680905298573e-09,1.7923158765083746e-09,9.014971579734018e-10,4.43351222793992e-10,2.1595501994977408e-10,1.0556235084206343e-10,5.138874102744648e-11,2.493164267087001e-11,1.184779049802943e-11,5.529958786145093e-12,2.534635466840481e-12,1.173296151918481e-12,5.430256396950316e-13,2.582464693861491e-13,1.316059003565727e-13,6.671527468592412e-14,4.165184448574262e-14,2.0472748779582592e-14
0.0,50,50.0,0.0,30.0,0.0,0.0,0.0,0.0,-13.0,0.0,2.0,0.0,0.0,0.0,2.0500372494239878e-11,1.5936389278898724e-11,1.192861682871062e-11,8.695028465910529e-12,6.118764210598647e-12,4.215966530806624e-12,2.8281170328839773e-12,1.8609491128807082e-12,1.1987507162503587e-12,7.569612431560918e-13,4.849718242780582e-13,3.1690051572026803e-13,2.0979331914122738e-13,1.4223331225326507e-13,9.631756588348785e-14,6.627283124864865e-14,4.5053074427892017e-14,3.0733780778177255e-14,1.9710345523742425e-14,1.2864645030854331e-14,7.975703334330946e-15,5.2684632213317524e-15,3.0392751018490383e-15,1.957967080981579e-15,1.0571688883548925e-15,8.071307493273654e-16,6.710430628547952e-09,3.4460191880056042e-09,1.752999788451497e-09,8.759829536182806e-10,4.285725486637061e-10,2.079742871757799e-10,1.0142862953780821e-10,4.9316327300942424e-11,2.393040284109668e-11,1.1377207893330681e-11,5.317346031450938e-12,2.4401987595681138e-12,1.13010437245655e-12,5.237626590618126e-13,2.48682446714281e-13,1.2696239779419988e-13,6.425159148798446e-14,4.0232248531077275e-14,1.9801539498551833e-14
0.0,51,51.0,0.0,30.0,0.0,0.0,0.0,0.0,-13.0,0.0,2.0,0.0,0.0,0.0,1.9672387564463164e-11,1.5292647737786234e-11,1.1444628257248387e-11,8.345111377883246e-12,5.875528195649756e-12,4.05128209561372e-12,2.7194092818758997e-12,1.7912318197943562e-12,1.1551627569567865e-12,7.295662889750165e-13,4.677427253177852e-13,3.0582298472573464e-13,2.0253344723477204e-13,1.373892740191959e-13,9.312447887414972e-14,6.411878869293247e-14,4.367934818678287e-14,2.9830252483279474e-14,1.9163605443011456e-14,1.2524162258179456e-14,7.779259555857666e-15,5.147562689984379e-15,2.972146985898584e-15,1.9190954887594894e-15,1.0377394404488134e-15,7.909051625849023e-16,6.668034031152172e-09,3.391741820975095e-09,1.7114766429705434e-09,8.496176073521529e-10,4.1353910110157097e-10,1.999510807120817e-10,9.731049509107658e-11,4.726547938484478e-11,2.2944482855641176e-11,1.0915783178783394e-11,5.109361794864417e-12,2.34820029617154e-12,1.0880988558417037e-12,5.051229444915339e-13,2.394585379803048e-13,1.2249692689949282e-13,6.189316843246218e-14,3.886175840523817e-14,1.9161612174803408e-14
0.0,52,52.0,0.0,30.0,0.0,0.0,0.0,0.0,-13.0,0.0,2.0,0.0,0.0,0.0,1.8853732510952228e-11,1.465794440545145e-11,1.0968675524592406e-11,8.00190169048819e-12,5.637524221890664e-12,3.8904921589960516e-12,2.613503520794515e-12,1.7234468644002963e-12,1.1128914436201594e-12,7.030546303116928e-13,4.5111942292436703e-13,2.951509914804409e-13,1.9555163727290017e-13,1.3273193399016978e-13,9.005452693554348e-14,6.204351850046842e-14,4.235564738270171e-14,2.895680888243819e-14,1.863512893143236e-14,1.2193905355715935e-14,7.588643651125129e-15,5.029688007002923e-15,2.9067969086042333e-15,1.8810430258070762e-15,1.0188102396797125e-15,7.746916279728072e-16,6.617226846993908e-09,3.332551985858047e-09,1.667737578341583e-09,8.224326294405823e-10,3.9827817606355335e-10,1.9190128779844291e-10,9.321574157883402e-11,4.5239654770891215e-11,2.1975229254756565e-11,1.046402253911656e-11,4.906153578740372e-12,2.258670390034899e-12,1.0472775743360718e-12,4.870925825749051e-13,2.305654528587929e-13,1.1820154047197022e-13,5.963573139968894e-14,3.7537908135261935e-14,1.8551451334749447e-14
0.0,53,53.0,0.0,30.0,0.0,0.0,0.0,0.0,-13.0,0.0,2.0,0.0,0.0,0.0,1.8045709352171945e-11,1.4033205498258208e-11,1.0501372281832934e-11,7.665776660732162e-12,5.404957802106509e-12,3.733696296611604e-12,2.5104348157223473e-12,1.657595772000959e-12,1.0719231884736228e-12,6.774078712678401e-13,4.3508412728390793e-13,2.848697120978748e-13,1.8883670588878486e-13,1.282534890126499e-13,8.710235064407607e-14,6.004377780900523e-14,4.1079922192271045e-14,2.8112324536621515e-14,1.8124260664963767e-14,1.1873530740933266e-14,7.403667608678066e-15,4.914745208270373e-15,2.84318146868883e-15,1.8437825773410075e-15,1.0003682785959026e-15,7.58488111719623e-16,6.557359795392922e-09,3.2682766867976105e-09,1.6217866628568116e-09,7.944668562234411e-10,3.8282010630665785e-10,1.838417654200226e-10,8.915236752939206e-11,4.324231368260396e-11,2.102395517820522e-11,1.0022410010624935e-11,4.707859197547359e-12,2.1716351545411095e-12,1.0076384357825303e-12,4.696579186563655e-13,2.219945278282237e-13,1.1406868733113566e-13,5.747523145280418e-14,3.625838919326318e-14,1.7969561425223636e-14
0.0,54,54.0,0.0,30.0,0.0,0.0,0.0,0.0,-13.0,0.0,2.0,0.0,0.0,0.0,1.724962885722319e-11,1.3419351657706426e-11,1.0043321093483925e-11,7.337101589560652e-12,5.17802453221153e-12,3.5809875480513336e-12,2.4102345044580726e-12,1.5936786819885186e-12,1.0322442630692011e-12,6.526083115544912e-13,4.1961982568100545e-13,2.749650869488307e-13,1.8237804530007003e-13,1.239465476057204e-13,8.42628464577608e-14,5.811649298030351e-14,3.985020739686557e-14,2.7295726846428983e-14,1.7630369441713746e-14,1.1562709372320218e-14,7.22414956290562e-15,4.802643503912831e-15,2.781258766067998e-15,1.807287710905988e-15,9.82400763380873e-16,7.422941747184527e-16,6.487763061572503e-09,3.1987579375206524e-09,1.5736428766541956e-09,7.65767071734501e-10,3.671983557603147e-10,1.7579030569238273e-10,8.512853971376928e-11,4.127690150059001e-11,2.0091933034042027e-11,9.591404538978252e-12,4.514606014955848e-12,2.0871160395125323e-12,9.691791240339304e-13,4.528054393448625e-13,2.137376540389158e-13,1.1009118279582562e-13,5.5407823283743796e-14,3.502104445861558e-14,1.7414467363561255e-14
