Line_number,Fiducial,Easting,Northing,Height,Elevation,tx_pitch,tx_roll,tx_yaw,txrx_dx,txrx_dy,txrx_dz,rx_pitch,rx_roll,rx_yaw,S0Z_time_3.834e-04,S0Z_time_3.924e-04,S0Z_time_4.039e-04,S0Z_time_4.184e-04,S0Z_time_4.364e-04,S0Z_time_4.589e-04,S0Z_time_4.869e-04,S0Z_time_5.224e-04,S0Z_time_5.679e-04,S0Z_time_6.249e-04,S0Z_time_6.969e-04,S0Z_time_7.879e-04,S0Z_time_9.019e-04,S0Z_time_1.046e-03,S0Z_time_1.227e-03,S0Z_time_1.456e-03,S0Z_time_1.744e-03,S0Z_time_2.109e-03,S0Z_time_2.567e-03,S0Z_time_3.145e-03,S0Z_time_3.864e-03,S0Z_time_4.745e-03,S0Z_time_5.821e-03,S0Z_time_7.140e-03,S0Z_time_8.754e-03,S0Z_time_1.073e-02,S1Z_time_2.057e-05,S1Z_time_2.607e-05,S1Z_time_3.307e-05,S1Z_time_4.206e-05,S1Z_time_5.356e-05,S1Z_time_6.807e-05,S1Z_time_8.607e-05,S1Z_time_1.086e-04,S1Z_time_1.366e-04,S1Z_time_1.721e-04,S1Z_time_2.176e-04,S1Z_time_2.746e-04,S1Z_time_3.466e-04,S1Z_time_4.376e-04,S1Z_time_5.516e-04,S1Z_time_6.956e-04,S1Z_time_8.771e-04,S1Z_time_1.106e-03,S1Z_time_1.394e-03
0.0,0,0.0,0.0,30.0,0.0,0.0,0.0,0.0,-13.0,0.0,2.0,0.0,0.0,0.0,6.263307765913941e-11,5.7126846181493504e-11,5.1129670786167045e-11,4.480982013510056e-11,3.824203622846383e-11,3.1805886574324645e-11,2.569203018634118e-11,1.995524154213389e-11,1.482577591970664e-11,1.0572895752272927e-11,7.2120159564717746e-12,4.6877316362712595e-12,2.9189353466259644e-12,1.7352717654458888e-12,9.83991749806856e-13,5.319831379570076e-13,2.7740597415675306e-13,1.3788421771220272e-13,6.653820219902674e-14,3.041746892445502e-14,1.3721705032041461e-14,5.881140758262553e-15,2.7732315464333694e-15,1.1416263881186792e-15,7.117630100644159e-16,1.9213256202340484e-16,3.5389891580073264e-09,1.6250719767428688e-09,8.136371302340304e-10,4.528855512953321e-10,2.863940480860054e-10,2.0242319405503145e-10,1.5134228196546635e-10,1.1308692447044445e-10,8.224055486963258e-11,5.716266387379364e-11,3.763444533501131e-11,2.3634866636510804e-11,1.4085581379181761e-11,7.963579169890633e-12,4.282322880035595e-12,2.1919011669682437e-12,1.0626645348789747e-12,4.918207202185568e-13,2.2104650163666277e-13
0.0,1,1.0,0.0,30.0,0.0,0.0,0.0,0.0,-13.0,0.0,2.0,0.0,0.0,0.0,6.216498266947068e-11,5.712693853759605e-11,5.1657092645499097e-11,4.58832553302257e-11,3.981235995589377e-11,3.375028268536414e-11,2.785017379287858e-11,2.215572416102727e-11,1.6902289249346007e-11,1.2398019060770122e-11,8.709030712936847e-12,5.8357963827946515e-12,3.7461801271515034e-12,2.2952876567285798e-12,1.340390809117503e-12,7.458401750177332e-13,3.988207507484977e-13,2.0336394966751003e-13,1.0004711441390282e-13,4.688468037954974e-14,2.150844239709392e-14,9.416887426640052e-15,4.36008649770419e-15,1.8917275795870054e-15,1.0663116898724714e-15,3.081119077686265e-16,3.517252019302568e-09,1.6124274372711239e-09,8.073503826806907e-10,4.4597385670292533e-10,2.748969050294228e-10,1.8820219503117154e-10,1.386178241982302e-10,1.0448451236539776e-10,7.797125723811888e-11,5.609785790561126e-11,3.838402387106066e-11,2.5086622152176197e-11,1.5573723907107412e-11,9.170395318956384e-12,5.135744501874784e-12,2.7318043602028207e-12,1.3748568405245405e-12,6.602205058980377e-13,3.032584236901075e-13
0.0,2,2.0,0.0,30.0,0.0,0.0,0.0,0.0,-13.0,0.0,2.0,0.0,0.0,0.0,6.116280485421905e-11,5.63722213210776e-11,5.1233174776912334e-11,4.5864508020536156e-11,4.0232540690085984e-11,3.457570393222907e-11,2.8993928084067604e-11,2.350019288214853e-11,1.830976018963753e-11,1.3739303391211873e-11,9.887747570676163e-12,6.796971261489024e-12,4.478543088370185e-12,2.817186954314769e-12,1.6887099557816352e-12,9.643717627214353e-13,5.279759912650512e-13,2.756856456435499e-13,1.3825961528055517e-13,6.624338985608708e-14,3.0884753963145295e-14,1.3820606828010315e-14,6.347865913250368e-15,2.8447219918306648e-15,1.4852986568041173e-15,4.690352611631249e-16,3.4949455964287747e-09,1.6001082066723532e-09,8.035171325641936e-10,4.452784299238952e-10,2.724219305506585e-10,1.8227393553099113e-10,1.3086478386492063e-10,9.745719941505395e-11,7.321525224672879e-11,5.3776359636033654e-11,3.7854803316907935e-11,2.5528456445175964e-11,1.637250768447983e-11,9.967412756493899e-12,5.774509141337933e-12,3.174123719308949e-12,1.650619899362487e-12,8.185147584737212e-13,3.8506380048811613e-13
0.0,3,3.0,0.0,30.0,0.0,0.0,0.0,0.0,-13.0,0.0,2.0,0.0,0.0,0.0,6.018555150662028e-11,5.547969197965918e-11,5.049301032214131e-11,4.535817080354429e-11,4.0032670444207576e-11,3.4713664873473314e-11,2.9451641034637745e-11,2.4219297987723787e-11,1.9192852230363644e-11,1.4673187660098295e-11,1.0775106379630482e-11,7.568323960069268e-12,5.099877272310608e-12,3.2826017766263667e-12,2.01385384533959e-12,1.1771788547721061e-12,6.587028761505682e-13,3.515550635413379e-13,1.796492472669306e-13,8.782553307576387e-14,4.160148372026162e-14,1.8999638071435372e-14,8.72242464543664e-15,3.9895892874104224e-15,1.9761625749599713e-15,6.808714785767505e-16,3.472069604516626e-09,1.5878507354405842e-09,8.0018906353529e-10,4.4630599200363907e-10,2.737234611500352e-10,1.813825354714031e-10,1.2751848987348741e-10,9.298261380818215e-11,6.921668618018383e-11,5.115208436724356e-11,3.6660663539037255e-11,2.532511374519857e-11,1.6676507450757984e-11,1.0437313436251016e-11,6.220573819589356e-12,3.5169913401177365e-12,1.882044563308161e-12,9.599117006865967e-13,4.623617127840439e-13
0.0,4,4.0,0.0,30.0,0.0,0.0,0.0,0.0,-13.0,0.0,2.0,0.0,0.0,0.0,5.945496464387808e-11,5.473879537870079e-11,4.978176935559383e-11,4.473812449329809e-11,3.957791435946823e-11,3.448650991047931e-11,2.9483462383847386e-11,2.450571336701811e-11,1.9682827547546042e-11,1.5281253716664375e-11,1.1414103508064783e-11,8.165764110894329e-12,5.609962314661569e-12,3.684277954176593e-12,2.3073401041641215e-12,1.377258695704242e-12,7.862833544410432e-13,4.281731835047602e-13,2.227784172797485e-13,1.1094928147557676e-13,5.3374673606392924e-14,2.4835940412911703e-14,1.145245548258788e-14,5.311436324724309e-15,2.543276516099549e-15,9.43974395302091e-16,3.448610182021145e-09,1.5756879639309912e-09,7.971505450939311e-10,4.4781336561007483e-10,2.763167434522176e-10,1.8293014111465174e-10,1.2711905047996134e-10,9.092035494253116e-11,6.652752680168805e-11,4.885050468410446e-11,3.524629279370511e-11,2.4746735672205967e-11,1.6641322086563945e-11,1.0659815351497112e-11,6.507018740343184e-12,3.76937947728417e-12,2.068213221972179e-12,1.0813174669630758e-12,5.326092763720139e-13
0.0,5,5.0,0.0,30.0,0.0,0.0,0.0,0.0,-13.0,0.0,2.0,0.0,0.0,0.0,5.902710751437344e-11,5.425292383996895e-11,4.9254808130541225e-11,4.4206060760957614e-11,3.909701722292265e-11,3.4121768185144244e-11,2.9290217863371515e-11,2.4517646536246397e-11,1.989257056201158e-11,1.563801061646649e-11,1.1849469561741312e-11,8.612206832568297e-12,6.0169180343692335e-12,4.021954104652113e-12,2.565433247968561e-12,1.5603823947183959e-12,9.073893688803348e-13,5.033305848551934e-13,2.6639765733281443e-13,1.3497363899063524e-13,6.591341976092072e-14,3.1199791004635147e-14,1.449473039984127e-14,6.792433502060656e-15,3.1871028177729375e-15,1.2508536973735436e-15,3.424573467518273e-09,1.5636384881889986e-09,7.944229530640347e-10,4.495839551904322e-10,2.7932755648960197e-10,1.8547338087046862e-10,1.2834485463705846e-10,9.062977002423724e-11,6.517185168892387e-11,4.719829419078399e-11,3.3931850226584985e-11,2.4005899675565897e-11,1.6389744455361624e-11,1.0701419882831445e-11,6.6670429543253286e-12,3.9444639743821985e-12,2.212135131689252e-12,1.182060952693844e-12,5.946337910307068e-13
0.0,6,6.0,0.0,30.0,0.0,0.0,0.0,0.0,-13.0,0.0,2.0,0.0,0.0,0.0,5.88904383320756e-11,5.403616567302519e-11,4.8960678653183114e-11,4.3850351903793226e-11,3.8714502782416385e-11,3.376500889352504e-11,2.9017603622664477e-11,2.438144467387528e-11,1.9918201872923655e-11,1.5809489780217153e-11,1.2122898746259249e-11,8.931602996672037e-12,6.332375618524745e-12,4.299340292443704e-12,2.7875830610088953e-12,1.7244169000631784e-12,1.0198591244753114e-12,5.753876879086488e-13,3.094857526262339e-13,1.5933087791331509e-13,7.893953286033544e-14,3.7959577636004694e-14,1.7798955486624648e-14,8.412517205974096e-15,3.904884277192124e-15,1.5910360677536569e-15,3.3999815283314246e-09,1.551726311360176e-09,7.920260325756965e-10,4.516139130612248e-10,2.825309513707268e-10,1.8838577126725761e-10,1.3034518283095738e-10,9.143902764694351e-11,6.488987369549111e-11,4.627086749025159e-11,3.2912381731547274e-11,2.3268385739229457e-11,1.6023482379753117e-11,1.0617270148084142e-11,6.729823723354615e-12,4.055832033530975e-12,2.318669124999562e-12,1.2630091161987179e-12,6.482040621096009e-13
0.0,7,7.0,0.0,30.0,0.0,0.0,0.0,0.0,-13.0,0.0,2.0,0.0,0.0,0.0,5.901097921177796e-11,5.406638269017242e-11,4.8896140720551825e-11,4.369430223658057e-11,3.84844339496961e-11,3.349717899767275e-11,2.876157801891235e-11,2.419201388957386e-11,1.9839339928390573e-11,1.585385249284069e-11,1.2272463364542512e-11,9.146795046274009e-12,6.568826193126562e-12,4.522044368711228e-12,2.9752100147520507e-12,1.8687344361774016e-12,1.122448858400524e-12,6.432028205473871e-13,3.5124846844599367e-13,1.8354173509048385e-13,9.220052457219783e-14,4.498869797393179e-14,2.131174627553121e-14,1.0150135588384377e-14,4.691523099710766e-15,1.958943453844492e-15,3.374863485125028e-09,1.5399865326857866e-09,7.899752635860444e-10,4.539170778065124e-10,2.8589484533069885e-10,1.9145101808317076e-10,1.3267840826469972e-10,9.284964348444392e-11,6.535033465311064e-11,4.598423553094366e-11,3.226677606748991e-11,2.2648847302923386e-11,1.5626780608576536e-11,1.045511923459816e-11,6.7204801552774565e-12,4.115874054843213e-12,2.3931931045805857e-12,1.325922108224901e-12,6.935736256799397e-13
0.0,8,8.0,0.0,30.0,0.0,0.0,0.0,0.0,-13.0,0.0,2.0,0.0,0.0,0.0,5.934995935457135e-11,5.430982808891657e-11,4.9036639253901665e-11,4.3728570686309844e-11,3.841874286312383e-11,3.3353761631083974e-11,2.8577275577606745e-11,2.4014447980941744e-11,1.9718272012194004e-11,1.582105263612488e-11,1.2332768805311005e-11,9.279187175110344e-12,6.7385322441983184e-12,4.696333859657043e-12,3.1308076868101543e-12,1.993719606503803e-12,1.2146106841592594e-12,7.060474786621464e-13,3.910956564231549e-13,2.072178537409408e-13,1.0547664828141113e-13,5.217030596581593e-14,2.4979717352419512e-14,1.1983076162751597e-14,5.54020150195818e-15,2.356928718014909e-15,3.349253100660172e-09,1.5284605407397468e-09,7.882902379535218e-10,4.565020775846772e-10,2.8942504179659445e-10,1.9461439388888354e-10,1.3515308255998763e-10,9.455846041593276e-11,6.626896363167144e-11,4.618815277995839e-11,3.198772481488844e-11,2.220968586321197e-11,1.5264124921667806e-11,1.0256732967006072e-11,6.661281403811083e-12,4.135599617164476e-12,2.440910319313673e-12,1.3729598473699002e-12,7.311728729292418e-13
0.0,9,9.0,0.0,30.0,0.0,0.0,0.0,0.0,-13.0,0.0,2.0,0.0,0.0,0.0,5.987011697173306e-11,5.4731378758351355e-11,4.935122397717526e-11,4.393007770704942e-11,3.8507257335435824e-11,3.33417428212163e-11,2.8489772054234298e-11,2.3888117937067734e-11,1.959989125632576e-11,1.5751858145154724e-11,1.2334599023959134e-11,9.348782556022979e-12,6.853271805131208e-12,4.828555719656066e-12,3.257352855188914e-12,2.100374348832296e-12,1.296301324985425e-12,7.635243042339176e-13,4.286119138666778e-13,2.300564243133718e-13,1.1858300431753418e-13,5.940023717649174e-14,2.875177984374415e-14,1.3889267885347517e-14,6.4429055048619916e-15,2.7917855458454297e-15,3.323188998906856e-09,1.5171927824390996e-09,7.869946436578811e-10,4.593766726920632e-10,2.93128636849303e-10,1.9787075799712914e-10,1.3770129198434294e-10,9.640714407647994e-11,6.74458962346113e-11,4.673010891302063e-11,3.201925528783143e-11,2.1968977902748518e-11,1.497802510874452e-11,1.0056883328721483e-11,6.572324441901382e-12,4.1250029075048945e-12,2.4666334324716724e-12,1.4063501489593988e-12,7.614834514006515e-13
0.0,10,10.0,0.0,30.0,0.0,0.0,0.0,0.0,-13.0,0.0,2.0,0.0,0.0,0.0,6.053803210138044e-11,5.52985938038483e-11,4.9809289348980964e-11,4.4271981638834455e-11,3.873022606288089e-11,3.345242569902965e-11,2.8504341665693037e-11,2.383241455985266e-11,1.951320573173425e-11,1.5677240067991045e-11,1.2304173690132119e-11,9.373980216201532e-12,6.9243156034916526e-12,4.924951962096186e-12,3.357984911761769e-12,2.1900308969997144e-12,1.3678204338659047e-12,8.154909576853086e-13,4.635279376034651e-13,2.518312219852691e-13,1.3136835419042174e-13,6.658835105268168e-14,3.2580711501064886e-14,1.584744636233305e-14,7.391006864153334e-15,3.268692832546829e-15,3.2967150928691814e-09,1.5062298684953596e-09,7.861142089749274e-10,4.625503061731406e-10,2.9701058909969195e-10,2.0122519037759649e-10,1.4030600028033996e-10,9.832426599308668e-11,6.875886537142903e-11,4.748631012321004e-11,3.2288353557392946e-11,2.1914099641099212e-11,1.478996784006187e-11,9.881826676718037e-12,6.471332679897016e-12,4.0933559866182185e-12,2.4748186897364922e-12,1.42822033322209e-12,7.850295184084667e-13
0.0,11,11.0,0.0,30.0,0.0,0.0,0.0,0.0,-13.0,0.0,2.0,0.0,0.0,0.0,6.13250821083038e-11,5.598330098691584e-11,5.038343134225609e-11,4.47285264989266e-11,3.906543161313028e-11,3.3670027189210555e-11,2.8614767837298813e-11,2.3852778754359775e-11,1.947412464861654e-11,1.5618668017663848e-11,1.2262517721599157e-11,9.371129019578754e-12,6.96232996044058e-12,4.991624445456953e-12,3.4358726943369615e-12,2.264172370497791e-12,1.4296821019488575e-12,8.619911564088249e-13,4.956940541261541e-13,2.723825544887462e-13,1.437123325927631e-13,7.365864434240704e-14,3.642407202417064e-14,1.783764137657234e-14,8.375838905941312e-15,3.786946803241746e-15,3.26988078827858e-09,1.49562055963047e-09,7.8567541856504e-10,4.660339799860885e-10,3.0107553426129584e-10,2.0468293934659846e-10,1.4296724302606184e-10,1.0028313393819821e-10,7.014148910875802e-11,4.836931280970488e-11,3.2725230943403184e-11,2.2015817998422487e-11,1.4704365454698344e-11,9.748677057910497e-12,6.373015208938777e-12,4.049211638498987e-12,2.469651453565099e-12,1.4405496483056853e-12,8.02406720190949e-13
0.0,12,12.0,0.0,30.0,0.0,0.0,0.0,0.0,-13.0,0.0,2.0,0.0,0.0,0.0,6.220774287343154e-11,5.676211227873664e-11,5.105050231842269e-11,4.52771548148719e-11,3.9491854760731464e-11,3.397688906835087e-11,2.8809303659620452e-11,2.3945994408129893e-11,1.9488790658257773e-11,1.5589271173633793e-11,1.2225280685451622e-11,9.354061990570717e-12,6.9771529192054884e-12,5.034495626442158e-12,3.4941749077098523e-12,2.3243407363553462e-12,1.4825229400914814e-12,9.031955516757539e-13,5.250556026516182e-13,2.9160715707083275e-13,1.555222113740889e-13,8.054857147557394e-14,4.0244582890914846e-14,1.9841506668717886e-14,9.389108085777618e-15,4.339203957847867e-15,3.2427410753589714e-09,1.4854158424766763e-09,7.857050589457719e-10,4.698394918604034e-10,3.0532881304816846e-10,2.0824839440730538e-10,1.4568916794130706e-10,1.0227707124000897e-10,7.156201663603798e-11,4.9323635748345203e-11,3.327300785137752e-11,2.223946467182848e-11,1.4713908410631285e-11,9.666052580899167e-12,6.288519000281936e-12,4.000182386364895e-12,2.4550763232105858e-12,1.4451816046418626e-12,8.143000631037709e-13
0.0,13,13.0,0.0,30.0,0.0,0.0,0.0,0.0,-13.0,0.0,2.0,0.0,0.0,0.0,6.316743961761539e-11,5.761636990793317e-11,5.179178724322358e-11,4.589920606702888e-11,3.999130490152928e-11,3.43563102390591e-11,2.9074517054682667e-11,2.410426995332335e-11,1.9556793294859717e-11,1.5595520348250206e-11,1.2203067748059668e-11,9.333807372401036e-12,6.977519153609374e-12,5.0592132756799866e-12,3.536022170633132e-12,2.3721000483604186e-12,1.527044627233088e-12,9.393552353541744e-13,5.516302436881662e-13,3.0944834322460906e-13,1.6672971949692014e-13,8.720796092342804e-14,4.4010125906782045e-14,2.1842531354671772e-14,1.0423052780488419e-14,4.913510658381802e-15,3.2153566126382727e-09,1.475668901874632e-09,7.86230125091033e-10,4.739788938050534e-10,3.097765559554351e-10,2.1192576355063462e-10,1.4847619279469114e-10,1.0430703106307818e-10,7.30077795725722e-11,5.0317389036146745e-11,3.389010897530394e-11,2.2552129562915377e-11,1.480477962985012e-11,9.635678048173502e-12,6.225270682268524e-12,3.952659651834188e-12,2.4347517885185167e-12,1.4438475269523992e-12,8.214755078389398e-13
0.0,14,14.0,0.0,30.0,0.0,0.0,0.0,0.0,-13.0,0.0,2.0,0.0,0.0,0.0,6.419007643781669e-11,5.853174700761946e-11,5.259272231982458e-11,4.657989306418612e-11,4.0548917689858194e-11,3.4793855556512943e-11,2.939750840674559e-11,2.431806294338375e-11,1.9673858604874194e-11,1.5639046502958524e-11,1.2202157687351475e-11,9.318558870596623e-12,6.9708293391071704e-12,5.071012814985525e-12,3.5644836129851566e-12,2.409023956245482e-12,1.563983197374094e-12,9.707689158178231e-13,5.754879640045984e-13,3.2588659739411666e-13,1.7728799255196853e-13,9.359778726851715e-14,4.769351196422463e-14,2.3826162408147596e-14,1.1470383595135301e-14,5.496432791698413e-15,3.1877938355888906e-09,1.466435010071021e-09,7.872777967619172e-10,4.784642486325475e-10,3.1442543656116067e-10,2.1571955470445893e-10,1.513323880003211e-10,1.063762492014347e-10,7.447553061832206e-11,5.1334175385451914e-11,3.454872263322609e-11,2.292630450622551e-11,1.49608160221764e-11,9.654402843554507e-12,6.187246793713243e-12,3.911609422377122e-12,2.4119580920946545e-12,1.438175966705631e-12,8.247504305110012e-13
0.0,15,15.0,0.0,30.0,0.0,0.0,0.0,0.0,-13.0,0.0,2.0,0.0,0.0,0.0,6.526537944337602e-11,5.949765399443219e-11,5.34423793755237e-11,4.730792344171509e-11,4.115305937575781e-11,3.5277763235808404e-11,2.9767004886125135e-11,2.457783551536458e-11,1.983386514454417e-11,1.5718309105967563e-11,1.2225418421398215e-11,9.313886666057593e-12,6.96302572033978e-12,5.0745754171803246e-12,3.582510562008993e-12,2.4366859271980223e-12,1.594094870707122e-12,9.9776246829938e-13,5.967346748866811e-13,3.4093090293752193e-13,1.8716857728245625e-13,9.968892651329676e-14,5.127213795100957e-14,2.577985091082355e-14,1.2524118974157764e-14,6.075844733143759e-15,3.160125083499867e-09,1.4577713793469181e-09,7.888753876907359e-10,4.83307555421738e-10,3.1928243175117194e-10,2.196346925008568e-10,1.5426166402818938e-10,1.0848832344225832e-10,7.596613373151496e-11,5.236686019823497e-11,3.523175017800811e-11,2.3341000091115055e-11,1.5166325299853718e-11,9.716167127441422e-12,6.175556677596861e-12,3.880509945290499e-12,2.389499389743113e-12,1.429682327104151e-12,8.249547333047978e-13
0.0,16,16.0,0.0,30.0,0.0,0.0,0.0,0.0,-13.0,0.0,2.0,0.0,0.0,0.0,6.638617749933435e-11,6.050657079115454e-11,5.433285577073003e-11,4.8074970567550844e-11,4.1794951025938375e-11,3.579886373725029e-11,3.017374765225721e-11,2.4875008473165553e-11,2.0030210468909612e-11,1.5829958921771873e-11,1.2273247936887148e-11,9.323115999437018e-12,6.958591054127712e-12,5.073916797506122e-12,3.5928668083226087e-12,2.456641924620856e-12,1.6181491381416462e-12,1.0206778794255857e-12,6.15499867241207e-13,3.546111608893233e-13,1.963584508975463e-13,1.0546093488424091e-13,5.4727605521663063e-14,2.7693025278674734e-14,1.357743801124488e-14,6.6426498705476296e-15,3.1324287281708084e-09,1.4497370032754126e-09,7.910502614445272e-10,4.88520737087065e-10,3.243546771792151e-10,2.2367644921178867e-10,1.5726798305250443e-10,1.1064671596877249e-10,7.748195791925023e-11,5.341338164355567e-11,3.5929647464018114e-11,2.3781373266340443e-11,1.5407670659569684e-11,9.813631605941494e-12,6.189174532691997e-12,3.8614338177933454e-12,2.3696324946178937e-12,1.4197443272039731e-12,8.228929034512897e-13
0.0,17,17.0,0.0,30.0,0.0,0.0,0.0,0.0,-13.0,0.0,2.0,0.0,0.0,0.0,6.75477130011177e-11,6.155339362952757e-11,5.525866211243943e-11,4.8875111926160093e-11,4.2468190735898426e-11,3.63502669693779e-11,3.0610475061719346e-11,2.520237171980459e-11,2.0256640647844627e-11,1.596984901519069e-11,1.2344421683901018e-11,9.347787149566864e-12,6.960654749709541e-12,5.072326657661511e-12,3.5980601772476164e-12,2.4704041645246324e-12,1.6369226597991353e-12,1.0398680368643757e-12,6.319281527907665e-13,3.6697198345748397e-13,2.0485710565012126e-13,1.1090085586606707e-13,5.804533732760824e-14,2.955699499105803e-14,1.462363003526766e-14,7.191345733314971e-15,3.1047892934623426e-09,1.4423924949187563e-09,7.938297320411566e-10,4.941156403785071e-10,3.2964940355652845e-10,2.278503339377963e-10,1.603554455504702e-10,1.1285473084326754e-10,7.902574990642919e-11,5.4474200671659595e-11,3.6637790931477786e-11,2.423766544966491e-11,1.5673917587237032e-11,9.939360706543008e-12,6.225676905608609e-12,3.855239397773548e-12,2.354038601844864e-12,1.4095728144968419e-12,8.193130681122983e-13
0.0,18,18.0,0.0,30.0,0.0,0.0,0.0,0.0,-13.0,0.0,2.0,0.0,0.0,0.0,6.874703783223106e-11,6.26348519206376e-11,5.6216164595084024e-11,4.970430214083364e-11,4.316827188104335e-11,3.692696854171338e-11,3.1071703906294754e-11,2.5554159631639715e-11,2.050768153167734e-11,1.6133718038862432e-11,1.2436784353100946e-11,9.388123158453272e-12,6.971173217057987e-12,5.072362990127079e-12,3.60028797571025e-12,2.479409596524253e-12,1.6511907659592517e-12,1.055694197341864e-12,6.461740029046413e-13,3.780679769933985e-13,2.1267381440004441e-13,1.160020596702941e-13,6.121420182765704e-14,3.1364794542589625e-14,1.5656162807169085e-14,7.71971196580744e-15,3.077297561279638e-09,1.4357999236714618e-09,7.972409664808312e-10,5.001040358672677e-10,3.35173920648821e-10,2.3216200382223656e-10,1.635282854557722e-10,1.1511558804086166e-10,8.060022602288853e-11,5.555087929825774e-11,3.7354535974593703e-11,2.4703965553591624e-11,1.5956866100068365e-11,1.0086570468668034e-11,6.281889099788246e-12,3.861823475677801e-12,2.3438399251364507e-12,1.4001866813861609e-12,8.148852040499162e-13
0.0,19,19.0,0.0,30.0,0.0,0.0,0.0,0.0,-13.0,0.0,2.0,0.0,0.0,0.0,6.998251784034032e-11,6.374902157479138e-11,5.7203110874011817e-11,5.0559914912702816e-11,4.3892147539182646e-11,3.752545760736947e-11,3.1553433332997855e-11,2.5925942521629543e-11,2.07788009260737e-11,1.6317604577722063e-11,1.2547768929437264e-11,9.443454465244424e-12,6.991148244695454e-12,5.075894065492862e-12,3.6014036504798113e-12,2.4849883885247267e-12,1.6617159452985542e-12,1.0685238694014481e-12,6.58398739670917e-13,3.879604387830675e-13,2.1982520510617874e-13,1.2076313242234149e-13,6.422614674877565e-14,3.3110984241394936e-14,1.6668844437695235e-14,8.228008133195212e-15,3.0500506613712027e-09,1.430022650308346e-09,8.013108997039023e-10,5.064976208839403e-10,3.4093562516903e-10,2.3661721163833914e-10,1.667908288120876e-10,1.174324778608666e-10,8.220796983931351e-11,5.664535570205136e-11,3.80799064370323e-11,2.5177075258748282e-11,1.6250741977388476e-11,1.0249517123659211e-11,6.3543926000805696e-12,3.880390419774143e-12,2.3396535409797813e-12,1.3923977413620428e-12,8.101882092301991e-13
0.0,20,20.0,0.0,30.0,0.0,0.0,0.0,0.0,-13.0,0.0,2.0,0.0,0.0,0.0,7.12534470528413e-11,6.489493985935909e-11,5.821824801771492e-11,5.144036648649461e-11,4.463786243348658e-11,3.8143366800598635e-11,3.205284220932524e-11,2.6314434511807504e-11,2.1066405727907837e-11,1.6518060865706394e-11,1.2674754922326983e-11,9.512572726397217e-12,7.020852339365171e-12,5.084175003297685e-12,3.602906607166046e-12,2.4883371184024295e-12,1.6692343015752825e-12,1.078727859880686e-12,6.687688321344618e-13,3.967152421108848e-13,2.263332397102021e-13,1.2518684363556773e-13,6.707583950140473e-14,3.479142860157906e-14,1.7656029731599126e-14,8.718020764178851e-15,3.0231521410140153e-09,1.4251251587865692e-09,8.060661665673248e-10,5.133080312648267e-10,3.4694202056505116e-10,2.4122178424931825e-10,1.701474511742951e-10,1.1980858057474262e-10,8.385143634582519e-11,5.7759612461631695e-11,3.8814772595336984e-11,2.5655591225827822e-11,1.6551744530559127e-11,1.0423623846940989e-11,6.439883446304156e-12,3.909704165861679e-12,2.3416701943697146e-12,1.386808078872768e-12,8.057044297646961e-13
0.0,21,21.0,0.0,30.0,0.0,0.0,0.0,0.0,-13.0,0.0,2.0,0.0,0.0,0.0,7.255976014567528e-11,6.607231379041286e-11,5.926102801108542e-11,5.234481966533357e-11,4.5404256823075516e-11,3.877917991284866e-11,3.2568015711908924e-11,2.6717278987632473e-11,2.136774986295132e-11,1.673222911777191e-11,1.2815292539496705e-11,9.594004622182235e-12,7.060038614759831e-12,5.097944412432087e-12,3.605953052838341e-12,2.4904997672770195e-12,1.6744416226652397e-12,1.0866760879418386e-12,6.77454722021351e-13,4.0440160312646654e-13,2.322236379781552e-13,1.2927922315271443e-13,6.976031557315978e-14,3.640307324203217e-14,1.8612818766634913e-14,9.19219017220689e-15,2.996712009119434e-09,1.4211728830493045e-09,8.115330518428351e-10,5.205468658666026e-10,3.5320074405898356e-10,2.4598162224114024e-10,1.7360254872480804e-10,1.222470646332932e-10,8.553297967008347e-11,5.889554781991045e-11,3.9560370160513374e-11,2.6139223354319584e-11,1.6857575664387332e-11,1.0605438335306642e-11,6.535395510886612e-12,3.948302451903531e-12,2.3497452124298026e-12,1.3838195651537224e-12,8.018199686952377e-13
0.0,22,22.0,0.0,30.0,0.0,0.0,0.0,0.0,-13.0,0.0,2.0,0.0,0.0,0.0,7.390182615440937e-11,6.728130765527994e-11,6.033138927735716e-11,5.327295981299719e-11,4.619073744251197e-11,3.9431999036866875e-11,3.309771560765603e-11,2.7132845325071035e-11,2.1680803826460414e-11,1.6957832043824427e-11,1.296722424022208e-11,9.686208984624139e-12,7.10812179169172e-12,5.117528088967225e-12,3.611383330168556e-12,2.4923578142086418e-12,1.6779806987444482e-12,1.092732353838932e-12,6.846296512551515e-13,4.1109141052530195e-13,2.3752473091007197e-13,1.3304877242757808e-13,7.227863944175577e-14,3.794373795431048e-14,1.9535207109673772e-14,9.652937539526226e-15,2.970846748572046e-09,1.4182320274718886e-09,8.177374577684434e-10,5.282257252483196e-10,3.597195995033412e-10,2.509027126129935e-10,1.771605258676768e-10,1.2475107815569734e-10,8.725487698092718e-11,6.00549417127386e-11,4.031803939962817e-11,2.6628321225257834e-11,1.7167017777995323e-11,1.0792496481875158e-11,6.638414543311266e-12,3.994664184479335e-12,2.3634904899593214e-12,1.3836533349114594e-12,7.988292309962252e-13
0.0,23,23.0,0.0,30.0,0.0,0.0,0.0,0.0,-13.0,0.0,2.0,0.0,0.0,0.0,7.528030554922778e-11,6.852239348304909e-11,6.142960007925325e-11,5.4224830955084866e-11,4.6997106150360455e-11,4.010136580557673e-11,3.364119661538796e-11,2.7560052696976763e-11,2.200411705185768e-11,1.7193115920445077e-11,1.3128733536054232e-11,9.7877076485554e-12,7.164324437409706e-12,5.142939699940565e-12,3.6197603139152665e-12,2.494629227655271e-12,1.6804311426149729e-12,1.0972485580333208e-12,6.904682117984178e-13,4.1685883758179015e-13,2.4226668518531625e-13,1.3650582301973966e-13,7.46315848042493e-14,3.9411938312811796e-14,2.0420164964205602e-14,1.0102228243040953e-14,2.9456792904313466e-09,1.4163693803308467e-09,8.247048884854887e-10,5.363562641186635e-10,3.6650659549013805e-10,2.559911490792473e-10,1.808257966994602e-10,1.2732374279943414e-10,8.901934409405486e-11,6.123946027463134e-11,4.108909697313608e-11,2.7123564234791987e-11,1.7479588741647632e-11,1.0983146665972177e-11,6.746912022624034e-12,4.0473293507386e-12,2.3823594342643987e-12,1.3863760798824967e-12,7.969424045823161e-13
0.0,24,24.0,0.0,30.0,0.0,0.0,0.0,0.0,-13.0,0.0,2.0,0.0,0.0,0.0,7.669605449172334e-11,6.979624923022928e-11,6.255614983149486e-11,5.520071953076229e-11,4.7823435551895637e-11,4.0787128361461544e-11,3.4198065049002364e-11,2.799822596602409e-11,2.2336690334901645e-11,1.7436772616264563e-11,1.3298346225948113e-11,9.897163321746585e-12,7.2277880907054084e-12,5.1739716818370656e-12,3.6314136182261362e-12,2.49787512079921e-12,1.682302442318339e-12,1.1005589550120916e-12,6.951445412357418e-13,4.217800231065167e-13,2.4648101538864244e-13,1.3966204152168877e-13,7.682134125644795e-14,4.0806742335158194e-14,2.1265640236150283e-14,1.0541353835263937e-14,2.9213389436241095e-09,1.4156521204495225e-09,8.324604509930949e-10,5.449502562016183e-10,3.7356998806721323e-10,2.6125315666849153e-10,1.846027963404324e-10,1.2996815372978281e-10,9.082854549962025e-11,6.245067243658274e-11,4.1874782595682416e-11,2.7625770676577835e-11,1.7795278264498924e-11,1.1176370133044478e-11,6.859325713544958e-12,4.104976290185195e-12,2.4057198461379013e-12,1.3919298610482613e-12,7.962948179212471e-13
0.0,25,25.0,0.0,30.0,0.0,0.0,0.0,0.0,-13.0,0.0,2.0,0.0,0.0,0.0,7.815006288255863e-11,7.110369171338032e-11,6.371167601301638e-11,5.6201074375363385e-11,4.866998123598239e-11,4.148934506902313e-11,3.476817332728734e-11,2.844698271606814e-11,2.2677866262442758e-11,1.7687857320162227e-11,1.347490356705689e-11,1.0013417894832953e-11,7.297652417092342e-12,5.2102725877249455e-12,3.646485174574362e-12,2.5025122892679686e-12,1.6840304711096952e-12,1.1029749689843524e-12,6.988302270323203e-13,4.2593268328282323e-13,2.502002938595308e-13,1.4253006810435437e-13,7.885125321659227e-14,4.212766339633996e-14,2.207049417115003e-14,1.0970887760401963e-14,2.897961273899444e-09,1.4161476179282849e-09,8.410288726411823e-10,5.54019669805761e-10,3.809183271169539e-10,2.666951186466851e-10,1.884959984525584e-10,1.3268738601646093e-10,9.268460232517734e-11,6.369006789731901e-11,4.2676244818001355e-11,2.813578802372795e-11,1.8114357397972265e-11,1.137161778649322e-11,6.974509063553092e-12,4.166463889133486e-12,2.4329124147021072e-12,1.400162516605751e-12,7.969573193633864e-13
0.0,26,26.0,0.0,30.0,0.0,0.0,0.0,0.0,-13.0,0.0,2.0,0.0,0.0,0.0,7.964341579378151e-11,7.244563397641992e-11,6.489691660735514e-11,5.7226453283168507e-11,4.953712154178383e-11,4.220821661630283e-11,3.535154335212348e-11,2.890614762070135e-11,2.3027239900388952e-11,1.7945711589592662e-11,1.3657521428284133e-11,1.0135503156743965e-11,7.373107362986102e-12,5.251409514436546e-12,3.664972825123477e-12,2.5088296925744927e-12,1.6859772757361953e-12,1.1047809638796008e-12,7.016920595846524e-13,4.293955857182116e-13,2.534579748553206e-13,1.451232673624779e-13,8.072559451855963e-14,4.337458652206339e-14,2.283438646484454e-14,1.1390761150092793e-14,2.87568792623792e-09,1.4179232306998191e-09,8.504345355466074e-10,5.635767523401647e-10,3.885605052412517e-10,2.723236045387029e-10,1.9250993614997754e-10,1.3548450617814282e-10,9.458960056307078e-11,6.495907312613057e-11,4.3494545320106777e-11,2.8654435640905933e-11,1.843724780726542e-11,1.1568672854343306e-11,7.091666062339671e-12,4.2308470602284395e-12,2.4632945682147105e-12,1.4108563972601361e-12,7.9894699583517e-13
0.0,27,27.0,0.0,30.0,0.0,0.0,0.0,0.0,-13.0,0.0,2.0,0.0,0.0,0.0,8.117727058219804e-11,7.382305930379411e-11,6.611268027301807e-11,5.827748845939463e-11,5.0425317384475563e-11,4.294403935192161e-11,3.594831222973689e-11,2.937568935361286e-11,2.3384588816906622e-11,1.820989643171126e-11,1.3845544850809166e-11,1.0262633720812577e-11,7.453423879039338e-12,5.296915950411089e-12,3.686769684436052e-12,2.5170070568414116e-12,1.6884336897079884e-12,1.1062312000798295e-12,7.038898004133793e-13,4.3224787237352857e-13,2.562882651024582e-13,1.4745556576223973e-13,8.244937940234396e-14,4.454772256561711e-14,2.355762987935888e-14,1.1800407802067559e-14,2.85466638568032e-09,1.421046099630183e-09,8.60701528649399e-10,5.736341221489227e-10,3.96505807958916e-10,2.7814539843044805e-10,1.966492243816974e-10,1.383625871328477e-10,9.654560055037351e-11,6.625906504154381e-11,4.4330670611356146e-11,2.91824795230116e-11,1.8764436708504393e-11,1.1767541829529273e-11,7.2102830085220335e-12,4.297373414479968e-12,2.4962708111884558e-12,1.4237538948274545e-12,8.022376994850323e-13
0.0,28,28.0,0.0,30.0,0.0,0.0,0.0,0.0,-13.0,0.0,2.0,0.0,0.0,0.0,8.275284420604023e-11,7.523700623789225e-11,6.735982846481445e-11,5.935486500655034e-11,5.133508628472657e-11,4.369717406315776e-11,3.655869474671993e-11,2.9855675277372315e-11,2.3749819988409692e-11,1.848013699153585e-11,1.4038503839173587e-11,1.0394189671381094e-11,7.537968587130583e-12,5.34632646083891e-12,3.7116980047135535e-12,2.527134053829202e-12,1.6916241689945076e-12,1.1075480593657242e-12,7.055741221861192e-13,4.3456825646067664e-13,2.5872599188356833e-13,1.495413493840558e-13,8.402820815843618e-14,4.564758352512082e-14,2.4241033607841255e-14,1.219893625211021e-14,2.8350496726589642e-09,1.425582945992772e-09,8.718537184150212e-10,5.842048662407174e-10,4.047639641414056e-10,2.841675269861042e-10,2.009185825608576e-10,1.4132472493988606e-10,9.855464775796183e-11,6.759138290804262e-11,4.5185545626361776e-11,2.972062540700034e-11,1.909642485776247e-11,1.1968371972333893e-11,7.330064322499837e-12,4.365467896645964e-12,2.531311469786796e-12,1.4385789118183429e-12,8.067699859993832e-13
0.0,29,29.0,0.0,30.0,0.0,0.0,0.0,0.0,-13.0,0.0,2.0,0.0,0.0,0.0,8.437140698580565e-11,7.668856065955974e-11,6.863926537971627e-11,6.045930815467924e-11,5.226698618817498e-11,4.446802569455932e-11,3.718295807416474e-11,3.034623967859269e-11,2.412293061713109e-11,1.8756278577486256e-11,1.423607358786506e-11,1.0529694337343068e-11,7.62620712040125e-12,5.399200188159725e-12,3.739537066098058e-12,2.5392288596584028e-12,1.6957132011336535e-12,1.108921496311965e-12,7.068848462297906e-13,4.364341406526971e-13,2.6080643884920907e-13,1.513953979305903e-13,8.546814377807453e-14,4.6674972118514095e-14,2.4885751370937604e-14,1.258529796341205e-14,2.816995970324611e-09,1.431599876298795e-09,8.839148393948555e-10,5.953026427001768e-10,4.1334519583319956e-10,2.9039728681004794e-10,2.0532285671590692e-10,1.443740560782328e-10,1.00618784467856e-10,6.895733903991065e-11,4.6060046780975184e-11,3.026952158643522e-11,1.9433697331989785e-11,1.2171391643420656e-11,7.450876267152282e-12,4.434710753579012e-12,2.5679620938881433e-12,1.45505397753507e-12,8.124601884184833e-13
0.0,30,30.0,0.0,30.0,0.0,0.0,0.0,0.0,-13.0,0.0,2.0,0.0,0.0,0.0,8.603428031375068e-11,7.817885226797718e-11,6.995193287710417e-11,6.159157619468892e-11,5.322160585689164e-11,4.525703062942317e-11,3.78214051802737e-11,3.0847562034120525e-11,2.45039799379065e-11,1.9038252798682352e-11,1.443804056244807e-11,1.0668790840467007e-11,7.717700025083257e-12,5.4551353281920765e-12,3.770045187903984e-12,2.5532552517750763e-12,1.7008126669804143e-12,1.110509585902142e-12,7.079495626786102e-13,4.379207127478488e-13,2.6256513634654963e-13,1.5303283508138546e-13,8.677561476143372e-14,4.763097937014014e-14,2.5493145830732155e-14,1.2958431705891566e-14,2.8006681830354598e-09,1.4391622005907324e-09,8.969086059365631e-10,6.069417867388702e-10,4.222602668640032e-10,2.9684227095600413e-10,2.0986704078266267e-10,1.4751377440152534e-10,1.0274006177212736e-10,7.035822869507749e-11,4.695501361798424e-11,3.0829766204306457e-11,1.9776709291161545e-11,1.2376869069786888e-11,7.572700133001171e-12,4.504812809881759e-12,2.6058457651048457e-12,1.4729131262419049e-12,8.192084538592638e-13
0.0,31,31.0,0.0,30.0,0.0,0.0,0.0,0.0,-13.0,0.0,2.0,0.0,0.0,0.0,8.774283670876743e-11,7.970905371592436e-11,7.12988084653508e-11,6.275245702483233e-11,5.419955955591374e-11,4.606464907322914e-11,3.847436430281086e-11,3.135985252139417e-11,2.4893069421073746e-11,1.9326052203079023e-11,1.4644274718551425e-11,1.0811219693351217e-11,7.812094244705153e-12,5.513776670882517e-12,3.8029763353834746e-12,2.5691377245805625e-12,1.7069896100019385e-12,1.112439982964888e-12,7.088826769691505e-13,4.3910007377388777e-13,2.640376060020001e-13,1.54469080239631e-13,8.795733872564882e-14,4.851698505330064e-14,2.6064676376407078e-14,1.3317373817783583e-14,2.7862334271199647e-09,1.4483342713350415e-09,9.108588462623222e-10,6.191374194556096e-10,4.315205299163439e-10,3.035103945413977e-10,2.145562968843051e-10,1.5074714725305837e-10,1.0492055137278312e-10,7.179533933132079e-11,4.7871258892275896e-11,3.140191605682719e-11,2.0125881079039343e-11,1.2585085273157138e-11,7.695594952502679e-12,4.575590788276358e-12,2.6446603589045144e-12,1.4919109215854372e-12,8.269056562667633e-13
0.0,32,32.0,0.0,30.0,0.0,0.0,0.0,0.0,-13.0,0.0,2.0,0.0,0.0,0.0,8.949850125595852e-11,8.128038130132813e-11,7.26809051008032e-11,6.394276690422327e-11,5.520148446590357e-11,4.6891360797927204e-11,3.914218254495039e-11,3.188334264053857e-11,2.5290329212106292e-11,1.9619711760434886e-11,1.4854707482167675e-11,1.0956798711203811e-11,7.90911241055993e-12,5.574818073340344e-12,3.83809201242086e-12,2.5867743719042697e-12,1.714273968257185e-12,1.1148120844487437e-12,7.097848894549724e-13,4.400404458783196e-13,2.652590682621675e-13,1.5571979175014027e-13,8.902026152330072e-14,4.9334657109082566e-14,2.6601813319271474e-14,1.366133158579046e-14,2.7738624572773635e-09,1.459179350944906e-09,9.257896599014731e-10,6.319055584326305e-10,4.411379719404214e-10,3.1040991955635964e-10,2.1939597459227652e-10,1.540775304869047e-10,1.0716235679344533e-10,7.326995925884515e-11,4.880957722646802e-11,3.198649534736643e-11,2.048159876915889e-11,1.2796317419428286e-11,7.819668939831609e-12,4.646944400639725e-12,2.6841725029679084e-12,1.5118281611216043e-12,8.354391661065306e-13
0.0,33,33.0,0.0,30.0,0.0,0.0,0.0,0.0,-13.0,0.0,2.0,0.0,0.0,0.0,9.130275377502613e-11,8.289409652665642e-11,7.409927204747157e-11,6.516335053033285e-11,5.6228039778055314e-11,4.7737663032643154e-11,3.98252222069273e-11,3.241827936421664e-11,2.5695909091962576e-11,1.9919295672135324e-11,1.5069314781433674e-11,1.1105405798693402e-11,8.008541486238262e-12,5.6380014396654026e-12,3.875169221188849e-12,2.606047491075765e-12,1.7226659316334855e-12,1.1176996840330316e-12,7.107430853110618e-13,4.4080549620770687e-13,2.6626412686719416e-13,1.5680079623031498e-13,8.997150707791259e-14,5.008594742770479e-14,2.7105978364545226e-14,1.3989722272817937e-14,2.7637290345765835e-09,1.4717595166902233e-09,9.417255990858333e-10,6.452632293151712e-10,4.511252580017887e-10,3.175494790595999e-10,2.2439162924972452e-10,1.5750838232535e-10,1.0946762376343827e-10,7.478338565957016e-11,4.977075254236193e-11,3.258400366251592e-11,2.084421758599117e-11,1.3010829526826546e-11,7.945058428668983e-12,4.718836161449649e-12,2.7242096324484992e-12,1.5324748536789235e-12,8.446975090754255e-13
0.0,34,34.0,0.0,30.0,0.0,0.0,0.0,0.0,-13.0,0.0,2.0,0.0,0.0,0.0,9.315713115373604e-11,8.455150808581243e-11,7.555499642393752e-11,6.641508194789072e-11,5.7279906805471024e-11,4.860406965910995e-11,4.0523858874803524e-11,3.296492166888322e-11,2.6109972643744226e-11,2.0224888209519414e-11,1.52881042986608e-11,1.1256964714192724e-11,8.110221773464471e-12,5.703113471079301e-12,3.914005271644762e-12,2.6268320107920166e-12,1.7321426896459162e-12,1.121153923338433e-12,7.118305905829193e-13,4.4145380064860313e-13,2.67086446412327e-13,1.5772800243133904e-13,9.081833390666317e-14,5.077308250786682e-14,2.7578508995147563e-14,1.4302183525456053e-14,2.756009244978221e-09,1.486135612269392e-09,9.58691874209474e-10,6.592285775324185e-10,4.614957738100526e-10,3.249381010260626e-10,2.295490394881201e-10,1.6104327610176782e-10,1.1183854966838968e-10,7.633693193278395e-11,5.075556446392533e-11,3.31949229076634e-11,2.1214066583049352e-11,1.3228868151577009e-11,8.071912950915655e-12,4.791274318330786e-12,2.7646512108457755e-12,1.5536910576630446e-12,8.545739826135026e-13
0.0,35,35.0,0.0,30.0,0.0,0.0,0.0,0.0,-13.0,0.0,2.0,0.0,0.0,0.0,9.506323046625215e-11,8.625397420416147e-11,7.704920480592799e-11,6.769886567835956e-11,5.8357789620772e-11,4.949111127659592e-11,4.123848065667097e-11,3.352353862736561e-11,2.653269361967262e-11,2.0536587520102817e-11,1.551110612948238e-11,1.1411433640651119e-11,8.214036872514469e-12,5.769981153549998e-12,3.954420168618081e-12,2.649001940981601e-12,1.74266442586112e-12,1.1252063688339075e-12,7.131077368860162e-13,4.4203845943068896e-13,2.677584389963127e-13,1.585173009020226e-13,9.156809518910633e-14,5.1398548435091364e-14,2.8020643050871432e-14,1.4598562433573954e-14,2.7508807806304507e-09,1.5023672555772674e-09,9.767145828426893e-10,6.738209793420611e-10,4.722636673143569e-10,3.3258523215597884e-10,2.34874224090041e-10,1.6468591200829375e-10,1.1427739206482396e-10,7.793193434529656e-11,5.176479385332253e-11,3.381972318063575e-11,2.159145361498156e-11,1.3450661276903687e-11,8.200385148351023e-12,4.864298919383552e-12,2.8054198885230305e-12,1.5753461235079996e-12,8.649693237111259e-13
0.0,36,36.0,0.0,30.0,0.0,0.0,0.0,0.0,-13.0,0.0,2.0,0.0,0.0,0.0,9.702271179818202e-11,8.800290503011657e-11,7.858306516989228e-11,6.901563819878538e-11,5.946241602975265e-11,5.03993356715274e-11,4.1969488068514743e-11,3.4094408507548964e-11,2.6964253814876895e-11,2.0854501571031035e-11,1.573836609584807e-11,1.1568796241898911e-11,8.319904898372314e-12,5.838466692683613e-12,3.996257215421855e-12,2.6724350951870874e-12,1.7541794902987955e-12,1.1298720737396285e-12,7.146226709035869e-13,4.426068661368084e-13,2.683109741690868e-13,1.5918445268017775e-13,9.222820014713098e-14,5.1965070324546227e-14,2.843351915864447e-14,1.48788905405156e-14,2.748522199838651e-09,1.520512912145914e-09,9.958209610985657e-10,6.890611514398507e-10,4.834438898687086e-10,3.4050076197464e-10,2.403734583562045e-10,1.684401280041339e-10,1.1678647632789858e-10,7.956975799362402e-11,5.279922760771453e-11,3.445886767325022e-11,2.1976670073464377e-11,1.3676419133654823e-11,8.330624354033834e-12,4.9379708047956994e-12,2.8464731213576627e-12,1.5973368163293296e-12,8.757935365916262e-13
0.0,37,37.0,0.0,30.0,0.0,0.0,0.0,0.0,-13.0,0.0,2.0,0.0,0.0,0.0,9.903730128764101e-11,8.979976512456744e-11,8.015778885664896e-11,7.036636947801875e-11,6.059453868643788e-11,5.1329308547704614e-11,4.271729431789649e-11,3.467781849044592e-11,2.740484192288149e-11,2.1178745593469016e-11,1.5969941082385963e-11,1.1729054828563272e-11,8.427771045750194e-12,5.908462387125217e-12,4.039382371403713e-12,2.697016357198776e-12,1.7666287398689057e-12,1.1351525154789901e-12,7.164123440108887e-13,4.432006232473593e-13,2.6877312366217325e-13,1.5974497135846362e-13,9.280607533781074e-14,5.247558686081019e-14,2.881818860467877e-14,1.5143351466444314e-14,2.7491121855014207e-09,1.5406300432963775e-09,1.0160396554121963e-09,7.049712584858599e-10,4.950522375691847e-10,3.486950475506683e-10,2.460532901294916e-10,1.7230991005469785e-10,1.1936820254536657e-10,8.125180211472885e-11,5.385966281905371e-11,3.511281673099731e-11,2.236999513048756e-11,1.3906336075172748e-11,8.462772864957492e-12,5.012363183886473e-12,2.8877955722895058e-12,1.6195847184220236e-12,8.869669963408738e-13
0.0,38,38.0,0.0,30.0,0.0,0.0,0.0,0.0,-13.0,0.0,2.0,0.0,0.0,0.0,1.0110879425276644e-10,9.16460760049455e-11,8.177463257282885e-11,7.175206455440001e-11,6.175493627280523e-11,5.228161437564852e-11,4.348232579831297e-11,3.5274064755510245e-11,2.7854653019586826e-11,2.1509440555863344e-11,1.6205895873801653e-11,1.1892225252617399e-11,8.537601467162733e-12,5.979885760322843e-12,4.08368279718909e-12,2.7226397605788307e-12,1.7799490799419609e-12,1.1410383293115816e-12,7.185036207104983e-13,4.4385559105398525e-13,2.691719492077153e-13,1.6021400331955094e-13,9.330912518293968e-14,5.2933220868483895e-14,2.917563455063382e-14,1.5392246514487046e-14,2.752828825817751e-09,1.5627753371594307e-09,1.0374010120488847e-09,7.215750180724731e-10,5.07105393444297e-10,3.5717893914094433e-10,2.5192055561799045e-10,1.7629940187263053e-10,1.220250517930743e-10,8.297950480466923e-11,5.4946910382204684e-11,3.578203120576963e-11,2.2771699397447942e-11,1.4140592925548317e-11,8.59696411738939e-12,5.0875554065293756e-12,2.9293924657564062e-12,1.6420332342881113e-12,8.984209461216037e-13
0.0,39,39.0,0.0,30.0,0.0,0.0,0.0,0.0,-13.0,0.0,2.0,0.0,0.0,0.0,1.032390584072874e-10,9.354341874108768e-11,8.343490041980302e-11,7.31737651314756e-11,6.294441469962999e-11,5.3256857288868615e-11,4.426502268416563e-11,3.5883452769752744e-11,2.8313888433232074e-11,2.1846712323150662e-11,1.6446301080074582e-11,1.2058333178225681e-11,8.649378351293982e-12,6.052675139010786e-12,4.129064924902815e-12,2.7492096314962286e-12,1.7940762692488394e-12,1.1475117857401897e-12,7.209144507125953e-13,4.446020525772735e-13,2.6953233853947396e-13,1.606062108542681e-13,9.374469163843033e-14,5.334124699591436e-14,2.9506795040807315e-14,1.5625962195306312e-14,2.759848945025092e-09,1.5870050293484423e-09,1.0599373809592998e-09,7.388978029026346e-10,5.196209712361481e-10,3.6596380703653536e-10,2.579823951469303e-10,1.804129143249045e-10,1.247595919336411e-10,8.47543472192233e-11,5.606179812623767e-11,3.64669752254261e-11,2.318204800153624e-11,1.4379359435237283e-11,8.73332215181427e-12,5.163628534537395e-12,2.9712839534132825e-12,1.6646444487920538e-12,9.100975025871828e-13
0.0,40,40.0,0.0,30.0,0.0,0.0,0.0,0.0,-13.0,0.0,2.0,0.0,0.0,0.0,1.0543003717193312e-10,9.549343660943089e-11,8.51399459524085e-11,7.463255118571856e-11,6.416380830946077e-11,5.4255661988810836e-11,4.5065839561950954e-11,3.6506297678324214e-11,2.878275583917634e-11,2.2190691258526642e-11,1.6691231830866858e-11,1.2227411420704212e-11,8.763096050776265e-12,6.126785770849975e-12,4.175452305549408e-12,2.776641017900322e-12,1.8089470677814214e-12,1.1545489822868032e-12,7.236550572926239e-13,4.4546497477237654e-13,2.698768916896171e-13,1.6093566242179666e-13,9.412001333784085e-14,5.37030576267247e-14,2.9812586903841594e-14,1.584494219487628e-14,2.7703475155929734e-09,1.613375318165106e-09,1.083683430008231e-09,7.56966740261744e-10,5.326175615382028e-10,3.750615698394856e-10,2.6424626895873556e-10,1.8465493465923417e-10,1.275744830755053e-10,8.657785733745246e-11,5.72051735370669e-11,3.716811848752699e-11,2.3601303128575255e-11,1.4622796628335666e-11,8.871961906094152e-12,5.240662344897201e-12,3.0135004722087597e-12,1.6873960248095566e-12,9.219492775875111e-13
0.0,41,41.0,0.0,30.0,0.0,0.0,0.0,0.0,-13.0,0.0,2.0,0.0,0.0,0.0,1.0768375309191644e-10,9.749783781660419e-11,8.689117427590573e-11,7.612954258916437e-11,6.54139810764052e-11,5.5278674640641916e-11,4.5885246062325996e-11,3.71429247349818e-11,2.926146947535506e-11,2.25415120989988e-11,1.6940766999607476e-11,1.2399498094955187e-11,8.87875809635426e-12,6.202186506891355e-12,4.222783413988016e-12,2.804859596378243e-12,1.824500815620709e-12,1.1621217389319392e-12,7.267291030745006e-13,4.464643455031099e-13,2.702258571197399e-13,1.6121573361785626e-13,9.444218483414738e-14,5.4022128083789494e-14,3.009392833389888e-14,1.604966507689146e-14,2.784497186378503e-09,1.6419428767829478e-09,1.108676465188814e-09,7.758108092467949e-10,5.461147810502804e-10,3.8448472434995226e-10,2.70719973173903e-10,1.8903013569027017e-10,1.304724828180223e-10,8.845161336967764e-11,5.837790613482071e-11,3.7885938167823617e-11,2.4029726101662998e-11,1.4871058927297335e-11,9.01299000046546e-12,5.318733438927565e-12,3.0560790259100125e-12,1.710278271706355e-12,9.339387151682908e-13
0.0,42,42.0,0.0,30.0,0.0,0.0,0.0,0.0,-13.0,0.0,2.0,0.0,0.0,0.0,1.100023113716455e-10,9.955839830567831e-11,8.869004419217702e-11,7.766590075392767e-11,6.669582780447603e-11,5.632656375377808e-11,4.672372747565257e-11,3.779366973742983e-11,2.975025041341438e-11,2.2899313990570914e-11,1.7194988781342736e-11,1.2574635363314274e-11,8.996374938712496e-12,6.278857030728164e-12,4.2710095337445864e-12,2.833801215533266e-12,1.840680531942184e-12,1.1701992009902305e-12,7.301348029139115e-13,4.476155661745293e-13,2.705971151371632e-13,1.614590215987816e-13,9.471811672900466e-14,5.430198208637205e-14,3.035175858238814e-14,1.6240628030172452e-14,2.802467963399453e-09,1.672765461918395e-09,1.1349567522699858e-09,7.954609366472892e-10,5.601333256672006e-10,3.942463771915914e-10,2.774116560247004e-10,1.9354338507265778e-10,1.3345645139272648e-10,9.037724688715412e-11,5.958088956508096e-11,3.862092051910156e-11,2.4467579069461273e-11,1.5124296006738288e-11,9.156505777226483e-12,5.397914180072008e-12,3.0990602921568553e-12,1.733291470397221e-12,9.460372319988778e-13
0.0,43,43.0,0.0,30.0,0.0,0.0,0.0,0.0,-13.0,0.0,2.0,0.0,0.0,0.0,1.1238790353834302e-10,1.0167696465951602e-10,9.053807040687721e-11,7.924283030691096e-11,6.801027532944221e-11,5.740002104746205e-11,4.7581785344323044e-11,3.845887944940047e-11,3.024932684681465e-11,2.3264240608033043e-11,1.7453982498164457e-11,1.2752868616877746e-11,9.11596227305097e-12,6.356785589803509e-12,4.320092798364829e-12,2.8634112037094156e-12,1.8574336198590282e-12,1.1787491637938574e-12,7.338659615948597e-13,4.4892988121752187e-13,2.7100620447278963e-13,1.6167727485608616e-13,9.495449753873324e-14,5.454615828642268e-14,3.05870537666381e-14,1.6418336266110877e-14,2.8244270807024796e-09,1.705902615151133e-09,1.1625678354845128e-09,8.159500928295242e-10,5.746950280311008e-10,4.0436027825592984e-10,2.843298344798144e-10,1.9819975477444443e-10,1.3652935679319986e-10,9.235644574369547e-11,6.081504345883343e-11,3.9373562223281305e-11,2.491512637414329e-11,1.5382654368662712e-11,9.302602434253468e-12,5.478272232022229e-12,3.142486443607061e-12,1.7564435041676515e-12,9.582242374483813e-13
0.0,44,44.0,0.0,30.0,0.0,0.0,0.0,0.0,-13.0,0.0,2.0,0.0,0.0,0.0,1.1484281124695625e-10,1.0385545711650143e-10,9.243682580900372e-11,8.086158080296402e-11,6.935828373018506e-11,5.849976230490558e-11,4.845993803126066e-11,3.9138912001725207e-11,3.075893437443077e-11,2.3636440311758122e-11,1.7717836543898533e-11,1.2934245962447533e-11,9.23753981994727e-12,6.435967170602248e-12,4.370004431632319e-12,2.893643540786632e-12,1.8747122559598887e-12,1.1877391407668164e-12,7.379129212819302e-13,4.504148275243363e-13,2.714663868134217e-13,1.6188133941406716e-13,9.515775812478766e-14,5.4758178562129e-14,3.0800838288306944e-14,1.6583297224862012e-14,2.8505390978791892e-09,1.7414164494439575e-09,1.1915568494118773e-09,8.373133894244906e-10,5.898229200479743e-10,4.148408560093646e-10,2.914834113911115e-10,2.0300453085057229e-10,1.3969427996774068e-10,9.439095685099928e-11,6.20813151113458e-11,4.014437154911004e-11,2.5372635661333987e-11,1.5646278654921154e-11,9.451368148482854e-12,5.559870514576388e-12,3.186399569154693e-12,1.7797478160844865e-12,9.704860971906527e-13
0.0,45,45.0,0.0,30.0,0.0,0.0,0.0,0.0,-13.0,0.0,2.0,0.0,0.0,0.0,1.1736941023976816e-10,1.0609587271461428e-10,9.438794383360053e-11,8.252344848403207e-11,7.074084755552016e-11,5.96265282209322e-11,4.935872126723154e-11,3.983413727077416e-11,3.127931626915782e-11,2.40160663127069e-11,1.798664240792348e-11,1.3118817918853002e-11,9.36113045592309e-12,6.516402054532695e-12,4.420723204010589e-12,2.9244599693090966e-12,1.8924735347379098e-12,1.1971372008540958e-12,7.422634099119551e-13,4.520746891938699e-13,2.7198874344056747e-13,1.6208112177604096e-13,9.533403943336008e-14,5.4941518597680094e-14,3.099419174490077e-14,1.6736018524692965e-14,2.880966257702934e-09,1.7793725097608826e-09,1.2219748211888009e-09,8.595881810158901e-10,6.055413007006446e-10,4.257032546850061e-10,2.98881693312335e-10,2.0796322360197795e-10,1.4295442013129641e-10,9.648258886074483e-11,6.338068102527107e-11,4.093386935901238e-11,2.584037878543243e-11,1.5915312724798995e-11,9.602887126859342e-12,5.642767435142013e-12,3.2308405859640172e-12,1.8032216926676344e-12,9.82815092002022e-13
0.0,46,46.0,0.0,30.0,0.0,0.0,0.0,0.0,-13.0,0.0,2.0,0.0,0.0,0.0,1.199701744754542e-10,1.0840028858035186e-10,9.639312091725742e-11,8.422977809086408e-11,7.2158997071941e-11,6.078108524852028e-11,5.027868868114005e-11,4.054493723603091e-11,3.181072372777633e-11,2.4403276829417763e-11,1.826049473850717e-11,1.3306637251870785e-11,9.486759606422366e-12,6.59809469219245e-12,4.47223410535823e-12,2.955829099623233e-12,1.9106794286269137e-12,1.2069126033806929e-12,7.469032868955187e-13,4.5391094535966557e-13,2.7258229786561416e-13,1.6228556830297254e-13,9.548916416558715e-14,5.5099581136798174e-14,3.116825151698719e-14,1.687700853811518e-14,2.9158691317793696e-09,1.8198406932888688e-09,1.2538769616009507e-09,8.82814173319039e-10,6.2187580929376e-10,4.369633733807446e-10,3.0653440916159245e-10,2.1308157819082625e-10,1.4631310023678763e-10,9.863321479842662e-11,6.47141483581777e-11,4.1742590001241913e-11,2.631863255485875e-11,1.61899005304557e-11,9.757240551394989e-12,5.727017288338314e-12,3.275848542357278e-12,1.8268848584728643e-12,9.952084117765858e-13
0.0,47,47.0,0.0,30.0,0.0,0.0,0.0,0.0,-13.0,0.0,2.0,0.0,0.0,0.0,1.2264768044373108e-10,1.1077086537919568e-10,9.845411905477819e-11,8.598196473285736e-11,7.361379953712724e-11,6.19642264496692e-11,5.122041231803856e-11,4.127170632024836e-11,3.2353416102266314e-11,2.479823522893882e-11,1.8539491420665054e-11,1.3497758896949557e-11,9.614454831471704e-12,6.681052838153972e-12,4.524527222664364e-12,2.987725546895319e-12,1.929296614815871e-12,1.2170362587802068e-12,7.518171866417126e-13,4.559227012846421e-13,2.732541583964224e-13,1.625026601824346e-13,9.562861285239051e-14,5.5235672169019176e-14,3.1324211427902545e-14,1.7006778549836547e-14,2.955407573811263e-09,1.8628962120054995e-09,1.287322945437902e-09,9.070335404815592e-10,6.388535040592354e-10,4.4863790710815565e-10,3.144517299210693e-10,2.1836558576633648e-10,1.4977377263180833e-10,1.0084477468694222e-10,6.608275630953549e-11,4.257108211711857e-11,2.6807679353696388e-11,1.6470186823366683e-11,9.91450740480657e-12,5.812670744707776e-12,3.3214602233458007e-12,1.850758356288436e-12,1.0076672140710665e-12
0.0,48,48.0,0.0,30.0,0.0,0.0,0.0,0.0,-13.0,0.0,2.0,0.0,0.0,0.0,1.2540461168296346e-10,1.1320985094396344e-10,1.0057276846393013e-10,8.77814558207433e-11,7.510636050356086e-11,6.317677235587716e-11,5.2184483149620866e-11,4.2014851716274014e-11,3.290766111487782e-11,2.520111014880047e-11,1.882373365370262e-11,1.3692239934253832e-11,9.744245549578023e-12,6.765286894762076e-12,4.57759680482054e-12,3.020129124552097e-12,1.9482962109200147e-12,1.2274810427218138e-12,7.569890635890547e-13,4.581070952034105e-13,2.740096748537023e-13,1.6273942274153166e-13,9.575750465130796e-14,5.5352980194422405e-14,3.146331701406743e-14,1.7125845601427982e-14,2.9997419890775735e-09,1.9086205786221157e-09,1.3223771836328267e-09,9.322910540776979e-10,6.565029458590994e-10,4.6074438988514325e-10,3.2264428958403214e-10,2.2382149513865938e-10,1.5334002491544755e-10,1.0311927819235404e-10,6.748757747705743e-11,4.341990938759408e-11,2.7307807669180932e-11,1.6756317722848734e-11,1.0074765176093243e-11,5.899775372511644e-12,3.3677099833019013e-12,1.8748636817787876e-12,1.0201957669623516e-12
0.0,49,49.0,0.0,30.0,0.0,0.0,0.0,0.0,-13.0,0.0,2.0,0.0,0.0,0.0,1.2824376351878053e-10,1.1571958409622895e-10,1.0275097036361497e-10,8.962975306613925e-11,7.663782515628611e-11,6.441957184333409e-11,5.317151158174632e-11,4.2774793704670704e-11,3.347373506023133e-11,2.5612075600213974e-11,1.9113326020482653e-11,1.3890139592010065e-11,9.876162858274064e-12,6.85080942057126e-12,4.631440493064788e-12,3.053024108428932e-12,1.9676534532717606e-12,1.2382219893728442e-12,7.624026447195677e-13,4.604596754955382e-13,2.748526041102004e-13,1.630019475677393e-13,9.58805830269009e-14,5.545455861574787e-14,3.158685802307382e-14,1.7234735315267515e-14,3.0490349153405782e-09,1.9571025967078263e-09,1.3591090919932298e-09,9.586342260795447e-10,6.748542865799067e-10,4.733012400360577e-10,3.311232075654688e-10,2.2945582502087332e-10,1.570155860023436e-10,1.0545880732000872e-10,6.892971920721505e-11,4.428965123851426e-11,2.7819312548542262e-11,1.7048441174432397e-11,1.0238090453295052e-11,5.9883761545873875e-12,3.4146297428833227e-12,1.8992221387123003e-12,1.0328006878163487e-12
0.0,50,50.0,0.0,30.0,0.0,0.0,0.0,0.0,-13.0,0.0,2.0,0.0,0.0,0.0,1.3116804804157116e-10,1.183024986738098e-10,1.0499069986923919e-10,9.152841455157549e-11,7.820937968879635e-11,6.56935030277533e-11,5.418212796323044e-11,4.355196596597277e-11,3.4051922997983786e-11,2.603131105442731e-11,1.9408376544965335e-11,1.4091519262533754e-11,1.001023942023215e-11,6.937634766210071e-12,4.6860586947139726e-12,3.0863985782611533e-12,1.987347344234958e-12,1.2492363871921385e-12,7.680417970738427e-13,4.629747446373834e-13,2.7578527969495637e-13,1.632954257180407e-13,9.600220633089081e-14,5.554331122695904e-14,3.16961587865681e-14,1.7333984188159503e-14,3.103452895358375e-09,2.0084393374538894e-09,1.3975933635176004e-09,9.861134675680499e-10,6.939393617562361e-10,4.863278079492642e-10,3.3990011278364987e-10,2.352753768426882e-10,1.6080433239755453e-10,1.0786551918605133e-10,7.041032495975216e-11,4.51809035196868e-11,2.834249600381317e-11,1.7346707322037926e-11,1.0404559414993713e-11,6.0785159760042024e-12,3.4622490991783572e-12,1.9238543805995663e-12,1.0454902828051357e-12
0.0,51,51.0,0.0,30.0,0.0,0.0,0.0,0.0,-13.0,0.0,2.0,0.0,0.0,0.0,1.3418049933941506e-10,1.209611277740022e-10,1.072940090077129e-10,9.347905687448183e-11,7.982225272120466e-11,6.699947418354461e-11,5.521698309983917e-11,4.434681589100022e-11,3.46425189394441e-11,2.6459001515061922e-11,1.9708996737390397e-11,1.4296442521308812e-11,1.0146509392247393e-11,7.025778807177843e-12,4.741454078365303e-12,3.120243837663507e-12,2.007360288610454e-12,1.260503798014663e-12,7.738908186937422e-13,4.656456679804248e-13,2.768087813382491e-13,1.6362419020528367e-13,9.612634316771888e-14,5.5621980702398245e-14,3.1792567105398994e-14,1.742414103150255e-14,3.16316860572337e-09,2.0627370893366147e-09,1.4379102530815732e-09,1.0147822642312789e-09,7.137917870269064e-10,4.998444266315717e-10,3.48987169591406e-10,2.4128724812575556e-10,1.6471029468670743e-10,1.1034164888689797e-10,7.19305757010689e-11,4.6094279169190024e-11,2.8877667379254742e-11,1.7651268814088987e-11,1.0574248234010859e-11,6.1702360684801724e-12,3.510595508730888e-12,1.948780105959722e-12,1.0582739866744079e-12
0.0,52,52.0,0.0,30.0,0.0,0.0,0.0,0.0,-13.0,0.0,2.0,0.0,0.0,0.0,1.3728427900041464e-10,1.2369810821774241e-10,1.0966302985361125e-10,9.548335736878702e-11,8.147771676520997e-11,6.833842469172484e-11,5.6276748777210814e-11,4.5159804892211587e-11,3.5245826031118104e-11,2.6895337579631736e-11,2.0015301628124504e-11,1.4504975143648125e-11,1.0285008380925916e-11,7.115258749098713e-12,4.797631170301129e-12,3.1545539099828465e-12,2.02767773387941e-12,1.2720060174569762e-12,7.799346618192768e-13,4.684651467384893e-13,2.779231009907357e-13,1.639917659370368e-13,9.625657231975448e-14,5.569313994073025e-14,3.1877442246520925e-14,1.7505767396709485e-14,3.2283631926268218e-09,2.1201122729159788e-09,1.4801458843243858e-09,1.044697368872846e-09,7.344470582443774e-10,5.138724654744023e-10,3.583971056866388e-10,2.474988464020958e-10,1.6873766425093452e-10,1.1288951248685904e-10,7.349169133651885e-11,4.70304088713086e-11,2.9425143692893633e-11,1.79622810600943e-11,1.0747233407037267e-11,6.2635764048995865e-12,3.559694512428351e-12,1.9740178769624772e-12,1.0711618983027822e-12
0.0,53,53.0,0.0,30.0,0.0,0.0,0.0,0.0,-13.0,0.0,2.0,0.0,0.0,0.0,1.404826822417966e-10,1.2651618529927189e-10,1.1209997763423443e-10,9.754305629269105e-11,8.317708971507428e-11,6.971132606354327e-11,5.736211831728758e-11,4.599140871580422e-11,3.586215672893297e-11,2.7340515492868307e-11,2.032740979543258e-11,1.4717185117130244e-11,1.0425773412913635e-11,7.206092985702894e-12,4.854596034077526e-12,3.189325105157274e-12,2.0482878246574377e-12,1.2837269919632851e-12,7.861590971629864e-13,4.714254556481562e-13,2.7912730250304586e-13,1.6440092533067993e-13,9.639608691523523e-14,5.575918607968696e-14,3.1952142593897086e-14,1.7579436981175813e-14,3.299228754589969e-09,2.180692320869282e-09,1.5243925885472797e-09,1.0759190103592916e-09,7.55942655434642e-10,5.284343876873979e-10,3.681432420637051e-10,2.5391790365675134e-10,1.7289080022452283e-10,1.1551151014126829e-10,7.509493218703575e-11,4.798994171406073e-11,2.998524996119028e-11,1.827990245097562e-11,1.0923592023206948e-11,6.358576042389036e-12,3.609569979145451e-12,1.999585034406971e-12,1.0841644048974553e-12
0.0,54,54.0,0.0,30.0,0.0,0.0,0.0,0.0,-13.0,0.0,2.0,0.0,0.0,0.0,1.4377914302904626e-10,1.294182175075674e-10,1.1460715453253087e-10,9.965995953329465e-11,8.492173649147572e-11,7.111918283934854e-11,5.847380707323993e-11,4.6842117770771913e-11,3.649183300601976e-11,2.779473719829616e-11,2.0645443373430985e-11,1.4933142644693498e-11,1.0568842916827991e-11,7.298300996801847e-12,4.912356016810517e-12,3.224555650474826e-12,2.0691810782809037e-12,1.2956527054393305e-12,7.925508278174812e-13,4.745186465743606e-13,2.804196727593805e-13,1.6485374793201817e-13,9.654770245494111e-14,5.5822336973663365e-14,3.2018013420107455e-14,1.7645733971600096e-14,3.375970907706969e-09,2.244616532379151e-09,1.5707492841176657e-09,1.1085111178558707e-09,7.783181513209543e-10,5.435538118406891e-10,3.7823952498846536e-10,2.605524912857278e-10,1.7717423672328046e-10,1.1821012936859637e-10,7.67416005113188e-11,4.897354585054365e-11,3.055831951391507e-11,1.860429455355192e-11,1.1103401983333913e-11,6.455273415787367e-12,3.660244351563366e-12,2.0254976855377108e-12,1.0972918860937654e-12
