Line_number,Fiducial,Easting,Northing,Height,Elevation,tx_pitch,tx_roll,tx_yaw,txrx_dx,txrx_dy,txrx_dz,rx_pitch,rx_roll,rx_yaw,S0Z_time_3.834e-04,S0Z_time_3.924e-04,S0Z_time_4.039e-04,S0Z_time_4.184e-04,S0Z_time_4.364e-04,S0Z_time_4.589e-04,S0Z_time_4.869e-04,S0Z_time_5.224e-04,S0Z_time_5.679e-04,S0Z_time_6.249e-04,S0Z_time_6.969e-04,S0Z_time_7.879e-04,S0Z_time_9.019e-04,S0Z_time_1.046e-03,S0Z_time_1.227e-03,S0Z_time_1.456e-03,S0Z_time_1.744e-03,S0Z_time_2.109e-03,S0Z_time_2.567e-03,S0Z_time_3.145e-03,S0Z_time_3.864e-03,S0Z_time_4.745e-03,S0Z_time_5.821e-03,S0Z_time_7.140e-03,S0Z_time_8.754e-03,S0Z_time_1.073e-02,S1Z_time_2.057e-05,S1Z_time_2.607e-05,S1Z_time_3.307e-05,S1Z_time_4.206e-05,S1Z_time_5.356e-05,S1Z_time_6.807e-05,S1Z_time_8.607e-05,S1Z_time_1.086e-04,S1Z_time_1.366e-04,S1Z_time_1.721e-04,S1Z_time_2.176e-04,S1Z_time_2.746e-04,S1Z_time_3.466e-04,S1Z_time_4.376e-04,S1Z_time_5.516e-04,S1Z_time_6.956e-04,S1Z_time_8.771e-04,S1Z_time_1.106e-03,S1Z_time_1.394e-03
0.0,0,0.0,0.0,30.0,0.0,0.0,0.0,0.0,-13.0,0.0,2.0,0.0,0.0,0.0,5.897904721254269e-11,4.925056076510769e-11,4.0159880572630715e-11,3.205312237565249e-11,2.4983799992402692e-11,1.9173703982972515e-11,1.447638060316438e-11,1.068657459455471e-11,7.699519855553289e-12,5.4435456108279994e-12,3.778887796005019e-12,2.568325674390766e-12,1.7164159067372364e-12,1.1251729954696451e-12,7.205377979473156e-13,4.5348947806042677e-13,2.7935614061457606e-13,1.6944170425010387e-13,9.964566641850935e-14,5.783917433861346e-14,3.274037205714639e-14,1.8773764518527606e-14,1.0390165934974324e-14,5.834484746918058e-15,3.1410274278832386e-15,1.88240907994184e-15,6.00808489152392e-09,3.445580898127813e-09,2.0535612122448006e-09,1.2225632473957378e-09,7.11892931256169e-10,4.0707712175781644e-10,2.3141150968821542e-10,1.3059074465559857e-10,7.349710723471787e-11,4.1148044507982073e-11,2.2768274706887104e-11,1.2636769958939881e-11,7.001398962171355e-12,3.836583311581043e-12,2.0975914751125198e-12,1.126664293502813e-12,5.965289359206688e-13,3.1541974001637963e-13,1.597729542888371e-13
0.0,1,1.0,0.0,30.0,0.0,0.0,0.0,0.0,-13.0,0.0,2.0,0.0,0.0,0.0,5.7783808947818127e-11,4.804979478953492e-11,3.899137824051824e-11,3.0957705207546035e-11,2.3998368065971065e-11,1.8322819359641632e-11,1.3771033347252003e-11,1.0129275384848575e-11,7.280299578975091e-12,5.140490436850627e-12,3.5684829955138016e-12,2.4278336334106002e-12,1.6254408652742568e-12,1.0680920650539782e-12,6.85760892198639e-13,4.3297813106978976e-13,2.6747687281586387e-13,1.6280001659840405e-13,9.597586123736046e-14,5.589357602068561e-14,3.17111617736186e-14,1.8249608913281892e-14,1.0110277630139863e-14,5.696256891466743e-15,3.0631852750490936e-15,1.85234794093593e-15,6.019366961316189e-09,3.46113182827375e-09,2.068696467732558e-09,1.2334465412080334e-09,7.175042293253479e-10,4.086079183668565e-10,2.3064950991275663e-10,1.2892653848066015e-10,7.176605007698613e-11,3.973512956254356e-11,2.1766373015564327e-11,1.1989982720222684e-11,6.612324097319278e-12,3.614719560486365e-12,1.976566069072834e-12,1.0626766053067408e-12,5.640115975934302e-13,2.994841144686432e-13,1.5180957941074732e-13
0.0,2,2.0,0.0,30.0,0.0,0.0,0.0,0.0,-13.0,0.0,2.0,0.0,0.0,0.0,5.67385109062161e-11,4.6997094432960416e-11,3.796306156166947e-11,2.9988773015665095e-11,2.3121360397315896e-11,1.7560509434302697e-11,1.3134808767715712e-11,9.623187105892671e-12,6.8971332585417146e-12,4.86189265544158e-12,3.3740588624349916e-12,2.2973920644114235e-12,1.5406010797856915e-12,1.0146325010654932e-12,6.530567883744544e-13,4.136048397916586e-13,2.562147053910977e-13,1.564754629815412e-13,9.24698806898407e-14,5.4026658680475765e-14,3.0720536986169386e-14,1.7742944186936973e-14,9.839643051914408e-15,5.561758135669791e-15,2.987715581584546e-15,1.822186976872995e-15,6.030160064379458e-09,3.475199319450105e-09,2.081843044323139e-09,1.2427034560304568e-09,7.222860027722581e-10,4.0997917111790874e-10,2.3007417166588952e-10,1.2754597160381894e-10,7.028706011472227e-11,3.8502046870086976e-11,2.0876978272587626e-11,1.140790552689334e-11,6.2584253936255404e-12,3.4113264066504325e-12,1.8648501525812867e-12,1.0033064198520108e-12,5.336880489074653e-13,2.8453432775878323e-13,1.44335790566114e-13
0.0,3,3.0,0.0,30.0,0.0,0.0,0.0,0.0,-13.0,0.0,2.0,0.0,0.0,0.0,5.5809363136500537e-11,4.6061974918292666e-11,3.704867188135615e-11,2.912488922827777e-11,2.233621354038693e-11,1.6874568256483362e-11,1.2559064712960842e-11,9.162461372826445e-12,6.546212463183057e-12,4.605328352027297e-12,3.1941099928365093e-12,2.1761027642861915e-12,1.4613741827099918e-12,9.645029316903974e-13,6.222685894582764e-13,3.952890576525438e-13,2.4552897364747496e-13,1.5044868163183041e-13,8.911848703094006e-14,5.2234384166639616e-14,2.976673166869151e-14,1.7253033861955557e-14,9.577849206121495e-15,5.430889530669458e-15,2.9145448428039573e-15,1.792032260653294e-15,6.040833479161593e-09,3.4882922081773876e-09,2.093456967821893e-09,1.2505809583198605e-09,7.262723110287606e-10,4.1110933978061045e-10,2.2958000961742115e-10,1.2636416907693319e-10,6.9005195691623e-11,3.741797241075453e-11,2.0084300002320588e-11,1.0882728706646054e-11,5.93592065181865e-12,3.2245434843512024e-12,1.761563830503248e-12,9.481433859433044e-13,5.053714439567196e-13,2.704940363357792e-13,1.3731465595147967e-13
0.0,4,4.0,0.0,30.0,0.0,0.0,0.0,0.0,-13.0,0.0,2.0,0.0,0.0,0.0,5.496958409484981e-11,4.521978868220727e-11,3.6226542824784084e-11,2.8348006497459577e-11,2.1628724091151365e-11,1.6254370449741218e-11,1.2036201686547485e-11,8.741927471578631e-12,6.2241677451092284e-12,4.368654982118313e-12,3.0273070368440856e-12,2.0631702214484234e-12,1.3872960254715708e-12,9.17442962699067e-13,5.932550707444589e-13,3.7795793624746393e-13,2.353825110493991e-13,1.4470193691055888e-13,8.591311229501795e-14,5.0513002272030195e-14,2.884807577093906e-14,1.6779186437310455e-14,9.32450868247774e-15,5.3035536046556805e-15,2.8435997840716333e-15,1.7619958164041614e-15,6.05164171972339e-09,3.5007653099096033e-09,2.1038775580230775e-09,1.2572872773816232e-09,7.295168580944956e-10,4.1195485534107585e-10,2.2909319724141076e-10,1.253155918211259e-10,6.787533217407969e-11,3.645647708959828e-11,1.9374449279621174e-11,1.0407536499646904e-11,5.641460591778599e-12,3.0527327288398415e-12,1.6659327915537007e-12,8.96823254187037e-13,4.788959567238545e-13,2.5729510066606853e-13,1.3071213519498845e-13
0.0,5,5.0,0.0,30.0,0.0,0.0,0.0,0.0,-13.0,0.0,2.0,0.0,0.0,0.0,5.419798050304623e-11,4.445066880819888e-11,3.5478872523106355e-11,2.7643003700623988e-11,2.0986766897503405e-11,1.5690695522500415e-11,1.1559541780167463e-11,8.357003579356273e-12,5.92800281002077e-12,4.1499662065629356e-12,2.8724680899891645e-12,1.957885610955474e-12,1.3179519507907095e-12,8.732187632153161e-13,5.658886230015592e-13,3.615453250834883e-13,2.2574127039663458e-13,1.3921892904435263e-13,8.284579857829887e-14,4.885902158270657e-14,2.7962990488329058e-14,1.6320751042136116e-14,9.079257663063113e-15,5.179654470420546e-15,2.7748075742183294e-15,1.7321856089075843e-15,6.062766437793666e-09,3.5128679206453125e-09,2.113355560538321e-09,1.2629922840035854e-09,7.320789323986338e-10,4.124961159161798e-10,2.2856305674732857e-10,1.2435025234858563e-10,6.68608307548359e-11,3.559511338205828e-11,1.8735269296196243e-11,9.976193054069533e-12,5.372060834935809e-12,2.8944413300823963e-12,1.5772704699475494e-12,8.490211276528771e-13,4.5411366530055877e-13,2.4487632736926016e-13,1.2449690734816186e-13
0.0,6,6.0,0.0,30.0,0.0,0.0,0.0,0.0,-13.0,0.0,2.0,0.0,0.0,0.0,5.3477780094282974e-11,4.373862319307922e-11,3.4791071634013093e-11,2.699725463185414e-11,2.0400028601376492e-11,1.5175566688212233e-11,1.1123226052837458e-11,8.003627007114341e-12,5.655044636593235e-12,3.947557385999184e-12,2.7285362835497633e-12,1.8596139666233244e-12,1.2529696923006227e-12,8.316194435202518e-13,5.400535274109469e-13,3.4599093277608134e-13,2.1657399365061717e-13,1.3398463208322142e-13,7.990914503855835e-14,4.726918389449558e-14,2.7109983438886284e-14,1.5877113659796187e-14,8.841754130232256e-15,5.059097903718137e-15,2.708096063370152e-15,1.7026987689124908e-15,6.0743415534615755e-09,3.524775763313484e-09,2.1220750911632066e-09,1.2678317567746695e-09,7.340161122381035e-10,4.127281540539125e-10,2.279555333967588e-10,1.2343040456483517e-10,6.593221254274299e-11,3.4814972009973673e-11,1.8156177137533283e-11,9.583256525539029e-12,5.125052228724061e-12,2.7483730992327222e-12,1.4949640998532407e-12,8.044459283281893e-13,4.308919833144029e-13,2.3318244163417107e-13,1.1864023323466937e-13
0.0,7,7.0,0.0,30.0,0.0,0.0,0.0,0.0,-13.0,0.0,2.0,0.0,0.0,0.0,5.2795695413854284e-11,4.307078147733092e-11,3.4151199833573213e-11,2.6400240455434766e-11,1.985976143013346e-11,1.470210182847548e-11,1.0722123679985802e-11,7.678196465688936e-12,5.402904312349728e-12,3.759898741961659e-12,2.5945620932935926e-12,1.7677838210390302e-12,1.1920135571541366e-12,7.924540579415455e-13,5.156445012007752e-13,3.312396213587067e-13,2.078519223271543e-13,1.289851553551208e-13,7.709626040290255e-14,4.5740441845697815e-14,2.628764382841381e-14,1.544769383141173e-14,8.611676235131002e-15,4.941791404016573e-15,2.643394048443043e-15,1.6736176930383806e-15,6.08646873619722e-09,3.5366122112484893e-09,2.1301701090651037e-09,1.2719126459163657e-09,7.353808147638145e-10,4.1265456078846144e-10,2.2724835328157542e-10,1.2252779756795901e-10,6.50659327455228e-11,3.41002345461494e-11,1.7628009034452873e-11,9.223909092260838e-12,4.898043235586843e-12,2.6133662314167086e-12,1.4184637388899616e-12,7.628358159732326e-13,4.0911153847631495e-13,2.2216325155787515e-13,1.131158176496185e-13
0.0,8,8.0,0.0,30.0,0.0,0.0,0.0,0.0,-13.0,0.0,2.0,0.0,0.0,0.0,5.2141183337738863e-11,4.243678076640668e-11,3.354949024376574e-11,2.584321066721411e-11,1.9358560883476926e-11,1.4264376702450614e-11,1.0351749857986699e-11,7.37752231538675e-12,5.169445116076956e-12,3.5856140134878548e-12,2.4696892275666583e-12,1.6818787793783425e-12,1.1347796286361912e-12,7.555491050917072e-13,4.925654650225881e-13,3.1724081008645907e-13,1.9954854270275348e-13,1.2420762448043816e-13,7.440072011038839e-14,4.4269939377027514e-14,2.549463768639715e-14,1.5031941765972413e-14,8.388720801773916e-15,4.8276442444895815e-15,2.5806315518595353e-15,1.6450084498631586e-15,6.099227146837938e-09,3.548462550824486e-09,2.1377365958147364e-09,1.2753181292228967e-09,7.362189617213368e-10,4.122836012103992e-10,2.2642750191535746e-10,1.216214716018606e-10,6.424330123163514e-11,3.343774483359708e-11,1.7142868921741467e-11,8.893896042994756e-12,4.6888901451395484e-12,2.4883758511254616e-12,1.3472735615712016e-12,7.23954373217041e-13,3.8866441404796326e-13,2.1177296868674856e-13,1.0789965931364591e-13
0.0,9,9.0,0.0,30.0,0.0,0.0,0.0,0.0,-13.0,0.0,2.0,0.0,0.0,0.0,5.150586378492498e-11,4.182827032855546e-11,3.297795433355161e-11,2.531889211926896e-11,1.8890168832047177e-11,1.3857300933912779e-11,1.0008191203926955e-11,7.0987825482103705e-12,4.952755610772415e-12,3.423463062094562e-12,2.3531432227881353e-12,1.6014306149779511e-12,1.080991785616361e-12,7.207464277442007e-13,4.707284927024021e-13,3.0394796915882697e-13,1.9163936135919474e-13,1.196400787268365e-13,7.181652746409923e-14,4.2854994637106305e-14,2.4729703239907895e-14,1.462933579953018e-14,8.172601950832837e-15,4.7165675149180315e-15,2.5197400933063872e-15,1.6169208628732108e-15,6.112679657950012e-09,3.5603836810949836e-09,2.144841521275813e-09,1.278112029415475e-09,7.365697680988943e-10,4.116257751399879e-10,2.2548469607862846e-10,1.2069602653162422e-10,6.344956263503513e-11,3.281661450787283e-11,1.6693982824304005e-11,8.58947046958296e-12,4.495672357658932e-12,2.3724600825185748e-12,1.2809448883036641e-12,6.875874165318416e-13,3.694526845917623e-13,2.0196965337279158e-13,1.0296988816657574e-13
0.0,10,10.0,0.0,30.0,0.0,0.0,0.0,0.0,-13.0,0.0,2.0,0.0,0.0,0.0,5.088306500665193e-11,4.1238514917554075e-11,3.243005701440355e-11,2.482124263874784e-11,1.844930173288369e-11,1.3476506987300701e-11,9.688038118454249e-12,6.8394832737635166e-12,4.751126337089608e-12,3.2723273419693075e-12,2.244222085892995e-12,1.526013564491637e-12,1.0303983797163989e-12,6.879014370074398e-13,4.5005291173168154e-13,2.9131818729910737e-13,1.8410170731259606e-13,1.1527138207236605e-13,6.93380783382517e-14,4.149308498497258e-14,2.399164647329309e-14,1.4239380156732676e-14,7.963049832563277e-15,4.608474159033302e-15,2.460652936474118e-15,1.5893896869077047e-15,6.126876849202712e-09,3.572410784420519e-09,2.151529453438457e-09,1.2803425027968049e-09,7.364660920042698e-10,4.1069231866821357e-10,2.2441558460255167e-10,1.1974028050954127e-10,6.267312986939971e-11,3.222787055516209e-11,1.6275561868010032e-11,8.307342029094308e-12,4.316671026528075e-12,2.2647686954991e-12,1.2190705396898244e-12,6.53540321584063e-13,3.5138719084527407e-13,1.9271475875423217e-13,9.830659468197494e-14
0.0,11,11.0,0.0,30.0,0.0,0.0,0.0,0.0,-13.0,0.0,2.0,0.0,0.0,0.0,5.0267468251436117e-11,4.0662078226689864e-11,3.190045117877192e-11,2.434524434594543e-11,1.8031502455769027e-11,1.3118251868932639e-11,9.388323806296561e-12,6.597423029784921e-12,4.563029229021929e-12,3.131197487991315e-12,2.142288489475715e-12,1.4552395697058826e-12,9.827694440860075e-13,6.568816019398389e-13,4.30464529058642e-13,2.7931180014127616e-13,1.7691455744243228e-13,1.1109114581063288e-13,6.696012909248914e-14,4.0181833783348954e-14,2.3279336903571914e-14,1.386160297488182e-14,7.759809460956001e-15,4.503279006400588e-15,2.4033052980218686e-15,1.5624363985211164e-15,6.141859557813311e-09,3.5845619594693727e-09,2.157827453729231e-09,1.2820450474985554e-09,7.359350340155624e-10,4.09494312559966e-10,2.232184764949965e-10,1.187462405885954e-10,6.19049553869651e-11,3.1664147287382326e-11,1.5882676020018677e-11,8.044629236262422e-12,4.150350037643459e-12,2.1645336329040063e-12,1.161280201938377e-12,6.216357715544599e-13,3.343865095189552e-13,1.8397275232156437e-13,9.389165725120276e-14
0.0,12,12.0,0.0,30.0,0.0,0.0,0.0,0.0,-13.0,0.0,2.0,0.0,0.0,0.0,4.9654829932720955e-11,4.009457067107256e-11,3.138476164013503e-11,2.3886731368642453e-11,1.763301354689239e-11,1.2779330888898944e-11,9.106469661042096e-12,6.370660514494308e-12,4.387099204227772e-12,2.999162510809297e-12,2.046763153856342e-12,1.3887542678150437e-12,9.378943330552884e-13,6.275651579486316e-13,4.118949616378124e-13,2.678920688973359e-13,1.7005838230189324e-13,1.0708966090414253e-13,6.467776740852425e-14,3.891899872013396e-14,2.2591703587372704e-14,1.3495554555927065e-14,7.56263964250665e-15,4.400898798746358e-15,2.3476345121776243e-15,1.5360712418615328e-15,6.1576604657354714e-09,3.5968414655530256e-09,2.1637487261825036e-09,1.283244926297242e-09,7.349986171927339e-10,4.0804217867313107e-10,2.2189344734949185e-10,1.177083177373827e-10,6.11380210467046e-11,3.111942149101871e-11,1.5511139741409397e-11,7.798815186797048e-12,3.99533874016627e-12,2.0710609236809167e-12,1.107236564432591e-12,5.917118525546455e-13,3.18376082491046e-13,1.7571079858592694e-13,8.970857317980947e-14
0.0,13,13.0,0.0,30.0,0.0,0.0,0.0,0.0,-13.0,0.0,2.0,0.0,0.0,0.0,4.9041764064375056e-11,3.953244845373079e-11,3.08794096396847e-11,2.344224682126291e-11,1.7250669487006502e-11,1.2457002553857725e-11,8.840236662050973e-12,6.157485464593219e-12,4.222117580505684e-12,2.8754002509846945e-12,1.9571191476956073e-12,1.326233575564088e-12,8.95579711887272e-13,5.998399964936644e-13,3.9428105504311336e-13,2.5702490084068844e-13,1.6351500971681976e-13,1.0325783859282852e-13,6.24863857991967e-14,3.7702461436258324e-14,2.192773136529278e-14,1.3140805815648703e-14,7.371311993082884e-15,4.3012522100618426e-15,2.2935801494613856e-15,1.5102952853845645e-15,6.174305028314442e-09,3.6092420089728566e-09,2.1692953589726846e-09,1.2839591058141403e-09,7.336744599898298e-10,4.063454219131408e-10,2.2044171576112544e-10,1.1662273088753077e-10,6.036692738079452e-11,3.0588787433310995e-11,1.5157409908605945e-11,7.567706751620295e-12,3.850416104901562e-12,1.9837236365533245e-12,1.0566320493900475e-12,5.636204331618801e-13,3.032874767167262e-13,1.6789849012556722e-13,8.574229757990751e-14
0.0,14,14.0,0.0,30.0,0.0,0.0,0.0,0.0,-13.0,0.0,2.0,0.0,0.0,0.0,4.8425571536529447e-11,3.89728533657726e-11,3.038147041376286e-11,2.3008924378626227e-11,1.688180549026952e-11,1.2148923523166003e-11,8.587682367207355e-12,5.956392453315482e-12,4.066997086225079e-12,2.7591688538774964e-12,1.8728769112791447e-12,1.2673807473174382e-12,8.55647831796666e-13,5.736027056749036e-13,3.775643764685093e-13,2.466786047952899e-13,1.5726750388488082e-13,9.958715801358165e-14,6.038165756078817e-14,3.653021827329727e-14,2.128645734230501e-14,1.2796946902836014e-14,7.185610036602903e-15,4.204259860209795e-15,2.241084091801311e-15,1.4851023381945175e-15,6.191811941701629e-09,3.621746361210607e-09,2.1744604022246105e-09,1.2841978049286313e-09,7.319763998006479e-10,4.044125253643251e-10,2.1886521188964404e-10,1.1548705599554818e-10,5.958756465925836e-11,3.0068267429730345e-11,1.4818495736456797e-11,7.349397277081522e-12,3.7144961346588064e-12,1.9019556367685567e-12,1.0091859991752623e-12,5.372257761333829e-13,2.8905775159651053e-13,1.6050761724751783e-13,8.197909303706224e-14
0.0,15,15.0,0.0,30.0,0.0,0.0,0.0,0.0,-13.0,0.0,2.0,0.0,0.0,0.0,4.780410583156327e-11,3.841348489211931e-11,2.988855758218898e-11,2.258439034874868e-11,1.6524180529530342e-11,1.185309252093118e-11,8.347123040248942e-12,5.766057398571312e-12,3.920768298518371e-12,2.6497990995248326e-12,1.7935998596525094e-12,1.2119238144055135e-12,8.179350382401401e-13,5.487577368334169e-13,3.616907708294707e-13,2.3682367613205023e-13,1.513000579708595e-13,9.606961979223965e-14,5.83595149527838e-14,3.540037198434251e-14,2.0666967598377296e-14,1.246358596465044e-14,7.005328379232333e-15,4.109844321865342e-15,2.190090568518982e-15,1.4604806453245905e-15,6.210193279718194e-09,3.634328506763725e-09,2.179229458007262e-09,1.2839657312716397e-09,7.299150500068769e-10,4.0225093897324137e-10,2.1716628248910383e-10,1.142998857816942e-10,5.879685044105687e-11,2.955465340079847e-11,1.4491880020141442e-11,7.142232764716573e-12,3.5866144284165345e-12,1.825245984120414e-12,9.64642221689282e-13,5.124033398602643e-13,2.7562891489941744e-13,1.5351196877478818e-13,7.840639167873163e-14
0.0,16,16.0,0.0,30.0,0.0,0.0,0.0,0.0,-13.0,0.0,2.0,0.0,0.0,0.0,4.7175667144569385e-11,3.7852497936652904e-11,2.939872924088581e-11,2.2166682737653844e-11,1.617591248966425e-11,1.1567802123413647e-11,8.117100430957136e-12,5.585316573766536e-12,3.78256737960918e-12,2.5466874690950117e-12,1.718890461092156e-12,1.1596133343829327e-12,7.822904708485081e-13,5.252166767422642e-13,3.4660997058432613e-13,2.2743260680463183e-13,1.4559789845430522e-13,9.269770474182378e-14,5.6416129401404384e-14,3.431112427702638e-14,2.0068394120448744e-14,1.2140348037405826e-14,6.8302719528096544e-15,4.0179301208159655e-15,2.1405461588701586e-15,1.4364143301367147e-15,6.229454388789762e-09,3.6469544575265167e-09,2.1835819097135925e-09,1.2832630703994554e-09,7.274982869188837e-10,3.9986712349333156e-10,2.15347492690943e-10,1.1306057367710084e-10,5.7992520711121446e-11,2.9045374986666112e-11,1.4175450770999877e-11,6.944781431711409e-12,3.465915837030826e-12,1.7531338618456361e-12,9.227668205015843e-13,4.890387351866817e-13,2.6294745185819263e-13,1.4688715819011822e-13,7.501267027465809e-14
0.0,17,17.0,0.0,30.0,0.0,0.0,0.0,0.0,-13.0,0.0,2.0,0.0,0.0,0.0,4.6538918701202844e-11,3.728842088279045e-11,2.891041159950376e-11,2.1754184350032024e-11,1.5835423595236117e-11,1.1291597408863793e-11,7.896352727788575e-12,5.413147913954499e-12,3.651625001728779e-12,2.4492898600514673e-12,1.648386713732951e-12,1.1102203952486424e-12,7.485749217159681e-13,5.028976085733565e-13,3.322752514375811e-13,2.1847971676955511e-13,1.4014719972139055e-13,8.94643369451268e-14,5.454789353535838e-14,3.326076907817359e-14,1.9489911944922016e-14,1.1826874044961444e-14,6.660255321525682e-15,3.9284437298826464e-15,2.0923997669763856e-15,1.4128845840711888e-15,6.249593602565752e-09,3.6595828298064615e-09,2.1874918831478474e-09,1.2820862794933778e-09,7.247316699282524e-10,3.972666252953216e-10,2.1341149624315124e-10,1.1176904172628309e-10,5.717296395960548e-11,2.8538390149379465e-11,1.3867442209274073e-11,6.7558064906280886e-12,3.3516431612684358e-12,1.6852039600785501e-12,8.833462558439087e-13,4.67026809987855e-13,2.5096391491636563e-13,1.406104706592786e-13,7.178733827742407e-14
0.0,18,18.0,0.0,30.0,0.0,0.0,0.0,0.0,-13.0,0.0,2.0,0.0,0.0,0.0,4.58928204727353e-11,3.6720089820184173e-11,2.842233680081473e-11,2.1345567460047574e-11,1.550139450390495e-11,1.102324054618258e-11,7.683789220175521e-12,5.24865441208015e-12,3.527256362384033e-12,2.357115881782157e-12,1.5817589625129882e-12,1.0635348322237594e-12,7.166598254553386e-13,4.817245477833774e-13,3.1864312734950887e-13,2.0994100377475828e-13,1.3493500759789747e-13,8.636285061777472e-14,5.2751404874874426e-14,3.2247686427519124e-14,1.893073649920013e-14,1.1522819889785253e-14,6.4951020463873095e-15,3.841313556964969e-15,2.0456025750753274e-15,1.3898706220446992e-15,6.270601820253001e-09,3.6721652523590987e-09,2.1909290065957923e-09,1.2804287267138948e-09,7.216188014146704e-10,3.9445416669360393e-10,2.1136095404266805e-10,1.104256370163617e-10,5.633708954398909e-11,2.8032094650917038e-11,1.3566384054655085e-11,6.574241941470043e-12,3.243126844553557e-12,1.6210822596157205e-12,8.461855968098231e-13,4.4627083946053216e-13,2.3963256394303786e-13,1.3466072742913804e-13,6.872063821966386e-14
0.0,19,19.0,0.0,30.0,0.0,0.0,0.0,0.0,-13.0,0.0,2.0,0.0,0.0,0.0,4.523657656843378e-11,3.6146595648028606e-11,2.793349221046738e-11,2.093974801000813e-11,1.5172725687007847e-11,1.0761680496647283e-11,7.478468236270302e-12,5.091049405586955e-12,3.4088521987622656e-12,2.269723676113527e-12,1.518707012214218e-12,1.0193636242005506e-12,6.864263597687959e-13,4.616269414892077e-13,3.0567307931783974e-13,2.0179400901065752e-13,1.2994917070220818e-13,8.338696024792891e-14,5.102345100905013e-14,3.1270336921953735e-14,1.839012113003234e-14,1.1227855623720875e-14,6.3346441018706e-15,3.756469927500709e-15,2.000107979954402e-15,1.3673504315777434e-15,6.292461981115114e-09,3.6846466547557726e-09,2.193859019102202e-09,1.2782812086351407e-09,7.18161634126935e-10,3.9143374232077497e-10,2.091984865890486e-10,1.0903102490727516e-10,5.548422335550841e-11,2.752524727486737e-11,1.3271058091320349e-11,6.3991711412789184e-12,3.1397756096514033e-12,1.5604321757377164e-12,8.111069353779902e-13,4.266818045972616e-13,2.2891104863673454e-13,1.2901816483102202e-13,6.580355759417967e-14
0.0,20,20.0,0.0,30.0,0.0,0.0,0.0,0.0,-13.0,0.0,2.0,0.0,0.0,0.0,4.4569593414860964e-11,3.5567241457157066e-11,2.7443078994196644e-11,2.053584765294238e-11,1.4848504926201223e-11,1.0506027100910818e-11,7.279577956730643e-12,4.939643562418618e-12,3.295870715228935e-12,2.1867152154398664e-12,1.458957501941709e-12,9.775294441477406e-13,6.577646395227226e-13,4.425392219025615e-13,2.9332731326437364e-13,1.940176965240563e-13,1.2517827865153716e-13,8.05307335895662e-14,4.9360996110446365e-14,3.032725664394437e-14,1.7867354806586238e-14,1.0941664688065486e-14,6.178721340325797e-15,3.673845062173488e-15,1.9558715173034984e-15,1.345301346633727e-15,6.315148459899978e-09,3.6969654720724036e-09,2.1962442631139787e-09,1.275632371264598e-09,7.143607338411904e-10,3.8820871589537644e-10,2.069266501119775e-10,1.0758611016014317e-10,5.461402520135978e-11,2.701690811907712e-11,1.2980461054101032e-11,6.229807903744092e-12,3.0410679842102463e-12,1.502951030540207e-12,7.779479402178308e-13,4.081777449238433e-13,2.187601263940441e-13,1.2366432567960367e-13,6.302775118985279e-14
0.0,21,21.0,0.0,30.0,0.0,0.0,0.0,0.0,-13.0,0.0,2.0,0.0,0.0,0.0,4.389144646938588e-11,3.498150813601473e-11,2.6950478225462422e-11,2.0133162254379017e-11,1.4527979937322296e-11,1.0255528916534905e-11,7.08641974275456e-12,4.793833386746103e-12,3.1878303424582074e-12,2.1077320368615457e-12,1.4022615131312884e-12,9.378693431472181e-13,6.305729906647261e-13,4.244004060347868e-13,2.81570543084937e-13,1.8659234462659373e-13,1.206116062887818e-13,7.77885671536796e-14,4.7761168649765676e-14,2.9417052517731195e-14,1.7361759986262287e-14,1.066394321393628e-14,6.027180999437435e-15,3.593373050213689e-15,1.9128507775955876e-15,1.323700477001857e-15,6.33862640281967e-09,3.7090537924122504e-09,2.19804408814814e-09,1.2724690547262008e-09,7.10215504632488e-10,3.8478191418462764e-10,2.0454792906713713e-10,1.060919792046056e-10,5.3726423445375395e-11,2.6506387704487535e-11,1.2693772969762941e-11,6.065479880406302e-12,2.9465446564591484e-12,1.4483668275922247e-12,7.465605334393686e-13,3.90683174438228e-13,2.0914341017378054e-13,1.1858196128621172e-13,6.038547281332818e-14
0.0,22,22.0,0.0,30.0,0.0,0.0,0.0,0.0,-13.0,0.0,2.0,0.0,0.0,0.0,4.3201853706472944e-11,3.4389026571643115e-11,2.6455223108456177e-11,1.9731135716319878e-11,1.421053529002642e-11,1.000955425674746e-11,6.898393654488265e-12,4.653091077701016e-12,3.084303251295444e-12,2.032451374797345e-12,1.3483923879677973e-12,9.002335517801706e-13,6.047572929598171e-13,4.0715373522959225e-13,2.7036979552694013e-13,1.7949944779745482e-13,1.162390632113147e-13,7.515516389688124e-14,4.622125018695698e-14,2.853839804509177e-14,1.6872690631713982e-14,1.0394399375581923e-14,5.8798772489558165e-15,3.5149898190126408e-15,1.871005316550934e-15,1.3025250213075955e-15,6.3628510202549815e-09,3.7208374669025617e-09,2.1992151852119366e-09,1.2687765774753818e-09,7.057243833850065e-10,3.811557165295238e-10,2.0206473979725273e-10,1.0454985841070175e-10,5.282156336054066e-11,2.5993205013301052e-11,1.24103301810093e-11,5.905613982635464e-12,2.8558016001352716e-12,1.396435306032638e-12,7.16809677109409e-13,3.741285519250514e-13,2.0002714191179296e-13,1.1375494263954804e-13,5.786951535248253e-14
0.0,23,23.0,0.0,30.0,0.0,0.0,0.0,0.0,-13.0,0.0,2.0,0.0,0.0,0.0,4.250065449478502e-11,3.378955515143203e-11,2.5956976175485032e-11,1.932933819022176e-11,1.3895672925992777e-11,9.767574957747892e-12,6.714985872520684e-12,4.516955588207068e-12,2.984909549190961e-12,1.9605826576874834e-12,1.2971437385569765e-12,8.644843856147352e-13,5.802303825946091e-13,3.9074634918603003e-13,2.596942340709289e-13,1.7272162780300142e-13,1.1205114798030272e-13,7.262551285221319e-14,4.473866512796157e-14,2.7690029379518395e-14,1.639953036803839e-14,1.0132752790501446e-14,5.736670772930942e-15,3.4386331004457023e-15,1.830296562747859e-15,1.2817524884625816e-15,6.387766850015053e-09,3.732236196703293e-09,2.1997118666316096e-09,1.264538972678497e-09,7.008850093808956e-10,3.7733213927931284e-10,1.994794416602974e-10,1.0296108446164972e-10,5.1899766374450566e-11,2.5477052886504646e-11,1.2129602373580632e-11,5.749723616792308e-12,2.7684839070515784e-12,1.3469372533157823e-12,6.88572258935992e-13,3.584497985674408e-13,1.9137998785843859e-13,1.0916817956760843e-13,5.5473158208719395e-14
0.0,24,24.0,0.0,30.0,0.0,0.0,0.0,0.0,-13.0,0.0,2.0,0.0,0.0,0.0,4.178779277708512e-11,3.318296153460629e-11,2.5455510537255244e-11,1.8927447912875315e-11,1.3582995691992842e-11,9.529152469500484e-12,6.535757769442388e-12,4.385024745014314e-12,2.889312091967391e-12,1.8918643370224297e-12,1.2483276297527401e-12,8.304952438407099e-13,5.569115073251683e-13,3.7512899003220706e-13,2.495149994182074e-13,1.6624255293983616e-13,1.0803890647274467e-13,7.019487048448604e-14,4.3310971347762864e-14,2.6870741703267817e-14,1.594169076961629e-14,9.878733961231906e-15,5.5974283844922996e-15,3.364242394664174e-15,1.7906877242123097e-15,1.2613608483238448e-15,6.413307003358714e-09,3.743163607681479e-09,2.1994863022399487e-09,1.2597391869231703e-09,6.956943740367475e-10,3.733129150766508e-10,1.9679435300633173e-10,1.013270838567213e-10,5.096149796745275e-11,2.4957769479530804e-11,1.1851173014537888e-11,5.597397521605796e-12,2.684280266464554e-12,1.2996760572301924e-12,6.617360683331632e-13,3.435878571251187e-13,1.8317285287574368e-13,1.0480754689917567e-13,5.319012121884661e-14
0.0,25,25.0,0.0,30.0,0.0,0.0,0.0,0.0,-13.0,0.0,2.0,0.0,0.0,0.0,4.1063303693310664e-11,3.2569207869853236e-11,2.495069444043198e-11,1.8525236035713357e-11,1.3272193399513711e-11,9.293925923920009e-12,6.3603364098566356e-12,4.256948304772211e-12,2.7972118487173347e-12,1.8260610192488937e-12,1.2017729204836566e-12,7.981496918335845e-13,5.347258281214789e-13,3.602557327485242e-13,2.3980506454903487e-13,1.6004686446262877e-13,1.0419389390941455e-13,6.785874358336562e-14,4.1935851591518835e-14,2.6079385876475238e-14,1.5498609766650837e-14,9.63208375440066e-15,5.46202266988077e-15,3.291758931475348e-15,1.7521436954434895e-15,1.2413286289759136e-15,6.4393924047976475e-09,3.753527320365383e-09,2.1984887201793576e-09,1.2543592495632068e-09,6.901489551432477e-10,3.690995672771332e-10,1.9401177015947725e-10,9.964935928098903e-11,5.0007342441841194e-11,2.4435314700336593e-11,1.1574722690206523e-11,5.448290015094568e-12,2.6029180323062622e-12,1.2544754788835537e-12,6.361988553727662e-13,3.294882879954307e-13,1.7537871125759322e-13,1.0065981680713785e-13,5.101452429209039e-14
0.0,26,26.0,0.0,30.0,0.0,0.0,0.0,0.0,-13.0,0.0,2.0,0.0,0.0,0.0,4.032730296518642e-11,3.194833879934023e-11,2.4442478527832774e-11,1.8122553929691582e-11,1.2963031002462135e-11,9.061601885316182e-12,6.188406285568799e-12,4.132421834088181e-12,2.7083437626697876e-12,1.7629608732417342e-12,1.1573237499571836e-12,7.673406197680622e-13,5.136039622658579e-13,3.460837388361966e-13,2.3053910261498896e-13,1.5412010938684262e-13,1.0050814015265936e-13,6.561287353292598e-14,4.061110557506145e-14,2.5314865331913658e-14,1.506975016232152e-14,9.392552913515728e-15,5.330331659517394e-15,3.221125630084929e-15,1.7146309661126302e-15,1.221634974449826e-15,6.4659310357478924e-09,3.7632290203523965e-09,2.1966675786505363e-09,1.2483804196085713e-09,6.842448393242759e-10,3.6469347996553904e-10,1.9113398811827289e-10,9.792948111615475e-11,4.9037983143256255e-11,2.390975074187e-11,1.1300014904362741e-11,5.302112477111333e-12,2.5241588221047666e-12,1.2111776292645542e-12,6.118674660590467e-13,3.16100898279627e-13,1.67972452062251e-13,9.671259664710873e-14,4.894085208660211e-14
0.0,27,27.0,0.0,30.0,0.0,0.0,0.0,0.0,-13.0,0.0,2.0,0.0,0.0,0.0,3.957997849985823e-11,3.132047171905592e-11,2.3930885309748836e-11,1.7719322539008504e-11,1.265533855110683e-11,8.831945531740415e-12,6.019702117944022e-12,4.0111813137881454e-12,2.6224730558116668e-12,1.7023732880513004e-12,1.1148381563737965e-12,7.379694704408681e-13,4.934815636559965e-13,3.3257303061641676e-13,2.2169336618438168e-13,1.4844867896748397e-13,9.697411792082325e-14,6.345322181832154e-14,3.93346427148899e-14,2.4576133191803823e-14,1.4654598251683615e-14,9.159901602290888e-15,5.202238523488946e-15,3.1522870573815296e-15,1.6781175321029176e-15,1.2022596741203455e-15,6.4928171912177575e-09,3.772164532342692e-09,2.19396971360259e-09,1.2417833160390313e-09,6.779778358689185e-10,3.6009596410532403e-10,1.8816332208723645e-10,9.616908277521578e-11,4.8054187002145194e-11,2.3381225976330822e-11,1.1026883960900613e-11,5.15862591195147e-12,2.4477945947614646e-12,1.1696411328537048e-12,5.886570480598754e-13,3.0337940060469137e-13,1.6093073728675731e-13,9.295427170964804e-14,4.696392314250373e-14
0.0,28,28.0,0.0,30.0,0.0,0.0,0.0,0.0,-13.0,0.0,2.0,0.0,0.0,0.0,3.882158377907102e-11,3.0685788868290434e-11,2.3416000445794e-11,1.7315523431340916e-11,1.2349002635932576e-11,8.604773053311287e-12,5.854002581750034e-12,3.892998378914513e-12,2.5393919298292065e-12,1.6441267575691987e-12,1.07418681684739e-12,7.099455302867337e-13,4.742989366931068e-13,3.1968628394401436e-13,2.1324557657075908e-13,1.430197522464064e-13,9.35847136104545e-14,6.137595664765841e-14,3.8104475425486914e-14,2.3862189586369148e-14,1.4252662534467144e-14,8.933898975856558e-15,5.077631289374705e-15,3.0851893851313628e-15,1.6425728095621464e-15,1.1831831722860115e-15,6.519930757796012e-09,3.78022389930831e-09,2.1903404664960347e-09,1.2345480366636768e-09,6.713435845984697e-10,3.553083203672282e-10,1.8510212923871514e-10,9.436985885439244e-11,4.7056792489588e-11,2.2849961606841247e-11,1.0755224610791343e-11,5.01763445292151e-12,2.373644158053545e-12,1.1297394626213165e-12,5.664903215608335e-13,2.9128109893595e-13,1.5423187148135541e-13,8.937395238984902e-14,4.5078862964732596e-14
0.0,29,29.0,0.0,30.0,0.0,0.0,0.0,0.0,-13.0,0.0,2.0,0.0,0.0,0.0,3.8052432686088036e-11,3.004453090282831e-11,2.289796550979577e-11,1.6911191253049334e-11,1.2043959081288162e-11,8.379945085497954e-12,5.691124824387879e-12,3.777676116302952e-12,2.4589166204697033e-12,1.5880669706054489e-12,1.0352518981578146e-12,6.83185278235184e-13,4.560006806373971e-13,3.0738863744522583e-13,2.0517482215360942e-13,1.378212441408803e-13,9.033320045605599e-14,5.937744058260147e-14,3.691871292878808e-14,2.3172079156119526e-14,1.3863472514251373e-14,8.714322777614068e-15,4.9564025805938215e-15,3.0197803464536587e-15,1.60796755237779e-15,1.1643865646431836e-15,6.547136520135356e-09,3.78729146692971e-09,2.185723795788728e-09,1.2266542700980537e-09,6.643376600021292e-10,3.5033189915372956e-10,1.8195283030820778e-10,9.253356533188355e-11,4.6046700260721965e-11,2.2316240577695932e-11,1.0484983191215915e-11,4.878979686956945e-12,2.301550060589386e-12,1.0913594316381676e-12,5.452969103363953e-13,2.797665989992008e-13,1.4785568162350142e-13,8.596142534800975e-14,4.3281080609325144e-14
0.0,30,30.0,0.0,30.0,0.0,0.0,0.0,0.0,-13.0,0.0,2.0,0.0,0.0,0.0,3.727289549232066e-11,2.939699167414769e-11,2.2376971970167613e-11,1.6506407346980163e-11,1.1740186686479057e-11,8.157361022279141e-12,5.530919671665744e-12,3.6650453510250785e-12,2.3808847666529307e-12,1.5340550865939674e-12,9.979260087977598e-13,6.576117876211865e-13,4.3853536172340026e-13,2.9564751665129333e-13,1.9746146474711851e-13,1.3284175761367883e-13,8.721321379206379e-14,5.745421908454612e-14,3.5775555526593696e-14,2.25048887216883e-14,1.3486577577156654e-14,8.500958959598513e-15,4.838449373406233e-15,2.956009191771732e-15,1.5742737732403254e-15,1.1458515868666811e-15,6.574283501840185e-09,3.793245972319317e-09,2.1800623756324796e-09,1.2180814050296e-09,6.569556735006407e-10,3.4516815828628937e-10,1.7871793077075103e-10,9.066202122204117e-11,4.502486590040246e-11,2.1780398331197794e-11,1.0216150026085873e-11,4.742535692168622e-12,2.2313758268179137e-12,1.0543998274302818e-12,5.250127284994447e-13,2.687995412332413e-13,1.4178340624258572e-13,8.270710829291618e-14,4.1566248370331673e-14
0.0,31,31.0,0.0,30.0,0.0,0.0,0.0,0.0,-13.0,0.0,2.0,0.0,0.0,0.0,3.648339577081963e-11,2.8743513979065408e-11,2.1853256161445813e-11,1.610129433289449e-11,1.1437701846519918e-11,7.936954077988934e-12,5.373267425602897e-12,3.5549613607808473e-12,2.305153059713838e-12,1.481966178994188e-12,9.621112435424069e-13,6.331541767624163e-13,4.218552106365117e-13,2.844324716353401e-13,1.900870532091091e-13,1.2807053952116278e-13,8.421872820647273e-14,5.560300989322508e-14,3.467328929258499e-14,2.1859745107167243e-14,1.312154594370353e-14,8.293601324750421e-15,4.7236727710998464e-15,2.893826644495021e-15,1.541464668582769e-15,1.1275605986856576e-15,6.601204345109937e-09,3.7979606352096345e-09,2.1732976853769365e-09,1.2088086406447265e-09,6.491933753679805e-10,3.398187187633315e-10,1.7540004144665357e-10,8.875711122881097e-11,4.39922942976224e-11,2.1242815070493316e-11,9.948752892511173e-12,4.608204694530023e-12,2.163003497489714e-12,1.0187701761351515e-12,5.055794186970669e-13,2.5834635443520973e-13,1.3599759292841217e-13,7.96020080660847e-14,3.993028419206035e-14
0.0,32,32.0,0.0,30.0,0.0,0.0,0.0,0.0,-13.0,0.0,2.0,0.0,0.0,0.0,3.5684408045899824e-11,2.8084486088314002e-11,2.1327095063375624e-11,1.569601148411357e-11,1.1136553910794989e-11,7.71868698566712e-12,5.218074172663889e-12,3.4473009649377083e-12,2.2315951418277483e-12,1.4316878299986566e-12,9.277183124522215e-13,6.097471042260734e-13,4.0591584323451115e-13,2.7371502693642524e-13,1.830342435823893e-13,1.234974397845313e-13,8.134403640253318e-14,5.3820693165268404e-14,3.361028114551458e-14,2.1235813104120172e-14,1.2767963687912563e-14,8.092051189402122e-15,4.611977793907488e-15,2.8331848566323705e-15,1.5095145473997854e-15,1.1094965659546181e-15,6.6277147316310755e-09,3.801303249239648e-09,2.165370093817661e-09,1.1988151018590587e-09,6.410467575505789e-10,3.342854189363584e-10,1.7200189845312178e-10,8.682078904359712e-11,4.295003526383796e-11,2.0703909246659434e-11,9.682851387898376e-12,4.4759132617945526e-12,2.096331441594073e-12,9.843896244447665e-13,4.869438378155017e-13,2.4837602845856167e-13,1.304820034707075e-13,7.663768174573497e-14,3.8369336443744834e-14
0.0,33,33.0,0.0,30.0,0.0,0.0,0.0,0.0,-13.0,0.0,2.0,0.0,0.0,0.0,3.487645605932148e-11,2.7420338934727636e-11,2.0798802748220076e-11,1.5290750752251726e-11,1.0836821149678275e-11,7.502548233914994e-12,5.06526853445114e-12,3.3419599435139484e-12,2.1600997254391553e-12,1.3831188609680385e-12,8.946657469084772e-13,5.873303053966833e-13,3.9067600268341704e-13,2.634685426454636e-13,1.7628672512070864e-13,1.1911287358083078e-13,7.858372961604717e-14,5.21043023077429e-14,3.2584974266657666e-14,2.0632293564664216e-14,1.2425433818627586e-14,7.896117064693738e-15,4.5032731832899126e-15,2.774037364440099e-15,1.4783987638628785e-15,1.0916430442000855e-15,6.653612845050361e-09,3.803136270770872e-09,2.156218942661043e-09,1.1880799627952037e-09,6.325121583659459e-10,3.2857036739377943e-10,1.685263824622306e-10,8.48550810079086e-11,4.1899180080739216e-11,2.0164132036802615e-11,9.418532057934904e-12,4.345608963245353e-12,2.03127240922523e-12,9.511859282405545e-13,4.690575865145415e-13,2.3885990448542443e-13,1.252215259686668e-13,7.380620052281419e-14,3.6879770696923307e-14
0.0,34,34.0,0.0,30.0,0.0,0.0,0.0,0.0,-13.0,0.0,2.0,0.0,0.0,0.0,3.406011148451882e-11,2.675154378492574e-11,2.0268727350032575e-11,1.4885733331545197e-11,1.0538607239709546e-11,7.288548764469401e-12,4.914798797584284e-12,3.2388507427860816e-12,2.0905689095550527e-12,1.3361681858561945e-12,8.628791758781973e-13,5.65848166750856e-13,3.7609732121638516e-13,2.536680857780858e-13,1.698291516979708e-13,1.1490778627117607e-13,7.593267943217187e-14,5.0451015448424355e-14,3.1595883833658046e-14,2.004842161364872e-14,1.2093575417732385e-14,7.705614355655617e-15,4.397471219602399e-15,2.716339044347717e-15,1.4480936538922071e-15,1.0739841630258363e-15,6.678678872930202e-09,3.80331690285819e-09,2.145782634373805e-09,1.1765825817645297e-09,6.235863698347008e-10,3.2267599478927554e-10,1.6497653725056166e-10,8.286208991595867e-11,4.084085871910102e-11,1.9623962620087256e-11,9.155904167409064e-12,4.217257433115733e-12,1.9677517980245487e-12,9.19094537725804e-13,4.51876579159959e-13,2.297714815303075e-13,1.2020209332487824e-13,7.110011613028507e-14,3.545815813752415e-14
0.0,35,35.0,0.0,30.0,0.0,0.0,0.0,0.0,-13.0,0.0,2.0,0.0,0.0,0.0,3.323599300674129e-11,2.6078610314621097e-11,1.9737248459975066e-11,1.4481206657907183e-11,1.0242038173610207e-11,7.076719058836939e-12,4.766630372155377e-12,3.1379004333671735e-12,2.022916670622831e-12,1.2907537748663175e-12,8.322906661645783e-13,5.452493349798255e-13,3.6214410002811167e-13,2.4429031105311933e-13,1.6364707809719395e-13,1.1087362082791715e-13,7.338602088299086e-14,4.885814749176257e-14,3.0641593041568015e-14,1.948346497035781e-14,1.1772022830898006e-14,7.520365076810984e-15,4.294487551868189e-15,2.6600460691044636e-15,1.4185764755162758e-15,1.056504613395035e-15,6.702674543455077e-09,3.801697172653575e-09,2.1339987303999925e-09,1.1643026508110696e-09,6.142667482003263e-10,3.166051048045397e-10,1.613555875355964e-10,8.084399877152215e-11,3.9776237515327605e-11,1.9083904091855562e-11,8.895096014121082e-12,4.090839783580724e-12,1.9057061087979533e-12,8.880577697364546e-13,4.3536065095835826e-13,2.2108623794910982e-13,1.154106076028596e-13,6.85124296311841e-14,3.410126523760685e-14
0.0,36,36.0,0.0,30.0,0.0,0.0,0.0,0.0,-13.0,0.0,2.0,0.0,0.0,0.0,3.2404765673867737e-11,2.5402084990152976e-11,1.920477485389658e-11,1.4077441759509389e-11,9.947259523416842e-12,6.867106555329649e-12,4.620743533405099e-12,3.0390488892430653e-12,1.9570675085394552e-12,1.2468017173736483e-12,8.02838120945909e-13,5.25486358140701e-13,3.4878310588673385e-13,2.353133503347885e-13,1.5772690076308954e-13,1.0700228754538709e-13,7.093913671077828e-14,4.732314271375465e-14,2.9720749386730516e-14,1.8936722371522878e-14,1.1460424906771155e-14,7.340197583345148e-15,4.1942410388737156e-15,2.6051158643993447e-15,1.3898253529449588e-15,1.0391896381686944e-15,6.725342689443531e-09,3.798124001696252e-09,2.1208040666201066e-09,1.1512203626526938e-09,6.045513280187702e-10,3.103609243938978e-10,1.5766695609078712e-10,7.880307434042842e-11,3.8706517128696457e-11,1.8544479883674488e-11,8.636251701601942e-12,3.966350320257491e-12,1.8450815686231727e-12,8.580240587451531e-13,4.194731993142579e-13,2.1278146682722903e-13,1.108348697771916e-13,6.603656239289181e-14,3.2806044302094126e-14
0.0,37,37.0,0.0,30.0,0.0,0.0,0.0,0.0,-13.0,0.0,2.0,0.0,0.0,0.0,3.1567140439547225e-11,2.4722549677425163e-11,1.867174247391757e-11,1.3674730887270046e-11,9.654433994516212e-12,6.659773346075219e-12,4.4771314077671495e-12,2.9422471604975822e-12,1.8929552304793636e-12,1.2042453741532568e-12,7.74464731397348e-13,5.065153562777626e-13,3.359833831779183e-13,2.2671671006378792e-13,1.5205580264246048e-13,1.0328613584197214e-13,6.858764269655694e-14,4.5843567854315325e-14,2.883206119145148e-14,1.8407522087794162e-14,1.1158444280686923e-14,7.164946316887056e-15,4.096653600583625e-15,2.551507065836788e-15,1.3618192242691494e-15,1.0220250260387711e-15,6.746406829594715e-09,3.792439270300071e-09,2.106134893845231e-09,1.1373165975983445e-09,5.944389400563073e-10,3.0394715341903623e-10,1.539142801169255e-10,7.674167035801003e-11,3.7632930632085743e-11,1.8006230580165146e-11,8.379528299360623e-12,3.843794519255301e-12,1.785832902236351e-12,8.289472788653412e-13,4.0418085663888575e-13,2.0483612421005516e-13,1.0646351445155718e-13,6.366632909402463e-14,3.1569624504434755e-14
0.0,38,38.0,0.0,30.0,0.0,0.0,0.0,0.0,-13.0,0.0,2.0,0.0,0.0,0.0,3.07238738290693e-11,2.4040620409055758e-11,1.8138612596258176e-11,1.3273385364201354e-11,9.363739217753311e-12,6.454794111030867e-12,4.335798169748449e-12,2.8474560158885944e-12,1.8305218572019446e-12,1.1630246099713982e-12,7.471184766488719e-13,4.882957191580859e-13,3.2371608020034084e-13,2.184811760692411e-13,1.4662170177982076e-13,9.971792798339377e-14,6.632737396352375e-14,4.44171056694368e-14,2.797429434985063e-14,1.78952205271631e-14,1.0865756699610505e-14,6.994451565113072e-15,4.001650079180981e-15,2.4991794765191483e-15,1.334537792737618e-15,1.0049971093281645e-15,6.765570754591555e-09,3.7844798796347175e-09,2.089927052029881e-09,1.1225731327279886e-09,5.839293331188367e-10,2.973680137424174e-10,1.5010142682302862e-10,7.466223026223431e-11,3.65567416138073e-11,1.7469711042636324e-11,8.125093330276668e-12,3.723187230128093e-12,1.7279222347527878e-12,8.00786129908951e-13,3.894531920325103e-13,1.972306892168576e-13,1.0228594915713737e-13,6.139591262742927e-14,3.038930303646934e-14
0.0,39,39.0,0.0,30.0,0.0,0.0,0.0,0.0,-13.0,0.0,2.0,0.0,0.0,0.0,2.9875767664514696e-11,2.3356946247781638e-11,1.760587012608765e-11,1.2873733601449684e-11,9.075365734778257e-12,6.2522542523972496e-12,4.1967574207098565e-12,2.7546446344471954e-12,1.7697166382672192e-12,1.1230850985377046e-12,7.207516677567828e-13,4.707898289499798e-13,3.119542886237321e-13,2.105887252088496e-13,1.414132033705986e-13,9.629081457436511e-14,6.415437217451541e-14,4.304154890896805e-14,2.7146269276818908e-14,1.7399200918689016e-14,1.0582050384888324e-14,6.828559234289283e-15,3.909158108933041e-15,2.4480940250705143e-15,1.3079614813705636e-15,9.880927654130935e-16,6.782518103986946e-09,3.774077818137578e-09,2.0721161876917255e-09,1.1069728752979546e-09,5.730232998495055e-10,2.906282978044507e-10,1.4623250813627725e-10,7.256728933001134e-11,3.547924218919879e-11,1.6935487765509232e-11,7.873122533908132e-12,3.6045510737009717e-12,1.6713181108206027e-12,7.735035812425663e-13,3.752624394404705e-13,1.8994703515476643e-13,9.829229787642935e-14,5.921984077575094e-14,2.9262536024710636e-14
0.0,40,40.0,0.0,30.0,0.0,0.0,0.0,0.0,-13.0,0.0,2.0,0.0,0.0,0.0,2.9023668789735417e-11,2.2672208189475525e-11,1.707402196720081e-11,1.2476119236368788e-11,8.789515138621605e-12,6.0522481982564365e-12,4.060030724580111e-12,2.6637894279076776e-12,1.710495164157142e-12,1.0843776926693994e-12,6.953205317551643e-13,4.5396280584398126e-13,3.006728951055726e-13,2.030224433347994e-13,1.364195550064692e-13,9.299831168225207e-14,6.206487355029653e-14,4.171479468894067e-14,2.6346858044245413e-14,1.6918872071340204e-14,1.0307025430142277e-14,6.667120634084727e-15,3.819107994229263e-15,2.398212724290697e-15,1.282071390870152e-15,9.71299422058595e-16,6.796911919068575e-09,3.761060242585029e-09,2.052638024686168e-09,1.0905001219879014e-09,5.617228064717049e-10,2.837334166573198e-10,1.4231189441875922e-10,7.045947609830741e-11,3.4401750838895714e-11,1.6404136404708454e-11,7.623797862117363e-12,3.4879150077775664e-12,1.6159946171725101e-12,7.470663678269637e-13,3.6158325005053033e-13,1.8296831081622632e-13,9.447334846946317e-14,5.71329645525194e-14,2.818692891299952e-14
0.0,41,41.0,0.0,30.0,0.0,0.0,0.0,0.0,-13.0,0.0,2.0,0.0,0.0,0.0,2.8168468737945007e-11,2.1987118052939882e-11,1.6543595420232657e-11,1.2080899354380987e-11,8.506398337348891e-12,5.854877848893252e-12,3.925646278991707e-12,2.5748729781086655e-12,1.6528185647042033e-12,1.0468578533029544e-12,6.707848322091058e-13,4.377822747699993e-13,2.898484441381597e-13,1.9576644912568719e-13,1.316306048754387e-13,8.983427947039333e-14,6.005529764244402e-14,4.0434839229570726e-14,2.557498168967193e-14,1.645366720283882e-14,1.004039323157528e-14,6.50999227389245e-15,3.7314325952033805e-15,2.349498630434465e-15,1.2568492606371565e-15,9.546050664909623e-16,6.808394157538916e-09,3.7452495884542584e-09,2.031428698944264e-09,1.0731408452532316e-09,5.500311264167302e-10,2.7668944736272335e-10,1.3834422702003028e-10,6.83415129545884e-11,3.332561000677458e-11,1.587623942802588e-11,7.37730566983503e-12,3.3733130372921725e-12,1.5619305972127256e-12,7.214445334065902e-13,3.4839246685067927e-13,1.762788312062192e-13,9.082050370101057e-14,5.513043810816212e-14,2.7160226086502396e-14
0.0,42,42.0,0.0,30.0,0.0,0.0,0.0,0.0,-13.0,0.0,2.0,0.0,0.0,0.0,2.7311103285523697e-11,2.130241730629585e-11,1.601513656820518e-11,1.1688442761895526e-11,8.226233913678831e-12,5.660251143203016e-12,3.793637703339603e-12,2.4878830755681707e-12,1.5966527844719372e-12,1.0104851317014283e-12,6.471075230142792e-13,4.222181515044983e-13,2.794590112647029e-13,1.8880582336032148e-13,1.2703676270398563e-13,8.679290223195324e-14,5.812223680109688e-14,3.9199772932696435e-14,2.482960768404822e-14,1.600304283418133e-14,9.781875948349776e-15,6.357035669902287e-15,3.646067220307128e-15,2.3019158031728235e-15,1.2322774326756869e-15,9.379982585211431e-16,6.816585158308423e-09,3.726463729034626e-09,2.008425167998509e-09,1.0548830077069879e-09,5.379529777508911e-10,2.6950317957689753e-10,1.3433442944069842e-10,6.621621578416285e-11,3.22521834048953e-11,1.535238384624302e-11,7.13383506917551e-12,3.2607830486110203e-12,1.5091089477837659e-12,6.966110163476728e-13,3.3566891940796013e-13,1.698639770097029e-13,8.73257355960071e-14,5.320770011542837e-14,2.6180299606268107e-14
0.0,43,43.0,0.0,30.0,0.0,0.0,0.0,0.0,-13.0,0.0,2.0,0.0,0.0,0.0,2.6452551835408913e-11,2.0618875781623258e-11,1.548920861273167e-11,1.1299128282338905e-11,7.949246557786119e-12,5.468480725943367e-12,3.664042927916002e-12,2.402811847275417e-12,1.5419679268300377e-12,9.752226998542368e-13,6.242544324812778e-13,4.072424465916856e-13,2.694840858676892e-13,1.821265432411843e-13,1.226289632515079e-13,8.386866972717826e-14,5.626244628282985e-14,3.800777577335642e-14,2.4109747545871163e-14,1.556647774609107e-14,9.531205990905149e-15,6.208117162270258e-15,3.562949525368887e-15,2.2554292663987026e-15,1.2083388181271922e-15,9.214681478405916e-16,6.821083049445479e-09,3.7045162079682403e-09,1.983565706065743e-09,1.0357169051498754e-09,5.254946642918086e-10,2.621821610397192e-10,1.3028771682586945e-10,6.408649256621481e-11,3.118285298554923e-11,1.4833158990747264e-11,6.893576419751734e-12,3.1503657505094904e-12,1.4575159895960597e-12,6.725412740936698e-13,3.2339323705626476e-13,1.637101021664219e-13,8.398154286832514e-14,5.1360456552212183e-14,2.5245137045461285e-14
0.0,44,44.0,0.0,30.0,0.0,0.0,0.0,0.0,-13.0,0.0,2.0,0.0,0.0,0.0,2.5593836572498168e-11,1.993729023082209e-11,1.4966390128372768e-11,1.0913343051514773e-11,7.675665554241134e-12,5.279682699446205e-12,3.536903170643012e-12,2.319654963401785e-12,1.48873765943419e-12,9.410369246564763e-13,6.021939750087866e-13,3.9282908562123446e-13,2.599044627901314e-13,1.7571542140148258e-13,1.1839863218765923e-13,8.105635973787558e-14,5.4472834948629713e-14,3.685711298182861e-14,2.3414454590061417e-14,1.5143471994576063e-14,9.28812553548133e-15,6.0631077414318855e-15,3.4820194184587688e-15,2.2100049698866016e-15,1.185016866183861e-15,9.05004496167023e-16,6.821463099804368e-09,3.6792165753328647e-09,1.956790495125512e-09,1.0156355386146276e-09,5.126642202596026e-10,2.5473474155247184e-10,1.262096034512217e-10,6.195534081633781e-11,3.011901555175519e-11,1.4319154308819187e-11,6.656719932076256e-12,3.042103706894175e-12,1.4071409039766113e-12,6.492129426343398e-13,3.115476788052278e-13,1.578044489829355e-13,8.078091118875821e-14,4.958466480910157e-14,2.4352828552231153e-14
0.0,45,45.0,0.0,30.0,0.0,0.0,0.0,0.0,-13.0,0.0,2.0,0.0,0.0,0.0,2.4736021332204462e-11,1.925848267673587e-11,1.4447273206597758e-11,1.0531480792135503e-11,7.40572330724225e-12,5.0939754458458144e-12,3.412261990067082e-12,2.2384109141412153e-12,1.4369386746620947e-12,9.078969819877146e-13,5.808968878879256e-13,3.789537445108257e-13,2.507021421015276e-13,1.6956004924971045e-13,1.143376542026514e-13,7.835102176447253e-14,5.275045650658998e-14,3.574613099296762e-14,2.2742821799958297e-14,1.473354598297953e-14,9.052386063178282e-15,5.9218828828966935e-15,3.4032189701980178e-15,2.165609752211346e-15,1.1622955349038522e-15,8.885977050534277e-16,6.8172770254508e-09,3.650370862810931e-09,1.928042321853427e-09,9.94635015602082e-10,4.994715582200422e-10,2.4717011486965705e-10,1.2210590781281212e-10,5.982584378174704e-11,2.9062078987097513e-11,1.3810957151843899e-11,6.42345436461468e-12,2.9360404486566106e-12,1.3579752296074096e-12,6.266055277597507e-13,3.0011597839209057e-13,1.5213507026535838e-13,7.771727607522635e-14,4.787651905263393e-14,2.3501553407012395e-14
0.0,46,46.0,0.0,30.0,0.0,0.0,0.0,0.0,-13.0,0.0,2.0,0.0,0.0,0.0,2.3880210122031165e-11,1.858329851463542e-11,1.3932461464632292e-11,1.015394005050269e-11,7.139653891040344e-12,4.9114785079827206e-12,3.2901644052505906e-12,2.159080349268092e-12,1.3865501992808286e-12,8.7577450729496e-13,5.603359910013511e-13,3.6559369854370165e-13,2.4186023636861213e-13,1.636487443214701e-13,1.1043834321767061e-13,7.574796180109089e-14,5.109250125728557e-14,3.467325363994062e-14,2.209397981113727e-14,1.433623958904757e-14,8.823747922262042e-15,5.784322389350432e-15,3.3264923288600918e-15,2.1222113050047734e-15,1.140159263445247e-15,8.722388506944533e-16,6.8080522759999565e-09,3.6177822386788262e-09,1.8972673895035317e-09,9.72714980558287e-10,4.85928619915473e-10,2.3949835774589983e-10,1.1798275488798962e-10,5.770116530564964e-11,2.8013458093488688e-11,1.3309150534821846e-11,6.193965798537646e-12,2.832219654157837e-12,1.3100124137588097e-12,6.047001252070696e-13,2.8908320301339074e-13,1.466907580150467e-13,7.478448820258804e-14,4.62324367791787e-14,2.2689566474579984e-14
0.0,47,47.0,0.0,30.0,0.0,0.0,0.0,0.0,-13.0,0.0,2.0,0.0,0.0,0.0,2.3027545235133257e-11,1.7912604320414346e-11,1.3422567898204103e-11,9.781122380998892e-12,6.877691614807978e-12,4.732311518994613e-12,3.17065607504718e-12,2.0816654742736653e-12,1.337553548234872e-12,8.44643279719894e-13,5.404859673795982e-13,3.527276840018278e-13,2.3336288483324077e-13,1.5797050131951157e-13,1.0669341458030247e-13,7.324272813525015e-14,4.949628830345298e-14,3.363697856938275e-14,2.1467094995812185e-14,1.3951111346300291e-14,8.601979912902362e-15,5.65031023923657e-15,3.251785639789406e-15,2.079778139093476e-15,1.1185929452281831e-15,8.559197277987197e-16,6.793291343491627e-09,3.5812518880752117e-09,1.8644162529763974e-09,9.498790745491735e-10,4.72049529311624e-10,2.3173046517393702e-10,1.1384657510367203e-10,5.5584543289319456e-11,2.697457003110105e-11,1.2814310847892374e-11,5.968436477626778e-12,2.7306843897591477e-12,1.2632474132096194e-12,5.834791671170454e-13,2.784356243769966e-13,1.414609782849255e-13,7.197678094405852e-14,4.464904649664297e-14,2.191518506095777e-14
0.0,48,48.0,0.0,30.0,0.0,0.0,0.0,0.0,-13.0,0.0,2.0,0.0,0.0,0.0,2.2179204894629466e-11,1.7247285323454262e-11,1.2918212560809997e-11,9.413430466326986e-12,6.6200695932405444e-12,4.556593172282991e-12,3.0537825310045624e-12,2.0061694981108058e-12,1.2899317179546118e-12,8.144789372027422e-13,5.213231627639724e-13,3.4033577131971904e-13,2.2519517393518851e-13,1.525149465283562e-13,1.0309595914596745e-13,7.083109812982581e-14,4.7959258188609656e-14,3.263587385422087e-14,2.086136763594443e-14,1.3577737679527268e-14,8.386858893399511e-15,5.519734440377293e-15,3.1790469684931013e-15,2.0382795528259614e-15,1.0975819010939896e-15,8.396329051143211e-16,6.772471157356976e-09,3.540580168085776e-09,1.8294448844794416e-09,9.26135423978178e-10,4.5785074678360467e-10,2.238783806329152e-10,1.0970409953272145e-10,5.347928169286871e-11,2.5946829358268108e-11,1.2327005502640405e-11,5.747043704283522e-12,2.6314764035390195e-12,1.217676340549399e-12,5.629261925010337e-13,2.6816060082518297e-13,1.364358118450969e-13,6.928873996308925e-14,4.3123176472155655e-14,2.117677674800596e-14
0.0,49,49.0,0.0,30.0,0.0,0.0,0.0,0.0,-13.0,0.0,2.0,0.0,0.0,0.0,2.13364003681802e-11,1.6588242504176055e-11,1.2420020055545304e-11,9.05126616333616e-12,6.367018315976437e-12,4.384440225130306e-12,2.9395884598219982e-12,1.9325961286472884e-12,1.2436690150067417e-12,7.852587203489523e-13,5.028254025030695e-13,3.283992487645035e-13,2.1734306365051234e-13,1.472722952932296e-13,9.96394191616011e-14,6.850906595498218e-14,4.6478965931724364e-14,3.1668574779860056e-14,2.027603017329877e-14,1.3215712195568441e-14,8.178169407756424e-15,5.3924868873920905e-15,3.1082262268689633e-15,1.9976856032917544e-15,1.0771118517384312e-15,8.233717961501088e-16,6.745042653057125e-09,3.495568090529856e-09,1.792315876508374e-09,9.014971579734019e-10,4.4335122279399166e-10,2.159550199497742e-10,1.055623508420634e-10,5.138874102744654e-11,2.4931642670869936e-11,1.1847790498029487e-11,5.529958786145211e-12,2.534635466840598e-12,1.1732961519184007e-12,5.430256396950523e-13,2.5824646938613104e-13,1.3160590035655068e-13,6.671527468590649e-14,4.165184448576339e-14,2.047274877960182e-14
0.0,50,50.0,0.0,30.0,0.0,0.0,0.0,0.0,-13.0,0.0,2.0,0.0,0.0,0.0,2.0500372494239865e-11,1.5936389278898724e-11,1.1928616828710619e-11,8.695028465910534e-12,6.118764210598654e-12,4.2159665308066284e-12,2.828117032883982e-12,1.8609491128807018e-12,1.1987507162503552e-12,7.569612431560934e-13,4.849718242780596e-13,3.169005157202692e-13,2.0979331914122783e-13,1.422333122532634e-13,9.631756588348779e-14,6.627283124864866e-14,4.505307442789241e-14,3.0733780778176295e-14,1.971034552374199e-14,1.2864645030854196e-14,7.975703334330932e-15,5.268463221331884e-15,3.0392751018494825e-15,1.957967080981539e-15,1.0571688883554238e-15,8.071307493278478e-16,6.710430628547952e-09,3.446019188005603e-09,1.7529997884514967e-09,8.75982953618281e-10,4.2857254866370697e-10,2.0797428717578002e-10,1.0142862953780831e-10,4.931632730094221e-11,2.393040284109668e-11,1.1377207893330852e-11,5.317346031450997e-12,2.440198759568014e-12,1.1301043724566493e-12,5.237626590617814e-13,2.4868244671429074e-13,1.2696239779419117e-13,6.425159148798476e-14,4.023224853110247e-14,1.9801539498565e-14
0.0,51,51.0,0.0,30.0,0.0,0.0,0.0,0.0,-13.0,0.0,2.0,0.0,0.0,0.0,1.9672387564463164e-11,1.5292647737786237e-11,1.1444628257248386e-11,8.345111377883235e-12,5.875528195649741e-12,4.051282095613715e-12,2.7194092818759094e-12,1.7912318197943596e-12,1.1551627569567841e-12,7.295662889750149e-13,4.677427253177911e-13,3.058229847257367e-13,2.0253344723477342e-13,1.3738927401919567e-13,9.312447887414764e-14,6.411878869293313e-14,4.3679348186784144e-14,2.983025248327848e-14,1.9163605443011232e-14,1.2524162258178656e-14,7.779259555857718e-15,5.147562689983059e-15,2.9721469859002407e-15,1.9190954887591025e-15,1.0377394404485987e-15,7.90905162584957e-16,6.668034031152175e-09,3.391741820975094e-09,1.7114766429705417e-09,8.496176073521535e-10,4.135391011015717e-10,1.999510807120814e-10,9.73104950910763e-11,4.72654793848448e-11,2.294448285564136e-11,1.0915783178783638e-11,5.1093617948643496e-12,2.3482002961715737e-12,1.088098855841611e-12,5.051229444915514e-13,2.394585379803079e-13,1.22496926899535e-13,6.189316843244321e-14,3.886175840522736e-14,1.9161612174826676e-14
0.0,52,52.0,0.0,30.0,0.0,0.0,0.0,0.0,-13.0,0.0,2.0,0.0,0.0,0.0,1.885373251095222e-11,1.4657944405451444e-11,1.0968675524592398e-11,8.001901690488186e-12,5.637524221890664e-12,3.890492158996053e-12,2.613503520794522e-12,1.7234468644003e-12,1.1128914436201552e-12,7.030546303116903e-13,4.511194229243609e-13,2.9515099148043403e-13,1.9555163727290075e-13,1.3273193399017496e-13,9.005452693554515e-14,6.2043518500468e-14,4.235564738270332e-14,2.8956808882436625e-14,1.8635128931433365e-14,1.2193905355715148e-14,7.588643651124914e-15,5.029688007003394e-15,2.906796908604304e-15,1.881043025807815e-15,1.0188102396800095e-15,7.746916279722329e-16,6.617226846993907e-09,3.3325519858580465e-09,1.6677375783415823e-09,8.22432629440582e-10,3.9827817606355304e-10,1.9190128779844325e-10,9.321574157883422e-11,4.5239654770891377e-11,2.197522925475653e-11,1.0464022539116588e-11,4.906153578740406e-12,2.2586703900349208e-12,1.0472775743361023e-12,4.870925825748652e-13,2.305654528588763e-13,1.1820154047195644e-13,5.963573139970146e-14,3.7537908135284756e-14,1.855145133475269e-14
0.0,53,53.0,0.0,30.0,0.0,0.0,0.0,0.0,-13.0,0.0,2.0,0.0,0.0,0.0,1.8045709352171945e-11,1.4033205498258217e-11,1.050137228183293e-11,7.665776660732164e-12,5.4049578021065135e-12,3.733696296611612e-12,2.5104348157223558e-12,1.6575957720009722e-12,1.071923188473626e-12,6.774078712678375e-13,4.3508412728390016e-13,2.848697120978694e-13,1.8883670588878516e-13,1.2825348901265285e-13,8.710235064407467e-14,6.004377780900698e-14,4.107992219227143e-14,2.8112324536620076e-14,1.8124260664963414e-14,1.187353074093271e-14,7.403667608677886e-15,4.914745208269342e-15,2.8431814686895682e-15,1.8437825773406474e-15,1.0003682785956912e-15,7.58488111719531e-16,6.557359795392922e-09,3.2682766867976114e-09,1.621786662856812e-09,7.944668562234409e-10,3.8282010630665795e-10,1.8384176542002268e-10,8.915236752939202e-11,4.3242313682604074e-11,2.102395517820534e-11,1.0022410010624886e-11,4.707859197547388e-12,2.171635154540984e-12,1.007638435782522e-12,4.696579186563357e-13,2.2199452782825644e-13,1.140686873311242e-13,5.747523145281352e-14,3.6258389193264126e-14,1.7969561425227353e-14
0.0,54,54.0,0.0,30.0,0.0,0.0,0.0,0.0,-13.0,0.0,2.0,0.0,0.0,0.0,1.7249628857223176e-11,1.3419351657706434e-11,1.0043321093483939e-11,7.337101589560672e-12,5.17802453221154e-12,3.5809875480513384e-12,2.4102345044580633e-12,1.5936786819885046e-12,1.03224426306919e-12,6.526083115544847e-13,4.19619825680999e-13,2.7496508694882774e-13,1.8237804530007074e-13,1.239465476057244e-13,8.426284645776316e-14,5.811649298030538e-14,3.985020739686531e-14,2.7295726846429605e-14,1.76303694417111e-14,1.1562709372320505e-14,7.224149562905298e-15,4.80264350391233e-15,2.7812587660684778e-15,1.8072877109059557e-15,9.824007633816197e-16,7.422941747186184e-16,6.487763061572503e-09,3.1987579375206537e-09,1.5736428766541956e-09,7.657670717345015e-10,3.67198355760315e-10,1.7579030569238311e-10,8.51285397137693e-11,4.1276901500589945e-11,2.0091933034041694e-11,9.591404538978294e-12,4.514606014955908e-12,2.087116039512489e-12,9.691791240338807e-13,4.528054393448895e-13,2.1373765403892382e-13,1.1009118279584157e-13,5.5407823283747166e-14,3.502104445862066e-14,1.7414467363559932e-14
