Line_number,Fiducial,Easting,Northing,Height,Elevation,tx_pitch,tx_roll,tx_yaw,txrx_dx,txrx_dy,txrx_dz,rx_pitch,rx_roll,rx_yaw,S0Z_time_3.834e-04,S0Z_time_3.924e-04,S0Z_time_4.039e-04,S0Z_time_4.184e-04,S0Z_time_4.364e-04,S0Z_time_4.589e-04,S0Z_time_4.869e-04,S0Z_time_5.224e-04,S0Z_time_5.679e-04,S0Z_time_6.249e-04,S0Z_time_6.969e-04,S0Z_time_7.879e-04,S0Z_time_9.019e-04,S0Z_time_1.046e-03,S0Z_time_1.227e-03,S0Z_time_1.456e-03,S0Z_time_1.744e-03,S0Z_time_2.109e-03,S0Z_time_2.567e-03,S0Z_time_3.145e-03,S0Z_time_3.864e-03,S0Z_time_4.745e-03,S0Z_time_5.821e-03,S0Z_time_7.140e-03,S0Z_time_8.754e-03,S0Z_time_1.073e-02,S1Z_time_2.057e-05,S1Z_time_2.607e-05,S1Z_time_3.307e-05,S1Z_time_4.206e-05,S1Z_time_5.356e-05,S1Z_time_6.807e-05,S1Z_time_8.607e-05,S1Z_time_1.086e-04,S1Z_time_1.366e-04,S1Z_time_1.721e-04,S1Z_time_2.176e-04,S1Z_time_2.746e-04,S1Z_time_3.466e-04,S1Z_time_4.376e-04,S1Z_time_5.516e-04,S1Z_time_6.956e-04,S1Z_time_8.771e-04,S1Z_time_1.106e-03,S1Z_time_1.394e-03
0.0,0,0.0,0.0,30.0,0.0,0.0,0.0,0.0,-13.0,0.0,2.0,0.0,0.0,0.0,6.373559829045996e-11,5.6163659726471905e-11,5.199432466083919e-11,4.4423382964483554e-11,3.764909081902187e-11,3.1928080290193024e-11,2.505420471211411e-11,2.0503361442181515e-11,1.50100805035104e-11,1.0845911776264655e-11,7.450518555471795e-12,4.4099352865185666e-12,2.896698563895956e-12,1.7802062937432758e-12,1.0231854533390886e-12,5.208205087760063e-13,2.9703303865765874e-13,1.4140873062038711e-13,6.751763347846478e-14,3.200127252381693e-14,1.3291935239273039e-14,6.9645092823574005e-15,3.053857417846397e-15,7.837940415939723e-16,1.574565117778804e-16,8.553016262605045e-16,3.733171903321938e-09,1.6798433715448483e-09,8.351364755579231e-10,4.6499977119643647e-10,2.9202052935356406e-10,2.0676996276270862e-10,1.5933494894097535e-10,1.157846310741132e-10,8.364000267642991e-11,5.354069651823875e-11,3.7452234031055037e-11,2.4509565364343325e-11,1.50700325014144e-11,8.176236939963529e-12,4.4060768929825846e-12,2.2377140505223012e-12,1.0309414623291427e-12,5.037531398906236e-13,2.289184056151705e-13
0.0,1,1.0,0.0,30.0,0.0,0.0,0.0,0.0,-13.0,0.0,2.0,0.0,0.0,0.0,6.325779689810165e-11,5.368340113844551e-11,5.2271727567203975e-11,4.691920123319953e-11,3.910054682999274e-11,3.357157432784732e-11,2.6358411111095446e-11,2.190740240583969e-11,1.7611894291021005e-11,1.2298235331547322e-11,8.94181659000834e-12,5.978431208155946e-12,3.700506376188329e-12,2.2019377699006336e-12,1.385593452509685e-12,7.490338776683907e-13,4.2287943635136116e-13,1.9570840309642122e-13,1.042344248364295e-13,4.326281597510326e-14,2.3070079218910117e-14,9.654972014918005e-15,5.549158220525977e-15,2.3271401731653507e-15,1.427144952015283e-15,6.320694762666587e-17,3.616951643786742e-09,1.644857440260591e-09,7.975130232989338e-10,4.595168737464146e-10,2.597566327211756e-10,1.8917093131059172e-10,1.3385622170935072e-10,1.0551550029443795e-10,7.815315592137917e-11,5.488969174793459e-11,3.8089582935657503e-11,2.5810161997211127e-11,1.573355122186355e-11,9.120177481070948e-12,5.00901484016251e-12,2.8173186855739164e-12,1.4009940553464558e-12,6.55883308180641e-13,3.10738293559009e-13
0.0,2,2.0,0.0,30.0,0.0,0.0,0.0,0.0,-13.0,0.0,2.0,0.0,0.0,0.0,6.078059731775784e-11,5.878520682422516e-11,5.400559706170446e-11,4.413169778700572e-11,3.9888794655772575e-11,3.5246756901691255e-11,2.930192668628691e-11,2.30011563172362e-11,1.8140582941159155e-11,1.3639951560083474e-11,1.042805214944331e-11,6.9071545198168676e-12,4.53800112790654e-12,2.7979374155310388e-12,1.7217515146981364e-12,9.600968134145729e-13,5.523104001197285e-13,2.8445688747140254e-13,1.3155080675338897e-13,6.527920362349386e-14,3.116633922814346e-14,1.3009279352232804e-14,6.301294071932345e-15,2.4146510197911784e-15,1.0255317109622847e-15,4.048758469481381e-17,3.518620151942516e-09,1.5324902160409375e-09,8.277290623971536e-10,4.2813981740646453e-10,2.8082095739715425e-10,1.8138770661170258e-10,1.2151452150313444e-10,9.643952360213029e-11,7.307467398535012e-11,5.45742165769699e-11,3.733186895870037e-11,2.555309819242204e-11,1.6443328918237057e-11,1.0444722163404894e-11,5.784956479893068e-12,3.1939263496376042e-12,1.614555054289088e-12,8.253009468646734e-13,3.982364665857059e-13
0.0,3,3.0,0.0,30.0,0.0,0.0,0.0,0.0,-13.0,0.0,2.0,0.0,0.0,0.0,5.935894454719488e-11,5.55337294232806e-11,5.1504365931588573e-11,4.6117998797194365e-11,3.9419847530738785e-11,3.6652939849012585e-11,3.0301062791016296e-11,2.4355056356930427e-11,1.9952591856213837e-11,1.433063571502525e-11,1.1015462409215912e-11,7.75831804198194e-12,5.1097011360191825e-12,3.308825611359642e-12,1.93838691122978e-12,1.1892915830945154e-12,6.557420978711316e-13,3.533502283255019e-13,1.8695039575880703e-13,8.580626276210165e-14,4.108847547388597e-14,2.149453947769195e-14,7.22043125668332e-15,4.244041924377135e-15,2.3274297746317058e-15,3.0682021304684275e-16,3.4440334080718034e-09,1.5803192300267244e-09,7.79261975458816e-10,4.5644474310554016e-10,2.7452692459408343e-10,1.7728014226377458e-10,1.2347822265742965e-10,9.269684266918803e-11,7.020949951350677e-11,5.178212424087877e-11,3.6303488077599484e-11,2.4968762133928133e-11,1.671293437710737e-11,1.0093196156390763e-11,5.8570425034206076e-12,3.4600174428288604e-12,1.899974388962844e-12,9.282850094044305e-13,4.950969207638746e-13
0.0,4,4.0,0.0,30.0,0.0,0.0,0.0,0.0,-13.0,0.0,2.0,0.0,0.0,0.0,5.885286638005954e-11,5.94662535163531e-11,5.032167008318967e-11,4.43333514991642e-11,3.783768550849624e-11,3.3962476512220336e-11,3.0344133402480195e-11,2.52950748465571e-11,2.0650962840066737e-11,1.510041095312016e-11,1.0771352075485521e-11,7.727854638872664e-12,5.482773489812958e-12,3.641762580726854e-12,2.2724796050837157e-12,1.4319771497557696e-12,8.338118331945933e-13,4.206212240371381e-13,2.229155546514349e-13,1.0589444701232893e-13,5.39436799591845e-14,2.3263391506249897e-14,1.0394292484323545e-14,6.145923455120088e-15,2.28697494957726e-15,1.6709034382115062e-15,3.2662299455675248e-09,1.6068935011521293e-09,7.719030709262195e-10,4.3774555383257473e-10,2.762548852030561e-10,1.714056575971345e-10,1.2768273300256177e-10,8.91241640305987e-11,6.735906955810755e-11,4.940376494617355e-11,3.662283083217643e-11,2.424832352730459e-11,1.7588128304142342e-11,1.0170019967938164e-11,6.765439209974336e-12,3.674385560755327e-12,2.0373161020746463e-12,1.1094435465791667e-12,5.140606629716724e-13
0.0,5,5.0,0.0,30.0,0.0,0.0,0.0,0.0,-13.0,0.0,2.0,0.0,0.0,0.0,5.610996294696527e-11,5.3197621539876724e-11,4.8422073604497886e-11,4.5068910191525797e-11,4.0341261102242636e-11,3.359043979578244e-11,2.941983312389378e-11,2.4135613022063034e-11,1.9826747394043437e-11,1.5760153321522678e-11,1.2295456748923607e-11,8.876874264284011e-12,5.722385125281886e-12,3.886989197229784e-12,2.564806052250764e-12,1.680182557774961e-12,8.844798575118864e-13,5.214519373088737e-13,2.6443726039572534e-13,1.3530906659918154e-13,6.27286915624295e-14,3.2178648628651515e-14,1.530654746250313e-14,7.116706393393418e-15,2.97853543224591e-15,1.4703070488155752e-15,3.4085032664598186e-09,1.6418103070854898e-09,8.059319176107536e-10,4.646665601134735e-10,2.846157159644912e-10,1.790898376587169e-10,1.2538957588378514e-10,9.091993049320765e-11,6.316565983104816e-11,4.8065999649114456e-11,3.448801268231797e-11,2.341906695641463e-11,1.5690954200846562e-11,1.0369288140024832e-11,6.3159290844950015e-12,3.771927914757902e-12,2.2587761332354526e-12,1.1890788235510725e-12,5.911276971582089e-13
0.0,6,6.0,0.0,30.0,0.0,0.0,0.0,0.0,-13.0,0.0,2.0,0.0,0.0,0.0,5.850672137936969e-11,5.297957619632971e-11,4.956585636879522e-11,4.318270844120427e-11,3.925416628685433e-11,3.410371976378626e-11,2.910188159271705e-11,2.6017108817821076e-11,1.8587544588177784e-11,1.5696795454483682e-11,1.2095896785670818e-11,8.95033859045254e-12,6.250222722117729e-12,4.407456556197632e-12,2.804570393978594e-12,1.7874979511258425e-12,1.0124624675133298e-12,5.992025285931453e-13,3.0601653452073864e-13,1.6057363599922272e-13,7.462295973460323e-14,3.58513716168069e-14,1.6529717193412472e-14,7.389364904030052e-15,3.3038828870140844e-15,2.3738442128718998e-15,3.460822725192778e-09,1.4990766269277141e-09,7.88805279154712e-10,4.5888353579162436e-10,2.869368395468792e-10,1.880008109235294e-10,1.1921262478072637e-10,9.700864686502882e-11,6.81779546751521e-11,4.531126997181171e-11,3.114439458567931e-11,2.1734996666485425e-11,1.6451117814881326e-11,1.0387099009209517e-11,6.849634386591309e-12,3.994877978401809e-12,2.352710652730758e-12,1.2484299225133896e-12,6.265275156797735e-13
0.0,7,7.0,0.0,30.0,0.0,0.0,0.0,0.0,-13.0,0.0,2.0,0.0,0.0,0.0,6.071193082251877e-11,5.065257499144982e-11,4.703567786757245e-11,4.365954683886542e-11,3.91699774081062e-11,3.203684653799567e-11,2.88185359669242e-11,2.305123943010008e-11,2.0379783668044684e-11,1.6321604351259287e-11,1.2400513837332509e-11,9.056603388208861e-12,6.4346560889359635e-12,4.3083079007405365e-12,3.0902369042092368e-12,1.8687129532351334e-12,1.0831692598414479e-12,6.102021158537054e-13,3.4487171122715216e-13,1.7458068544731687e-13,9.308137546231325e-14,4.7250070920344985e-14,2.2529488782125627e-14,9.222170935516477e-15,4.553989122419518e-15,2.062971548266067e-15,3.26425162278921e-09,1.512833968964415e-09,7.771962094780102e-10,4.4445957590343064e-10,2.9163285303619005e-10,1.9454953985172682e-10,1.3173160632942411e-10,9.295642977255714e-11,6.25831174618442e-11,4.536281360947484e-11,3.2221687990052596e-11,2.3079857314751514e-11,1.6384075114355515e-11,1.0680081516279878e-11,6.9423430455964945e-12,4.012683953876289e-12,2.3827205625722782e-12,1.3278055541404671e-12,7.043351572143635e-13
0.0,8,8.0,0.0,30.0,0.0,0.0,0.0,0.0,-13.0,0.0,2.0,0.0,0.0,0.0,5.97375767961962e-11,5.539064898532072e-11,4.8029988980664596e-11,4.31676665412701e-11,3.715042305730277e-11,3.4289546563151904e-11,2.759109730752216e-11,2.4459060540686345e-11,1.9756497588556078e-11,1.5854883419920616e-11,1.2161318628357916e-11,9.805706482244535e-12,7.000781669153054e-12,4.539246670373227e-12,3.15081362048489e-12,1.9964729560235243e-12,1.2531174520836802e-12,7.253889383288037e-13,3.968380238289083e-13,2.1391419783384995e-13,1.0168057064115381e-13,5.13920653670412e-14,2.5077972863832032e-14,1.3168528757619594e-14,4.8465382750015876e-15,3.3085646088483816e-15,3.2070229607460308e-09,1.4768403286677763e-09,8.064521431752695e-10,4.5648485532038874e-10,2.924395022403457e-10,2.007249757661706e-10,1.372071319685332e-10,9.395107495615771e-11,6.878784468718211e-11,4.522913209712862e-11,3.040876704172028e-11,2.1885316999164586e-11,1.5443911134131872e-11,1.020899267170961e-11,6.709280992140528e-12,4.3403691062829185e-12,2.3692611609583226e-12,1.3578119504565806e-12,7.458622961600201e-13
0.0,9,9.0,0.0,30.0,0.0,0.0,0.0,0.0,-13.0,0.0,2.0,0.0,0.0,0.0,6.056481938181188e-11,5.588612224498253e-11,5.100525683515415e-11,4.6611292104693934e-11,3.7808142916789854e-11,3.2636574484804795e-11,2.8858666005429988e-11,2.4355069238360363e-11,1.9194739476256094e-11,1.6080748321348094e-11,1.2507893047222315e-11,9.575582946999883e-12,7.295472701099661e-12,5.0410234386675455e-12,3.308088005008836e-12,2.0463691451887397e-12,1.2742578509327165e-12,7.236088703565143e-13,4.3951684031378685e-13,2.295242567042076e-13,1.184364844098988e-13,5.667733494334853e-14,2.6421694785390353e-14,1.3090348270089359e-14,5.16152763631924e-15,3.7597376430107305e-15,3.334217919242313e-09,1.450603733430254e-09,7.801479655256183e-10,4.706069658486466e-10,3.021484570641454e-10,1.8913667835658796e-10,1.3895918041390393e-10,9.64630940393086e-11,6.538910889380777e-11,4.675226784593735e-11,3.155510668551539e-11,2.112457264470206e-11,1.445237361673829e-11,1.0103878819890685e-11,6.133108957060049e-12,4.291488685289685e-12,2.3501790161151325e-12,1.4582162371760827e-12,7.266348385305348e-13
0.0,10,10.0,0.0,30.0,0.0,0.0,0.0,0.0,-13.0,0.0,2.0,0.0,0.0,0.0,6.15610002799948e-11,5.583112608594176e-11,4.83126359972096e-11,4.508919599153794e-11,3.825604033868604e-11,3.172047243873689e-11,2.8284085186204987e-11,2.217747999648153e-11,1.8672268400309927e-11,1.5818037749104906e-11,1.2173322205365053e-11,9.669723475192552e-12,6.718293644436089e-12,4.894523946436064e-12,3.2499439049916663e-12,2.167426533770444e-12,1.3851401105195648e-12,7.94226790452308e-13,4.720830433631786e-13,2.5317069888840827e-13,1.287847923254865e-13,6.916857498772971e-14,3.2476823605574446e-14,1.4834857322005604e-14,7.229490998183946e-15,1.5587747303895153e-15,3.24634295637681e-09,1.5043502209759e-09,7.90696569367898e-10,4.3875159149354383e-10,3.093951267821618e-10,1.9989386306487157e-10,1.3825644200243703e-10,1.0065007027851613e-10,6.843390794664413e-11,4.6339095552512433e-11,3.1853177378983807e-11,2.312248972513898e-11,1.5464194928515196e-11,1.0345862638353117e-11,6.4822474134672095e-12,4.085359991965054e-12,2.482454911947355e-12,1.4296961049357326e-12,7.837147912004018e-13
0.0,11,11.0,0.0,30.0,0.0,0.0,0.0,0.0,-13.0,0.0,2.0,0.0,0.0,0.0,6.073305935669768e-11,5.422145168695246e-11,5.1536920145241273e-11,4.311333579488476e-11,3.8479296922759536e-11,3.248039673354358e-11,2.8364602637558556e-11,2.3463844840550098e-11,1.884262934656231e-11,1.545360019484652e-11,1.2555677871157368e-11,9.239135075580927e-12,7.073032838816454e-12,5.114389108565035e-12,3.5603602108363844e-12,2.2811276429940357e-12,1.437186863672625e-12,8.366600094004429e-13,4.85785903468822e-13,2.7555574470827946e-13,1.4164880854757988e-13,7.776862486235159e-14,3.5875253853841174e-14,1.6490659987737055e-14,7.3449772794856e-15,3.744046826644941e-15,3.2224406470132775e-09,1.463431844361437e-09,7.634538840094531e-10,4.753409591394465e-10,3.042086778632174e-10,2.0522923606410223e-10,1.436395261164818e-10,1.0204550323300749e-10,7.114630016820765e-11,4.866688680193225e-11,3.19388816390897e-11,2.190574281528626e-11,1.513550572842455e-11,1.0020110233240618e-11,6.861492377953879e-12,4.0820831870003495e-12,2.437336908219184e-12,1.4068769627968597e-12,7.714374295794196e-13
0.0,12,12.0,0.0,30.0,0.0,0.0,0.0,0.0,-13.0,0.0,2.0,0.0,0.0,0.0,6.362141303108717e-11,5.6701378704060765e-11,4.981558779910714e-11,4.372765453443535e-11,4.118824843065824e-11,3.264608028237952e-11,2.925727872835024e-11,2.3751521905085805e-11,1.9218584782392443e-11,1.562169583092239e-11,1.2197930810908208e-11,9.111379305745838e-12,6.6912640266406225e-12,4.940043483676853e-12,3.328263258601196e-12,2.2447142041408084e-12,1.4562877056530706e-12,8.36872057621657e-13,5.117228706175336e-13,2.889339244604467e-13,1.5980516456082625e-13,8.092467467741525e-14,4.060851036522964e-14,1.967996461031647e-14,9.919295427399832e-15,6.90765844094795e-15,3.1604398256317884e-09,1.5675924258037647e-09,7.927655257086907e-10,4.892846956321966e-10,3.0614631896163895e-10,2.0956327070036484e-10,1.4858569710197122e-10,1.0044156137654029e-10,7.271826898692356e-11,4.9142319651615636e-11,3.2774131197496965e-11,2.2179757314403686e-11,1.3996372895435479e-11,1.0270558303771405e-11,6.2493350814451345e-12,4.086523152471661e-12,2.598515542923971e-12,1.5452355662296522e-12,8.481737580519147e-13
0.0,13,13.0,0.0,30.0,0.0,0.0,0.0,0.0,-13.0,0.0,2.0,0.0,0.0,0.0,6.078172067291866e-11,6.048340810923848e-11,4.673267929190461e-11,4.462474963705198e-11,4.074619570601489e-11,3.336013962549744e-11,2.9879915694048595e-11,2.3065755991930126e-11,2.0302418776005133e-11,1.5472113999412248e-11,1.2384796294139853e-11,9.129250384734571e-12,7.176281361717099e-12,5.194112899126305e-12,3.4647970167156915e-12,2.35307214770678e-12,1.514722568730813e-12,9.864361845387223e-13,5.75848254803834e-13,3.1429884482351506e-13,1.7061092267951344e-13,8.769028737142973e-14,4.50433042881956e-14,2.2393128757602072e-14,8.700422363906288e-15,5.491027141770314e-15,3.049035679996508e-09,1.4641582613021756e-09,7.920755122392278e-10,4.671468921480893e-10,3.116651310421841e-10,2.1505876274915254e-10,1.4884462728258934e-10,1.0468594672321807e-10,7.242321043416057e-11,5.1098361668280006e-11,3.3536252422177245e-11,2.139466130256792e-11,1.429897359810998e-11,1.0084536428742856e-11,6.0883373711178895e-12,3.916457085324102e-12,2.5366929431191064e-12,1.4297419787900681e-12,8.581421145659947e-13
0.0,14,14.0,0.0,30.0,0.0,0.0,0.0,0.0,-13.0,0.0,2.0,0.0,0.0,0.0,6.425921107194822e-11,5.925527339262748e-11,5.7451467739638724e-11,4.4837793087742954e-11,4.073794059827559e-11,3.3672494799439796e-11,2.8866347704484823e-11,2.345653285583791e-11,1.9259446094265464e-11,1.5509791889368544e-11,1.2042416313207524e-11,8.946226047189807e-12,6.8682749202849855e-12,5.021630217867307e-12,3.517851452328959e-12,2.3883565424941407e-12,1.5458211075195502e-12,9.78159024873793e-13,5.387067951063386e-13,3.1966281532266693e-13,1.7972225008858623e-13,9.639305881797651e-14,4.526774813314431e-14,2.4699512711186276e-14,1.217018601162828e-14,5.323946783367737e-15,3.2700248623906756e-09,1.503255895233746e-09,7.770158143344053e-10,4.565820502822944e-10,3.180995703118202e-10,2.2311415396116405e-10,1.423639580543011e-10,1.0929506591295512e-10,7.524019211108056e-11,5.1089216586106004e-11,3.3010177419940025e-11,2.2939447064445743e-11,1.4526779447675727e-11,1.0292198138716439e-11,6.20735479390817e-12,4.024355448269785e-12,2.38399380227087e-12,1.4530380264619197e-12,8.208626638482079e-13
0.0,15,15.0,0.0,30.0,0.0,0.0,0.0,0.0,-13.0,0.0,2.0,0.0,0.0,0.0,6.69069870774665e-11,5.863893724272298e-11,5.2749552769309795e-11,4.872873366840975e-11,3.9198606632702535e-11,3.4621779678291054e-11,2.9884476172169085e-11,2.497250817788564e-11,1.9496330359947358e-11,1.5785270931552745e-11,1.1887133932842248e-11,9.370938163074033e-12,6.7946825339296935e-12,5.220309063058432e-12,3.757911942598209e-12,2.427009200449308e-12,1.5425091362242694e-12,9.952514529565651e-13,5.669290583349093e-13,3.4239499427214875e-13,1.8070785962448863e-13,1.019459791782221e-13,5.480011142287186e-14,2.4119524153348962e-14,1.1028344078824048e-14,4.2970315554077575e-15,3.003375576078053e-09,1.462644983875678e-09,8.304584512893707e-10,4.934487369657869e-10,3.2011900688142586e-10,2.1482757532556286e-10,1.5272475289442302e-10,1.1375440818520351e-10,7.693411029756955e-11,5.085322618616026e-11,3.643262331516397e-11,2.2629527340512316e-11,1.4526779101576967e-11,9.379969608208754e-12,6.1141369390464395e-12,3.801119258094016e-12,2.4494331978933376e-12,1.4136522826505679e-12,8.737608148009674e-13
0.0,16,16.0,0.0,30.0,0.0,0.0,0.0,0.0,-13.0,0.0,2.0,0.0,0.0,0.0,6.703574050253654e-11,6.039924038860477e-11,5.60072169816075e-11,4.8815379402332056e-11,4.0495327494450507e-11,3.5299088065283705e-11,3.041825478738004e-11,2.52125323376257e-11,2.0272682928686885e-11,1.6404611135531e-11,1.2340836867979982e-11,9.64327221584487e-12,6.790851848755626e-12,5.231442195782259e-12,3.705081668405918e-12,2.6080789939444213e-12,1.673914456015426e-12,1.0170403559783795e-12,6.348909350504287e-13,3.4887239733249427e-13,2.0934642487177301e-13,1.0103248758339129e-13,5.241661387887549e-14,2.7301486214458626e-14,1.464953519598839e-14,4.3584064638534526e-15,3.170276663447688e-09,1.4592471878354445e-09,7.933418269907661e-10,4.946120803882516e-10,3.150292229537936e-10,2.2811053716238162e-10,1.5494141131747642e-10,1.127837079283275e-10,7.748449361199529e-11,5.1775912122526865e-11,3.569368198377477e-11,2.322249606085161e-11,1.5326465753032584e-11,1.005121754989713e-11,6.2608773223095954e-12,3.8927645274991625e-12,2.3091352773982976e-12,1.4556523296813454e-12,8.268334173444935e-13
0.0,17,17.0,0.0,30.0,0.0,0.0,0.0,0.0,-13.0,0.0,2.0,0.0,0.0,0.0,6.496037127985266e-11,6.06875308220224e-11,5.290607356291071e-11,4.717507104799452e-11,4.169190140720899e-11,3.710615956270069e-11,3.007206772388481e-11,2.6181371803725283e-11,1.8988850046984876e-11,1.6210432138332146e-11,1.178828267140846e-11,9.73478746885773e-12,6.799954524575755e-12,5.118453186235939e-12,3.534060644962436e-12,2.445470703877336e-12,1.6436336940937249e-12,1.0301376149570165e-12,6.356553340316232e-13,3.594702361263906e-13,2.2210079946045457e-13,1.0962993397268731e-13,5.992097199988759e-14,3.302899745170981e-14,1.4693961109869428e-14,7.623264122847363e-15,3.1279251642114804e-09,1.4872298097011047e-09,8.184100948455763e-10,4.80693271611291e-10,3.3870062790075296e-10,2.2614030256669956e-10,1.6046428281650366e-10,1.1730918731929715e-10,7.674444392166189e-11,5.6106863276793586e-11,3.664007526208789e-11,2.463137985551091e-11,1.5923540541315164e-11,9.863620529041516e-12,6.472492016597921e-12,3.979451188760899e-12,2.3235461618370854e-12,1.4422567557473403e-12,8.290386708169344e-13
0.0,18,18.0,0.0,30.0,0.0,0.0,0.0,0.0,-13.0,0.0,2.0,0.0,0.0,0.0,6.646607257069499e-11,6.59692335743317e-11,5.2753568530426553e-11,5.094564327302731e-11,4.565983049519697e-11,3.7071690190275834e-11,3.061087073828285e-11,2.508246654656845e-11,2.0451287091134996e-11,1.560760490357018e-11,1.1869449306555751e-11,9.773787172932144e-12,6.920325314326021e-12,5.078326687834016e-12,3.5142893839859514e-12,2.52150408047986e-12,1.5822314404534967e-12,1.0543085906259329e-12,6.777016192728805e-13,3.7650843954975107e-13,2.1113019950505607e-13,1.1495431238266662e-13,6.165984050988978e-14,2.9309138070026054e-14,1.5063125252824023e-14,7.131487568558897e-15,3.0306399740051054e-09,1.463772003668264e-09,8.020453358467456e-10,4.800094740440805e-10,3.5210698596118573e-10,2.3267139467318846e-10,1.583809198518324e-10,1.0851021494789023e-10,7.933040684695876e-11,5.6958847887173395e-11,3.657639049638031e-11,2.4604601504095482e-11,1.5299629566982835e-11,9.734215000843472e-12,6.2842018060458215e-12,3.653973454779097e-12,2.3302732809081628e-12,1.348927680824395e-12,7.853276137493023e-13
0.0,19,19.0,0.0,30.0,0.0,0.0,0.0,0.0,-13.0,0.0,2.0,0.0,0.0,0.0,6.792368731116863e-11,6.603614335559422e-11,5.551356143899626e-11,5.079421546359887e-11,4.3659849126210615e-11,3.846674193748555e-11,3.119340125014702e-11,2.5962127025807557e-11,2.1013556157303378e-11,1.6756027472291075e-11,1.2771634223010987e-11,9.497491501827506e-12,6.987193066526616e-12,4.952491896952599e-12,3.61977204536547e-12,2.5709132505854204e-12,1.684847919328063e-12,1.041659655747454e-12,6.647437273762781e-13,3.789238484952944e-13,2.1878207682285531e-13,1.1592613479328915e-13,6.484064400298856e-14,3.358614952216278e-14,1.6581366612495977e-14,1.0611536533610677e-14,2.9574609702245384e-09,1.408290727800835e-09,8.276642050466627e-10,4.929743216734825e-10,3.7011795689172525e-10,2.2638593087065846e-10,1.7254514843071305e-10,1.1273037139934075e-10,8.300100985406986e-11,5.870130855657356e-11,3.8863449509794186e-11,2.45712108121619e-11,1.5582447913405755e-11,1.0577230655288411e-11,6.070841576403459e-12,4.166579190658729e-12,2.50445999765421e-12,1.410202617201431e-12,8.244184136412142e-13
0.0,20,20.0,0.0,30.0,0.0,0.0,0.0,0.0,-13.0,0.0,2.0,0.0,0.0,0.0,7.202151034413436e-11,6.529956936863654e-11,6.212335910194484e-11,5.1117509629339e-11,4.51753669092519e-11,3.643609091507876e-11,3.1904759919281275e-11,2.6657435499395455e-11,2.0752768824955065e-11,1.6414107164398977e-11,1.24958089680926e-11,9.051748795625129e-12,7.173045974844556e-12,4.830342765121632e-12,3.543081235823104e-12,2.3917468088746778e-12,1.6013953831092433e-12,1.0541591606392971e-12,6.589201296574847e-13,3.9808467853222306e-13,2.2088137584442759e-13,1.1905978868681932e-13,6.857924117591203e-14,3.524912991866072e-14,1.7887477631668316e-14,7.896544884093275e-15,2.94902381096159e-09,1.4030080159873882e-09,8.230632690266095e-10,5.053045107131361e-10,3.3486533500997265e-10,2.376204881358325e-10,1.5816234247620782e-10,1.221858137059787e-10,8.45851428132873e-11,5.59066479372888e-11,3.989748134173626e-11,2.507901646252137e-11,1.6416348540131215e-11,1.0433690774686302e-11,6.696618618733964e-12,3.947474279458506e-12,2.3387453399027804e-12,1.3317902420500698e-12,7.599426218902903e-13
0.0,21,21.0,0.0,30.0,0.0,0.0,0.0,0.0,-13.0,0.0,2.0,0.0,0.0,0.0,7.378656502269688e-11,6.494443941833679e-11,5.88944471305328e-11,5.266415515506394e-11,4.462943018865129e-11,3.789093093800629e-11,3.380369528374458e-11,2.780265540608862e-11,2.2595529683706958e-11,1.7168641621196644e-11,1.3053589174200592e-11,9.512872300482597e-12,7.2034873918517485e-12,5.063940564131576e-12,3.6184265625893246e-12,2.418200302251054e-12,1.6625644675715993e-12,1.0754504963827752e-12,6.412740110200003e-13,4.235203033752867e-13,2.2971946089171643e-13,1.3346558897818295e-13,6.74217460637769e-14,3.7373494290884935e-14,1.8649999100715994e-14,7.546902655386253e-15,3.0493662456040283e-09,1.4016872068739177e-09,7.856552425511331e-10,5.094600464474518e-10,3.439555120969207e-10,2.447032715463645e-10,1.7055753895897718e-10,1.2353501859833758e-10,8.605586946981314e-11,6.030332339772562e-11,4.154102747168716e-11,2.6424687952030245e-11,1.5891083136266368e-11,1.0806015463350343e-11,6.731384973354374e-12,4.0476512715947e-12,2.2876397379499426e-12,1.33810331721359e-12,8.216560268934644e-13
0.0,22,22.0,0.0,30.0,0.0,0.0,0.0,0.0,-13.0,0.0,2.0,0.0,0.0,0.0,7.522433162947555e-11,6.485503165902165e-11,6.261043999310205e-11,5.28746647856031e-11,4.4612171827370516e-11,4.206770883231001e-11,3.2950605256993966e-11,2.7623600057486886e-11,2.140546401152542e-11,1.792337436907912e-11,1.2406335205138237e-11,1.0130491992129358e-11,7.291629729075968e-12,5.366056701782628e-12,3.72951620316337e-12,2.6042029000760124e-12,1.7472795581434766e-12,1.1204416265288216e-12,6.849153520561077e-13,4.192175455182394e-13,2.4780968586155746e-13,1.3261971334971498e-13,7.102053922710004e-14,3.5467531729172075e-14,2.1181267690626988e-14,1.049237060040283e-14,2.971995742313129e-09,1.4269662472981836e-09,7.849288507907393e-10,5.299627838123191e-10,3.457339408853504e-10,2.625592766260217e-10,1.8893380085117307e-10,1.2468095208580578e-10,8.64321195114185e-11,5.938188131418824e-11,4.0347571709772524e-11,2.7088142686344257e-11,1.7130952513204556e-11,1.1039288409263595e-11,6.569996597274135e-12,3.8997473035767e-12,2.3489586244278694e-12,1.4529694461804288e-12,7.730071056557085e-13
0.0,23,23.0,0.0,30.0,0.0,0.0,0.0,0.0,-13.0,0.0,2.0,0.0,0.0,0.0,7.498102942700094e-11,6.975586656549257e-11,6.07533444499151e-11,5.790943717605647e-11,4.743836052621782e-11,4.1234837585860204e-11,3.365024283594152e-11,2.9545126516034365e-11,2.2241967428597702e-11,1.7239554359336187e-11,1.307467742233632e-11,9.96663148636017e-12,7.336819902511934e-12,5.090290964044609e-12,3.5065599768800316e-12,2.4043245890705985e-12,1.7128056701954874e-12,1.1070285202637942e-12,7.091322510500406e-13,4.2072669449415016e-13,2.3554013029355676e-13,1.3880548770999143e-13,7.829159756599949e-14,4.1403113367058986e-14,2.1663494757209062e-14,9.858666662226702e-15,2.8310477855333723e-09,1.4106599633946394e-09,8.10471334813152e-10,5.336753902200725e-10,3.45523093777653e-10,2.534993321731413e-10,1.7534072194741218e-10,1.262175411842604e-10,8.870407937132084e-11,5.831592315792357e-11,4.096306970556631e-11,2.7032240104190814e-11,1.7840158724160932e-11,1.085091247869964e-11,6.709847363342151e-12,3.863442504379226e-12,2.61571345465982e-12,1.3870776531294145e-12,7.82659505774305e-13
0.0,24,24.0,0.0,30.0,0.0,0.0,0.0,0.0,-13.0,0.0,2.0,0.0,0.0,0.0,7.456693694043651e-11,6.88135017306223e-11,5.976014196947782e-11,5.507295994434504e-11,4.8370408463801403e-11,4.1056399606049535e-11,3.4831535981156056e-11,2.87645623891932e-11,2.3158706478912682e-11,1.7552479454477388e-11,1.3491759767374846e-11,9.97528802355713e-12,7.316248837728477e-12,5.509337377056207e-12,3.678932406948354e-12,2.5622262081238235e-12,1.6694858369279741e-12,1.092986675483603e-12,6.764473049029426e-13,4.104893063061905e-13,2.594952881415775e-13,1.3799006775411116e-13,7.888386883791745e-14,3.918035064735441e-14,1.9952859912925797e-14,1.0176392578677429e-14,2.947510880492986e-09,1.4700084602991723e-09,8.452599147882918e-10,5.491204365637263e-10,3.722362509906526e-10,2.698476505280243e-10,1.9123711000092854e-10,1.3083461478108578e-10,9.251810853376941e-11,6.01408743538976e-11,4.3415141484700145e-11,2.6855083787173127e-11,1.72940387030259e-11,1.1251947286630418e-11,7.152726628670676e-12,4.222001362411438e-12,2.471084502528345e-12,1.3576420342625088e-12,8.606514294314339e-13
0.0,25,25.0,0.0,30.0,0.0,0.0,0.0,0.0,-13.0,0.0,2.0,0.0,0.0,0.0,7.939248101355659e-11,6.542015577496774e-11,5.995705512440151e-11,5.7267762492119726e-11,4.552874664674442e-11,4.060271913502107e-11,3.432617513316566e-11,2.7540236807644826e-11,2.284272989308786e-11,1.776161141204611e-11,1.3539586598351049e-11,9.824340302251564e-12,7.343470389385306e-12,5.3815886958674924e-12,3.643416884455137e-12,2.6100210542535655e-12,1.6862758149501477e-12,1.136394893763798e-12,6.93023103218549e-13,4.3306330886245283e-13,2.293189901215567e-13,1.539860871046201e-13,7.487196538335442e-14,4.251484247361628e-14,2.3745720570193342e-14,1.0932828426501251e-14,2.756920693480789e-09,1.384615983733379e-09,8.588314376532775e-10,5.534538242148962e-10,3.757212889078458e-10,2.856207695272975e-10,1.9598138214172927e-10,1.333605458190428e-10,8.94600793588606e-11,6.231330081520877e-11,4.189200596331939e-11,2.815983921767843e-11,1.7648448519441906e-11,1.1671272320446064e-11,6.548015661909332e-12,4.265190804744681e-12,2.4332427169323352e-12,1.407600197230722e-12,8.082491453142624e-13
0.0,26,26.0,0.0,30.0,0.0,0.0,0.0,0.0,-13.0,0.0,2.0,0.0,0.0,0.0,7.701600387564035e-11,7.664059670347579e-11,6.391221737458831e-11,5.864412732280836e-11,4.9950941813068226e-11,4.027097273410488e-11,3.5842134291081646e-11,2.817721072829712e-11,2.358153337871651e-11,1.8461349338824265e-11,1.3415810886363623e-11,1.0124715894992416e-11,7.552406543802902e-12,5.262933057330324e-12,3.678473419715317e-12,2.4628276149843426e-12,1.6776159481080784e-12,1.1387133059319828e-12,7.0610780830373e-13,4.2637832738912646e-13,2.4647005323100467e-13,1.4167761657167196e-13,8.062247643821204e-14,4.5973616190162826e-14,2.3356383337794972e-14,1.3076521769301998e-14,2.885782670333073e-09,1.4552994687607418e-09,8.491638685384942e-10,5.326200257172488e-10,3.7627742421352016e-10,2.742384353708028e-10,1.9739306994114585e-10,1.3715333204921086e-10,9.228601225972564e-11,6.668211601295757e-11,4.6310829619735166e-11,2.923087400813378e-11,1.771398433424483e-11,1.1955473054529584e-11,7.1194216806580545e-12,4.2585895442046095e-12,2.566841393553866e-12,1.381968468637639e-12,8.253752785719324e-13
0.0,27,27.0,0.0,30.0,0.0,0.0,0.0,0.0,-13.0,0.0,2.0,0.0,0.0,0.0,8.054970679308301e-11,7.184329713767975e-11,6.829728261138653e-11,5.787402894083495e-11,5.274672235416348e-11,4.372551099419162e-11,3.61621643389782e-11,2.9295140046269754e-11,2.3718944780446395e-11,1.7626617117576044e-11,1.3937779777486512e-11,1.0160173148303283e-11,7.759575562866145e-12,5.2116729244742405e-12,3.733149583241315e-12,2.5602553375205547e-12,1.7994393221969669e-12,1.1406117167842015e-12,6.838268470472645e-13,4.250998839832861e-13,2.659073881281703e-13,1.4901813204747422e-13,8.177653797950238e-14,4.418297071302914e-14,2.385945818764966e-14,1.2757203881946206e-14,2.8614780032203966e-09,1.3992554242196504e-09,9.001840908670954e-10,5.7752053329439e-10,4.1497894386867795e-10,2.749650454938097e-10,1.9507318239050072e-10,1.3491414220542816e-10,9.36294693929298e-11,6.78704828363728e-11,4.506864296003975e-11,2.8819164596664413e-11,1.8854803458240525e-11,1.1178718986312894e-11,7.30312635954167e-12,4.1812734306248205e-12,2.6184483367918824e-12,1.4627393389400406e-12,8.055356810305492e-13
0.0,28,28.0,0.0,30.0,0.0,0.0,0.0,0.0,-13.0,0.0,2.0,0.0,0.0,0.0,8.253036147615877e-11,7.412203344999387e-11,7.164008837543436e-11,5.834307580328343e-11,5.106164173136767e-11,4.428296185420525e-11,3.47484495821338e-11,2.915555073976816e-11,2.4476536138879152e-11,1.8831967133680535e-11,1.4231155221371384e-11,1.0035830447801474e-11,7.280757694882482e-12,5.6431443461103046e-12,3.782224244951055e-12,2.6050788462581966e-12,1.6738032385178105e-12,1.1079820661742715e-12,6.680508541224869e-13,4.250586881904748e-13,2.624070434012613e-13,1.4414410604001987e-13,8.422863762184692e-14,4.3429594609471785e-14,2.4075025226356824e-14,1.1882550894752625e-14,2.9203972858088285e-09,1.4409041372711987e-09,9.136577228234802e-10,6.049312006763592e-10,4.152595510830509e-10,2.7427039825464984e-10,2.0368974668113117e-10,1.395323391536353e-10,1.0190248115289267e-10,6.769357360837566e-11,4.709386807829135e-11,2.984551814752691e-11,1.9520945608854853e-11,1.1863347171719596e-11,7.2125256379883254e-12,4.4240307002701775e-12,2.5839150847805817e-12,1.4742084433214027e-12,8.091640945008344e-13
0.0,29,29.0,0.0,30.0,0.0,0.0,0.0,0.0,-13.0,0.0,2.0,0.0,0.0,0.0,8.077165004308628e-11,6.884761765029411e-11,6.371911832366654e-11,6.107023409676453e-11,5.56999235353001e-11,4.4904946180862434e-11,3.622415840222976e-11,3.1003803628262844e-11,2.3179545203849605e-11,1.8524462631048514e-11,1.380463747105745e-11,1.0627351191177863e-11,7.492506537189755e-12,5.24886200685984e-12,3.781915347656414e-12,2.4257756363451893e-12,1.7164918789197153e-12,1.11817964880487e-12,7.20081177108548e-13,4.144056421767447e-13,2.5433269787589216e-13,1.5947270527785437e-13,8.431594778551468e-14,4.6983819644441936e-14,2.6039394307963106e-14,1.4626323639678015e-14,2.7663758069353337e-09,1.4714600343255904e-09,8.294869867492729e-10,5.643363482885812e-10,4.049145175883389e-10,2.9614199193849916e-10,2.027740347741231e-10,1.4236337195182905e-10,9.578764440353304e-11,6.860707602027667e-11,4.477495216417379e-11,3.1215935690254494e-11,1.9804638954178147e-11,1.3057447318926666e-11,7.67666275567894e-12,4.4958806477393865e-12,2.6213916225318184e-12,1.443212232024903e-12,8.459339582368544e-13
0.0,30,30.0,0.0,30.0,0.0,0.0,0.0,0.0,-13.0,0.0,2.0,0.0,0.0,0.0,8.622819277692684e-11,7.533201450199045e-11,6.78617971814375e-11,6.075177553247691e-11,5.5660113314617764e-11,4.5035155645965705e-11,3.892559853679107e-11,3.007881992916479e-11,2.479613603341703e-11,1.8968235587876895e-11,1.4255443062055179e-11,1.1048671944710307e-11,7.926581466184856e-12,5.177375062834151e-12,3.6578994700697775e-12,2.6034166367088453e-12,1.6919622299597037e-12,1.121974514990188e-12,7.239774829043901e-13,4.548072428060888e-13,2.6769570875224756e-13,1.493841850760573e-13,9.06288713958353e-14,4.6997759890130345e-14,2.593670557198796e-14,1.2789405590754873e-14,2.7961938908044404e-09,1.4977957432671965e-09,9.238537338346744e-10,5.931683018172884e-10,4.2316996200429804e-10,3.116900290439877e-10,2.0246958045372918e-10,1.4706346339881264e-10,9.547213472709973e-11,6.951139624273344e-11,4.55024561289937e-11,3.094483812566325e-11,2.0358120644523877e-11,1.258530138340688e-11,7.686863719974087e-12,4.581643184170922e-12,2.412963464386004e-12,1.4528171623494225e-12,7.755153519952819e-13
0.0,31,31.0,0.0,30.0,0.0,0.0,0.0,0.0,-13.0,0.0,2.0,0.0,0.0,0.0,8.779804271523598e-11,7.795844940505517e-11,7.133439496430802e-11,6.102906999573494e-11,5.431741375625437e-11,4.490611473130322e-11,3.709872549694484e-11,3.288647928312463e-11,2.5493983718596645e-11,2.0493224004279314e-11,1.486191791780434e-11,1.0406912066446235e-11,7.801626615044902e-12,5.6901345775907534e-12,3.8564674946562935e-12,2.6060028043451515e-12,1.6384611751448672e-12,1.1057489950487368e-12,7.194391664504139e-13,4.575649182518897e-13,2.695437558671618e-13,1.5436571406771264e-13,9.133696651894304e-14,4.937361694177696e-14,2.7599001438968334e-14,1.1802104139410562e-14,2.7924075869759225e-09,1.4827095862462955e-09,9.1966761457818e-10,6.590676610733354e-10,4.375184416726712e-10,3.0436117788559334e-10,2.168248425113896e-10,1.4964657706066008e-10,1.0713282857274033e-10,7.254972372141032e-11,4.79979839299917e-11,3.200761394003838e-11,1.9748687815289592e-11,1.2274405789650855e-11,7.6886692405832e-12,4.647326388428619e-12,2.6967094323218387e-12,1.5238767547212829e-12,8.439322588817403e-13
0.0,32,32.0,0.0,30.0,0.0,0.0,0.0,0.0,-13.0,0.0,2.0,0.0,0.0,0.0,9.103208369808481e-11,8.023478567402796e-11,7.464309701623302e-11,6.734128821466625e-11,5.579268073283836e-11,4.757762296289129e-11,4.007726760726223e-11,3.151377587231897e-11,2.5196409255835595e-11,1.9161413133052573e-11,1.4876830651759806e-11,1.1306676942509959e-11,7.976682615590006e-12,5.5652240649456454e-12,3.824010491194145e-12,2.6721779717876018e-12,1.6388332188275527e-12,1.1102299268550325e-12,7.1660807624667e-13,4.1236382061357673e-13,2.5572304875970945e-13,1.6624015637401989e-13,9.031718948666876e-14,4.987124806785826e-14,2.6869830440102617e-14,1.3363747345995969e-14,2.8534957271533406e-09,1.469040657393809e-09,9.038046391580728e-10,6.092210208734284e-10,4.5598356205791033e-10,2.883923704519877e-10,2.153753160475231e-10,1.5688178629588472e-10,1.1323269354403235e-10,7.694337278658228e-11,4.97986794219504e-11,3.134189759462158e-11,2.019387284984557e-11,1.2699453028129388e-11,7.776801534466435e-12,4.5374292704910065e-12,2.7295080131531365e-12,1.5212280812221332e-12,8.241054992366958e-13
0.0,33,33.0,0.0,30.0,0.0,0.0,0.0,0.0,-13.0,0.0,2.0,0.0,0.0,0.0,9.228837177367438e-11,7.82882318277511e-11,7.310645219416096e-11,6.449879104740797e-11,5.587032030688184e-11,4.65020710410397e-11,4.140679993019511e-11,3.17661793733836e-11,2.5566986830805234e-11,2.0784156728929592e-11,1.531368628187095e-11,1.121739444987887e-11,7.373366034910472e-12,5.486519579995802e-12,4.055827512109612e-12,2.537162586381879e-12,1.6540627454097402e-12,1.1261847895616896e-12,7.183310021708453e-13,4.400952658030463e-13,2.6223673067809294e-13,1.6417917620801132e-13,9.277420454525368e-14,5.037231442325937e-14,2.6011392575951285e-14,1.2519288162260218e-14,2.824652136540341e-09,1.5736058011491253e-09,9.236823849109193e-10,6.518293181988996e-10,4.6317622419334736e-10,3.2450350706291815e-10,2.2107682609465556e-10,1.509722311283616e-10,1.0819017278557442e-10,7.416812071367877e-11,4.8522136216197085e-11,3.208012723907378e-11,2.1386006420250533e-11,1.3148469802294174e-11,7.928478945090977e-12,4.562323353725203e-12,2.6763986280557972e-12,1.4666318492635312e-12,8.675738483921448e-13
0.0,34,34.0,0.0,30.0,0.0,0.0,0.0,0.0,-13.0,0.0,2.0,0.0,0.0,0.0,9.629713198081058e-11,8.311830438485406e-11,7.628138825083879e-11,6.708381543471668e-11,5.922458959081914e-11,4.836531883796393e-11,4.164615942343765e-11,3.222561866399695e-11,2.599730386374076e-11,2.052905116259208e-11,1.5763303257555957e-11,1.1745106770912285e-11,8.111236964576026e-12,5.708180989049389e-12,3.752129262849528e-12,2.5477410241834718e-12,1.7619042322568323e-12,1.0865412142262724e-12,7.237640022129826e-13,4.250621267358247e-13,2.572815166481397e-13,1.706267793719787e-13,9.223394180746823e-14,4.989928992082283e-14,2.529157904012533e-14,1.419416407082986e-14,2.9785975736199977e-09,1.4544378483122148e-09,9.311278745906416e-10,6.511738565373424e-10,4.795928839101862e-10,3.3058311619875746e-10,2.237801346672464e-10,1.5190834230140547e-10,1.1113305041300881e-10,7.696331827237863e-11,5.0180855753212756e-11,3.2645092565482434e-11,2.1188602520279277e-11,1.2947725770665589e-11,7.960617671281453e-12,4.762327999729031e-12,2.8331156212631957e-12,1.547614382541106e-12,8.355699358878025e-13
0.0,35,35.0,0.0,30.0,0.0,0.0,0.0,0.0,-13.0,0.0,2.0,0.0,0.0,0.0,9.160668544436246e-11,8.612132191156879e-11,7.857581521619168e-11,6.814189353220542e-11,5.3164818254393746e-11,5.0886461234997156e-11,4.15650266879027e-11,3.311146598830491e-11,2.6633573940040422e-11,2.0571481761086134e-11,1.6158173969611147e-11,1.1681483987156653e-11,8.088686609648085e-12,5.814143809653461e-12,3.942180016512191e-12,2.52505298245581e-12,1.7391959127669568e-12,1.1267724505833328e-12,7.136369293426663e-13,4.528857180594478e-13,2.585064566942179e-13,1.6039785053151764e-13,9.271892164108834e-14,5.291046165941031e-14,2.9536095674126636e-14,1.5701628897865767e-14,2.655360538738614e-09,1.4677973006374878e-09,1.0042126305948038e-09,6.658618739183472e-10,4.853830213110707e-10,3.177239015549983e-10,2.278076860299236e-10,1.6259471743793183e-10,1.1587931764172179e-10,7.879918795004025e-11,5.1464687493036927e-11,3.2564901287788156e-11,2.1560534655644766e-11,1.2969394473065221e-11,8.526726212688006e-12,4.618493398392807e-12,2.75160664191929e-12,1.5963599515253768e-12,8.771404944691013e-13
0.0,36,36.0,0.0,30.0,0.0,0.0,0.0,0.0,-13.0,0.0,2.0,0.0,0.0,0.0,1.0106111985727266e-10,8.356148462990987e-11,7.966802680223611e-11,7.269591719113288e-11,5.972283166078013e-11,5.3211089064940765e-11,4.25087437796029e-11,3.399840698733461e-11,2.6609965664327628e-11,2.069385193595249e-11,1.5859945786902637e-11,1.1343278018866865e-11,8.465544561793663e-12,5.759599015113859e-12,3.9951184333481825e-12,2.6523127563791818e-12,1.7577874358447254e-12,1.1661610275364925e-12,7.072545574987003e-13,4.550620474545318e-13,2.5991920359765e-13,1.5622879488004478e-13,8.913548173810217e-14,5.11688800225412e-14,3.0707428054196686e-14,1.4107899975423959e-14,2.5705551415994308e-09,1.49176241922956e-09,9.744656557084078e-10,6.797820838778883e-10,4.874655514906095e-10,3.34673178824034e-10,2.4016298234335895e-10,1.6610331864421854e-10,1.1300719128345442e-10,7.700641271981566e-11,5.2242193786016976e-11,3.4848870597423166e-11,2.061316130710565e-11,1.3765490822242666e-11,8.781911179307892e-12,5.186676121218342e-12,2.8442854996475964e-12,1.6904720255282933e-12,8.721042688406809e-13
0.0,37,37.0,0.0,30.0,0.0,0.0,0.0,0.0,-13.0,0.0,2.0,0.0,0.0,0.0,1.0045436920853378e-10,9.174910089755184e-11,7.803496828563878e-11,6.45436717755062e-11,6.242533269872802e-11,4.846219415304632e-11,4.456947573221514e-11,3.399880173683578e-11,2.8825658656725184e-11,2.106933178628767e-11,1.58861730597011e-11,1.1587580933101516e-11,8.264528592803152e-12,5.621771406587707e-12,3.9783883658716845e-12,2.5312005566880463e-12,1.7112995641383057e-12,1.1336875443740815e-12,7.422112938138857e-13,4.447850316478158e-13,2.471849167914456e-13,1.5440989714900768e-13,9.525499386149769e-14,5.1979269387555475e-14,2.8844107094642374e-14,1.3865568530208451e-14,2.9021443113749847e-09,1.5661342731732518e-09,1.0961248699575796e-09,7.059679170081412e-10,5.040621436794403e-10,3.384011322974134e-10,2.350161172366408e-10,1.7719602817509475e-10,1.2454551509098741e-10,7.717264731614195e-11,5.599450968772878e-11,3.554826485747329e-11,2.26940147698604e-11,1.3497933643626517e-11,8.171893510778597e-12,5.074514275802165e-12,2.863381036154751e-12,1.6385948539919609e-12,8.816295310089503e-13
0.0,38,38.0,0.0,30.0,0.0,0.0,0.0,0.0,-13.0,0.0,2.0,0.0,0.0,0.0,1.0002572042447344e-10,9.456769311422192e-11,7.820140949178866e-11,6.889532110147243e-11,6.206121058673767e-11,5.2986599331295384e-11,4.136312765767157e-11,3.5665421396614645e-11,2.894483152188729e-11,2.2895545967060835e-11,1.616450361196781e-11,1.2169322558922521e-11,8.684150995382107e-12,5.722721484628406e-12,4.2599312429062185e-12,2.6285933156858616e-12,1.7947637879318378e-12,1.1505066039625412e-12,6.872024002344278e-13,4.61987240527249e-13,2.761986044504584e-13,1.5469031753970358e-13,8.963588172413019e-14,5.477472720240393e-14,2.7756526498862125e-14,1.3727896824960283e-14,2.917642889011881e-09,1.5821643175698706e-09,1.046938949603647e-09,7.297758839348044e-10,4.935282802852715e-10,3.764360394101652e-10,2.607473265653696e-10,1.8622893110732877e-10,1.263355438465313e-10,8.520143185869492e-11,5.307932510218589e-11,3.6228563818696504e-11,2.358802918700742e-11,1.3979142300475604e-11,8.818835696155164e-12,5.243068482805161e-12,2.8130038130108042e-12,1.6051660876384143e-12,8.779698686055293e-13
0.0,39,39.0,0.0,30.0,0.0,0.0,0.0,0.0,-13.0,0.0,2.0,0.0,0.0,0.0,1.0248059159014758e-10,9.228740557233388e-11,8.043036561897077e-11,7.12048363463435e-11,6.210374764385161e-11,5.4446197655732753e-11,4.314676451193811e-11,3.628850898675631e-11,2.949455193740794e-11,2.2182828975333583e-11,1.6952929714644375e-11,1.1919568364994554e-11,8.900743204551395e-12,5.765904335819054e-12,4.418996662010873e-12,2.6728149619526325e-12,1.8496458802891455e-12,1.1187332402876312e-12,7.472322482795497e-13,4.6335878588554e-13,2.519692708025848e-13,1.6474004410351643e-13,9.26668535042793e-14,5.1303375519168627e-14,3.002153351487352e-14,1.642006350307341e-14,2.6690497240103784e-09,1.6571491730485576e-09,1.0616463870882512e-09,7.324063623047689e-10,5.395121549656654e-10,3.733564252787312e-10,2.4934017194038107e-10,1.9023702678030885e-10,1.2429843322540216e-10,8.073091162714297e-11,5.7799623166026774e-11,3.665441842375723e-11,2.3450706380927888e-11,1.4152059614176172e-11,8.388395980097472e-12,5.474058026251899e-12,3.078018027048381e-12,1.6326657503327176e-12,9.169401354512336e-13
0.0,40,40.0,0.0,30.0,0.0,0.0,0.0,0.0,-13.0,0.0,2.0,0.0,0.0,0.0,1.0590129369142387e-10,9.655718317135921e-11,8.944076540009887e-11,7.525118576634351e-11,6.31883570049303e-11,5.4666537549333586e-11,4.3847857644161544e-11,3.79888424318299e-11,2.838910647893622e-11,2.1572270756194753e-11,1.7081387163758423e-11,1.2195339656142319e-11,8.637811140184504e-12,6.066390316150877e-12,4.284969564993512e-12,2.893396362422607e-12,1.8665743409439696e-12,1.1088658487910793e-12,7.346427770919751e-13,4.448875489604474e-13,2.636303198955146e-13,1.6128160424902373e-13,8.86098159859535e-14,5.5483375373293725e-14,3.08309857678471e-14,1.6014956387600757e-14,2.7344842755106918e-09,1.625794979563256e-09,1.0735786511116508e-09,7.837443162611094e-10,5.507763002412991e-10,3.74343825791386e-10,2.6099867621090047e-10,1.8394928293357086e-10,1.274508155350295e-10,8.720740713243447e-11,5.575424994952054e-11,3.721194976462119e-11,2.3783473650702116e-11,1.455348481323567e-11,8.785854043591457e-12,4.965675100948754e-12,3.09379101761823e-12,1.5510358268251052e-12,9.013803276863372e-13
0.0,41,41.0,0.0,30.0,0.0,0.0,0.0,0.0,-13.0,0.0,2.0,0.0,0.0,0.0,1.0752455682938789e-10,9.894747441786865e-11,8.744707936984573e-11,7.596162518159298e-11,6.728812119879385e-11,5.433165661255219e-11,4.456562897580454e-11,3.658222074377272e-11,2.9139436837596593e-11,2.2513906116345675e-11,1.6973444248724113e-11,1.3069757449755357e-11,9.091805214909722e-12,5.981962349700705e-12,4.1174898187940075e-12,2.889416750159962e-12,1.9041103983877574e-12,1.1587516281801958e-12,7.445329399075607e-13,4.3558582953258335e-13,2.724187169320982e-13,1.6214369813687374e-13,1.0037508256589463e-13,5.4676029732842386e-14,3.0023741739192995e-14,1.7701162126587912e-14,2.741747270901714e-09,1.6750852367090207e-09,1.0871413126404005e-09,7.866168664487629e-10,5.518467752603717e-10,3.888112388647607e-10,2.6403277360380585e-10,1.7916384523658844e-10,1.3215924975401241e-10,8.707997340062965e-11,5.79849971908009e-11,3.744879671474873e-11,2.4261345245121313e-11,1.4992642776369684e-11,8.834750336834904e-12,5.224554018390943e-12,2.957169948762295e-12,1.7159816937574227e-12,9.654902200631402e-13
0.0,42,42.0,0.0,30.0,0.0,0.0,0.0,0.0,-13.0,0.0,2.0,0.0,0.0,0.0,1.1238458736519958e-10,1.0356687124881546e-10,9.160326075228275e-11,7.813394808123994e-11,6.893331799245498e-11,5.662592935130755e-11,4.687253716480013e-11,3.867790651332127e-11,3.0075446314449746e-11,2.219620117093522e-11,1.7766526336428722e-11,1.220502369485928e-11,8.837042462013923e-12,6.322496232867941e-12,4.2871187584178985e-12,2.6756351914050503e-12,1.825385430298451e-12,1.1716734303194038e-12,7.248899555340224e-13,4.0196418995681975e-13,2.607138774911093e-13,1.609626978127844e-13,9.278121553778333e-14,5.3479992462255026e-14,3.278243755388771e-14,1.6365106040621378e-14,2.9071522999289544e-09,1.674376400680616e-09,1.1433984583368011e-09,7.755143908489287e-10,5.493191371132365e-10,4.096977123171189e-10,2.671310486412605e-10,1.8640091910670327e-10,1.370800439496163e-10,8.455733494492682e-11,5.947329907959544e-11,3.795473861844355e-11,2.480670415370787e-11,1.5691184639799222e-11,9.236558938232206e-12,5.130802951846382e-12,3.052503891975434e-12,1.7570174444218315e-12,9.35366239016283e-13
0.0,43,43.0,0.0,30.0,0.0,0.0,0.0,0.0,-13.0,0.0,2.0,0.0,0.0,0.0,1.0976076852478558e-10,1.0436785759002234e-10,8.957933164900341e-11,7.752673169966158e-11,6.932159651328371e-11,5.921450799938569e-11,4.816932462027475e-11,3.768975539850758e-11,3.061772667330058e-11,2.261790106891924e-11,1.767012916885351e-11,1.2707017554557813e-11,9.020808338536105e-12,6.189574687215634e-12,4.403490224876207e-12,2.791817137642226e-12,1.866074005547302e-12,1.1688534800955984e-12,7.306924051457846e-13,4.63920336832349e-13,2.8435499856684164e-13,1.6162918478328956e-13,9.8052587414506e-14,5.3298313854209175e-14,3.166256300103581e-14,1.4237867357615138e-14,2.7020984569693473e-09,1.6488088069196802e-09,1.0875411812025045e-09,8.12819580979074e-10,5.901815397029912e-10,4.0432100420060266e-10,2.94959186664306e-10,2.1331944781109008e-10,1.3574538496312898e-10,8.790102887068251e-11,5.898309676320474e-11,3.852286727526829e-11,2.6200185601741507e-11,1.4934284766308777e-11,9.697257673238894e-12,5.407469434626053e-12,3.2537464843608115e-12,1.824840625913701e-12,9.483065913964255e-13
0.0,44,44.0,0.0,30.0,0.0,0.0,0.0,0.0,-13.0,0.0,2.0,0.0,0.0,0.0,1.1396783646687799e-10,1.0423356311303275e-10,9.240501958496018e-11,8.232171402489868e-11,6.630391876059223e-11,5.885366491418341e-11,4.9427393262064446e-11,4.05121346736208e-11,3.138004358937988e-11,2.4503697854484876e-11,1.639560094576531e-11,1.3155402718177705e-11,9.58978851197107e-12,6.527793319189734e-12,4.44476590149651e-12,3.0291258033450603e-12,1.7111721439567056e-12,1.2237022087853657e-12,7.26315175652326e-13,4.3017191859951606e-13,2.7051037343564343e-13,1.6579729897836393e-13,9.859078935458632e-14,5.774396630344449e-14,2.896781109025449e-14,1.5568323105067875e-14,2.6795851692512225e-09,1.7188729426830285e-09,1.1698900917804229e-09,8.309879256528557e-10,6.135881721327579e-10,4.231083811946806e-10,2.735375204436374e-10,1.984208587752756e-10,1.3777089641269797e-10,9.376308749812544e-11,6.094787749798786e-11,4.1097349365830255e-11,2.7169516243042195e-11,1.6287470690346647e-11,9.215215693801298e-12,5.852218533325711e-12,3.256388642683193e-12,1.7358657671645518e-12,9.84409351985655e-13
0.0,45,45.0,0.0,30.0,0.0,0.0,0.0,0.0,-13.0,0.0,2.0,0.0,0.0,0.0,1.2240569095872192e-10,9.880855062663247e-11,9.359137537502572e-11,8.349299904345873e-11,7.191847406732876e-11,6.128367215482246e-11,5.004312561669268e-11,3.891024867666728e-11,3.107880942882199e-11,2.3773485290600276e-11,1.665402479887102e-11,1.4167003829748725e-11,9.481100111748e-12,6.944911090344741e-12,4.363764046734922e-12,3.0493200582504644e-12,1.929058133302168e-12,1.2131770294258876e-12,7.855452150434104e-13,4.571104933598452e-13,2.6936235334204163e-13,1.6569461359203692e-13,1.0150728090932568e-13,5.515239089294262e-14,2.9773848929479404e-14,1.512406846838737e-14,2.882679926698679e-09,1.808233572701385e-09,1.1450358045890631e-09,8.557613591494772e-10,6.134608933243931e-10,4.341451988654556e-10,2.9531799773953387e-10,2.1029872986651713e-10,1.3994160848575228e-10,9.936043450741946e-11,6.410555711559806e-11,4.1641848630065274e-11,2.567520368192297e-11,1.5651795254789046e-11,9.817127960242373e-12,5.8033720315986945e-12,3.3405028775630775e-12,1.9234723154226123e-12,9.708026754921525e-13
0.0,46,46.0,0.0,30.0,0.0,0.0,0.0,0.0,-13.0,0.0,2.0,0.0,0.0,0.0,1.2186227389704343e-10,1.0884113648339687e-10,8.886666031735649e-11,8.313722444309986e-11,7.282153903791582e-11,6.016253005763999e-11,5.0402925891174216e-11,4.224053606592925e-11,3.3906821675277083e-11,2.495048803278624e-11,1.8912530747541242e-11,1.3500429393085354e-11,9.213548708203337e-12,6.65650136557947e-12,4.359492160726758e-12,3.013929624658597e-12,1.845553512546821e-12,1.1493192834261957e-12,7.521327837221228e-13,4.694719286100502e-13,2.821296427826659e-13,1.626212038736881e-13,9.469919667742988e-14,5.3434562213772014e-14,3.1439775880081794e-14,1.7344458851413666e-14,2.9094760452085767e-09,1.8362585016251346e-09,1.2546556130860305e-09,9.080579138103708e-10,6.479298789376325e-10,4.397913439084612e-10,2.9910994676699415e-10,2.1232691407392192e-10,1.466113095558326e-10,1.0112831050272813e-10,7.085208640057907e-11,4.255715381319882e-11,2.5705174207294418e-11,1.58164286837609e-11,9.961076110478505e-12,5.506586533219699e-12,3.18212080906957e-12,1.7269813027272895e-12,9.935079965283518e-13
0.0,47,47.0,0.0,30.0,0.0,0.0,0.0,0.0,-13.0,0.0,2.0,0.0,0.0,0.0,1.249911536649036e-10,1.1643592526755085e-10,9.879285239601504e-11,8.777305001350369e-11,6.849031251883142e-11,5.895591033010192e-11,5.339898557871317e-11,4.158424867176241e-11,3.19375400233809e-11,2.5203442868847798e-11,1.886798653165435e-11,1.3698458819481747e-11,9.420213821195067e-12,6.693764945028095e-12,4.190708843874668e-12,3.085174941547001e-12,1.998569544584601e-12,1.238741894234423e-12,7.347994755985972e-13,4.5106882590049646e-13,2.718855916473044e-13,1.6127045960972097e-13,9.11332034430654e-14,5.676752379776435e-14,3.107806496662585e-14,1.657133227065465e-14,3.119751884605302e-09,1.769939275658145e-09,1.2866250655964952e-09,9.127463601209838e-10,5.936034041786038e-10,4.373673344386637e-10,3.087433311923848e-10,2.089808244507597e-10,1.505783057056377e-10,1.0135891562550493e-10,6.717007854761173e-11,4.1246873008566383e-11,2.7636932445521178e-11,1.6811903375877315e-11,9.884632190536534e-12,5.785194873514918e-12,3.40640331543966e-12,1.8160995794267258e-12,9.853566471713897e-13
0.0,48,48.0,0.0,30.0,0.0,0.0,0.0,0.0,-13.0,0.0,2.0,0.0,0.0,0.0,1.2978651041620796e-10,1.080358992099663e-10,1.0200380177978181e-10,8.471835711857985e-11,7.684913173093071e-11,6.042465818017207e-11,5.165808385834337e-11,4.230388886393832e-11,3.2441901562396776e-11,2.5566523099876028e-11,1.903379537372222e-11,1.3748064437715643e-11,9.964848602422614e-12,6.916353232421865e-12,4.475593268406091e-12,3.195196720491815e-12,1.8783508287991505e-12,1.1742173004680987e-12,7.355401305978671e-13,4.457844674674516e-13,2.697538748329298e-13,1.6194614893717457e-13,9.816217718614214e-14,5.588421342222921e-14,2.98065962655321e-14,1.6298199110177656e-14,2.949505494755871e-09,1.8540278165316795e-09,1.3025725227169798e-09,9.343165528379687e-10,6.617471006767487e-10,4.325265930375117e-10,3.085235558959842e-10,2.1937519833881424e-10,1.5338129690729493e-10,9.796917863509032e-11,7.063703967697444e-11,4.518521307957705e-11,2.740185206754806e-11,1.623881934069742e-11,1.0278716161644326e-11,5.79498221622556e-12,3.4300624038309798e-12,1.7552452804506906e-12,1.013151195495463e-12
0.0,49,49.0,0.0,30.0,0.0,0.0,0.0,0.0,-13.0,0.0,2.0,0.0,0.0,0.0,1.3074822720351872e-10,1.111911488669327e-10,1.036737184411515e-10,8.758872871081179e-11,7.337814871539838e-11,6.712142976199056e-11,5.3522277974122155e-11,4.282658157587986e-11,3.477179888613201e-11,2.5829382486562834e-11,1.886702822143305e-11,1.350182890132625e-11,1.013891278430334e-11,6.9947023987626665e-12,4.413928593237075e-12,3.0794302654807167e-12,1.9692513621261316e-12,1.2750699644079768e-12,7.861756628163325e-13,4.578493406683257e-13,2.6023941263562114e-13,1.6960640593257708e-13,9.669729285795288e-14,5.5441397326108354e-14,3.087790120954515e-14,1.74056045368662e-14,2.950859348002027e-09,2.1103159369992285e-09,1.3100868748214005e-09,9.680932979755585e-10,7.115517890146198e-10,5.062597840909029e-10,3.551960375749547e-10,2.3029632278926783e-10,1.6341970860007552e-10,1.0701192736751496e-10,6.993010662678368e-11,4.376667230560631e-11,2.722746066843441e-11,1.6989070904219708e-11,1.002861139550203e-11,5.977836327192292e-12,3.377869058244731e-12,1.8877940470404628e-12,1.1045401624600162e-12
0.0,50,50.0,0.0,30.0,0.0,0.0,0.0,0.0,-13.0,0.0,2.0,0.0,0.0,0.0,1.3039692300049026e-10,1.2168519667759804e-10,1.0586185960042477e-10,9.279455326883903e-11,8.262575960175472e-11,6.606586802561445e-11,5.507732706049386e-11,4.362014246109283e-11,3.4437315773026604e-11,2.435275891260159e-11,1.9636166378351132e-11,1.5024161826999025e-11,1.0255655841727271e-11,6.847131302580608e-12,4.8748542858823785e-12,3.022726697692146e-12,1.979952891341181e-12,1.2978387932165337e-12,7.586564909044609e-13,4.564641564000638e-13,2.7596601106115876e-13,1.6152764892778892e-13,8.948777935755591e-14,5.754044305330914e-14,3.014028100350567e-14,1.7948570414760885e-14,3.049317730527373e-09,1.9847349988380097e-09,1.3186421954170054e-09,9.381518220700122e-10,7.016284258866629e-10,4.91108822179784e-10,3.367886904955324e-10,2.4054990114201655e-10,1.609568919608906e-10,1.1366276095776873e-10,6.940741163725543e-11,4.5561390445194134e-11,2.832192158801769e-11,1.7514207584924493e-11,9.964128430988018e-12,5.894897875573067e-12,3.371803915497494e-12,1.9069877649172633e-12,1.0425612930624876e-12
0.0,51,51.0,0.0,30.0,0.0,0.0,0.0,0.0,-13.0,0.0,2.0,0.0,0.0,0.0,1.38862627010487e-10,1.2301022376338674e-10,1.1026843676098122e-10,9.025394770819492e-11,7.837574541822655e-11,6.627084426135011e-11,5.55826900054624e-11,4.331526779652596e-11,3.495395697419314e-11,2.6065860731680157e-11,1.943771220693258e-11,1.4803273663869594e-11,1.0052542028919652e-11,6.944941169064013e-12,4.258533553499332e-12,3.034358181032297e-12,2.0679657290903872e-12,1.223279349179225e-12,7.816011089980277e-13,4.776879591903286e-13,2.865801931566428e-13,1.6484887983039458e-13,9.245153465176425e-14,5.430456428159868e-14,3.177208731119309e-14,1.7746200748326035e-14,3.171873740592098e-09,1.973893136521678e-09,1.4772495389212988e-09,1.0063314965328055e-09,6.862002633593464e-10,4.874383852224633e-10,3.3802059695120926e-10,2.466382993946549e-10,1.7097389993502314e-10,1.1379333701390132e-10,6.818678072268541e-11,4.6471554963524387e-11,2.9530220866806394e-11,1.7496346221927985e-11,1.023087123124531e-11,6.042359717480909e-12,3.4594113585949773e-12,1.905672379656343e-12,1.055257369225809e-12
0.0,52,52.0,0.0,30.0,0.0,0.0,0.0,0.0,-13.0,0.0,2.0,0.0,0.0,0.0,1.3736578863080903e-10,1.23852764752676e-10,1.107563579130687e-10,9.350194866663724e-11,8.03792640891893e-11,6.745534684811846e-11,5.7677237548689065e-11,4.66234967516462e-11,3.430321954157191e-11,2.710239917795457e-11,2.000359539137658e-11,1.4303051338479518e-11,1.0288619553251037e-11,7.0789832474009654e-12,4.76040632001027e-12,3.0622555784037042e-12,2.040232689719488e-12,1.2235074533746261e-12,7.698880507012792e-13,4.495538651850273e-13,2.8120993363033033e-13,1.6698853374223257e-13,1.0309631048417361e-13,5.212074939085323e-14,3.200805261433066e-14,1.8036421450625614e-14,3.320212236040515e-09,2.1738420549504243e-09,1.4461566070772647e-09,1.0591218712122491e-09,6.867321727288489e-10,5.037054474287542e-10,3.8222544102041056e-10,2.571195026966399e-10,1.5922182540171241e-10,1.1567505645217205e-10,7.215761225101674e-11,4.734094129646427e-11,2.9472752907970304e-11,1.7491917575866674e-11,1.1026117868817006e-11,6.3743131700210835e-12,3.514465920326267e-12,1.925359956256393e-12,1.106594901753164e-12
0.0,53,53.0,0.0,30.0,0.0,0.0,0.0,0.0,-13.0,0.0,2.0,0.0,0.0,0.0,1.35360567921197e-10,1.3065941188606938e-10,1.1636620689414456e-10,9.559079222915941e-11,8.550994275840315e-11,7.044528723667551e-11,5.680589486661307e-11,4.702727028728417e-11,3.5845929833863935e-11,2.8299352614343483e-11,1.9881109363531598e-11,1.489532423676772e-11,1.1294890488674443e-11,7.058033646792044e-12,5.0063717110170004e-12,3.0820771533453677e-12,2.0023757676918276e-12,1.3186542072899704e-12,7.860357608821449e-13,4.706401264753765e-13,2.8289087521172317e-13,1.604600119664502e-13,9.940014130429751e-14,5.5680667196391696e-14,3.023485121609868e-14,1.66058052588626e-14,3.3191092614844684e-09,2.1504612516389244e-09,1.5799289151307567e-09,1.0088369810681416e-09,7.7449203537224e-10,5.22887013043286e-10,3.7705934177224723e-10,2.59146607515762e-10,1.7381454586728047e-10,1.1297099966801942e-10,7.755815900560378e-11,4.86190795734998e-11,2.855551761671224e-11,1.8916930440788314e-11,1.1346776724717962e-11,6.409169116747673e-12,3.6377511031698407e-12,1.9621850029470128e-12,1.0601143111049775e-12
0.0,54,54.0,0.0,30.0,0.0,0.0,0.0,0.0,-13.0,0.0,2.0,0.0,0.0,0.0,1.4532899975548018e-10,1.3082136853325453e-10,1.1525035576427304e-10,9.630073889042265e-11,8.926348609394469e-11,7.639637559087408e-11,5.6837206948289e-11,4.6311399877866026e-11,3.5032889507147575e-11,2.7264182477299704e-11,2.1507819424182767e-11,1.4948593771422677e-11,1.0115862091342517e-11,7.169821220895235e-12,4.9675639734889036e-12,3.3299440855787125e-12,2.05602154769896e-12,1.2580084190645856e-12,8.004909954231672e-13,4.554211881666432e-13,2.887795567989283e-13,1.668340842589398e-13,8.998189535828253e-14,5.6640824636769377e-14,3.625428080879796e-14,1.7876066425268925e-14,3.3054531733372877e-09,2.2331871584541156e-09,1.4858763155583627e-09,1.1130373243076228e-09,7.326201608324868e-10,5.296824201599363e-10,3.816661583605683e-10,2.672083077251196e-10,1.6825584016959232e-10,1.2192579355226993e-10,7.476374466472344e-11,5.123577313218318e-11,3.017933014067159e-11,1.9416433906504382e-11,1.1486637566217068e-11,6.427968846716038e-12,3.455211684400696e-12,2.0936773737367766e-12,1.016829977750595e-12
