Line_number,Fiducial,Easting,Northing,Height,Elevation,tx_pitch,tx_roll,tx_yaw,txrx_dx,txrx_dy,txrx_dz,rx_pitch,rx_roll,rx_yaw,S0Z_time_3.834e-04,S0Z_time_3.924e-04,S0Z_time_4.039e-04,S0Z_time_4.184e-04,S0Z_time_4.364e-04,S0Z_time_4.589e-04,S0Z_time_4.869e-04,S0Z_time_5.224e-04,S0Z_time_5.679e-04,S0Z_time_6.249e-04,S0Z_time_6.969e-04,S0Z_time_7.879e-04,S0Z_time_9.019e-04,S0Z_time_1.046e-03,S0Z_time_1.227e-03,S0Z_time_1.456e-03,S0Z_time_1.744e-03,S0Z_time_2.109e-03,S0Z_time_2.567e-03,S0Z_time_3.145e-03,S0Z_time_3.864e-03,S0Z_time_4.745e-03,S0Z_time_5.821e-03,S0Z_time_7.140e-03,S0Z_time_8.754e-03,S0Z_time_1.073e-02,S1Z_time_2.057e-05,S1Z_time_2.607e-05,S1Z_time_3.307e-05,S1Z_time_4.206e-05,S1Z_time_5.356e-05,S1Z_time_6.807e-05,S1Z_time_8.607e-05,S1Z_time_1.086e-04,S1Z_time_1.366e-04,S1Z_time_1.721e-04,S1Z_time_2.176e-04,S1Z_time_2.746e-04,S1Z_time_3.466e-04,S1Z_time_4.376e-04,S1Z_time_5.516e-04,S1Z_time_6.956e-04,S1Z_time_8.771e-04,S1Z_time_1.106e-03,S1Z_time_1.394e-03
0.0,0,0.0,0.0,30.0,0.0,0.0,0.0,0.0,-13.0,0.0,2.0,0.0,0.0,0.0,3.2649318897077716e-11,2.8846959710885676e-11,2.5139334461423224e-11,2.1757502525035746e-11,1.8700871286237155e-11,1.6083762057782755e-11,1.3842468607026734e-11,1.188331432862682e-11,1.0149269959261914e-11,8.620497144343176e-12,7.2684718728615486e-12,6.057036591130745e-12,4.991892677765192e-12,4.0544475554637656e-12,3.237484018427154e-12,2.5379974936613393e-12,1.9519017268682706e-12,1.4687317108913691e-12,1.0784779192358188e-12,7.727021769816052e-13,5.408205051560222e-13,3.7177589193581764e-13,2.502869018113614e-13,1.6526531003011892e-13,1.0685163637577362e-13,6.773388457823615e-14,3.5501477682897408e-09,1.6357115215619698e-09,8.202756551810424e-10,4.4724259633263525e-10,2.603234677572696e-10,1.5634358932090446e-10,9.436601425817855e-11,5.637921679489867e-11,3.3910829652097143e-11,2.080454763408005e-11,1.3213832924413211e-11,8.79810695018028e-12,6.0214571444887735e-12,4.185698495881701e-12,2.9153572786349865e-12,2.017809991612164e-12,1.378947748075554e-12,9.317287480309846e-13,6.174956468874306e-13
0.0,1,1.0,0.0,30.0,0.0,0.0,0.0,0.0,-13.0,0.0,2.0,0.0,0.0,0.0,3.663948222406395e-11,3.229184272580311e-11,2.7935899960091535e-11,2.3829043568011346e-11,2.003336077738344e-11,1.6750324474407995e-11,1.3971051711955394e-11,1.1617995286023895e-11,9.643073605494911e-12,8.007907434199374e-12,6.6418234043082596e-12,5.470821361520721e-12,4.473637118824801e-12,3.6147181923160062e-12,2.8771385763833424e-12,2.2517516300208556e-12,1.7313194853953072e-12,1.3037019559977922e-12,9.589137464166582e-13,6.887108418045717e-13,4.835215399835694e-13,3.336005353565203e-13,2.2547478630018072e-13,1.4950552643106215e-13,9.708922870725059e-14,6.181151789184159e-14,3.5270801612780152e-09,1.6221826072065626e-09,8.166970991576587e-10,4.5236656548910994e-10,2.727027279821971e-10,1.7268943356583815e-10,1.1039542167937188e-10,6.900047528633143e-11,4.214832036618506e-11,2.5260682268156634e-11,1.5132728089698527e-11,9.376626846109269e-12,6.021041932902158e-12,3.999047609951414e-12,2.701466237277236e-12,1.8347733115492817e-12,1.2383576378498776e-12,8.294170742400457e-13,5.484634411244668e-13
0.0,2,2.0,0.0,30.0,0.0,0.0,0.0,0.0,-13.0,0.0,2.0,0.0,0.0,0.0,4.066664620006204e-11,3.5994529610122255e-11,3.1209189258563145e-11,2.6562559897217785e-11,2.2142905228484094e-11,1.821732245442742e-11,1.4839232313516487e-11,1.1970766614574515e-11,9.609350933354114e-12,7.735929758065733e-12,6.253842652110259e-12,5.053361939172393e-12,4.077919433432477e-12,3.2660892882356344e-12,2.5849438487621463e-12,2.0159070467401417e-12,1.5475838977748922e-12,1.1648106234884954e-12,8.575000768119286e-13,6.168392090288573e-13,4.341277077104617e-13,3.004289652868829e-13,2.037712891458585e-13,1.3561024021235875e-13,8.842995185553953e-14,5.651487756341741e-14,3.503519267590248e-09,1.6086281954380455e-09,8.119940473895495e-10,4.5333825953094807e-10,2.7789372790911373e-10,1.813229136646072e-10,1.208278578000793e-10,7.903265411861895e-11,5.0107433661261727e-11,3.0539976102963434e-11,1.8033982786306645e-11,1.0678584426763851e-11,6.445378307133143e-12,4.031655808990909e-12,2.600979488314112e-12,1.7142148478619877e-12,1.134081205626299e-12,7.49183980815757e-13,4.939371517155867e-13
0.0,3,3.0,0.0,30.0,0.0,0.0,0.0,0.0,-13.0,0.0,2.0,0.0,0.0,0.0,4.4332984904671416e-11,3.948285714777693e-11,3.444398215158425e-11,2.9447863780125164e-11,2.457945690194012e-11,2.0136653659160276e-11,1.6216542497352897e-11,1.2819021136075343e-11,1.0001448870199425e-11,7.79455609457281e-12,6.103297691047466e-12,4.799421900208618e-12,3.794873969889571e-12,2.9970075693474805e-12,2.35030435218743e-12,1.8220884203510574e-12,1.3943577561562378e-12,1.0476323713759351e-12,7.712148142321549e-13,5.551466708036248e-13,3.9142642113109335e-13,2.7152316916277484e-13,1.8474295804049678e-13,1.2333240932805787e-13,8.074118579503755e-14,5.17999438348691e-14,3.4794671809650543e-09,1.5952400261585177e-09,8.07537034594476e-10,4.5362581310810097e-10,2.8052046983745126e-10,1.8579456953543955e-10,1.2693626090417274e-10,8.591672344277457e-11,5.653652419938355e-11,3.5562525959765446e-11,2.13168226439428e-11,1.2485583791450339e-11,7.258025481055055e-12,4.295974982313832e-12,2.6235075291654317e-12,1.656281084266725e-12,1.06319766512697e-12,6.883620890902895e-13,4.506542061418401e-13
0.0,4,4.0,0.0,30.0,0.0,0.0,0.0,0.0,-13.0,0.0,2.0,0.0,0.0,0.0,4.751304377358878e-11,4.25621166169236e-11,3.737837469905201e-11,3.217248168037015e-11,2.7012662074758604e-11,2.2200521606483428e-11,1.7851780024996198e-11,1.3988165590267481e-11,1.0720131297449419e-11,8.139722385866191e-12,6.176294143523702e-12,4.7050601892107665e-12,3.6206251944272553e-12,2.80144233577261e-12,2.1663550509567964e-12,1.6642100904852527e-12,1.266792403003786e-12,9.487029191515868e-13,6.976231750612787e-13,5.02058067979974e-13,3.5441129967895087e-13,2.462683288469242e-13,1.6802169127792027e-13,1.1246243087973088e-13,7.390737063906039e-14,4.760384711188124e-14,3.4549425164002474e-09,1.582032758286259e-09,8.034809694982314e-10,4.54124423215969e-10,2.8258109294045566e-10,1.8853544694927622e-10,1.304983543656166e-10,9.028525841281719e-11,6.118161831771322e-11,3.973269077780453e-11,2.446060774497657e-11,1.449682214752359e-11,8.340030179758716e-12,4.767066929125548e-12,2.77120953995427e-12,1.6639617764690337e-12,1.025740152488882e-12,6.457199800476765e-13,4.164373327802199e-13
0.0,5,5.0,0.0,30.0,0.0,0.0,0.0,0.0,-13.0,0.0,2.0,0.0,0.0,0.0,5.021622527019211e-11,4.519792049165878e-11,3.992490468589665e-11,3.459332394731054e-11,2.925376127501635e-11,2.41979138029367e-11,1.954075156674616e-11,1.5307868583517474e-11,1.1645041274764951e-11,8.70065131337018e-12,6.439643000178246e-12,4.758262272066935e-12,3.5510442736748823e-12,2.6762306201767274e-12,2.0291409712870756e-12,1.5381262379080507e-12,1.1612780612920917e-12,8.653067291712204e-13,6.347750589031486e-13,4.562920507738847e-13,3.2224658418213975e-13,2.2415129142925237e-13,1.53293974877804e-13,1.028223404579117e-13,6.782600562394908e-14,4.384718435302995e-14,3.4299598708486096e-09,1.5690381389827773e-09,7.998331529139038e-10,4.5498107628378343e-10,2.847290983052908e-10,1.907686221757531e-10,1.3284497475635838e-10,9.303862027364425e-11,6.433032876624505e-11,4.289830382555469e-11,2.716006505921715e-11,1.6453945108982676e-11,9.543662270539411e-12,5.386742193801011e-12,3.030051262397483e-12,1.7370432540940496e-12,1.0226271714902971e-12,6.209640159149039e-13,3.9042592125283457e-13
0.0,6,6.0,0.0,30.0,0.0,0.0,0.0,0.0,-13.0,0.0,2.0,0.0,0.0,0.0,5.2506423760396575e-11,4.743142872070926e-11,4.20921595017491e-11,3.6677342243719216e-11,3.122498381771685e-11,2.6014033944121447e-11,2.1148566186035936e-11,1.664482336806113e-11,1.266462618192503e-11,9.398388693892507e-12,6.846938398448479e-12,4.93701826518666e-12,3.5776238741452394e-12,2.618050452629248e-12,1.9362409891468245e-12,1.4411955833687608e-12,1.0752599943724653e-12,7.953442024359437e-13,5.811178891744047e-13,4.1680196672519856e-13,2.9424047634497613e-13,2.0474296369299959e-13,1.4029225099718686e-13,9.42605370998896e-14,6.240441546129757e-14,4.0457128400384117e-14,3.404534004680723e-09,1.556289554718908e-09,7.966081890557018e-10,4.562020421028332e-10,2.8711968990077607e-10,1.929868257617223e-10,1.3474423455376567e-10,9.491982068820347e-11,6.643525062531671e-11,4.5171404533032046e-11,2.9309600362691274e-11,1.819215489344815e-11,1.0739488693317829e-11,6.084385513614838e-12,3.372375848770543e-12,1.868977954586977e-12,1.0534408431299254e-12,6.140454325412227e-13,3.726405757285414e-13
0.0,7,7.0,0.0,30.0,0.0,0.0,0.0,0.0,-13.0,0.0,2.0,0.0,0.0,0.0,5.446235606824333e-11,4.9330975408646816e-11,4.393134981395604e-11,3.845004049756205e-11,3.29186225618709e-11,2.760628787461875e-11,2.2603819012976944e-11,1.7911550525954882e-11,1.3692148241103712e-11,1.016117226446741e-11,7.348399611788304e-12,5.212752725242088e-12,3.686835339967979e-12,2.6215305092289106e-12,1.8853362989423607e-12,1.371645379143932e-12,1.0070089997443915e-12,7.372440874195084e-13,5.354309991748645e-13,3.827306116538938e-13,2.6982167636338794e-13,1.8768401317741557e-13,1.2878836237617223e-13,8.664706374975656e-14,5.755849240347288e-14,3.737997330991107e-14,3.3786849851782044e-09,1.5438186431187167e-09,7.938257753573866e-10,4.5778656948395955e-10,2.8977148038458134e-10,1.9534782336889191e-10,1.3656511103580283e-10,9.641501528440004e-11,6.791102844208359e-11,4.677003025257851e-11,3.093657996212877e-11,1.9637985887151097e-11,1.1837491856632333e-11,6.795330619721662e-12,3.764772315654302e-12,2.0476069922368194e-12,1.1153066033111073e-12,6.244683902136613e-13,3.6338017859245294e-13
0.0,8,8.0,0.0,30.0,0.0,0.0,0.0,0.0,-13.0,0.0,2.0,0.0,0.0,0.0,5.616011896285941e-11,5.096830624696104e-11,4.550620132325571e-11,3.996126275102427e-11,3.4363520271104046e-11,2.8977209284479708e-11,2.3881989517255434e-11,1.9061321424447572e-11,1.466955480950115e-11,1.0932494323488133e-11,7.898675644441994e-12,5.555189372347836e-12,3.8617871426350635e-12,2.6788877496250267e-12,1.873286056623427e-12,1.3279210001476287e-12,9.553216470100234e-13,6.898674420867376e-13,4.967754675211726e-13,3.533794257624318e-13,2.4851859525398463e-13,1.7267288280367555e-13,1.1858837369598972e-13,7.9869470169959e-14,5.321335087157362e-14,3.457940662989488e-14,3.3524387649439724e-09,1.531658194199522e-09,7.915043509551381e-10,4.5973909912142307e-10,2.926800359336113e-10,1.9788673435527272e-10,1.3845659253783692e-10,9.779571376819076e-11,6.906234222544147e-11,4.791912488724247e-11,3.213566622527136e-11,2.0785525220071756e-11,1.2788746460160258e-11,7.470464052811704e-12,4.175298903468381e-12,2.257856164895299e-12,1.203041963355773e-12,6.508997929057672e-13,3.6277390180643074e-13
0.0,9,9.0,0.0,30.0,0.0,0.0,0.0,0.0,-13.0,0.0,2.0,0.0,0.0,0.0,5.7666429913467997e-11,5.2408433933625784e-11,4.687834980996536e-11,4.126597472419877e-11,3.5602904923193684e-11,3.0152807788941674e-11,2.498809872226618e-11,2.007780704226357e-11,1.556436601976875e-11,1.1673130444302168e-11,8.461086491274398e-12,5.936273259971377e-12,4.084542312285411e-12,2.7805931580507863e-12,1.895853736217065e-12,1.3082269212546225e-12,9.192156578811815e-13,6.523852346633306e-13,4.644452703798686e-13,3.281871907178096e-13,2.2994267443524956e-13,1.5945588249295542e-13,1.0952808964014119e-13,7.382945952557781e-14,4.930444256025885e-14,3.202974883488372e-14,3.3258265466923227e-09,1.5198436408469788e-09,7.896610445436086e-10,4.6206499822934416e-10,2.9584190428670705e-10,2.0060427259529042e-10,1.404667363915471e-10,9.919382978961881e-11,7.008308849994264e-11,4.8803700085412944e-11,3.302124383177321e-11,2.1669585844593314e-11,1.3577784309828347e-11,8.078530750331715e-12,4.5778124023743315e-12,2.4845095141453253e-12,1.3100358386644396e-12,6.91153513150933e-13,3.705568534754259e-13
0.0,10,10.0,0.0,30.0,0.0,0.0,0.0,0.0,-13.0,0.0,2.0,0.0,0.0,0.0,5.903669003549868e-11,5.3706184226458324e-11,4.8101411486830055e-11,4.2415009354348046e-11,3.668180439901509e-11,3.116808631252565e-11,2.594283031279735e-11,2.0964430677310697e-11,1.6363750988681584e-11,1.23595878265455e-11,9.008909251499944e-12,6.332476700857257e-12,4.3380812531712695e-12,2.916403049883173e-12,1.947906836755228e-12,1.3103284606220749e-12,8.976945036566252e-13,6.241469693892351e-13,4.379123926759451e-13,3.0671129510104055e-13,2.1377577472571403e-13,1.478194238745925e-13,1.0146898708525352e-13,6.844047969755132e-14,4.577782770084043e-14,2.9710670858930774e-14,3.2988845113916666e-09,1.5084131559709352e-09,7.883129168690837e-10,4.6476869551792406e-10,2.992557761165062e-10,2.0349551685447232e-10,1.4260488160335275e-10,1.0066417411958692e-10,7.108285372350083e-11,4.955633580158599e-11,3.369944372807804e-11,2.2343558360657626e-11,1.421228830102218e-11,8.604290761907979e-12,4.953595054834741e-12,2.714158678530116e-12,1.4292745289408528e-12,7.424318806080864e-13,3.8602462081367406e-13
0.0,11,11.0,0.0,30.0,0.0,0.0,0.0,0.0,-13.0,0.0,2.0,0.0,0.0,0.0,6.031519276252243e-11,5.490578957669102e-11,4.9219380784860576e-11,4.3451498536207025e-11,3.764093694499614e-11,3.205861234783278e-11,2.6773004064627732e-11,2.173562360146878e-11,1.706828167457911e-11,1.298095662556034e-11,9.524805966930854e-12,6.725695816668021e-12,4.607569540197265e-12,3.076311620945431e-12,2.023832769325377e-12,1.3315666930321575e-12,8.896146960597702e-13,6.045668801006527e-13,4.1676864264805934e-13,2.8860721150124527e-13,1.9976005803101415e-13,1.3758415402261608e-13,9.429455935624817e-14,6.362620028266473e-14,4.258926026828057e-14,2.7604651693758415e-14,3.2716539815326973e-09,1.497407426762937e-09,7.874776428020113e-10,4.678539129720953e-10,3.029208916919707e-10,2.0655647052863257e-10,1.4486868479456372e-10,1.0222449875666544e-10,7.211658835166529e-11,5.0262455641703123e-11,3.4255591156955764e-11,2.286407730261008e-11,1.4713432549958857e-11,9.0449412996587e-12,5.291214085793969e-12,2.9362063585709854e-12,1.5541719968759407e-12,8.016622819282269e-13,4.081008670374397e-13
0.0,12,12.0,0.0,30.0,0.0,0.0,0.0,0.0,-13.0,0.0,2.0,0.0,0.0,0.0,6.1536283028867e-11,5.604179255473788e-11,5.026699549175623e-11,4.4410203669066834e-11,3.851441962829026e-11,3.285631298940079e-11,2.750581257342472e-11,2.24105552347906e-11,1.768656783682645e-11,1.3535411591515597e-11,9.99931427270096e-12,7.103188110819123e-12,4.8809696786444715e-12,3.251237756715643e-12,2.1179756520222564e-12,1.3689956987298652e-12,8.936479667474176e-13,5.930447163992397e-13,4.006717681613494e-13,2.7360565740646504e-13,1.8768863499981967e-13,1.2860038534555586e-13,8.790711876286735e-14,5.931962271522086e-14,3.9702491929860985e-14,2.5696043422630403e-14,3.2441817762744024e-09,1.4868695345960089e-09,7.871736802676147e-10,4.713243067295875e-10,3.0683642276802294e-10,2.0978441399514641e-10,1.4725381726418922e-10,1.0387721901498985e-10,7.320790327001161e-11,5.097197559933425e-11,3.4751638918258773e-11,2.328207471778336e-11,1.510822468144895e-11,9.4062167757874e-12,5.585461062260784e-12,3.143139856575262e-12,1.6790962402972587e-12,8.658101446293279e-13,4.3546159917927205e-13
0.0,13,13.0,0.0,30.0,0.0,0.0,0.0,0.0,-13.0,0.0,2.0,0.0,0.0,0.0,6.272589535059877e-11,5.714045377310753e-11,5.1270898663079704e-11,4.531816751444406e-11,3.932949060443064e-11,3.3587871060677403e-11,2.8165802084960585e-11,2.3009118920809145e-11,1.823118485915e-11,1.402703262112149e-11,1.0429018827602618e-11,7.45696105051962e-12,5.149167159379114e-12,3.433424686682231e-12,2.224991683731938e-12,1.4195609662391892e-12,9.083092652078649e-13,5.889244013557345e-13,3.893025880836259e-13,2.614894128461792e-13,1.773960590378154e-13,1.2074415086189268e-13,8.222503581263781e-14,5.5462510786073374e-14,3.708740428295316e-14,2.397056330895545e-14,3.216520586913753e-09,1.4768449517210224e-09,7.874202448190134e-10,4.751838954286163e-10,3.110015933523552e-10,2.1317735338659346e-10,1.4975658802361996e-10,1.0561965585901186e-10,7.436435590548686e-11,5.1711079647377795e-11,3.5228874028787236e-11,2.3638763511193898e-11,1.542417290292412e-11,9.698885883278624e-12,5.835935834276235e-12,3.330345723558295e-12,1.7996172705238196e-12,9.32111704467542e-13,4.666744152675131e-13
0.0,14,14.0,0.0,30.0,0.0,0.0,0.0,0.0,-13.0,0.0,2.0,0.0,0.0,0.0,6.390316423958347e-11,5.82212784390017e-11,5.2251040068229844e-11,4.6195868724553444e-11,4.0107167559759024e-11,3.4274558245102976e-11,2.8773635713016307e-11,2.3549665954247577e-11,1.8715879264509474e-11,1.4463234185151953e-11,1.0814769629909098e-11,7.782908902859633e-12,5.40578607201185e-12,3.61660380411761e-12,2.3400913674437616e-12,1.480266826671647e-12,9.320187561374214e-13,5.914841709914196e-13,3.8233627258537693e-13,2.5207238007275005e-13,1.6874866733269506e-13,1.139134110548569e-13,7.718032949743166e-14,5.200488458048367e-14,3.471841497728635e-14,2.2414724089738877e-14,3.1887293018726908e-09,1.4673815688180647e-09,7.882372538657551e-10,4.794372461985459e-10,3.1541598452713635e-10,2.1673374631656596e-10,1.5237425577635635e-10,1.0744819845410236e-10,7.558628447315777e-11,5.249156581016818e-11,3.571260558160735e-11,2.3964886067386434e-11,1.5686070296888802e-11,9.935956520530906e-12,6.045604434190993e-12,3.4956821718295823e-12,1.912550061545291e-12,9.98215897261477e-13,5.003250449328375e-13
0.0,15,15.0,0.0,30.0,0.0,0.0,0.0,0.0,-13.0,0.0,2.0,0.0,0.0,0.0,6.508193243978248e-11,5.92984665598841e-11,5.322205443261158e-11,4.705847817302524e-11,4.0863252185613266e-11,3.4932765093328393e-11,2.9345900635597995e-11,2.4047953691761596e-11,1.9153842812956283e-11,1.4852867683059933e-11,1.1160138137393324e-11,8.079891317539334e-12,5.646832353910436e-12,3.795990598822882e-12,2.4591754192769746e-12,1.5483082979279733e-12,9.63173070440031e-13,5.99947906089454e-13,3.7942736378007277e-13,2.451828133601918e-13,1.6163532170482514e-13,1.0802422635182224e-13,7.271650898815864e-14,4.890442681790098e-14,3.257333726889586e-14,2.1015241659880753e-14,3.160873268586383e-09,1.4585296941329488e-09,7.896452792252944e-10,4.840895249593788e-10,3.200797704778301e-10,2.2045250103420577e-10,1.5510484236975853e-10,1.0935967919656248e-10,7.687137891701019e-11,5.33173013085569e-11,3.621692571856123e-11,2.4281786890937067e-11,1.591444847591927e-11,1.0130663851310892e-11,6.2195078482631065e-12,3.638955170357948e-12,2.0158670412678007e-12,1.0622483391467194e-12,5.351157715319758e-13
0.0,16,16.0,0.0,30.0,0.0,0.0,0.0,0.0,-13.0,0.0,2.0,0.0,0.0,0.0,6.627206424414045e-11,6.038218943903366e-11,5.419449528818605e-11,4.791703141174795e-11,4.1609380458902184e-11,3.55747970526343e-11,2.989545582940344e-11,2.451685930651252e-11,1.9556788754354205e-11,1.520493855972377e-11,1.1470188226578949e-11,8.348869870447414e-12,5.870261982385344e-12,3.968173047627503e-12,2.578886060606573e-12,1.6211612247402944e-12,1.0002105702525873e-12,6.135076665970031e-13,3.8020588717311624e-13,2.4065154482516917e-13,1.5595921939819767e-13,1.0300694460490949e-13,6.878659417981978e-14,4.612575147663822e-14,3.0632667435299844e-14,1.9758628585204605e-14,3.133024499453829e-09,1.4503420032416658e-09,7.916655010749057e-10,4.891464931592638e-10,3.2499384206793393e-10,2.24333073787093e-10,1.5794697208620097e-10,1.1135165923078363e-10,7.82167857362619e-11,5.4188246381967306e-11,3.674866996423666e-11,2.4603258675587646e-11,1.612519456883598e-11,1.0295181855748947e-11,6.363705336465722e-12,3.761388407907635e-12,2.108538917820322e-12,1.122817845988171e-12,5.699302506240643e-13
0.0,17,17.0,0.0,30.0,0.0,0.0,0.0,0.0,-13.0,0.0,2.0,0.0,0.0,0.0,6.74805274234755e-11,6.147965284699709e-11,5.5175875756746875e-11,4.8779440207564766e-11,4.235397933585739e-11,3.620970567096109e-11,3.0432006457207714e-11,2.496652692962748e-11,1.9934578494989818e-11,1.5527825215889905e-11,1.1750568668572743e-11,8.592164815066867e-12,6.075538647083899e-12,4.1309388630972025e-12,2.6965973523618665e-12,1.696634305655267e-12,1.0416634038434113e-12,6.313497639453648e-13,3.842810800308552e-13,2.3830504767196705e-13,1.516312715944637e-13,9.880257722949133e-14,6.535128442875285e-14,4.363955380211482e-14,2.887917565475151e-14,1.8631113302029114e-14,3.1052618297782364e-09,1.442873439448935e-09,7.943196519068721e-10,4.946144898430503e-10,3.3015984839874013e-10,2.2837555724563643e-10,1.6089980698973625e-10,1.1342237906764654e-10,7.961993824443167e-11,5.5102747102739566e-11,3.731034177145054e-11,2.4937503809720115e-11,1.6329875829000625e-11,1.043992919063816e-11,6.484477624573222e-12,3.865139521707663e-12,2.1903449671051263e-12,1.1789850552341148e-12,6.03866312123245e-13
0.0,18,18.0,0.0,30.0,0.0,0.0,0.0,0.0,-13.0,0.0,2.0,0.0,0.0,0.0,6.871224488339297e-11,6.259594366337592e-11,5.617150765630097e-11,4.96513214632503e-11,4.310307599665983e-11,3.6844043951731356e-11,3.0962725235110106e-11,2.5404723572046395e-11,2.0295192789101318e-11,1.5828873543193873e-11,1.2006893945280816e-11,8.812857497421964e-12,6.263221352010133e-12,4.283075011731158e-12,2.8103649617126167e-12,1.7728902863313445e-12,1.0861944639676195e-12,6.526794503197632e-13,3.912494429358306e-13,2.37962546898369e-13,1.4856526477407557e-13,9.535955825396714e-14,6.237728029173093e-14,4.142169490749408e-14,2.729766246752812e-14,1.761888392084032e-14,3.077671032434048e-09,1.4361810721234323e-09,7.976299460750736e-10,5.005004120997919e-10,3.355801941013466e-10,2.3258072580096055e-10,1.639630370586497e-10,1.1557065539525867e-10,8.107880023869171e-11,5.6058726375045983e-11,3.7902090071033855e-11,2.5288866553010163e-11,1.6536417345057156e-11,1.0573316352163585e-11,6.5877782742080766e-12,3.952890162509395e-12,2.261679617988374e-12,1.2302088142561341e-12,6.362424772428581e-13
0.0,19,19.0,0.0,30.0,0.0,0.0,0.0,0.0,-13.0,0.0,2.0,0.0,0.0,0.0,6.997073939945035e-11,6.373467858444824e-11,5.718515282361214e-11,5.053665019014302e-11,4.3860949747035415e-11,3.7482502526732826e-11,3.149282835082886e-11,2.5837264179919792e-11,2.0644894780878435e-11,1.6114250988299073e-11,1.2244361573831823e-11,9.01433965448343e-12,6.434604979227192e-12,4.424162683612642e-12,2.9188513094976266e-12,1.8484440343330244e-12,1.1326202801213246e-12,6.767416261013045e-13,4.007045091563074e-13,2.3943611987623424e-13,1.4667475542407284e-13,9.26310342934676e-14,5.983578254386255e-14,3.945228146711005e-14,2.587477521602214e-14,1.670854692332484e-14,3.050344892035103e-09,1.4303239215168445e-09,8.016189970871505e-10,5.068116968899365e-10,3.412580180924208e-10,2.369500406048703e-10,1.6713688329837252e-10,1.1779580131743345e-10,8.259187702014602e-11,5.7054234925284577e-11,3.8522948889702887e-11,2.5659203889714866e-11,1.674988935918222e-11,1.0701787708297533e-11,6.678899587190412e-12,4.027520852234675e-12,2.3233718840040293e-12,1.276281797601738e-12,6.665855548043421e-13
0.0,20,20.0,0.0,30.0,0.0,0.0,0.0,0.0,-13.0,0.0,2.0,0.0,0.0,0.0,7.125860514584514e-11,6.489848443384294e-11,5.821951200675322e-11,5.1438257010538036e-11,4.463063811595989e-11,3.812841933706446e-11,3.202606641685469e-11,2.626842686484863e-11,2.098848061138282e-11,1.638896481803124e-11,1.2467549548613148e-11,9.199996024061195e-12,6.591424278205005e-12,4.554383180300054e-12,3.0212380439823724e-12,1.922144283312609e-12,1.1799221085969924e-12,7.028365982402995e-13,4.1224654473502217e-13,2.4253273166501666e-13,1.458714638626513e-13,9.05727595847111e-14,5.770119607390743e-14,3.771479252413955e-14,2.459882394252987e-14,1.5887649627847638e-14,3.0233832402033577e-09,1.425362757774344e-09,8.063097282752157e-10,5.135563051535719e-10,3.4719716750460936e-10,2.4148562829661274e-10,1.7042209286571382e-10,1.2009757520089467e-10,8.415815541592363e-11,5.808766174549209e-11,3.9171558245405437e-11,2.6048887370165008e-11,1.697325771150082e-11,1.0830035635979044e-11,6.762309043767452e-12,4.091870356899598e-12,2.376527052354207e-12,1.3172632967896501e-12,6.94606523621847e-13
0.0,21,21.0,0.0,30.0,0.0,0.0,0.0,0.0,-13.0,0.0,2.0,0.0,0.0,0.0,7.257784191180714e-11,6.60893428721951e-11,5.927658079097995e-11,5.2358196081273144e-11,4.541431786263908e-11,3.87841731001219e-11,3.2565120842676223e-11,2.6701319461682226e-11,2.1329552003953182e-11,1.6656972714023708e-11,1.268034149304565e-11,9.372999012591673e-12,6.735622872911492e-12,4.674344341640043e-12,3.1171345897863946e-12,1.9931445652480228e-12,1.2272477480884597e-12,7.303309071475339e-13,4.2549112245821547e-13,2.470573076949757e-13,1.4606483970731382e-13,8.914159740551158e-14,5.595005815579099e-14,3.6195290381279544e-14,2.3459574982132682e-14,1.5145131786489703e-14,2.9968929521789018e-09,1.421359880365385e-09,8.117252833464856e-10,5.207427095451265e-10,3.534021729755373e-10,2.4619024660134196e-10,1.7381992115957658e-10,1.2247614628305431e-10,8.577703602979092e-11,5.915778048380101e-11,3.98465484006192e-11,2.6457488169823274e-11,1.720802417861238e-11,1.0961294175439327e-11,6.841610573763003e-12,4.148572005034901e-12,2.422395096958968e-12,1.3534144463049767e-12,7.201707246474886e-13
0.0,22,22.0,0.0,30.0,0.0,0.0,0.0,0.0,-13.0,0.0,2.0,0.0,0.0,0.0,7.39300851880023e-11,6.730883071252952e-11,6.035790144289329e-11,5.329800979090124e-11,4.621358409692501e-11,3.945147804951507e-11,3.3111911407145303e-11,2.7138183202889714e-11,2.1670773536699892e-11,1.6921335465188434e-11,1.2885935447112889e-11,9.536191616473844e-12,6.8691829801855085e-12,4.784932661088815e-12,3.2064890295327783e-12,2.060867669162321e-12,1.2739064147728313e-12,7.586637415648504e-13,4.400760668278374e-13,2.528161650466691e-13,1.4716245380818992e-13,8.829457306476797e-14,5.4560196921791774e-14,3.488173688403842e-14,2.2448025727454802e-14,1.4471619936165065e-14,2.9709879035045455e-09,1.4183788827238456e-09,8.178889427291315e-10,5.283798877200748e-10,3.598782277358166e-10,2.510672458954423e-10,1.7733210354557e-10,1.249320666054804e-10,8.744827638353614e-11,6.026372709232935e-11,4.0546720668466785e-11,2.6884217048176194e-11,1.7454732413589973e-11,1.1097649109850463e-11,6.919589023001953e-12,4.199955209443575e-12,2.4622668560876102e-12,1.3851391774685586e-12,7.432668107774656e-13
0.0,23,23.0,0.0,30.0,0.0,0.0,0.0,0.0,-13.0,0.0,2.0,0.0,0.0,0.0,7.531676023337739e-11,6.855828289731317e-11,6.146473634252937e-11,5.425891427616042e-11,4.702964966239065e-11,4.0131599026430443e-11,3.366782754493222e-11,2.7580633202044284e-11,2.2014096493339916e-11,1.7184379302866423e-11,1.3086901983544911e-11,9.69203564836135e-12,6.994008049064324e-12,4.8871928584022926e-12,3.2895056034751122e-12,2.1249669879856312e-12,1.3193586613275036e-12,7.873496537215039e-13,4.556666373713307e-13,2.5962034089699263e-13,1.4907090381130397e-13,8.79883892342984e-14,5.351011148298216e-14,3.376342320258028e-14,2.155617594362363e-14,1.385953300397196e-14,2.945788884284156e-09,1.416484405894342e-09,8.248240505699336e-10,5.364773231886586e-10,3.666311713692657e-10,2.561205319948299e-10,1.8096082156405546e-10,1.274662438536832e-10,8.917194650431065e-11,6.140495556955356e-11,4.127111391112379e-11,2.732818848409257e-11,1.7713343939144582e-11,1.1240326243460461e-11,6.9983033727681024e-12,4.247998740283242e-12,2.4973966939226826e-12,1.4129327546715297e-12,7.639773593174776e-13
0.0,24,24.0,0.0,30.0,0.0,0.0,0.0,0.0,-13.0,0.0,2.0,0.0,0.0,0.0,7.673918249882203e-11,6.983890010695955e-11,6.259818431593129e-11,5.5241926189702036e-11,4.7863484167557626e-11,4.0825504749718456e-11,3.423389771288699e-11,2.8029842376236912e-11,2.236094324650686e-11,1.7447848843759322e-11,1.3285266729677353e-11,9.84260515136638e-12,7.111848937655883e-12,4.982234227351031e-12,3.366571520770525e-12,2.185287325658759e-12,1.3632029661333692e-12,8.159783084812888e-13,4.719590356634259e-13,2.672885403376726e-13,1.5169697858681293e-13,8.81793001139066e-14,5.277855318205927e-14,3.283051151067158e-14,2.0776813058456897e-14,1.330301265887929e-14,2.921423467748215e-09,1.4157418845481738e-09,8.325539562587183e-10,5.450450154359588e-10,3.7366747854764523e-10,2.6135453277819393e-10,1.8470866801004066e-10,1.300799135770113e-10,9.094839375969472e-11,6.258119215050937e-11,4.201901217915908e-11,2.7788566382086436e-11,1.7983502755249605e-11,1.1389938440105883e-11,7.079202511254532e-12,4.294322405264699e-12,2.5289488936435227e-12,1.4373387076375889e-12,7.824527697707762e-13
0.0,25,25.0,0.0,30.0,0.0,0.0,0.0,0.0,-13.0,0.0,2.0,0.0,0.0,0.0,7.819862137659209e-11,7.115181796031625e-11,6.3759256665559e-11,5.6247947182051167e-11,4.871590867062545e-11,4.15339745936343e-11,3.481091051864812e-11,2.8486678136578387e-11,2.271235306392039e-11,1.771304102945754e-11,1.3482600419067297e-11,9.989608598331781e-12,7.2242640318861135e-12,5.071161433961474e-12,3.4381944909911736e-12,2.241827086369257e-12,1.4051603055141451e-12,8.442119416739173e-13,4.886824302700719e-13,2.7564956450754204e-13,1.5494889210572908e-13,8.88232420398274e-14,5.234427938094186e-14,3.207368064210091e-14,2.0103325174921486e-14,1.2797719976878318e-14,2.898025829498268e-09,1.4162172887419261e-09,8.41101973616212e-10,5.54093500502482e-10,3.8099425283522106e-10,2.6677416971140926e-10,1.8857861397624839e-10,1.327746113070993e-10,9.277821366180183e-11,6.379239511517186e-11,4.278992569171028e-11,2.8264634577461714e-11,1.8264711791003874e-11,1.1546684852887892e-11,7.163245224436656e-12,4.340205095630928e-12,2.5579642240031752e-12,1.4589142321312126e-12,7.988891262198345e-13
0.0,26,26.0,0.0,30.0,0.0,0.0,0.0,0.0,-13.0,0.0,2.0,0.0,0.0,0.0,7.969633963613626e-11,7.249815036747784e-11,6.49489255856511e-11,5.727781880574316e-11,4.958765865779322e-11,4.2257671351507737e-11,3.539949947068625e-11,2.895180148636208e-11,2.306909371980239e-11,1.798091660944543e-11,1.3680105955537554e-11,1.0134427314867873e-11,7.332604410125626e-12,5.155026484106308e-12,3.5049513722528236e-12,2.294703218060942e-12,1.445057760695909e-12,8.717811170119223e-13,5.05599733035034e-13,2.845441753330487e-13,1.5873745828619748e-13,8.987612918784091e-14,5.2185947186757916e-14,3.1483864254961965e-14,1.952954959374151e-14,1.2340551162735163e-14,2.8757365137300103e-09,1.4179768650711025e-09,8.504913603488266e-10,5.636338826731766e-10,3.8861922554211257e-10,2.723848345394299e-10,1.925739796756508e-10,1.3555214577593688e-10,9.466222450869081e-11,6.503872155327159e-11,4.3583562522194785e-11,2.8755822479389776e-11,1.855644372548911e-11,1.1710503699598849e-11,7.251012774963435e-12,4.386619108591969e-12,2.585342827496702e-12,1.4782036225151246e-12,8.135100845522963e-13
0.0,27,27.0,0.0,30.0,0.0,0.0,0.0,0.0,-13.0,0.0,2.0,0.0,0.0,0.0,8.123361723883138e-11,7.387901600801306e-11,6.616815420115672e-11,5.83323572988829e-11,5.047942493828438e-11,4.299718973570224e-11,3.6000201036911634e-11,2.9425737271669904e-11,2.3431744625892148e-11,1.8252189415259982e-11,1.3878696664370399e-11,1.0278161074042167e-11,7.438016373470758e-12,5.234798171700181e-12,3.56744757396375e-12,2.344119811986952e-12,1.4828119927104567e-12,8.984792835574012e-13,5.225073600543793e-13,2.938264127096912e-13,1.6297712892483275e-13,9.129423913119817e-14,5.228211405537686e-14,3.1052068510036716e-14,1.9049658712205426e-14,1.192932322071551e-14,2.854702142916267e-09,1.4210868813050094e-09,8.607453199613562e-10,5.73677877408343e-10,3.965507594911738e-10,2.7819237104116185e-10,1.9669840989679182e-10,1.3841457437872046e-10,9.660144481201206e-11,6.63205002958658e-11,4.4399799518754305e-11,2.926170591634327e-11,1.885820544176473e-11,1.1881184156598811e-11,7.342807662536946e-12,4.434272830218471e-12,2.611839656599303e-12,1.4957189727401216e-12,8.265524897018515e-13
0.0,28,28.0,0.0,30.0,0.0,0.0,0.0,0.0,-13.0,0.0,2.0,0.0,0.0,0.0,8.281176545063041e-11,7.529555413958182e-11,6.741791474083013e-11,5.941237506119627e-11,5.139187955216344e-11,4.375308798284115e-11,3.6613493595079585e-11,2.9908922944564664e-11,2.3800757278901255e-11,1.852739564856325e-11,1.4079063149059145e-11,1.0421674757983558e-11,7.541455088561784e-12,5.3113453192251574e-12,3.6262863270784534e-12,2.3903408616321476e-12,1.5184132310648562e-12,9.24156556260832e-13,5.392341917446147e-13,3.033644129499015e-13,1.675868552431984e-13,9.303463051795543e-14,5.2611314381879353e-14,3.0769256097405294e-14,1.8658080528870774e-14,1.1562470682231552e-14,2.8350750679066605e-09,1.4256133791339774e-09,8.718870279655832e-10,5.842378651987631e-10,4.0479785744300975e-10,2.8420306159057934e-10,2.0095585431673577e-10,1.413641816798282e-10,9.859707314550367e-11,6.763820975984505e-11,4.523865607962071e-11,2.9781995730724756e-11,1.916957131204926e-11,1.2058444634218042e-11,7.438735921596554e-12,4.483655960497145e-12,2.6380690109291813e-12,1.5119271976257895e-12,8.382552632085501e-13
0.0,29,29.0,0.0,30.0,0.0,0.0,0.0,0.0,-13.0,0.0,2.0,0.0,0.0,0.0,8.443213516036686e-11,7.674893389758775e-11,6.869919929442202e-11,6.051869358581702e-11,5.2325691774176826e-11,4.452590797491907e-11,3.723982301598081e-11,3.0401741727875405e-11,2.4176498260225898e-11,1.88069462470832e-11,1.4281728260462607e-11,1.0565642298412689e-11,7.643704515893597e-12,5.385430397846262e-12,3.6820466146870854e-12,2.4336673568481763e-12,1.5519102574947014e-12,9.487130722527786e-13,5.556399207854146e-13,3.1304079234097795e-13,1.7249076048082523e-13,9.505555162477057e-14,5.315218503617301e-14,3.0626284100152094e-14,1.8349448069592246e-14,1.1238781417431691e-14,2.817012956233677e-09,1.43162194030326e-09,8.839396838967524e-10,5.953269556551112e-10,4.1337017481750493e-10,2.9042361821575675e-10,2.0535055252982586e-10,1.4440346137184063e-10,1.0065047037373656e-10,6.899245960905351e-11,4.610027188743859e-11,3.031652151750181e-11,1.949019660152805e-11,1.2241984824143402e-11,7.538772804578194e-12,4.535083307124944e-12,2.664515197617702e-12,1.527242349987058e-12,8.488510586808122e-13
0.0,30,30.0,0.0,30.0,0.0,0.0,0.0,0.0,-13.0,0.0,2.0,0.0,0.0,0.0,8.609612190463986e-11,7.824035979193875e-11,7.001302610632642e-11,6.16521510827579e-11,5.328153775698461e-11,4.5316187746031294e-11,3.787961910499485e-11,3.090454471845169e-11,2.45592791977376e-11,1.9091165542085563e-11,1.4487090912879778e-11,1.0710585824894273e-11,7.745400090662654e-12,5.457710550558357e-12,3.735268405594779e-12,2.474418632397652e-12,1.5833967206159844e-12,9.720922138769857e-13,5.716129507194462e-13,3.2275266354857445e-13,1.7761862826087776e-13,9.731681269609022e-14,5.3883617481340216e-14,3.061388428733796e-14,1.8118570776909932e-14,1.0957186589239686e-14,2.8006783176530453e-09,1.439177472129889e-09,8.969265903284332e-10,6.069590608531108e-10,4.222780362795596e-10,2.9686117784041984e-10,2.098870234606009e-10,1.475351017764566e-10,1.0276314430981888e-10,7.03839754382072e-11,4.6984888552678826e-11,3.086521456429044e-11,1.9819818961117992e-11,1.2431518185855281e-11,7.642813186493515e-12,4.588734684826271e-12,2.691546866898105e-12,1.542022212579443e-12,8.585602083805101e-13
0.0,31,31.0,0.0,30.0,0.0,0.0,0.0,0.0,-13.0,0.0,2.0,0.0,0.0,0.0,8.780516914801375e-11,7.977107510599926e-11,7.13604433060677e-11,6.281360693052042e-11,5.426010621889059e-11,4.6124469074398724e-11,3.853330593517315e-11,3.1417665319010394e-11,2.4949377228116235e-11,1.9380319189048434e-11,1.4695460106277168e-11,1.0856909149225188e-11,7.847051718669896e-12,5.5287435483314815e-12,3.78644381467885e-12,2.5129177018909398e-12,1.6129989899299613e-12,9.94273933983049e-13,5.870679842379727e-13,3.324113502877478e-13,1.8290622143295033e-13,9.978010627043303e-14,5.4784918964577986e-14,3.072267573390125e-14,1.7960420925148845e-14,1.0716608984966939e-14,2.786237967614485e-09,1.4483440191601399e-09,9.108712597357393e-10,6.191489767463959e-10,4.3153245573381165e-10,3.035233014068488e-10,2.1457005874785398e-10,1.5076197475199695e-10,1.0493673681944625e-10,7.181358594997997e-11,4.789283468183301e-11,3.142809200224496e-11,2.0158253381522505e-11,1.262679044614038e-11,7.75070877785977e-12,4.644689617985287e-12,2.7194331046734267e-12,1.556568202817709e-12,8.675865405293821e-13
0.0,32,32.0,0.0,30.0,0.0,0.0,0.0,0.0,-13.0,0.0,2.0,0.0,0.0,0.0,8.956077074284506e-11,8.134236423531283e-11,7.274253125993287e-11,6.400394432510274e-11,5.52621017651392e-11,4.695130199755839e-11,3.9201308198729964e-11,3.1941428466456407e-11,2.534704869633888e-11,1.9674633943483112e-11,1.49070807422851e-11,1.1004925498944214e-11,7.949065525983872e-12,5.598996720843784e-12,3.836012888388003e-12,2.549480182715022e-12,1.6408656489818816e-12,1.0152683684176336e-12,6.019434192746138e-13,3.419418603963333e-13,1.882954509318471e-13,1.0240926814375628e-13,5.5835969839042145e-14,3.094320101753811e-14,1.7870129002280454e-14,1.0515866148140133e-14,2.7738624314622755e-09,1.459184608468383e-09,9.257975496734261e-10,6.31912471319886e-10,4.411451592989661e-10,3.104179766050383e-10,2.1940471966721105e-10,1.5408712773754322e-10,1.0717301331443109e-10,7.328221227527384e-11,4.8824513796715396e-11,3.2005242991024207e-11,2.0505384062625728e-11,1.2827588519684288e-11,7.862294484003984e-12,4.702956383431578e-12,2.748359853680589e-12,1.5711277228596727e-12,8.761147108286992e-13
0.0,33,33.0,0.0,30.0,0.0,0.0,0.0,0.0,-13.0,0.0,2.0,0.0,0.0,0.0,9.136447309649422e-11,8.295555457226783e-11,7.416040425528858e-11,6.522407197596854e-11,5.628824686319209e-11,4.779724747094486e-11,3.988405503466657e-11,3.247615641132926e-11,2.5752538146240766e-11,1.9974311391825434e-11,1.5122152808393363e-11,1.1154879883560752e-11,8.051763466851542e-12,5.6688573776158935e-12,3.884362847842097e-12,2.584406346661807e-12,1.6671586382401879e-12,1.0351098744185548e-12,6.161986526600974e-13,3.5128217110389453e-13,1.937344156873928e-13,1.0517047754708314e-13,5.701736808750396e-14,3.126597855620246e-14,1.7842983328346195e-14,1.0353619970743952e-14,2.7637252947010095e-09,1.4717611367557093e-09,9.41729826288102e-10,6.45266378078309e-10,4.511286109007196e-10,3.1755362396647595e-10,2.2439633717253795e-10,1.5751377859821604e-10,1.0947385450476615e-10,7.479085919012929e-11,4.978039458379118e-11,3.2596817121008524e-11,2.0861155303090157e-11,1.3033743182738699e-11,7.977406187530244e-12,4.7634954960204444e-12,2.77844566189808e-12,1.5858982020481405e-12,8.843087508215285e-13
0.0,34,34.0,0.0,30.0,0.0,0.0,0.0,0.0,-13.0,0.0,2.0,0.0,0.0,0.0,9.321787733037802e-11,8.461201827311057e-11,7.561521192662909e-11,6.647492535671935e-11,5.733928310687402e-11,4.8662878958651255e-11,4.058198230869356e-11,3.3022172268406505e-11,2.6166084104362043e-11,2.027953730384478e-11,1.534084535936349e-11,1.1306966722914775e-11,8.155400375068582e-12,5.738643648326182e-12,3.931829787504881e-12,2.6179758045512315e-12,1.6920459885485808e-12,1.0538515917859983e-12,6.298113746993127e-13,3.60382373910341e-13,1.9917733414664132e-13,1.0803239897977256e-13,5.831055544816936e-14,3.1681564877470085e-14,1.787443063016997e-14,1.0228362247547947e-14,2.756002507617143e-09,1.4861343079096322e-09,9.586931556625587e-10,6.592286934418074e-10,4.614960402223004e-10,3.2493910611751047e-10,2.2955051466488692e-10,1.6104531291846696e-10,1.1184125022346986e-10,7.634060803361948e-11,5.076100304612757e-11,3.320301490367209e-11,2.1225562606904937e-11,1.3245127919745278e-11,8.095891996406842e-12,4.826238088175118e-12,2.80975611109938e-12,1.6010322006462334e-12,8.923115852943638e-13
0.0,35,35.0,0.0,30.0,0.0,0.0,0.0,0.0,-13.0,0.0,2.0,0.0,0.0,0.0,9.512264157179444e-11,8.631317408113132e-11,7.710814064532456e-11,6.77574678002056e-11,5.841597215005865e-11,4.954878345124167e-11,4.12955339832009e-11,3.357980216823586e-11,2.6587922730374623e-11,2.0590487882873614e-11,1.5563306520068434e-11,1.14613434608603e-11,8.260178372063646e-12,5.808615012972632e-12,3.978702002795115e-12,2.6504443407328818e-12,1.7156960350150044e-12,1.0715605866341825e-12,6.427749231242244e-13,3.6920372051202754e-13,2.0458438648072818e-13,1.1096627042594025e-13,5.969792216827035e-14,3.2180621733341686e-14,1.7960075635868466e-14,1.0138425485784212e-14,2.750871655895122e-09,1.5023636299627099e-09,9.767135218957003e-10,6.738186766535559e-10,4.722614728731082e-10,3.325837400235954e-10,2.348731331321547e-10,1.6468528340275023e-10,1.1427729510749021e-10,7.793261115189256e-11,5.176691622124861e-11,3.382408009432645e-11,2.1598644618429042e-11,1.3461655633861413e-11,8.217618688689173e-12,4.891099819986816e-12,2.8423165592264214e-12,1.6166430643120621e-12,9.002453104335666e-13
0.0,36,36.0,0.0,30.0,0.0,0.0,0.0,0.0,-13.0,0.0,2.0,0.0,0.0,0.0,9.708048343881292e-11,8.806048928616602e-11,7.864041498383365e-11,6.907269159342533e-11,5.951909652777442e-11,5.045556221029004e-11,4.202516298262148e-11,3.4149376561170315e-11,2.7018290084099636e-11,2.0907333865924758e-11,1.578967051525515e-11,1.161814088514526e-11,8.366258753501812e-12,5.8789820631656866e-12,4.025224290010683e-12,2.6820424449521274e-12,1.7382729672987594e-12,1.0883136056131524e-12,6.55095751144738e-13,3.777176057600728e-13,2.0992148465624197e-13,1.1394594383199657e-13,6.116288937945496e-14,3.2753983983470955e-14,1.8095678856896765e-14,1.008200932735851e-14,2.7485112125563982e-09,1.5205074803674765e-09,9.958180701674779e-10,6.89056950896892e-10,4.834397627681578e-10,3.4049731208828567e-10,2.403703583386804e-10,1.6843741107271688e-10,1.1678418590839146e-10,7.956808770064684e-11,5.279875720110099e-11,3.446029356234725e-11,2.198047613787768e-11,1.3683274355859096e-11,8.342474757915704e-12,4.957991026311509e-12,2.8761230427409814e-12,1.6328107316323335e-12,9.082120555860819e-13
0.0,37,37.0,0.0,30.0,0.0,0.0,0.0,0.0,-13.0,0.0,2.0,0.0,0.0,0.0,9.909318273610651e-11,8.98554818496946e-11,8.02132993022344e-11,7.042161914796457e-11,6.0649460481701e-11,5.1383831413135954e-11,4.277133180360709e-11,3.4731231031553075e-11,2.745742352179978e-11,2.1230243167239714e-11,1.6020062525125537e-11,1.1777470816693567e-11,8.4737715956493e-12,5.949915240995582e-12,4.071602716827466e-12,2.7129751358867765e-12,1.7599335531618813e-12,1.1041934419872902e-12,6.667910516406469e-13,3.859045186739445e-13,2.1515998561014409e-13,1.169478841069961e-13,6.268996948522381e-14,3.339272506687488e-14,1.8277152534380203e-14,1.0057214690355756e-14,2.7490997904959755e-09,1.540623248116837e-09,1.0160353723493979e-09,7.049656044778901e-10,4.950466268452885e-10,3.4869009599765884e-10,2.4604864977981484e-10,1.7230558798822478e-10,1.19364220213091e-10,8.124832064167015e-11,5.3857191244056915e-11,3.511196844096538e-11,2.237116226074995e-11,1.3909962677194018e-11,8.470371156662997e-12,5.026823800412253e-12,2.911151337879439e-12,1.6495873983815413e-12,9.162952765099172e-13
0.0,38,38.0,0.0,30.0,0.0,0.0,0.0,0.0,-13.0,0.0,2.0,0.0,0.0,0.0,1.0116258435951803e-10,9.169972269962374e-11,8.182809947173124e-11,7.180530427692984e-11,6.180789084683087e-11,5.2334222792193564e-11,4.353451301736374e-11,3.532570684744134e-11,2.790556256425228e-11,2.155938255930128e-11,1.62546019841053e-11,1.1939431746699205e-11,8.582823378873234e-12,6.0215524505611065e-12,4.118009496082304e-12,2.7434227254398117e-12,1.780824865239673e-12,1.1192858938930956e-12,6.77886567921102e-13,3.9375298797994815e-13,2.202763609539539e-13,1.1995113281179086e-13,6.426480587744199e-14,3.4088217670769156e-14,1.8500555241404076e-14,1.0062079718711151e-14,2.7528154189647395e-09,1.5627675604176289e-09,1.0373957120345532e-09,7.215682911588836e-10,5.070986823736721e-10,3.571728732200528e-10,2.519147711522106e-10,1.7629388126076908e-10,1.220197963720602e-10,8.29746547737263e-11,5.494292280707861e-11,3.577944632335812e-11,2.277083357345719e-11,1.4141725343420466e-11,8.601240567785916e-12,5.097516660062987e-12,2.9473642827298167e-12,1.6670028298967724e-12,9.24561349065173e-13
0.0,39,39.0,0.0,30.0,0.0,0.0,0.0,0.0,-13.0,0.0,2.0,0.0,0.0,0.0,1.032906013994908e-10,9.359483818837282e-11,8.34861647341291e-11,7.322483358581817e-11,6.299523802184022e-11,5.330738431520711e-11,4.431518974645986e-11,3.5933151383080055e-11,2.8362949459753782e-11,2.1894918735537143e-11,1.6493404788389787e-11,1.2104112906472292e-11,8.693502939194871e-12,6.094005539452851e-12,4.164587707567523e-12,2.7735422299988616e-12,1.8010828435467754e-12,1.1336772792626672e-12,6.884146110063951e-13,4.0125854442139587e-13,2.2525183501084668e-13,1.2293724233599503e-13,6.587419385635392e-14,3.483218788951057e-14,1.8762085889532618e-14,1.0094613533913202e-14,2.7598348713668423e-09,1.586996600313432e-09,1.059931385223732e-09,7.388903290320308e-10,5.196134872173306e-10,3.65956956082349e-10,2.579758021265599e-10,1.8040653816883584e-10,1.2475341445534595e-10,8.474849564597579e-11,5.6056693353481265e-11,3.646309430977585e-11,2.3179642286015334e-11,1.4378589246011336e-11,8.735035810037697e-12,5.169997363646939e-12,2.984717525344732e-12,1.685069186374428e-12,9.330613509733771e-13
0.0,40,40.0,0.0,30.0,0.0,0.0,0.0,0.0,-13.0,0.0,2.0,0.0,0.0,0.0,1.0547921843234869e-10,9.554251270542732e-11,8.51888896904434e-11,7.468132797378869e-11,6.421237702751274e-11,5.4303980925079635e-11,4.5113856158280186e-11,3.6553918493951716e-11,2.8829829583283508e-11,2.22370189891264e-11,1.6736584755582535e-11,1.2271597164062773e-11,8.805886045608913e-12,6.167365713146795e-12,4.211455702480495e-12,2.8034691903030363e-12,1.820831535690266e-12,1.1474524608676808e-12,6.98412294158885e-13,4.084227181444896e-13,2.3007200155873426e-13,1.2589018586650034e-13,6.750608491119616e-14,3.5616761752731385e-14,1.9058077941205246e-14,1.0152825427902091e-14,2.7703330754720836e-09,1.6133665198139404e-09,1.0836770123739784e-09,7.569587976967916e-10,5.326095835013977e-10,3.750542133477599e-10,2.642391512470505e-10,1.846479922235384e-10,1.2756767808180736e-10,8.657130921328129e-11,5.719927981216603e-11,3.7163302745381036e-11,2.3597759166274425e-11,1.4620599920252255e-11,8.871727806574178e-12,5.244204355924765e-12,3.023163896023787e-12,1.7037852853017143e-12,9.41832936548099e-13
0.0,41,41.0,0.0,30.0,0.0,0.0,0.0,0.0,-13.0,0.0,2.0,0.0,0.0,0.0,1.0773049499038932e-10,9.754449143707737e-11,8.693771641109165e-11,7.617594423775119e-11,6.546020864884124e-11,5.5324695342774894e-11,4.593101799348394e-11,3.7188368887909684e-11,2.9306451758067585e-11,2.2585851663604627e-11,1.6984254584163442e-11,1.2441963059498911e-11,8.92003887252015e-12,6.2417079833202314e-12,4.258711094754914e-12,2.8333197126110814e-12,1.8401828708074443e-12,1.160693328143219e-12,7.079199874833064e-13,4.152520857786841e-13,2.347264283830085e-13,1.2879624791786947e-13,6.914957660493915e-14,3.643450349546024e-14,1.9384994539634617e-14,1.023474843684453e-14,2.7844826402870983e-09,1.64193395071295e-09,1.1086698571597065e-09,7.758026339427519e-10,5.461065451779962e-10,3.8447709821780386e-10,2.707125698214306e-10,1.890228700683538e-10,1.3046529699155767e-10,8.844462210652602e-11,5.83714935806121e-11,3.7880483518175634e-11,2.4025371142881014e-11,1.486781857495425e-11,9.011303407039663e-12,5.320087235800038e-12,3.0626566126156307e-12,1.723140271619763e-12,9.509022256340135e-13
0.0,42,42.0,0.0,30.0,0.0,0.0,0.0,0.0,-13.0,0.0,2.0,0.0,0.0,0.0,1.1004656920504803e-10,9.960258326937052e-11,8.873413666171431e-11,7.770987677119182e-11,6.673966065305288e-11,5.6370228929324446e-11,4.6767193134423434e-11,3.783687051364974e-11,2.979306854974696e-11,2.2941586475735334e-11,1.7236526487700388e-11,1.2615286219767696e-11,9.036020601217017e-12,6.3170947691744986e-12,4.30643429533365e-12,2.8631925889944826e-12,1.859236839935769e-12,1.1734776792256805e-12,7.169799888667646e-13,4.2175737840866627e-13,2.3920825759751604e-13,1.3164389967487658e-13,7.079489026225212e-14,3.727844535016979e-14,1.9739425090864974e-14,1.0338457177957735e-14,2.802453536034513e-09,1.6727566123964342e-09,1.134950147185362e-09,7.95452726622476e-10,5.601250299950242e-10,3.942386786752974e-10,2.7740416670806715e-10,1.9353599912816836e-10,1.3344909025398895e-10,9.037002240637024e-11,5.957417997815945e-11,3.861506881075555e-11,2.4462679456244244e-11,1.5120319631405646e-11,9.153763250550781e-12,5.39760655757497e-12,3.1031515230104673e-12,1.7431167009650426e-12,9.602856434853027e-13
0.0,43,43.0,0.0,30.0,0.0,0.0,0.0,0.0,-13.0,0.0,2.0,0.0,0.0,0.0,1.1242966162108316e-10,1.0171866383412824e-10,9.057969424101652e-11,7.928435935072127e-11,6.805168907521963e-11,5.744130259995687e-11,4.762291221153968e-11,3.84997989747233e-11,3.028993656037698e-11,2.3304394773214603e-11,1.7493512624498787e-11,1.2791640336048305e-11,9.15388534715489e-12,6.393578775120622e-12,4.354691582400022e-12,2.8931713930994104e-12,1.8780819733064413e-12,1.1858784463027849e-12,7.256354023188569e-13,4.2795265849314704e-13,2.435138086362155e-13,1.3442366291609567e-13,7.243333853294309e-14,3.814210896838698e-14,2.0118083616475485e-14,1.0462080447494563e-14,2.824412964559472e-09,1.7058940126421225e-09,1.16256139209476e-09,8.159420119017255e-10,5.746868363296275e-10,4.043526700798973e-10,2.843224239516032e-10,1.9819241594949296e-10,1.365219900231117e-10,9.234916082482932e-11,6.080821806910899e-11,3.936751021930246e-11,2.4909898252501884e-11,1.5378188723212938e-11,9.299119781645937e-12,5.4767332060144234e-12,3.1446085743710453e-12,1.763693066059314e-12,9.699916628336742e-13
0.0,44,44.0,0.0,30.0,0.0,0.0,0.0,0.0,-13.0,0.0,2.0,0.0,0.0,0.0,1.148820791834033e-10,1.0389467870156027e-10,9.247598742926748e-11,8.090066700486817e-11,6.939727956383306e-11,5.85386577827977e-11,4.849871924266024e-11,3.917753797008056e-11,3.079731673530792e-11,2.367444976436374e-11,1.7755325403878677e-11,1.2971097838542636e-11,9.273683574279314e-12,6.471205263498277e-12,4.403537725538513e-12,2.923326479578176e-12,1.896796022747299e-12,1.1979632092482249e-12,7.339292108379668e-13,4.338545709487581e-13,2.476421898269626e-13,1.3712796585318033e-13,7.40572847319422e-14,3.901951883461871e-14,2.0517808977051797e-14,1.060380942069177e-14,2.850525456597798e-09,1.741408233840024e-09,1.1915506951084068e-09,8.373055705621728e-10,5.898149652573713e-10,4.1483346992723137e-10,2.914762132663817e-10,2.0299737519523932e-10,1.3968704576781604e-10,9.43837522148252e-11,6.207452078737461e-11,4.013827816912465e-11,2.5367253531724884e-11,1.5641521097502673e-11,9.4473954782102e-12,5.557447525216414e-12,3.1869926783002966e-12,1.7848458126640807e-12,9.80022412724988e-13
0.0,45,45.0,0.0,30.0,0.0,0.0,0.0,0.0,-13.0,0.0,2.0,0.0,0.0,0.0,1.174062194016106e-10,1.0613264672620621e-10,9.442467154782979e-11,8.256011796110576e-11,7.077744877993194e-11,5.966305741526733e-11,4.939517229922048e-11,3.9870479758510274e-11,3.13154746876166e-11,2.4051926740374994e-11,1.8022077722094473e-11,1.3153730367240056e-11,9.395463125522717e-12,6.550013830977222e-12,4.453018197386123e-12,2.9537168409511997e-12,1.9154467741560484e-12,1.2097939459888824e-12,7.419035281658804e-13,4.394816711073204e-13,2.5159492351740866e-13,1.3975099383162103e-13,7.566009566619975e-14,3.990520822575122e-14,2.0935566871527972e-14,1.0761902428086016e-14,2.8809532292932356e-09,1.7793647934443836e-09,1.2219690550305487e-09,8.595807294599689e-10,6.055336880920961e-10,4.2569619469260706e-10,2.988748134151294e-10,2.0795635927333087e-10,1.4294742891722568e-10,9.647557734301102e-11,6.337403530589531e-11,4.092786156897532e-11,2.5834982376760396e-11,1.5910420355815146e-11,9.598621314347996e-12,5.6397383317750295e-12,3.2302741181630114e-12,1.8065509010919205e-12,9.903751306101757e-13
0.0,46,46.0,0.0,30.0,0.0,0.0,0.0,0.0,-13.0,0.0,2.0,0.0,0.0,0.0,1.20004574700469e-10,1.0843466355544338e-10,9.642746163116033e-11,8.426407566827245e-11,7.219324584466255e-11,6.081528697253536e-11,5.03128441936872e-11,4.05790256428477e-11,3.184468104010156e-11,2.443700330018887e-11,1.8293883161256164e-11,1.3339609108559618e-11,9.519269970801675e-12,6.630039784559749e-12,4.503171014882255e-12,2.984391795552037e-12,1.9340929303157485e-12,1.221426972585594e-12,7.495990120676112e-13,4.4485383008589526e-13,2.5537558882516994e-13,1.422885374888507e-13,7.723608946556863e-14,4.079421840188357e-14,2.1368453360969083e-14,1.093468726892038e-14,2.9158568317966396e-09,1.8198335641002611e-09,1.2538716572144605e-09,8.828071695635349e-10,6.218686194609365e-10,4.369567187053117e-10,3.065279285772914e-10,2.1307508858871037e-10,1.46306437871089e-10,9.862648487529232e-11,6.470774360462435e-11,4.173676765696432e-11,2.631333240254715e-11,1.6184997476125266e-11,9.752835457802286e-12,5.7236019032117225e-12,3.2744286213874347e-12,1.828784973550455e-12,1.0010434444923438e-12
0.0,47,47.0,0.0,30.0,0.0,0.0,0.0,0.0,-13.0,0.0,2.0,0.0,0.0,0.0,1.2267973696719206e-10,1.1080290531146337e-10,9.848613521311097e-11,8.601395089240251e-11,7.364575383137226e-11,6.199615552379327e-11,5.125232318326033e-11,4.1303586469508844e-11,3.23852117825149e-11,2.4829859581730572e-11,1.8570856171226497e-11,1.3528805046482103e-11,9.645148750511742e-12,6.7113151994673185e-12,4.554028255665385e-12,3.015392495182538e-12,1.952785017868881e-12,1.2329130311459144e-12,7.570544209337144e-13,4.499917162870081e-13,2.589894852327696e-13,1.4473784064819737e-13,7.878047974968171e-14,4.1682091798500054e-14,2.181369955513382e-14,1.1120561914222058e-14,2.9553960985075817e-09,1.862889736144619e-09,1.287318153822819e-09,9.070270431544529e-10,6.388467957927196e-10,4.486317150437882e-10,3.1444570784343995e-10,2.1835953241293903e-10,1.4976750333285466e-10,1.008383935374256e-10,6.607666320050468e-11,4.256552199962042e-11,2.6802561377269848e-11,1.6465370063288644e-11,9.910082187353107e-12,5.809041001961846e-12,3.3194371972315455e-12,1.8515261878982702e-12,1.0120184805590424e-12
0.0,48,48.0,0.0,30.0,0.0,0.0,0.0,0.0,-13.0,0.0,2.0,0.0,0.0,0.0,1.2543440230853428e-10,1.1323963245830756e-10,1.006025352291472e-10,8.781120388458133e-11,7.513609129945385e-11,6.32064968134852e-11,5.221421368591391e-11,4.204458313919534e-11,3.293734864074603e-11,2.5230678499616664e-11,1.8853112245601364e-11,1.372138916107827e-11,9.773143173451712e-12,6.793869727840199e-12,4.605617295075978e-12,3.046753251953436e-12,1.9715662839187887e-12,1.2442974890649187e-12,7.643062953971174e-13,4.549163502663046e-13,2.624433194457646e-13,1.4709744993380252e-13,8.028931729166301e-14,4.256486003198626e-14,2.2268677035502083e-14,1.1317994295317676e-14,2.999731418533591e-09,1.9086148034847067e-09,1.32237293587517e-09,9.322851027319207e-10,6.564967589227103e-10,4.6073869850681616e-10,3.2263876600517035e-10,2.2381592036527947e-10,1.5333419392980443e-10,1.0311329442477395e-10,6.748184801117079e-11,4.3414668612887146e-11,2.7302936976427935e-11,1.6751661782227404e-11,1.0070411007937947e-11,5.8960639720095204e-12,3.365285820114287e-12,1.874754775850655e-12,1.0232897986702519e-12
0.0,49,49.0,0.0,30.0,0.0,0.0,0.0,0.0,-13.0,0.0,2.0,0.0,0.0,0.0,1.282713760319564e-10,1.157471938651321e-10,1.0277857303545481e-10,8.965734661991161e-11,7.666541386821324e-11,6.444717036588674e-11,5.3199137005833485e-11,4.2802447125168086e-11,3.350137945450592e-11,2.5639645987602156e-11,1.9140768097205647e-11,1.3917432596009545e-11,9.90329631287812e-12,6.877731214815353e-12,4.657961806835784e-12,3.0785026912774263e-12,1.9904735575069243e-12,1.2556206184291478e-12,7.713887471281487e-13,4.59648729049997e-13,2.657449171892001e-13,1.4936706781800398e-13,8.175943018376833e-14,4.343902753865589e-14,2.273090356661877e-14,1.1525521699654912e-14,3.0490253165678775e-09,1.9570975536436655e-09,1.359105401870736e-09,9.586288438846044e-10,6.748486443861912e-10,4.732960707995085e-10,3.311182058291488e-10,2.294507544949991e-10,1.5701022209133911e-10,1.054532534456012e-10,6.892438933106759e-11,4.4284770179829125e-11,2.7814736639002186e-11,1.7044001935367348e-11,1.0233875937949185e-11,5.984683928234415e-12,3.4119650206718635e-12,1.898453379217469e-12,1.0348461634015632e-12
0.0,50,50.0,0.0,30.0,0.0,0.0,0.0,0.0,-13.0,0.0,2.0,0.0,0.0,0.0,1.3119357786538936e-10,1.183280310752389e-10,1.0501623154503147e-10,9.155394510713571e-11,7.82349158300689e-11,6.571906261248664e-11,5.420773206622646e-11,4.3577620996108654e-11,3.4077598560287224e-11,2.6056951243298084e-11,1.943394183505771e-11,1.4117006808579029e-11,1.0035650832473571e-11,6.962926167558837e-12,4.711082566719581e-12,3.110664742811163e-12,2.0095380592159783e-12,1.2669179295112262e-12,7.783333378816231e-13,4.642095151339515e-13,2.68902960939773e-13,1.5154741055459663e-13,8.318836337160436e-14,4.4301551648612584e-14,2.3198048661128266e-14,1.174175012844034e-14,3.103444325358249e-09,2.0084350444261123e-09,1.3975902299721157e-09,9.86108663882141e-10,6.939342739260921e-10,4.86323168168968e-10,3.398956420047994e-10,2.352708219483543e-10,1.6079945016429653e-10,1.0786041389110743e-10,7.040541690408933e-11,4.517640834477797e-11,2.8338247501619667e-11,1.7342525152657037e-11,1.0400534942767207e-11,6.074918046462685e-12,3.4594694313686676e-12,1.9226072121599694e-12,1.0466761622083544e-12
0.0,51,51.0,0.0,30.0,0.0,0.0,0.0,0.0,-13.0,0.0,2.0,0.0,0.0,0.0,1.342040474291692e-10,1.2098468278751783e-10,1.0731756848005037e-10,9.35026217690279e-11,7.984583180344476e-11,6.702308804246266e-11,5.5240656148322194e-11,4.437055894120578e-11,3.466630717677985e-11,2.6482786972634043e-11,1.9732753142762516e-11,1.4320183710393653e-11,1.0170249164858614e-11,7.049480113349156e-12,4.7649980940966855e-12,3.143259483933675e-12,2.028786148545467e-12,1.2782205369965044e-12,7.851690330873612e-13,4.686187848182712e-13,2.719267539851082e-13,1.536400722066445e-13,8.457431829955223e-14,4.5149819856232116e-14,2.3667938604688838e-14,1.1965353824129889e-14,3.1631611144903858e-09,2.0627335534608346e-09,1.437907662530047e-09,1.0147780370294884e-09,7.137872518126447e-10,4.998403118210261e-10,3.489832269341785e-10,2.412832081978345e-10,1.647058967537453e-10,1.1033699913251633e-10,7.192610008076071e-11,4.6090184067764105e-11,2.8873766392173368e-11,1.764737116861753e-11,1.0570449489938818e-11,6.166786954002372e-12,3.5077973207481775e-12,1.9472040913001497e-12,1.0587686848678806e-12
0.0,52,52.0,0.0,30.0,0.0,0.0,0.0,0.0,-13.0,0.0,2.0,0.0,0.0,0.0,1.373059499714455e-10,1.2371978955281738e-10,1.0968471973932882e-10,9.550505789438963e-11,8.149943842678071e-11,6.83601903771102e-11,5.629858563616887e-11,4.518172729569087e-11,3.526781379033925e-11,2.6917349631861082e-11,2.0037323457256662e-11,1.4527035802994074e-11,1.0307133658384816e-11,7.1374178748435785e-12,4.8197251615809726e-12,3.1763038516177192e-12,2.048240003678049e-12,1.2895555418275095e-12,7.919222156919198e-13,4.728958301949656e-13,2.7482601067301483e-13,1.5564739574602462e-13,8.591609330068331e-14,4.59816249946253e-14,2.4138560607241903e-14,1.2195075057311598e-14,3.228356826092672e-09,2.120109492860775e-09,1.4801438127805627e-09,1.0446937070073197e-09,7.344430647946858e-10,5.138688615300821e-10,3.583936784887242e-10,2.474953108085974e-10,1.6873374328925458e-10,1.1288531545064447e-10,7.348764905044512e-11,4.7026718026532274e-11,2.942159986894118e-11,1.7958684666182946e-11,1.0743684203754507e-11,6.260314215189411e-12,3.556950140074132e-12,1.9722343692599284e-12,1.0711132798969934e-12
0.0,53,53.0,0.0,30.0,0.0,0.0,0.0,0.0,-13.0,0.0,2.0,0.0,0.0,0.0,1.405025823748902e-10,1.2653609868256232e-10,1.1211990287997203e-10,9.756299616334574e-11,8.319705609609563e-11,6.97313437693359e-11,5.738221676764359e-11,4.601160506562805e-11,3.588243453846518e-11,2.736083966543466e-11,2.0347776146402766e-11,1.4737636310400667e-11,1.0446346702845719e-11,7.226763784096415e-12,4.8752791985068725e-12,3.2098122387343677e-12,2.0679182320150543e-12,1.3009464152922281e-12,7.986167474788869e-13,4.770590089741045e-13,2.7761067226290075e-13,1.5757235198342e-13,8.721302526688705e-14,4.679513895738672e-14,2.4608065818363795e-14,1.2429724174632584e-14,3.2992235575140404e-09,2.18069028910504e-09,1.5243910035291432e-09,1.0759158956303366e-09,7.559391858822299e-10,5.28431272898367e-10,3.6814030979353264e-10,2.539148537207341e-10,1.7288734082979941e-10,1.1550775500622634e-10,7.509131614035012e-11,4.798665105639489e-11,2.998206429500317e-11,1.827661517154977e-11,1.09203065997597e-11,6.355525903407632e-12,3.6069320979482834e-12,1.9976908011690802e-12,1.0837004043384096e-12
0.0,54,54.0,0.0,30.0,0.0,0.0,0.0,0.0,-13.0,0.0,2.0,0.0,0.0,0.0,1.43797379438172e-10,1.2943646936092963e-10,1.1462542071342944e-10,9.967824324852909e-11,8.494005074940418e-11,7.11375540292562e-11,5.849226639302237e-11,4.686068445138355e-11,3.6510493589475554e-11,2.7813461738753625e-11,2.0664236683854904e-11,1.4952059309016056e-11,1.0587930841043573e-11,7.317541851594907e-12,4.931674609750529e-12,3.243796990273107e-12,2.087836412599507e-12,1.31241337520549e-12,8.052740666461963e-13,4.811256363732106e-13,2.802907474203266e-13,1.5941842688351256e-13,8.84649330478231e-14,4.758888554092079e-14,2.507477102045473e-14,1.2668179851044542e-14,3.375966926534303e-09,2.2446152372686297e-09,1.5707481463193232e-09,1.1085085268778897e-09,7.783151826779624e-10,5.435511587086932e-10,3.782370610235556e-10,2.605499020387868e-10,1.7717121713383663e-10,1.1820679895958627e-10,7.673839717354289e-11,4.897064462079306e-11,3.055548594079326e-11,1.8601316987894813e-11,1.1100386882623502e-11,6.452450249559235e-12,3.6577497722030835e-12,2.02356836807488e-12,1.0965215833740847e-12
